{"status":true,"message":"","result":[{"server_id":9,"name":"Uncletopia | Atlanta | 1 | All Maps","name_short":"atl-1","host":"atl-1.us.uncletopia.com","port":27015,"enabled":true,"region":"us-east","cc":"us","latitude":33.753746,"longitude":-84.38633,"reserved":0,"last_update":"0001-01-01T00:00:00Z","name_a2s":"Uncletopia | Atlanta | 1 | All Maps","protocol":17,"map":"pl_pier","folder":"tf","game":"Team Fortress","app_id":440,"player_count":24,"max_players":24,"Bots":0,"server_type":"Dedicated","server_os":"Linux","password":true,"vac":true,"version":"7961495","steam_id":85568392924469982,"keywords":["nocrits","nodmgspread","payload","uncletopia"],"game_id":440,"stv_port":27016,"stv_name":"Uncletopia | Atlanta | 1 | All Maps | STV","players":[{"user_id":144,"name":"yateyay","steam_id":76561198311004039,"connected_time":2127000000000,"state":"active","ping":75},{"user_id":78,"name":"LF egirl mommy rp","steam_id":76561198274742715,"connected_time":8336000000000,"state":"active","ping":49},{"user_id":143,"name":"lil hog","steam_id":76561199230929836,"connected_time":2233000000000,"state":"active","ping":86},{"user_id":166,"name":"John Pork","steam_id":76561199077687432,"connected_time":577000000000,"state":"active","ping":60},{"user_id":142,"name":"The Lunar Barista","steam_id":76561198180602091,"connected_time":2352000000000,"state":"active","ping":59},{"user_id":148,"name":"Mr. Kracks, CBT Enjoyer","steam_id":76561198081394903,"connected_time":1930000000000,"state":"active","ping":52},{"user_id":161,"name":"asscastle 2","steam_id":76561198097330521,"connected_time":612000000000,"state":"active","ping":145},{"user_id":160,"name":"Flawless","steam_id":76561198418622751,"connected_time":1017000000000,"state":"active","ping":76},{"user_id":147,"name":"Waffle Wannabe","steam_id":76561198064510650,"connected_time":1949000000000,"state":"active","ping":58},{"user_id":129,"name":"mini boss","steam_id":76561198062763756,"connected_time":3608000000000,"state":"active","ping":67},{"user_id":85,"name":"William Wallace","steam_id":76561199343316814,"connected_time":7888000000000,"state":"active","ping":56},{"user_id":153,"name":"marguerite","steam_id":76561198170873495,"connected_time":1813000000000,"state":"active","ping":53},{"user_id":159,"name":"a Salty Individual","steam_id":76561197979951077,"connected_time":1396000000000,"state":"active","ping":100},{"user_id":163,"name":"noah7","steam_id":76561197962607364,"connected_time":599000000000,"state":"active","ping":52},{"user_id":134,"name":"Puck Norris","steam_id":76561198151256410,"connected_time":2663000000000,"state":"active","ping":118},{"user_id":74,"name":"ุ","steam_id":76561198118480346,"connected_time":8796000000000,"state":"active","ping":110},{"user_id":167,"name":"Rat","steam_id":76561198137925582,"connected_time":576000000000,"state":"active","ping":61},{"user_id":158,"name":"joe","steam_id":76561198045781320,"connected_time":1623000000000,"state":"active","ping":72},{"user_id":146,"name":"kite","steam_id":76561198346516392,"connected_time":1950000000000,"state":"active","ping":87},{"user_id":154,"name":"Pango","steam_id":76561198069811545,"connected_time":1723000000000,"state":"active","ping":69},{"user_id":169,"name":"Twa","steam_id":76561198295529541,"connected_time":513000000000,"state":"active","ping":74},{"user_id":72,"name":"loser","steam_id":76561198259380127,"connected_time":8935000000000,"state":"active","ping":75},{"user_id":165,"name":"ATL1 | leif","steam_id":76561198206662424,"connected_time":593000000000,"state":"active","ping":88},{"user_id":133,"name":"Le4n!!!","steam_id":76561198045522596,"connected_time":2686000000000,"state":"active","ping":73}]},{"server_id":104,"name":"Uncletopia | Atlanta | 2 | All Maps","name_short":"atl-2","host":"atl-1.us.uncletopia.com","port":27025,"enabled":true,"region":"us-east","cc":"us","latitude":33.753746,"longitude":-84.38633,"reserved":0,"last_update":"0001-01-01T00:00:00Z","name_a2s":"Uncletopia | Atlanta | 2 | All Maps","protocol":17,"map":"koth_cascade","folder":"tf","game":"Team Fortress","app_id":440,"player_count":0,"max_players":24,"Bots":0,"server_type":"Dedicated","server_os":"Linux","password":true,"vac":true,"version":"7961495","steam_id":85568392924469983,"keywords":["cp","nocrits","nodmgspread","uncletopia"],"game_id":440,"stv_port":27026,"stv_name":"Uncletopia | Atlanta | 2 | All Maps | STV","players":null},{"server_id":400,"name":"Uncletopia | Atlanta | 3 | Stopwatch","name_short":"atl-3","host":"atl-1.us.uncletopia.com","port":27035,"enabled":true,"region":"us-east","cc":"us","latitude":33.753746,"longitude":-84.38633,"reserved":0,"last_update":"0001-01-01T00:00:00Z","name_a2s":"Uncletopia | Atlanta | 3 | Stopwatch","protocol":17,"map":"cp_snakewater_final1","folder":"tf","game":"Team Fortress","app_id":440,"player_count":0,"max_players":24,"Bots":0,"server_type":"Dedicated","server_os":"Linux","password":true,"vac":true,"version":"7961495","steam_id":85568392924515187,"keywords":["cp","nocrits","nodmgspread","uncletopia"],"game_id":440,"stv_port":27036,"stv_name":"Uncletopia | Atlanta | 3 | Stopwatch | STV","players":null},{"server_id":401,"name":"Uncletopia | Atlanta | 4 | Community","name_short":"atl-4","host":"atl-1.us.uncletopia.com","port":27045,"enabled":true,"region":"us-east","cc":"us","latitude":33.753746,"longitude":-84.38633,"reserved":0,"last_update":"0001-01-01T00:00:00Z","name_a2s":"Uncletopia | Atlanta | 4 | Community","protocol":17,"map":"cp_sunshine","folder":"tf","game":"Team Fortress","app_id":440,"player_count":0,"max_players":24,"Bots":0,"server_type":"Dedicated","server_os":"Linux","password":true,"vac":true,"version":"7961495","steam_id":85568392924515188,"keywords":["cp","nocrits","nodmgspread","uncletopia"],"game_id":440,"stv_port":27046,"stv_name":"Uncletopia | Atlanta | 4 | Community | STV","players":null},{"server_id":2,"name":"Uncletopia | Chicago | 1 | All Maps","name_short":"chi-1","host":"chi-1.us.uncletopia.com","port":27015,"enabled":true,"region":"us-central","cc":"us","latitude":41.881832,"longitude":-87.62318,"reserved":0,"last_update":"0001-01-01T00:00:00Z","name_a2s":"Uncletopia | Chicago | 1 | All Maps","protocol":17,"map":"pl_pier","folder":"tf","game":"Team Fortress","app_id":440,"player_count":24,"max_players":24,"Bots":0,"server_type":"Dedicated","server_os":"Linux","password":true,"vac":true,"version":"7961495","steam_id":85568392924469984,"keywords":["nocrits","nodmgspread","payload","uncletopia"],"game_id":440,"stv_port":27016,"stv_name":"Uncletopia | Chicago | 1 | All Maps | STV","players":[{"user_id":432,"name":"Mitsurugi","steam_id":76561197998283062,"connected_time":1818000000000,"state":"active","ping":85},{"user_id":429,"name":"Burning Sensation","steam_id":76561199488883432,"connected_time":1894000000000,"state":"active","ping":105},{"user_id":448,"name":"ol' musty","steam_id":76561198081075865,"connected_time":464000000000,"state":"active","ping":70},{"user_id":450,"name":"Comfy!","steam_id":76561198008818346,"connected_time":132000000000,"state":"active","ping":82},{"user_id":443,"name":"Tomatanator","steam_id":76561198993330383,"connected_time":811000000000,"state":"active","ping":60},{"user_id":407,"name":"skoops","steam_id":76561198083276946,"connected_time":3846000000000,"state":"active","ping":65},{"user_id":425,"name":"Frontier Psychiatrist","steam_id":76561198038689088,"connected_time":2452000000000,"state":"active","ping":85},{"user_id":444,"name":"AttackCommander","steam_id":76561198111522679,"connected_time":794000000000,"state":"active","ping":82},{"user_id":445,"name":"D","steam_id":76561198292908619,"connected_time":775000000000,"state":"active","ping":72},{"user_id":417,"name":"cbv ghytyhgertwedfsd","steam_id":76561198304661367,"connected_time":2844000000000,"state":"active","ping":71},{"user_id":439,"name":"Your Local Queer Librarian","steam_id":76561198013077080,"connected_time":834000000000,"state":"active","ping":61},{"user_id":414,"name":"Nonok","steam_id":76561199480685498,"connected_time":3363000000000,"state":"active","ping":154},{"user_id":440,"name":"TheDuckLord","steam_id":76561198128417421,"connected_time":831000000000,"state":"active","ping":85},{"user_id":431,"name":"frid","steam_id":76561198005806915,"connected_time":1866000000000,"state":"active","ping":61},{"user_id":449,"name":"Brown_Dream","steam_id":76561198975766145,"connected_time":361000000000,"state":"active","ping":82},{"user_id":437,"name":"NightVeil","steam_id":76561198086054875,"connected_time":1275000000000,"state":"active","ping":73},{"user_id":446,"name":"blonk-182","steam_id":76561198035304483,"connected_time":758000000000,"state":"active","ping":48},{"user_id":447,"name":"totsnotabot","steam_id":76561198077023364,"connected_time":753000000000,"state":"active","ping":34},{"user_id":372,"name":"Puss-Destroyer The Virile","steam_id":76561198088298999,"connected_time":5657000000000,"state":"active","ping":87},{"user_id":388,"name":"Siz","steam_id":76561198072962154,"connected_time":4445000000000,"state":"active","ping":84},{"user_id":434,"name":"Kero","steam_id":76561198343231436,"connected_time":1473000000000,"state":"active","ping":61},{"user_id":441,"name":"rat 2","steam_id":76561198197297414,"connected_time":830000000000,"state":"active","ping":41},{"user_id":399,"name":"CF-TF2","steam_id":76561198145893044,"connected_time":4056000000000,"state":"active","ping":85},{"user_id":442,"name":"Dead Face","steam_id":76561198857643139,"connected_time":830000000000,"state":"active","ping":63}]},{"server_id":106,"name":"Uncletopia | Chicago | 2 | All Maps","name_short":"chi-2","host":"chi-1.us.uncletopia.com","port":27025,"enabled":true,"region":"us-central","cc":"us","latitude":41.881832,"longitude":-87.62318,"reserved":0,"last_update":"0001-01-01T00:00:00Z","name_a2s":"Uncletopia | Chicago | 2 | All Maps","protocol":17,"map":"pl_barnblitz","folder":"tf","game":"Team Fortress","app_id":440,"player_count":24,"max_players":24,"Bots":0,"server_type":"Dedicated","server_os":"Linux","password":true,"vac":true,"version":"7961495","steam_id":85568392924469985,"keywords":["nocrits","nodmgspread","payload","uncletopia"],"game_id":440,"stv_port":27026,"stv_name":"Uncletopia | Chicago | 2 | All Maps | STV","players":[{"user_id":18,"name":"qory","steam_id":76561198152064890,"connected_time":2427000000000,"state":"active","ping":49},{"user_id":63,"name":"Bleok","steam_id":76561198078212322,"connected_time":236000000000,"state":"active","ping":135},{"user_id":64,"name":"TheSmokingMan","steam_id":76561198032652995,"connected_time":232000000000,"state":"active","ping":85},{"user_id":15,"name":"spy tf2 from team fortress 2","steam_id":76561198168517216,"connected_time":2608000000000,"state":"active","ping":171},{"user_id":62,"name":"DanielGarka","steam_id":76561198302972656,"connected_time":306000000000,"state":"active","ping":163},{"user_id":17,"name":"-W3E- grim10465","steam_id":76561198045698581,"connected_time":2485000000000,"state":"active","ping":51},{"user_id":54,"name":"Hipkid81","steam_id":76561198209679029,"connected_time":707000000000,"state":"active","ping":91},{"user_id":42,"name":"MothBitch (they/them)","steam_id":76561198853635549,"connected_time":1507000000000,"state":"active","ping":55},{"user_id":61,"name":"twizted","steam_id":76561197960407274,"connected_time":375000000000,"state":"active","ping":62},{"user_id":48,"name":"MLWeegee","steam_id":76561198096399823,"connected_time":1165000000000,"state":"active","ping":67},{"user_id":23,"name":"bath","steam_id":76561197969993352,"connected_time":2212000000000,"state":"active","ping":63},{"user_id":24,"name":"Skunqu's #1 Fan","steam_id":76561198067153390,"connected_time":2208000000000,"state":"active","ping":58},{"user_id":55,"name":"jarrettconsult","steam_id":76561198249998262,"connected_time":689000000000,"state":"active","ping":78},{"user_id":26,"name":"Ssefseff","steam_id":76561198110495978,"connected_time":2188000000000,"state":"active","ping":70},{"user_id":53,"name":"Boofenshmirtz","steam_id":76561198071649858,"connected_time":800000000000,"state":"active","ping":67},{"user_id":59,"name":"nobody","steam_id":76561198148059714,"connected_time":414000000000,"state":"active","ping":66},{"user_id":65,"name":"Dakota","steam_id":76561198134092308,"connected_time":225000000000,"state":"active","ping":66},{"user_id":31,"name":"Pepsiman","steam_id":76561198436946165,"connected_time":2122000000000,"state":"active","ping":68},{"user_id":66,"name":"EliteSpartan","steam_id":76561198174023582,"connected_time":198000000000,"state":"active","ping":59},{"user_id":67,"name":"Vladimir Puddin","steam_id":76561198139674520,"connected_time":160000000000,"state":"active","ping":59},{"user_id":58,"name":"Holo Spida","steam_id":76561199067325962,"connected_time":439000000000,"state":"active","ping":87},{"user_id":35,"name":"Commander Aegis","steam_id":76561198014318521,"connected_time":2074000000000,"state":"active","ping":56},{"user_id":37,"name":"Aurora","steam_id":76561198151842770,"connected_time":2058000000000,"state":"active","ping":60},{"user_id":46,"name":"CatVideo_Number_130864601238641","steam_id":76561198386487208,"connected_time":1293000000000,"state":"active","ping":57}]},{"server_id":402,"name":"Uncletopia | Chicago | 3 | All Maps","name_short":"chi-3","host":"chi-1.us.uncletopia.com","port":27035,"enabled":true,"region":"us-central","cc":"us","latitude":41.881832,"longitude":-87.62318,"reserved":0,"last_update":"0001-01-01T00:00:00Z","name_a2s":"Uncletopia | Chicago | 3 | All Maps","protocol":17,"map":"pl_upward","folder":"tf","game":"Team Fortress","app_id":440,"player_count":24,"max_players":24,"Bots":0,"server_type":"Dedicated","server_os":"Linux","password":true,"vac":true,"version":"7961495","steam_id":85568392924515191,"keywords":["nocrits","nodmgspread","payload","uncletopia"],"game_id":440,"stv_port":27036,"stv_name":"Uncletopia | Chicago | 3 | All Maps | STV","players":[{"user_id":21,"name":"Thequirka","steam_id":76561198968058652,"connected_time":487000000000,"state":"active","ping":95},{"user_id":11,"name":"Carson","steam_id":76561198076771071,"connected_time":1074000000000,"state":"active","ping":41},{"user_id":12,"name":"kiwiichie ₍ᐢᐢ₎","steam_id":76561198315449521,"connected_time":1071000000000,"state":"active","ping":98},{"user_id":13,"name":"Militant Pacifist","steam_id":76561198290691432,"connected_time":1062000000000,"state":"active","ping":75},{"user_id":16,"name":"Seija NUTS","steam_id":76561198357437908,"connected_time":734000000000,"state":"active","ping":73},{"user_id":25,"name":"The Big Stepper","steam_id":76561198133981899,"connected_time":391000000000,"state":"active","ping":57},{"user_id":19,"name":"big fish","steam_id":76561198186479818,"connected_time":588000000000,"state":"active","ping":110},{"user_id":22,"name":"ammonia + bleach","steam_id":76561198066566813,"connected_time":481000000000,"state":"active","ping":120},{"user_id":38,"name":"yes daddy","steam_id":76561198166100997,"connected_time":123000000000,"state":"active","ping":74},{"user_id":24,"name":"stubbystubby","steam_id":76561198066034868,"connected_time":402000000000,"state":"active","ping":63},{"user_id":26,"name":"EmeraldCola","steam_id":76561198066663687,"connected_time":363000000000,"state":"active","ping":159},{"user_id":27,"name":"Fobby #Savetf2","steam_id":76561198047681469,"connected_time":292000000000,"state":"active","ping":74},{"user_id":39,"name":"dailydiamond","steam_id":76561199123582502,"connected_time":100000000000,"state":"active","ping":140},{"user_id":29,"name":"jjvthou(NOtdRuNkMeswEaRss)","steam_id":76561199403071554,"connected_time":286000000000,"state":"active","ping":82},{"user_id":30,"name":"Asanez3","steam_id":76561198037381436,"connected_time":253000000000,"state":"active","ping":72},{"user_id":31,"name":"✧･ﾟhooligan!!","steam_id":76561198874149130,"connected_time":243000000000,"state":"active","ping":71},{"user_id":33,"name":"Dongus","steam_id":76561197979056451,"connected_time":238000000000,"state":"active","ping":90},{"user_id":36,"name":"Boxcars","steam_id":76561198120978767,"connected_time":171000000000,"state":"active","ping":99},{"user_id":40,"name":"Mr. Luggy","steam_id":76561198072723392,"connected_time":89000000000,"state":"active","ping":91},{"user_id":41,"name":"cooldog01","steam_id":76561198121922413,"connected_time":53000000000,"state":"active","ping":100},{"user_id":42,"name":"Fitts1099","steam_id":76561198044986906,"connected_time":37000000000,"state":"active","ping":45},{"user_id":43,"name":"d5","steam_id":76561199339997328,"connected_time":30000000000,"state":"active","ping":75},{"user_id":45,"name":"davidflyswag","steam_id":76561198979060652,"connected_time":0,"state":"spawning","ping":26}]},{"server_id":403,"name":"Uncletopia | Chicago | 4 | All Maps","name_short":"chi-4","host":"chi-1.us.uncletopia.com","port":27045,"enabled":true,"region":"us-central","cc":"us","latitude":41.881832,"longitude":-87.62318,"reserved":0,"last_update":"0001-01-01T00:00:00Z","name_a2s":"Uncletopia | Chicago | 4 | All Maps","protocol":17,"map":"cp_sunshine","folder":"tf","game":"Team Fortress","app_id":440,"player_count":24,"max_players":24,"Bots":0,"server_type":"Dedicated","server_os":"Linux","password":true,"vac":true,"version":"7961495","steam_id":85568392924515193,"keywords":["cp","nocrits","nodmgspread","uncletopia"],"game_id":440,"stv_port":27046,"stv_name":"Uncletopia | Chicago | 4 | All Maps | STV","players":[{"user_id":195,"name":"solemn vow enjoyer","steam_id":76561199122155068,"connected_time":257000000000,"state":"active","ping":169},{"user_id":132,"name":"magickxanadu","steam_id":76561199117360103,"connected_time":4233000000000,"state":"active","ping":91},{"user_id":162,"name":"Lae","steam_id":76561198185527278,"connected_time":3168000000000,"state":"active","ping":81},{"user_id":176,"name":"RyInc","steam_id":76561198874261643,"connected_time":2207000000000,"state":"active","ping":45},{"user_id":69,"name":"YOU WHAT?!","steam_id":76561198418679471,"connected_time":5921000000000,"state":"active","ping":63},{"user_id":184,"name":"PISS MANN","steam_id":76561199121903803,"connected_time":1387000000000,"state":"active","ping":107},{"user_id":192,"name":"TacoMan4Life","steam_id":76561198832562728,"connected_time":867000000000,"state":"active","ping":137},{"user_id":190,"name":"Kritzburgh","steam_id":76561198149466938,"connected_time":1032000000000,"state":"active","ping":64},{"user_id":191,"name":"Window Licker #pride","steam_id":76561198386717007,"connected_time":939000000000,"state":"active","ping":59},{"user_id":198,"name":"Freek","steam_id":76561198204204055,"connected_time":238000000000,"state":"active","ping":67},{"user_id":143,"name":"JtsRes","steam_id":76561197994809241,"connected_time":3885000000000,"state":"active","ping":62},{"user_id":149,"name":"evil tiger","steam_id":76561198152818418,"connected_time":3432000000000,"state":"active","ping":87},{"user_id":167,"name":"ameritech","steam_id":76561198064769089,"connected_time":2432000000000,"state":"active","ping":59},{"user_id":163,"name":"mild mannered mystery man","steam_id":76561198072095399,"connected_time":3140000000000,"state":"active","ping":53},{"user_id":194,"name":"Jonah Hill from 21 Jump Street","steam_id":76561198811130843,"connected_time":265000000000,"state":"active","ping":81},{"user_id":152,"name":"rumors from losers","steam_id":76561198138221795,"connected_time":3406000000000,"state":"active","ping":85},{"user_id":199,"name":"Hot Milk + Big Slappies","steam_id":76561197988989149,"connected_time":75000000000,"state":"active","ping":76},{"user_id":166,"name":"Jade Greenleaf","steam_id":76561198304845413,"connected_time":2611000000000,"state":"active","ping":77},{"user_id":173,"name":"Fish_man_Jon","steam_id":76561198068158264,"connected_time":2361000000000,"state":"active","ping":72},{"user_id":172,"name":"Evertin","steam_id":76561198139080478,"connected_time":2366000000000,"state":"active","ping":44},{"user_id":197,"name":"Valenhart","steam_id":76561198354036240,"connected_time":249000000000,"state":"active","ping":76},{"user_id":186,"name":"AkimboAoki","steam_id":76561198158323058,"connected_time":1182000000000,"state":"active","ping":93},{"user_id":193,"name":"gluesniffer2009","steam_id":76561198336397088,"connected_time":294000000000,"state":"active","ping":94},{"user_id":141,"name":"THORNFIELDGAMER","steam_id":76561199087167473,"connected_time":4079000000000,"state":"active","ping":87}]},{"server_id":36,"name":"Uncletopia | Chicago | 5 | All Maps","name_short":"chi-5","host":"chi-2.us.uncletopia.com","port":27015,"enabled":true,"region":"us-central","cc":"us","latitude":41.881832,"longitude":-87.62318,"reserved":0,"last_update":"0001-01-01T00:00:00Z","name_a2s":"Uncletopia | Chicago | 5 | All Maps","protocol":17,"map":"pl_frontier_final","folder":"tf","game":"Team Fortress","app_id":440,"player_count":0,"max_players":24,"Bots":0,"server_type":"Dedicated","server_os":"Linux","password":true,"vac":true,"version":"7961495","steam_id":85568392924866362,"keywords":["nocrits","nodmgspread","payload","uncletopia"],"game_id":440,"stv_port":27016,"stv_name":"Uncletopia | Chicago | 5 | All Maps | STV","players":null},{"server_id":37,"name":"Uncletopia | Chicago | 6 | All Maps","name_short":"chi-6","host":"chi-2.us.uncletopia.com","port":27025,"enabled":true,"region":"us-central","cc":"us","latitude":41.881832,"longitude":-87.62318,"reserved":0,"last_update":"0001-01-01T00:00:00Z","name_a2s":"Uncletopia | Chicago | 6 | All Maps","protocol":17,"map":"koth_lakeside_final","folder":"tf","game":"Team Fortress","app_id":440,"player_count":5,"max_players":24,"Bots":0,"server_type":"Dedicated","server_os":"Linux","password":true,"vac":true,"version":"7961495","steam_id":85568392924866363,"keywords":["cp","nocrits","nodmgspread","uncletopia"],"game_id":440,"stv_port":27026,"stv_name":"Uncletopia | Chicago | 6 | All Maps | STV","players":[{"user_id":10,"name":"BugsAreMyWorstEnemy","steam_id":76561199440395505,"connected_time":1057000000000,"state":"active","ping":55},{"user_id":11,"name":"wafflehamster2000","steam_id":76561198849161820,"connected_time":858000000000,"state":"active","ping":57},{"user_id":12,"name":"MEATMAN","steam_id":76561198327943657,"connected_time":469000000000,"state":"active","ping":70},{"user_id":13,"name":"Applesauce (she/her)","steam_id":76561198049642811,"connected_time":314000000000,"state":"active","ping":69},{"user_id":14,"name":"Chucklez","steam_id":76561198058193135,"connected_time":239000000000,"state":"active","ping":53}]},{"server_id":38,"name":"Uncletopia | Chicago | 7 | Stopwatch","name_short":"chi-7","host":"chi-2.us.uncletopia.com","port":27035,"enabled":true,"region":"us-central","cc":"us","latitude":41.881832,"longitude":-87.62318,"reserved":0,"last_update":"0001-01-01T00:00:00Z","name_a2s":"Uncletopia | Chicago | 7 | Stopwatch","protocol":17,"map":"pl_badwater","folder":"tf","game":"Team Fortress","app_id":440,"player_count":0,"max_players":24,"Bots":0,"server_type":"Dedicated","server_os":"Linux","password":true,"vac":true,"version":"7961495","steam_id":85568392924866364,"keywords":["nocrits","nodmgspread","payload","uncletopia"],"game_id":440,"stv_port":27036,"stv_name":"Uncletopia | Chicago | 7 | Stopwatch | STV","players":null},{"server_id":39,"name":"Uncletopia | Chicago | 8 | Community","name_short":"chi-8","host":"chi-2.us.uncletopia.com","port":27045,"enabled":true,"region":"us-central","cc":"us","latitude":41.881832,"longitude":-87.62318,"reserved":0,"last_update":"0001-01-01T00:00:00Z","name_a2s":"Uncletopia | Chicago | 8 | Community","protocol":17,"map":"workshop/koth_product_final.ugc454272353","folder":"tf","game":"Team Fortress","app_id":440,"player_count":0,"max_players":24,"Bots":0,"server_type":"Dedicated","server_os":"Linux","password":true,"vac":true,"version":"7961495","steam_id":85568392924866365,"keywords":["cp","nocrits","nodmgspread","uncletopia"],"game_id":440,"stv_port":27046,"stv_name":"Uncletopia | Chicago | 8 | Community | STV","players":null},{"server_id":8,"name":"Uncletopia | Dallas | 1 | All Maps","name_short":"dal-1","host":"dal-1.us.uncletopia.com","port":27015,"enabled":true,"region":"us-central","cc":"us","latitude":32.779167,"longitude":-96.80889,"reserved":0,"last_update":"0001-01-01T00:00:00Z","name_a2s":"Uncletopia | Dallas | 1 | All Maps","protocol":17,"map":"koth_cascade","folder":"tf","game":"Team Fortress","app_id":440,"player_count":0,"max_players":24,"Bots":0,"server_type":"Dedicated","server_os":"Linux","password":true,"vac":true,"version":"7961495","steam_id":85568392924469986,"keywords":["cp","nocrits","nodmgspread","uncletopia"],"game_id":440,"stv_port":27016,"stv_name":"Uncletopia | Dallas | 1 | All Maps | STV","players":null},{"server_id":108,"name":"Uncletopia | Dallas | 2 | All Maps","name_short":"dal-2","host":"dal-1.us.uncletopia.com","port":27025,"enabled":true,"region":"us-central","cc":"us","latitude":32.779167,"longitude":-96.80889,"reserved":0,"last_update":"0001-01-01T00:00:00Z","name_a2s":"Uncletopia | Dallas | 2 | All Maps","protocol":17,"map":"pl_snowycoast","folder":"tf","game":"Team Fortress","app_id":440,"player_count":24,"max_players":24,"Bots":0,"server_type":"Dedicated","server_os":"Linux","password":true,"vac":true,"version":"7961495","steam_id":85568392924469988,"keywords":["nocrits","nodmgspread","payload","uncletopia"],"game_id":440,"stv_port":27026,"stv_name":"Uncletopia | Dallas | 2 | All Maps | STV","players":[{"user_id":140,"name":"fish","steam_id":76561198054070811,"connected_time":961000000000,"state":"active","ping":76},{"user_id":38,"name":"Filthy Hobo","steam_id":76561198174373015,"connected_time":10361000000000,"state":"active","ping":115},{"user_id":113,"name":"hatchetax","steam_id":76561199013337543,"connected_time":3051000000000,"state":"active","ping":63},{"user_id":127,"name":"walrus","steam_id":76561198057853319,"connected_time":1677000000000,"state":"active","ping":89},{"user_id":97,"name":"Platinum","steam_id":76561198052463484,"connected_time":4949000000000,"state":"active","ping":79},{"user_id":139,"name":"Scrux","steam_id":76561198129763115,"connected_time":1186000000000,"state":"active","ping":93},{"user_id":135,"name":"portzebie","steam_id":76561197990658763,"connected_time":1444000000000,"state":"active","ping":86},{"user_id":145,"name":"Franticraven177","steam_id":76561198334105579,"connected_time":647000000000,"state":"active","ping":73},{"user_id":146,"name":"gooch_masta","steam_id":76561198151578423,"connected_time":557000000000,"state":"active","ping":63},{"user_id":130,"name":"mintsmatchamocha","steam_id":76561198420094402,"connected_time":1578000000000,"state":"active","ping":74},{"user_id":138,"name":"K2f","steam_id":76561198049600563,"connected_time":1200000000000,"state":"active","ping":87},{"user_id":133,"name":"Engideer","steam_id":76561198145733164,"connected_time":1496000000000,"state":"active","ping":49},{"user_id":147,"name":"Healerblade","steam_id":76561197999816472,"connected_time":358000000000,"state":"active","ping":70},{"user_id":77,"name":"plink","steam_id":76561198057829889,"connected_time":7137000000000,"state":"active","ping":64},{"user_id":85,"name":"Hero Smasher","steam_id":76561198150681669,"connected_time":6783000000000,"state":"active","ping":96},{"user_id":88,"name":"QuartzGeek","steam_id":76561199011674698,"connected_time":6374000000000,"state":"active","ping":55},{"user_id":150,"name":"zinnk","steam_id":76561198092081825,"connected_time":244000000000,"state":"active","ping":83},{"user_id":148,"name":"Nyplestheclown","steam_id":76561198028600291,"connected_time":355000000000,"state":"active","ping":53},{"user_id":69,"name":"mkl","steam_id":76561197986401685,"connected_time":8441000000000,"state":"active","ping":64},{"user_id":149,"name":"Rulers Reach fan","steam_id":76561198367340750,"connected_time":326000000000,"state":"active","ping":83},{"user_id":126,"name":"LordStubby","steam_id":76561198799291957,"connected_time":1783000000000,"state":"active","ping":79},{"user_id":141,"name":"Plimbo","steam_id":76561198400838588,"connected_time":954000000000,"state":"active","ping":79},{"user_id":136,"name":"artichoke","steam_id":76561198980994364,"connected_time":1214000000000,"state":"active","ping":98},{"user_id":122,"name":"hforce11","steam_id":76561198087647130,"connected_time":1837000000000,"state":"active","ping":74}]},{"server_id":404,"name":"Uncletopia | Dallas | 3 | All Maps","name_short":"dal-3","host":"dal-1.us.uncletopia.com","port":27035,"enabled":true,"region":"us-central","cc":"us","latitude":32.779167,"longitude":-96.80889,"reserved":0,"last_update":"0001-01-01T00:00:00Z","name_a2s":"Uncletopia | Dallas | 3 | All Maps","protocol":17,"map":"koth_lakeside_final","folder":"tf","game":"Team Fortress","app_id":440,"player_count":0,"max_players":24,"Bots":0,"server_type":"Dedicated","server_os":"Linux","password":true,"vac":true,"version":"7961495","steam_id":85568392924515219,"keywords":["cp","nocrits","nodmgspread","uncletopia"],"game_id":440,"stv_port":27036,"stv_name":"Uncletopia | Dallas | 3 | All Maps | STV","players":null},{"server_id":405,"name":"Uncletopia | Dallas | 4 | Community","name_short":"dal-4","host":"dal-1.us.uncletopia.com","port":27045,"enabled":true,"region":"us-central","cc":"us","latitude":32.779167,"longitude":-96.80889,"reserved":0,"last_update":"0001-01-01T00:00:00Z","name_a2s":"Uncletopia | Dallas | 4 | Community","protocol":17,"map":"pl_pier","folder":"tf","game":"Team Fortress","app_id":440,"player_count":0,"max_players":24,"Bots":0,"server_type":"Dedicated","server_os":"Linux","password":true,"vac":true,"version":"7961495","steam_id":85568392924515220,"keywords":["nocrits","nodmgspread","payload","uncletopia"],"game_id":440,"stv_port":27046,"stv_name":"Uncletopia | Dallas | 4 | Community | STV","players":null},{"server_id":5,"name":"Uncletopia | Frankfurt | 1 | All Maps","name_short":"frk-1","host":"frk-1.de.uncletopia.com","port":27015,"enabled":true,"region":"eu","cc":"de","latitude":50.110924,"longitude":8.682127,"reserved":0,"last_update":"0001-01-01T00:00:00Z","name_a2s":"Uncletopia | Frankfurt | 1 | All Maps","protocol":17,"map":"pl_swiftwater_final1","folder":"tf","game":"Team Fortress","app_id":440,"player_count":1,"max_players":24,"Bots":0,"server_type":"Dedicated","server_os":"Linux","password":true,"vac":true,"version":"7961495","steam_id":85568392924469989,"keywords":["nocrits","nodmgspread","payload","uncletopia"],"game_id":440,"stv_port":27016,"stv_name":"Uncletopia | Frankfurt | 1 | All Maps | STV","players":[{"user_id":515,"name":"NeoPwyll","steam_id":76561198064858778,"connected_time":9000000000,"state":"spawning","ping":83}]},{"server_id":110,"name":"Uncletopia | Frankfurt | 2 | All Maps","name_short":"frk-2","host":"frk-1.de.uncletopia.com","port":27025,"enabled":true,"region":"eu","cc":"de","latitude":50.110924,"longitude":8.682127,"reserved":0,"last_update":"0001-01-01T00:00:00Z","name_a2s":"Uncletopia | Frankfurt | 2 | All Maps","protocol":17,"map":"cp_egypt_final","folder":"tf","game":"Team Fortress","app_id":440,"player_count":24,"max_players":24,"Bots":0,"server_type":"Dedicated","server_os":"Linux","password":true,"vac":true,"version":"7961495","steam_id":85568392924469990,"keywords":["cp","nocrits","nodmgspread","uncletopia"],"game_id":440,"stv_port":27026,"stv_name":"Uncletopia | Frankfurt | 2 | All Maps | STV","players":[{"user_id":399,"name":"Maximilien The Jacobin","steam_id":76561198450332074,"connected_time":1130000000000,"state":"active","ping":76},{"user_id":431,"name":"Nittugai","steam_id":76561198067366462,"connected_time":308000000000,"state":"active","ping":60},{"user_id":384,"name":"shima.","steam_id":76561199042470246,"connected_time":2392000000000,"state":"active","ping":58},{"user_id":349,"name":"manure merchant","steam_id":76561198010109316,"connected_time":3987000000000,"state":"active","ping":55},{"user_id":413,"name":"hasky","steam_id":76561197986052798,"connected_time":666000000000,"state":"active","ping":78},{"user_id":370,"name":"simon","steam_id":76561198880361394,"connected_time":2740000000000,"state":"active","ping":52},{"user_id":356,"name":"Femboy Thighs","steam_id":76561198115496457,"connected_time":3819000000000,"state":"active","ping":55},{"user_id":407,"name":"A Pigeon","steam_id":76561198114090555,"connected_time":760000000000,"state":"active","ping":69},{"user_id":401,"name":"LynVingen","steam_id":76561198284733687,"connected_time":889000000000,"state":"active","ping":81},{"user_id":340,"name":"DudeoftheRock","steam_id":76561198059401865,"connected_time":4703000000000,"state":"active","ping":68},{"user_id":302,"name":"Spinya","steam_id":76561198086653667,"connected_time":8195000000000,"state":"active","ping":65},{"user_id":382,"name":"Tobi Kool","steam_id":76561198421707721,"connected_time":2577000000000,"state":"active","ping":70},{"user_id":357,"name":"warforge3","steam_id":76561199276024310,"connected_time":3799000000000,"state":"active","ping":90},{"user_id":390,"name":"Blaz","steam_id":76561198114331616,"connected_time":1722000000000,"state":"active","ping":67},{"user_id":397,"name":"Luma (Jacobins)","steam_id":76561198298242445,"connected_time":1250000000000,"state":"active","ping":46},{"user_id":417,"name":"corro","steam_id":76561197982510441,"connected_time":620000000000,"state":"active","ping":48},{"user_id":434,"name":"Real (Real)","steam_id":76561198323425034,"connected_time":266000000000,"state":"active","ping":70},{"user_id":437,"name":"Barbiehunter #SaveTF2","steam_id":76561198071630928,"connected_time":217000000000,"state":"active","ping":49},{"user_id":429,"name":"Repa24","steam_id":76561198033016390,"connected_time":343000000000,"state":"active","ping":71},{"user_id":377,"name":"PENGUN","steam_id":76561199015156956,"connected_time":2684000000000,"state":"active","ping":95},{"user_id":396,"name":"iShockwave","steam_id":76561198404037424,"connected_time":1290000000000,"state":"active","ping":96},{"user_id":440,"name":"smell_my_cheese","steam_id":76561198008517427,"connected_time":125000000000,"state":"active","ping":55},{"user_id":432,"name":"Arsonist","steam_id":76561199087953833,"connected_time":298000000000,"state":"active","ping":91},{"user_id":409,"name":"Gangsta Duck","steam_id":76561198129806290,"connected_time":742000000000,"state":"active","ping":86}]},{"server_id":308,"name":"Uncletopia | Frankfurt | 3 | All Maps","name_short":"frk-3","host":"frk-1.de.uncletopia.com","port":27035,"enabled":true,"region":"eu","cc":"de","latitude":50.110924,"longitude":8.682127,"reserved":0,"last_update":"0001-01-01T00:00:00Z","name_a2s":"Uncletopia | Frankfurt | 3 | All Maps","protocol":17,"map":"pl_thundermountain","folder":"tf","game":"Team Fortress","app_id":440,"player_count":24,"max_players":24,"Bots":0,"server_type":"Dedicated","server_os":"Linux","password":true,"vac":true,"version":"7961495","steam_id":85568392924504274,"keywords":["nocrits","nodmgspread","payload","uncletopia"],"game_id":440,"stv_port":27036,"stv_name":"Uncletopia | Frankfurt | 3 | All Maps | STV","players":[{"user_id":680,"name":"Mr.Schnittlauch","steam_id":76561198295868113,"connected_time":1463000000000,"state":"active","ping":47},{"user_id":688,"name":"YungDejv","steam_id":76561198311579092,"connected_time":1201000000000,"state":"active","ping":62},{"user_id":679,"name":"Dr. Livesey","steam_id":76561198071049943,"connected_time":1523000000000,"state":"active","ping":69},{"user_id":645,"name":"Shapeshifter","steam_id":76561198052898368,"connected_time":4314000000000,"state":"active","ping":82},{"user_id":650,"name":"Mrbluuub","steam_id":76561199273847084,"connected_time":4216000000000,"state":"active","ping":71},{"user_id":692,"name":"finjar","steam_id":76561198350473059,"connected_time":916000000000,"state":"active","ping":81},{"user_id":693,"name":"Glue Eater","steam_id":76561198436817109,"connected_time":505000000000,"state":"active","ping":70},{"user_id":686,"name":"Vi","steam_id":76561198036546142,"connected_time":1296000000000,"state":"active","ping":50},{"user_id":651,"name":"Rez","steam_id":76561198410598772,"connected_time":4204000000000,"state":"active","ping":50},{"user_id":689,"name":"Xydran","steam_id":76561198042397402,"connected_time":1149000000000,"state":"active","ping":60},{"user_id":684,"name":"Retarded Asian Programmer","steam_id":76561198852826853,"connected_time":1313000000000,"state":"active","ping":50},{"user_id":694,"name":"Jimmy Poppadopolos","steam_id":76561198044825612,"connected_time":203000000000,"state":"active","ping":58},{"user_id":655,"name":"Crayfry","steam_id":76561198146525237,"connected_time":4013000000000,"state":"active","ping":148},{"user_id":607,"name":"diock","steam_id":76561198047359132,"connected_time":7716000000000,"state":"active","ping":60},{"user_id":690,"name":"Not Sussy Tanuki","steam_id":76561198137289375,"connected_time":973000000000,"state":"active","ping":96},{"user_id":687,"name":"Skaza","steam_id":76561198010292540,"connected_time":1289000000000,"state":"active","ping":76},{"user_id":666,"name":"kana","steam_id":76561198002343512,"connected_time":3160000000000,"state":"active","ping":77},{"user_id":668,"name":"yush","steam_id":76561198121688934,"connected_time":2964000000000,"state":"active","ping":69},{"user_id":671,"name":"alan","steam_id":76561198306947435,"connected_time":2462000000000,"state":"active","ping":71},{"user_id":656,"name":"Warrior555MainsGanon","steam_id":76561198388627786,"connected_time":4011000000000,"state":"active","ping":73},{"user_id":676,"name":"Generál Kiwi","steam_id":76561198255946537,"connected_time":2052000000000,"state":"active","ping":38},{"user_id":691,"name":"MR BUBBLES","steam_id":76561198019005259,"connected_time":932000000000,"state":"active","ping":101},{"user_id":674,"name":"¬°Nice","steam_id":76561198387871867,"connected_time":2240000000000,"state":"active","ping":77},{"user_id":682,"name":"Gbus","steam_id":76561198072335838,"connected_time":1375000000000,"state":"active","ping":49}]},{"server_id":309,"name":"Uncletopia | Frankfurt | 4 | All Maps","name_short":"frk-4","host":"frk-1.de.uncletopia.com","port":27045,"enabled":true,"region":"eu","cc":"de","latitude":50.110924,"longitude":8.682127,"reserved":0,"last_update":"0001-01-01T00:00:00Z","name_a2s":"Uncletopia | Frankfurt | 4 | All Maps","protocol":17,"map":"cp_dustbowl","folder":"tf","game":"Team Fortress","app_id":440,"player_count":23,"max_players":24,"Bots":0,"server_type":"Dedicated","server_os":"Linux","password":true,"vac":true,"version":"7961495","steam_id":85568392924504275,"keywords":["cp","nocrits","nodmgspread","uncletopia"],"game_id":440,"stv_port":27046,"stv_name":"Uncletopia | Frankfurt | 4 | All Maps | STV","players":[{"user_id":329,"name":"[P-roc] BadJacKS","steam_id":76561197972666377,"connected_time":8072000000000,"state":"active","ping":59},{"user_id":402,"name":"finbar","steam_id":76561198056812396,"connected_time":2037000000000,"state":"active","ping":81},{"user_id":411,"name":"EricToGo","steam_id":76561198068019642,"connected_time":962000000000,"state":"active","ping":57},{"user_id":417,"name":"Mizel","steam_id":76561199226604824,"connected_time":198000000000,"state":"active","ping":82},{"user_id":422,"name":"THEYAREINTHEWALLS","steam_id":76561198299161888,"connected_time":113000000000,"state":"active","ping":80},{"user_id":270,"name":"C.I.","steam_id":76561197972438196,"connected_time":11115000000000,"state":"active","ping":64},{"user_id":320,"name":"[P-roc] Lovely","steam_id":76561198074361075,"connected_time":8289000000000,"state":"active","ping":61},{"user_id":346,"name":"endlesshills","steam_id":76561198081908373,"connected_time":6935000000000,"state":"active","ping":52},{"user_id":420,"name":"HetNet","steam_id":76561198207584963,"connected_time":122000000000,"state":"active","ping":76},{"user_id":399,"name":"Andrea","steam_id":76561199487380678,"connected_time":2189000000000,"state":"active","ping":108},{"user_id":400,"name":"YouR dad","steam_id":76561198044013623,"connected_time":2176000000000,"state":"active","ping":158},{"user_id":421,"name":"Tin","steam_id":76561198022201818,"connected_time":122000000000,"state":"active","ping":45},{"user_id":423,"name":"gerber local brewery","steam_id":76561198183623117,"connected_time":53000000000,"state":"active","ping":50},{"user_id":424,"name":"Sunkerdink","steam_id":76561197996757446,"connected_time":50000000000,"state":"active","ping":58},{"user_id":405,"name":"jikkelsnikkel","steam_id":76561198086682821,"connected_time":1798000000000,"state":"active","ping":45},{"user_id":390,"name":"Vytuzas","steam_id":76561198012868436,"connected_time":3089000000000,"state":"active","ping":72},{"user_id":409,"name":"catboy extraordinaire","steam_id":76561197983889333,"connected_time":1279000000000,"state":"active","ping":61},{"user_id":314,"name":"jona3838","steam_id":76561199097658195,"connected_time":8591000000000,"state":"active","ping":102},{"user_id":340,"name":"[P-roc] Cmm Bert","steam_id":76561198016658674,"connected_time":7211000000000,"state":"active","ping":71},{"user_id":410,"name":"SuperBob103","steam_id":76561199175360012,"connected_time":1256000000000,"state":"active","ping":60},{"user_id":384,"name":"grr","steam_id":76561199429407130,"connected_time":3472000000000,"state":"active","ping":75},{"user_id":415,"name":"bob","steam_id":76561198448135228,"connected_time":672000000000,"state":"active","ping":85},{"user_id":416,"name":"shr1mple","steam_id":76561198173537027,"connected_time":672000000000,"state":"active","ping":36}]},{"server_id":310,"name":"Uncletopia | Frankfurt | 5 | All Maps","name_short":"frk-5","host":"frk-1.de.uncletopia.com","port":27055,"enabled":true,"region":"eu","cc":"de","latitude":50.110924,"longitude":8.682127,"reserved":0,"last_update":"0001-01-01T00:00:00Z","name_a2s":"Uncletopia | Frankfurt | 5 | All Maps","protocol":17,"map":"pl_badwater","folder":"tf","game":"Team Fortress","app_id":440,"player_count":24,"max_players":24,"Bots":0,"server_type":"Dedicated","server_os":"Linux","password":true,"vac":true,"version":"7961495","steam_id":85568392924504277,"keywords":["nocrits","nodmgspread","payload","uncletopia"],"game_id":440,"stv_port":27056,"stv_name":"Uncletopia | Frankfurt | 5 | All Maps | STV","players":[{"user_id":283,"name":"sareena","steam_id":76561198810194062,"connected_time":1459000000000,"state":"active","ping":75},{"user_id":284,"name":"MrRoAndrei","steam_id":76561198205282000,"connected_time":1449000000000,"state":"active","ping":77},{"user_id":285,"name":"phoonDOT","steam_id":76561199131260257,"connected_time":1439000000000,"state":"active","ping":70},{"user_id":179,"name":"Pilaarius","steam_id":76561198120273212,"connected_time":9315000000000,"state":"active","ping":94},{"user_id":299,"name":"Rigby","steam_id":76561198021552128,"connected_time":824000000000,"state":"active","ping":94},{"user_id":129,"name":"Bajas","steam_id":76561198179339326,"connected_time":12432000000000,"state":"active","ping":88},{"user_id":307,"name":"cockroach","steam_id":76561198841841656,"connected_time":355000000000,"state":"active","ping":67},{"user_id":197,"name":"Vershal Smershal","steam_id":76561198116223995,"connected_time":7990000000000,"state":"active","ping":59},{"user_id":304,"name":"48dripz","steam_id":76561198057040197,"connected_time":565000000000,"state":"active","ping":56},{"user_id":308,"name":"Coincé entre deux nichons","steam_id":76561198000866783,"connected_time":352000000000,"state":"active","ping":56},{"user_id":309,"name":"D4ny0","steam_id":76561198035279148,"connected_time":337000000000,"state":"active","ping":65},{"user_id":300,"name":"AWKWA MAN","steam_id":76561197988085026,"connected_time":794000000000,"state":"active","ping":67},{"user_id":242,"name":"Solymr ibn Wali Barad","steam_id":76561198044008976,"connected_time":4291000000000,"state":"active","ping":74},{"user_id":286,"name":"Carry Krypl","steam_id":76561198136938121,"connected_time":1431000000000,"state":"active","ping":64},{"user_id":238,"name":"xavier","steam_id":76561198076494034,"connected_time":4392000000000,"state":"active","ping":55},{"user_id":301,"name":"simeswipe","steam_id":76561198188471097,"connected_time":780000000000,"state":"active","ping":71},{"user_id":296,"name":"TrashBoat","steam_id":76561199089671432,"connected_time":919000000000,"state":"active","ping":167},{"user_id":287,"name":"PepinoNepizdino","steam_id":76561199098460786,"connected_time":1425000000000,"state":"active","ping":76},{"user_id":292,"name":"Udinese Dion","steam_id":76561198067931573,"connected_time":1377000000000,"state":"active","ping":51},{"user_id":297,"name":"naavki","steam_id":76561198255260602,"connected_time":900000000000,"state":"active","ping":59},{"user_id":302,"name":"flappi","steam_id":76561198072892783,"connected_time":599000000000,"state":"active","ping":59},{"user_id":306,"name":"God himself.","steam_id":76561198309874415,"connected_time":523000000000,"state":"active","ping":46},{"user_id":266,"name":"Larry Penus","steam_id":76561198207546233,"connected_time":2959000000000,"state":"active","ping":59},{"user_id":272,"name":"Biggest Homie","steam_id":76561198373107677,"connected_time":2219000000000,"state":"active","ping":80}]},{"server_id":311,"name":"Uncletopia | Frankfurt | 6 | All Maps","name_short":"frk-6","host":"frk-1.de.uncletopia.com","port":27065,"enabled":true,"region":"eu","cc":"de","latitude":50.110924,"longitude":8.682127,"reserved":0,"last_update":"0001-01-01T00:00:00Z","name_a2s":"Uncletopia | Frankfurt | 6 | All Maps","protocol":17,"map":"pl_upward","folder":"tf","game":"Team Fortress","app_id":440,"player_count":24,"max_players":24,"Bots":0,"server_type":"Dedicated","server_os":"Linux","password":true,"vac":true,"version":"7961495","steam_id":85568392924504278,"keywords":["nocrits","nodmgspread","payload","uncletopia"],"game_id":440,"stv_port":27066,"stv_name":"Uncletopia | Frankfurt | 6 | All Maps | STV","players":[{"user_id":508,"name":"Killbasa","steam_id":76561198064868400,"connected_time":2010000000000,"state":"active","ping":133},{"user_id":536,"name":"Ardello","steam_id":76561198864484125,"connected_time":137000000000,"state":"spawning","ping":86},{"user_id":519,"name":"t0ksi","steam_id":76561198107240798,"connected_time":1417000000000,"state":"active","ping":68},{"user_id":524,"name":"Skulldow","steam_id":76561198431433977,"connected_time":1105000000000,"state":"active","ping":66},{"user_id":470,"name":"Lucky Number 13","steam_id":76561198043951279,"connected_time":3229000000000,"state":"active","ping":105},{"user_id":512,"name":"nozzo","steam_id":76561198012367783,"connected_time":1847000000000,"state":"active","ping":75},{"user_id":531,"name":"Mirru","steam_id":76561198078247594,"connected_time":848000000000,"state":"active","ping":92},{"user_id":525,"name":"SirVitek","steam_id":76561198142961758,"connected_time":1098000000000,"state":"active","ping":68},{"user_id":520,"name":"Tom Foolery","steam_id":76561198358895809,"connected_time":1376000000000,"state":"active","ping":58},{"user_id":479,"name":"Cataleptic","steam_id":76561197997966949,"connected_time":3034000000000,"state":"active","ping":71},{"user_id":503,"name":"Seail_M","steam_id":76561198002405605,"connected_time":2050000000000,"state":"active","ping":58},{"user_id":511,"name":"jelly donut","steam_id":76561198102947221,"connected_time":1912000000000,"state":"active","ping":74},{"user_id":499,"name":"Aku+","steam_id":76561198813782795,"connected_time":2093000000000,"state":"active","ping":72},{"user_id":518,"name":"naomi","steam_id":76561197974968671,"connected_time":1593000000000,"state":"active","ping":76},{"user_id":497,"name":"The Communist","steam_id":76561199099995357,"connected_time":2108000000000,"state":"active","ping":74},{"user_id":528,"name":"Virtual Mage","steam_id":76561198180779897,"connected_time":1087000000000,"state":"active","ping":64},{"user_id":533,"name":"Bobo","steam_id":76561198052308399,"connected_time":543000000000,"state":"active","ping":58},{"user_id":537,"name":"Papi Juan","steam_id":76561199033908321,"connected_time":39000000000,"state":"active","ping":74},{"user_id":530,"name":"魔術師","steam_id":76561198049639319,"connected_time":897000000000,"state":"active","ping":72},{"user_id":501,"name":"sAmasam","steam_id":76561198114953928,"connected_time":2077000000000,"state":"active","ping":56},{"user_id":526,"name":"bloodsvscrips2","steam_id":76561198138928548,"connected_time":1094000000000,"state":"active","ping":58},{"user_id":534,"name":"sHIFTINGvORTEX","steam_id":76561198231648332,"connected_time":519000000000,"state":"active","ping":68},{"user_id":506,"name":"Pixar Cars on the PS2","steam_id":76561198079386295,"connected_time":2036000000000,"state":"active","ping":61},{"user_id":507,"name":"﷽","steam_id":76561198365973345,"connected_time":2024000000000,"state":"active","ping":58}]},{"server_id":23,"name":"Uncletopia | Frankfurt | 7 | Stopwatch","name_short":"frk-7","host":"frk-1.de.uncletopia.com","port":27075,"enabled":true,"region":"eu","cc":"de","latitude":50.110924,"longitude":8.682127,"reserved":0,"last_update":"0001-01-01T00:00:00Z","name_a2s":"Uncletopia | Frankfurt | 7 | Stopwatch","protocol":17,"map":"workshop/koth_ashville_final.ugc2130459942","folder":"tf","game":"Team Fortress","app_id":440,"player_count":0,"max_players":24,"Bots":0,"server_type":"Dedicated","server_os":"Linux","password":true,"vac":true,"version":"7961495","steam_id":85568392924742827,"keywords":["cp","nocrits","nodmgspread","uncletopia"],"game_id":440,"stv_port":27076,"stv_name":"Uncletopia | Frankfurt | 7 | Stopwatch | STV","players":null},{"server_id":24,"name":"Uncletopia | Frankfurt | 8 | Community","name_short":"frk-8","host":"frk-1.de.uncletopia.com","port":27085,"enabled":true,"region":"eu","cc":"de","latitude":50.110924,"longitude":8.682127,"reserved":0,"last_update":"0001-01-01T00:00:00Z","name_a2s":"Uncletopia | Frankfurt | 8 | Community","protocol":17,"map":"workshop/pl_barnblitz_pro7.ugc582280235","folder":"tf","game":"Team Fortress","app_id":440,"player_count":0,"max_players":24,"Bots":0,"server_type":"Dedicated","server_os":"Linux","password":true,"vac":true,"version":"7961495","steam_id":85568392924742828,"keywords":["nocrits","nodmgspread","payload","uncletopia"],"game_id":440,"stv_port":27086,"stv_name":"Uncletopia | Frankfurt | 8 | Community | STV","players":null},{"server_id":202,"name":"Uncletopia | Hong Kong | 1 | All Maps","name_short":"hgk-1","host":"hgk-1.hk.uncletopia.com","port":27015,"enabled":true,"region":"asia","cc":"hk","latitude":22.302711,"longitude":114.177216,"reserved":0,"last_update":"0001-01-01T00:00:00Z","name_a2s":"Uncletopia | Hong Kong | 1 | All Maps","protocol":17,"map":"cp_sunshine","folder":"tf","game":"Team Fortress","app_id":440,"player_count":0,"max_players":24,"Bots":0,"server_type":"Dedicated","server_os":"Linux","password":true,"vac":true,"version":"7961495","steam_id":85568392924494504,"keywords":["cp","nocrits","nodmgspread","uncletopia"],"game_id":440,"stv_port":27016,"stv_name":"Uncletopia | Hong Kong | 1 | All Maps | STV","players":null},{"server_id":1,"name":"Uncletopia | Los Angeles | 1 | All Maps","name_short":"lax-1","host":"lax-1.us.uncletopia.com","port":27015,"enabled":true,"region":"us-west","cc":"us","latitude":33.94279,"longitude":-118.41004,"reserved":0,"last_update":"0001-01-01T00:00:00Z","name_a2s":"Uncletopia | Los Angeles | 1 | All Maps","protocol":17,"map":"koth_highpass","folder":"tf","game":"Team Fortress","app_id":440,"player_count":0,"max_players":24,"Bots":0,"server_type":"Dedicated","server_os":"Linux","password":true,"vac":true,"version":"7961495","steam_id":85568392924469991,"keywords":["cp","nocrits","nodmgspread","uncletopia"],"game_id":440,"stv_port":27016,"stv_name":"Uncletopia | Los Angeles | 1 | All Maps | STV","players":null},{"server_id":112,"name":"Uncletopia | Los Angeles | 2 | All Maps","name_short":"lax-2","host":"lax-1.us.uncletopia.com","port":27025,"enabled":true,"region":"us-west","cc":"us","latitude":33.94279,"longitude":-118.41004,"reserved":0,"last_update":"0001-01-01T00:00:00Z","name_a2s":"Uncletopia | Los Angeles | 2 | All Maps","protocol":17,"map":"pl_barnblitz","folder":"tf","game":"Team Fortress","app_id":440,"player_count":0,"max_players":24,"Bots":0,"server_type":"Dedicated","server_os":"Linux","password":true,"vac":true,"version":"7961495","steam_id":85568392924469992,"keywords":["nocrits","nodmgspread","payload","uncletopia"],"game_id":440,"stv_port":27026,"stv_name":"Uncletopia | Los Angeles | 2 | All Maps | STV","players":null},{"server_id":324,"name":"Uncletopia | Los Angeles | 3 | All Maps","name_short":"lax-3","host":"lax-1.us.uncletopia.com","port":27035,"enabled":true,"region":"us-west","cc":"us","latitude":33.94279,"longitude":-118.41004,"reserved":0,"last_update":"0001-01-01T00:00:00Z","name_a2s":"Uncletopia | Los Angeles | 3 | All Maps","protocol":17,"map":"cp_dustbowl","folder":"tf","game":"Team Fortress","app_id":440,"player_count":0,"max_players":24,"Bots":0,"server_type":"Dedicated","server_os":"Linux","password":true,"vac":true,"version":"7961495","steam_id":85568392924510198,"keywords":["cp","nocrits","nodmgspread","uncletopia"],"game_id":440,"stv_port":27036,"stv_name":"Uncletopia | Los Angeles | 3 | All Maps | STV","players":null},{"server_id":25,"name":"Uncletopia | Los Angeles | 4 | Stopwatch","name_short":"lax-4","host":"lax-1.us.uncletopia.com","port":27045,"enabled":true,"region":"us-west","cc":"us","latitude":33.94279,"longitude":-118.41004,"reserved":0,"last_update":"0001-01-01T00:00:00Z","name_a2s":"Uncletopia | Los Angeles | 4 | Stopwatch","protocol":17,"map":"pl_barnblitz","folder":"tf","game":"Team Fortress","app_id":440,"player_count":0,"max_players":24,"Bots":0,"server_type":"Dedicated","server_os":"Linux","password":true,"vac":true,"version":"7961495","steam_id":85568392924510199,"keywords":["nocrits","nodmgspread","payload","uncletopia"],"game_id":440,"stv_port":27046,"stv_name":"Uncletopia | Los Angeles | 4 | Stopwatch | STV","players":null},{"server_id":11,"name":"Uncletopia | London | 1 | All Maps","name_short":"lon-1","host":"lon-1.uk.uncletopia.com","port":27015,"enabled":true,"region":"eu","cc":"gb","latitude":51.509865,"longitude":-0.118092,"reserved":0,"last_update":"0001-01-01T00:00:00Z","name_a2s":"Uncletopia | London | 1 | All Maps","protocol":17,"map":"pl_borneo","folder":"tf","game":"Team Fortress","app_id":440,"player_count":24,"max_players":24,"Bots":0,"server_type":"Dedicated","server_os":"Linux","password":true,"vac":true,"version":"7961495","steam_id":85568392924367362,"keywords":["nocrits","nodmgspread","payload","uncletopia"],"game_id":440,"stv_port":27016,"stv_name":"Uncletopia | London | 1 | All Maps | STV","players":[{"user_id":635,"name":"nappo","steam_id":76561198060105180,"connected_time":3605000000000,"state":"active","ping":74},{"user_id":604,"name":"SKY_","steam_id":76561198080980508,"connected_time":6734000000000,"state":"active","ping":67},{"user_id":590,"name":"job application","steam_id":76561198043601838,"connected_time":8116000000000,"state":"active","ping":75},{"user_id":571,"name":"whimsy.","steam_id":76561198878171763,"connected_time":10056000000000,"state":"active","ping":51},{"user_id":658,"name":"WeeGremlin","steam_id":76561198354773732,"connected_time":1083000000000,"state":"active","ping":57},{"user_id":530,"name":"god's eepiest girl","steam_id":76561198128327529,"connected_time":13124000000000,"state":"active","ping":56},{"user_id":579,"name":"ඞauraඞ","steam_id":76561198066258544,"connected_time":9737000000000,"state":"active","ping":60},{"user_id":606,"name":"Plep","steam_id":76561198840259819,"connected_time":6709000000000,"state":"active","ping":56},{"user_id":659,"name":"Aven","steam_id":76561198974343597,"connected_time":1063000000000,"state":"active","ping":84},{"user_id":632,"name":"Zayl","steam_id":76561198064977465,"connected_time":4473000000000,"state":"active","ping":63},{"user_id":647,"name":"getpost","steam_id":76561198260064876,"connected_time":2952000000000,"state":"active","ping":100},{"user_id":649,"name":"HazelForest","steam_id":76561198171827033,"connected_time":2793000000000,"state":"active","ping":57},{"user_id":656,"name":"Croy","steam_id":76561197972552579,"connected_time":1122000000000,"state":"active","ping":45},{"user_id":657,"name":"ein","steam_id":76561198152162834,"connected_time":1118000000000,"state":"active","ping":101},{"user_id":644,"name":"A Featherless Biped","steam_id":76561198307904901,"connected_time":3055000000000,"state":"active","ping":43},{"user_id":655,"name":"Aaron","steam_id":76561197990046953,"connected_time":1414000000000,"state":"active","ping":60},{"user_id":592,"name":"ganja guru GST","steam_id":76561198190583242,"connected_time":8049000000000,"state":"active","ping":92},{"user_id":660,"name":"GoblinGaming","steam_id":76561198360395476,"connected_time":841000000000,"state":"active","ping":40},{"user_id":661,"name":"Janneke Maan","steam_id":76561198069290924,"connected_time":770000000000,"state":"active","ping":66},{"user_id":616,"name":"samir34","steam_id":76561198106049954,"connected_time":5859000000000,"state":"active","ping":78},{"user_id":651,"name":"✪ Danny","steam_id":76561198104483241,"connected_time":2546000000000,"state":"active","ping":53},{"user_id":544,"name":"Fissure","steam_id":76561198272595481,"connected_time":12707000000000,"state":"active","ping":71},{"user_id":634,"name":"trite","steam_id":76561197983765323,"connected_time":3706000000000,"state":"active","ping":57},{"user_id":654,"name":"Chambersite","steam_id":76561198197022399,"connected_time":2095000000000,"state":"active","ping":75}]},{"server_id":114,"name":"Uncletopia | London | 2 | All Maps","name_short":"lon-2","host":"lon-1.uk.uncletopia.com","port":27025,"enabled":true,"region":"eu","cc":"gb","latitude":51.509865,"longitude":-0.118092,"reserved":0,"last_update":"0001-01-01T00:00:00Z","name_a2s":"Uncletopia | London | 2 | All Maps","protocol":17,"map":"pl_pier","folder":"tf","game":"Team Fortress","app_id":440,"player_count":24,"max_players":24,"Bots":0,"server_type":"Dedicated","server_os":"Linux","password":true,"vac":true,"version":"7961495","steam_id":85568392924470941,"keywords":["nocrits","nodmgspread","payload","uncletopia"],"game_id":440,"stv_port":27026,"stv_name":"Uncletopia | London | 2 | All Maps | STV","players":[{"user_id":485,"name":"Nam","steam_id":76561198188110526,"connected_time":121000000000,"state":"active","ping":79},{"user_id":477,"name":"kiki","steam_id":76561198838277022,"connected_time":1180000000000,"state":"active","ping":71},{"user_id":427,"name":"[-K-R-I-S-]","steam_id":76561198298185714,"connected_time":2872000000000,"state":"active","ping":60},{"user_id":419,"name":"Beanie","steam_id":76561198173882658,"connected_time":3718000000000,"state":"active","ping":51},{"user_id":452,"name":"ElegantSort","steam_id":76561198236788328,"connected_time":1997000000000,"state":"active","ping":123},{"user_id":478,"name":"✪ m_br3","steam_id":76561198044981990,"connected_time":1127000000000,"state":"active","ping":75},{"user_id":462,"name":"Fikus","steam_id":76561198351444483,"connected_time":1693000000000,"state":"active","ping":63},{"user_id":470,"name":"Jersku","steam_id":76561198140994845,"connected_time":1515000000000,"state":"active","ping":75},{"user_id":417,"name":"skittish maiden","steam_id":76561198096856475,"connected_time":3748000000000,"state":"active","ping":49},{"user_id":404,"name":"BoPoe","steam_id":76561198093333882,"connected_time":4735000000000,"state":"active","ping":90},{"user_id":440,"name":"Gaxkang","steam_id":76561198125768571,"connected_time":2328000000000,"state":"active","ping":59},{"user_id":482,"name":"Adwulf","steam_id":76561198045489942,"connected_time":417000000000,"state":"active","ping":60},{"user_id":468,"name":"Dingle Loui","steam_id":76561198114985331,"connected_time":1537000000000,"state":"active","ping":60},{"user_id":457,"name":"lillunya ♡","steam_id":76561198330418866,"connected_time":1875000000000,"state":"active","ping":69},{"user_id":420,"name":"Jezal dan Luthar","steam_id":76561198989449047,"connected_time":3699000000000,"state":"active","ping":129},{"user_id":469,"name":"limEzlay","steam_id":76561198350376612,"connected_time":1531000000000,"state":"active","ping":91},{"user_id":486,"name":"Ganasti","steam_id":76561198382925185,"connected_time":101000000000,"state":"active","ping":101},{"user_id":416,"name":"Saplings Incorporated","steam_id":76561198047660367,"connected_time":3937000000000,"state":"active","ping":54},{"user_id":481,"name":"Kahvi","steam_id":76561198723244199,"connected_time":483000000000,"state":"active","ping":86},{"user_id":487,"name":"Martin","steam_id":76561197963416927,"connected_time":62000000000,"state":"active","ping":56},{"user_id":483,"name":"LiterallyRyanGosling","steam_id":76561199017856691,"connected_time":157000000000,"state":"active","ping":58},{"user_id":484,"name":"Crippled Pirate","steam_id":76561198081339137,"connected_time":155000000000,"state":"active","ping":76},{"user_id":401,"name":"fence_","steam_id":76561198150386379,"connected_time":4962000000000,"state":"active","ping":47},{"user_id":356,"name":"FistfulOfKittens","steam_id":76561198323611129,"connected_time":7587000000000,"state":"active","ping":80}]},{"server_id":320,"name":"Uncletopia | London | 3 | All Maps","name_short":"lon-3","host":"lon-1.uk.uncletopia.com","port":27035,"enabled":true,"region":"eu","cc":"gb","latitude":51.509865,"longitude":-0.118092,"reserved":0,"last_update":"0001-01-01T00:00:00Z","name_a2s":"Uncletopia | London | 3 | All Maps","protocol":17,"map":"pl_badwater","folder":"tf","game":"Team Fortress","app_id":440,"player_count":24,"max_players":24,"Bots":0,"server_type":"Dedicated","server_os":"Linux","password":true,"vac":true,"version":"7961495","steam_id":85568392924510192,"keywords":["nocrits","nodmgspread","payload","uncletopia"],"game_id":440,"stv_port":27036,"stv_name":"Uncletopia | London | 3 | All Maps | STV","players":[{"user_id":208,"name":"N0tzz","steam_id":76561198391025653,"connected_time":1336000000000,"state":"active","ping":70},{"user_id":198,"name":"Kenjii.","steam_id":76561198064421549,"connected_time":2489000000000,"state":"active","ping":63},{"user_id":216,"name":"SuntanPikachu","steam_id":76561198121242476,"connected_time":869000000000,"state":"active","ping":78},{"user_id":214,"name":"GogsCrunchyNuts","steam_id":76561198150599213,"connected_time":1102000000000,"state":"active","ping":75},{"user_id":217,"name":"Stoneley","steam_id":76561199182443625,"connected_time":853000000000,"state":"active","ping":60},{"user_id":218,"name":"Holy Bingle","steam_id":76561198349648942,"connected_time":842000000000,"state":"active","ping":75},{"user_id":164,"name":"M2rtRa","steam_id":76561198111036466,"connected_time":5140000000000,"state":"active","ping":75},{"user_id":227,"name":"Escobar","steam_id":76561198089785078,"connected_time":219000000000,"state":"active","ping":107},{"user_id":219,"name":"Doktor Drip","steam_id":76561198843329045,"connected_time":829000000000,"state":"active","ping":105},{"user_id":185,"name":"Bounter","steam_id":76561198072614188,"connected_time":3148000000000,"state":"active","ping":76},{"user_id":187,"name":"Cheese_Fiend","steam_id":76561198026899984,"connected_time":2956000000000,"state":"active","ping":58},{"user_id":178,"name":"Curlew","steam_id":76561198075884540,"connected_time":3471000000000,"state":"active","ping":69},{"user_id":200,"name":"Birch","steam_id":76561197998712822,"connected_time":2252000000000,"state":"active","ping":46},{"user_id":205,"name":"mona","steam_id":76561198103773708,"connected_time":1626000000000,"state":"active","ping":58},{"user_id":220,"name":"flamingosaurus","steam_id":76561198051455397,"connected_time":816000000000,"state":"active","ping":45},{"user_id":224,"name":"W","steam_id":76561198190816499,"connected_time":429000000000,"state":"active","ping":81},{"user_id":228,"name":"Throughouty and graty","steam_id":76561198799953945,"connected_time":195000000000,"state":"active","ping":50},{"user_id":226,"name":"I sell exotic parrots","steam_id":76561199192434258,"connected_time":303000000000,"state":"active","ping":92},{"user_id":215,"name":"dodge","steam_id":76561198085296668,"connected_time":940000000000,"state":"active","ping":43},{"user_id":206,"name":"Saul Badman","steam_id":76561199013233409,"connected_time":1611000000000,"state":"active","ping":67},{"user_id":211,"name":"Na'vi Misato (by popular demand","steam_id":76561198130860698,"connected_time":1133000000000,"state":"active","ping":62},{"user_id":163,"name":"2006 Mitsubishi Lancer","steam_id":76561198036632498,"connected_time":5151000000000,"state":"active","ping":43},{"user_id":223,"name":"Bonca","steam_id":76561198137503531,"connected_time":623000000000,"state":"active","ping":69},{"user_id":229,"name":"fl1p","steam_id":76561198148565659,"connected_time":194000000000,"state":"active","ping":75}]},{"server_id":321,"name":"Uncletopia | London | 4 | All Maps","name_short":"lon-4","host":"lon-1.uk.uncletopia.com","port":27045,"enabled":true,"region":"eu","cc":"gb","latitude":51.509865,"longitude":-0.118092,"reserved":0,"last_update":"0001-01-01T00:00:00Z","name_a2s":"Uncletopia | London | 4 | All Maps","protocol":17,"map":"plr_bananabay","folder":"tf","game":"Team Fortress","app_id":440,"player_count":24,"max_players":24,"Bots":0,"server_type":"Dedicated","server_os":"Linux","password":true,"vac":true,"version":"7961495","steam_id":85568392924510193,"keywords":["nocrits","nodmgspread","payload","uncletopia"],"game_id":440,"stv_port":27046,"stv_name":"Uncletopia | London | 4 | All Maps | STV","players":[{"user_id":327,"name":"golfmastr","steam_id":76561198993144124,"connected_time":6011000000000,"state":"active","ping":62},{"user_id":414,"name":"BETITO","steam_id":76561198095957183,"connected_time":1363000000000,"state":"active","ping":85},{"user_id":437,"name":"Nyoom","steam_id":76561198054585002,"connected_time":192000000000,"state":"active","ping":52},{"user_id":445,"name":"cisgender clown","steam_id":76561199469909295,"connected_time":92000000000,"state":"active","ping":70},{"user_id":434,"name":"Yekatorro","steam_id":76561198032144173,"connected_time":363000000000,"state":"active","ping":70},{"user_id":340,"name":":3","steam_id":76561198169471853,"connected_time":5461000000000,"state":"active","ping":41},{"user_id":439,"name":"Skindlybob","steam_id":76561198330040827,"connected_time":182000000000,"state":"active","ping":57},{"user_id":440,"name":"Solid Snake holding a pepsi","steam_id":76561198348396493,"connected_time":174000000000,"state":"active","ping":42},{"user_id":433,"name":"kwayeh","steam_id":76561197960546492,"connected_time":419000000000,"state":"active","ping":60},{"user_id":421,"name":"CEO of god Inc.","steam_id":76561199128528323,"connected_time":634000000000,"state":"active","ping":53},{"user_id":408,"name":"Suspicious Viktor","steam_id":76561198136496249,"connected_time":1757000000000,"state":"active","ping":74},{"user_id":441,"name":"caramelldancin'","steam_id":76561198193357946,"connected_time":169000000000,"state":"active","ping":102},{"user_id":423,"name":"gaming (official)","steam_id":76561198106012909,"connected_time":610000000000,"state":"active","ping":82},{"user_id":412,"name":"Merciz","steam_id":76561197971808715,"connected_time":1641000000000,"state":"active","ping":97},{"user_id":425,"name":"The Fresh Meat","steam_id":76561199443064206,"connected_time":545000000000,"state":"active","ping":71},{"user_id":447,"name":"Baron","steam_id":76561198021901783,"connected_time":9000000000,"state":"spawning","ping":49},{"user_id":426,"name":"D.T. Katze","steam_id":76561198002280813,"connected_time":542000000000,"state":"active","ping":127},{"user_id":436,"name":"Jasperatus","steam_id":76561198196733750,"connected_time":264000000000,"state":"active","ping":87},{"user_id":435,"name":"bombo112","steam_id":76561198059743551,"connected_time":270000000000,"state":"active","ping":82},{"user_id":448,"name":"Teecho","steam_id":76561197995269610,"connected_time":3000000000,"state":"spawning","ping":31},{"user_id":430,"name":"tf2c killed my family","steam_id":76561198388750592,"connected_time":455000000000,"state":"active","ping":74},{"user_id":431,"name":"f l я n","steam_id":76561198079595755,"connected_time":435000000000,"state":"active","ping":57},{"user_id":442,"name":"Tomoyo✧:･","steam_id":76561199106129165,"connected_time":158000000000,"state":"active","ping":47},{"user_id":449,"name":"1312589","steam_id":76561198079293782,"connected_time":3000000000,"state":"spawning","ping":131}]},{"server_id":21,"name":"Uncletopia | London | 5 | All Maps","name_short":"lon-5","host":"lon-1.uk.uncletopia.com","port":27055,"enabled":true,"region":"eu","cc":"gb","latitude":51.509865,"longitude":-0.118092,"reserved":0,"last_update":"0001-01-01T00:00:00Z","name_a2s":"Uncletopia | London | 5 | All Maps","protocol":17,"map":"pl_upward","folder":"tf","game":"Team Fortress","app_id":440,"player_count":24,"max_players":24,"Bots":0,"server_type":"Dedicated","server_os":"Linux","password":true,"vac":true,"version":"7961495","steam_id":85568392924742829,"keywords":["nocrits","nodmgspread","payload","uncletopia"],"game_id":440,"stv_port":27056,"stv_name":"Uncletopia | London | 5 | All Maps | STV","players":[{"user_id":173,"name":"Nils ronny","steam_id":76561198175245827,"connected_time":18783000000000,"state":"active","ping":78},{"user_id":325,"name":"Kernel Panic","steam_id":76561198215811047,"connected_time":6409000000000,"state":"active","ping":36},{"user_id":401,"name":"A Low-Hanging Ceiling","steam_id":76561198894586082,"connected_time":669000000000,"state":"active","ping":126},{"user_id":404,"name":"FoOzTV","steam_id":76561197998636728,"connected_time":276000000000,"state":"active","ping":53},{"user_id":405,"name":"Grimm","steam_id":76561198044684227,"connected_time":269000000000,"state":"active","ping":57},{"user_id":403,"name":"Ullr","steam_id":76561198140547483,"connected_time":487000000000,"state":"active","ping":45},{"user_id":406,"name":"Michael","steam_id":76561198003146906,"connected_time":255000000000,"state":"active","ping":49},{"user_id":407,"name":"Krabs","steam_id":76561198161679477,"connected_time":244000000000,"state":"active","ping":65},{"user_id":391,"name":"PROFILE NAME","steam_id":76561198180056982,"connected_time":1585000000000,"state":"active","ping":57},{"user_id":408,"name":"random_player691","steam_id":76561199209946306,"connected_time":239000000000,"state":"active","ping":47},{"user_id":372,"name":"YunikkoN","steam_id":76561198211962412,"connected_time":3607000000000,"state":"active","ping":107},{"user_id":419,"name":"pine cone","steam_id":76561198168254686,"connected_time":52000000000,"state":"active","ping":84},{"user_id":387,"name":"Ben UFO","steam_id":76561198001648348,"connected_time":1683000000000,"state":"active","ping":51},{"user_id":352,"name":"blissful overdose","steam_id":76561199092286532,"connected_time":4974000000000,"state":"active","ping":93},{"user_id":400,"name":"disco devil","steam_id":76561197987880445,"connected_time":735000000000,"state":"active","ping":85},{"user_id":420,"name":"orphan smeller","steam_id":76561198107876224,"connected_time":31000000000,"state":"active","ping":49},{"user_id":402,"name":"Censored","steam_id":76561197987095550,"connected_time":500000000000,"state":"active","ping":105},{"user_id":410,"name":"The worst TF2 player(fake)","steam_id":76561199184873889,"connected_time":232000000000,"state":"active","ping":68},{"user_id":415,"name":"Mr_Draegoth","steam_id":76561198045226420,"connected_time":184000000000,"state":"active","ping":43},{"user_id":305,"name":"Supercoxylac","steam_id":76561198376300138,"connected_time":8151000000000,"state":"active","ping":67},{"user_id":421,"name":"Cobalt","steam_id":76561198349228196,"connected_time":0,"state":"spawning","ping":0},{"user_id":418,"name":"Juno","steam_id":76561198073839911,"connected_time":91000000000,"state":"active","ping":60},{"user_id":413,"name":"Lucan","steam_id":76561198219195135,"connected_time":227000000000,"state":"active","ping":47},{"user_id":414,"name":"FrameTrash","steam_id":76561199167260122,"connected_time":227000000000,"state":"active","ping":161}]},{"server_id":22,"name":"Uncletopia | London | 6 | All Maps","name_short":"lon-6","host":"lon-1.uk.uncletopia.com","port":27065,"enabled":true,"region":"eu","cc":"gb","latitude":51.509865,"longitude":-0.118092,"reserved":0,"last_update":"0001-01-01T00:00:00Z","name_a2s":"Uncletopia | London | 6 | All Maps","protocol":17,"map":"pl_borneo","folder":"tf","game":"Team Fortress","app_id":440,"player_count":24,"max_players":24,"Bots":0,"server_type":"Dedicated","server_os":"Linux","password":true,"vac":true,"version":"7961495","steam_id":85568392924742830,"keywords":["nocrits","nodmgspread","payload","uncletopia"],"game_id":440,"stv_port":27066,"stv_name":"Uncletopia | London | 6 | All Maps | STV","players":[{"user_id":182,"name":"full of pilk","steam_id":76561198092716651,"connected_time":9869000000000,"state":"active","ping":167},{"user_id":148,"name":"Tero","steam_id":76561198073147972,"connected_time":13245000000000,"state":"active","ping":82},{"user_id":271,"name":"The Spook","steam_id":76561198017771669,"connected_time":2707000000000,"state":"active","ping":83},{"user_id":270,"name":"Severeburrito16","steam_id":76561198353155991,"connected_time":2720000000000,"state":"active","ping":130},{"user_id":139,"name":"Cat","steam_id":76561198027383284,"connected_time":13489000000000,"state":"active","ping":75},{"user_id":225,"name":"FROG IndigoJones","steam_id":76561198050284262,"connected_time":6138000000000,"state":"active","ping":50},{"user_id":244,"name":"soup","steam_id":76561198077790130,"connected_time":4496000000000,"state":"active","ping":148},{"user_id":295,"name":"eXenz","steam_id":76561198255136723,"connected_time":297000000000,"state":"active","ping":69},{"user_id":141,"name":"doc","steam_id":76561197997949711,"connected_time":13474000000000,"state":"active","ping":149},{"user_id":294,"name":"who want D?","steam_id":76561198830637623,"connected_time":325000000000,"state":"active","ping":170},{"user_id":281,"name":"general.b","steam_id":76561198162480519,"connected_time":1757000000000,"state":"active","ping":119},{"user_id":275,"name":"...","steam_id":76561198223603960,"connected_time":2633000000000,"state":"active","ping":46},{"user_id":297,"name":"mr mufasi","steam_id":76561198068453867,"connected_time":138000000000,"state":"active","ping":52},{"user_id":286,"name":"Finn","steam_id":76561198179960193,"connected_time":947000000000,"state":"active","ping":44},{"user_id":287,"name":"dragonos451","steam_id":76561198041146385,"connected_time":929000000000,"state":"active","ping":60},{"user_id":299,"name":"The","steam_id":76561199378865926,"connected_time":28000000000,"state":"active","ping":80},{"user_id":268,"name":"Doctor Mobius","steam_id":76561197971281806,"connected_time":2829000000000,"state":"active","ping":72},{"user_id":298,"name":"keepflatandenjoy","steam_id":76561198976062150,"connected_time":132000000000,"state":"active","ping":59},{"user_id":300,"name":"Crunchy","steam_id":76561198184973203,"connected_time":24000000000,"state":"spawning","ping":70},{"user_id":288,"name":"sarii ☆","steam_id":76561199155102111,"connected_time":928000000000,"state":"active","ping":81},{"user_id":273,"name":"Tusho","steam_id":76561198115447383,"connected_time":2642000000000,"state":"active","ping":101},{"user_id":301,"name":"The Burger","steam_id":76561198124463930,"connected_time":10000000000,"state":"active","ping":85},{"user_id":289,"name":"Swiss_Nostalgia","steam_id":76561199159896259,"connected_time":925000000000,"state":"active","ping":69},{"user_id":292,"name":"Visphiric","steam_id":76561198071938027,"connected_time":447000000000,"state":"active","ping":38}]},{"server_id":40,"name":"Uncletopia | London | 7 | Stopwatch","name_short":"lon-7","host":"lon-1.uk.uncletopia.com","port":27075,"enabled":true,"region":"eu","cc":"gb","latitude":51.509865,"longitude":-0.118092,"reserved":0,"last_update":"0001-01-01T00:00:00Z","name_a2s":"Uncletopia | London | 7 | Stopwatch","protocol":17,"map":"workshop/pl_badwater_pro_v12.ugc2142942074","folder":"tf","game":"Team Fortress","app_id":440,"player_count":20,"max_players":24,"Bots":0,"server_type":"Dedicated","server_os":"Linux","password":true,"vac":true,"version":"7961495","steam_id":85568392924964314,"keywords":["nocrits","nodmgspread","payload","uncletopia"],"game_id":440,"stv_port":27076,"stv_name":"Uncletopia | London | 7 | Stopwatch | STV","players":[{"user_id":23,"name":"Sir Sammie","steam_id":76561198329808137,"connected_time":3538000000000,"state":"active","ping":45},{"user_id":24,"name":"Dungdil","steam_id":76561198351930639,"connected_time":3135000000000,"state":"active","ping":72},{"user_id":80,"name":"Something🤙","steam_id":76561198375358222,"connected_time":434000000000,"state":"active","ping":49},{"user_id":73,"name":"child cruncher","steam_id":76561199376433147,"connected_time":756000000000,"state":"active","ping":45},{"user_id":33,"name":"Osmo","steam_id":76561199286764992,"connected_time":2099000000000,"state":"active","ping":83},{"user_id":34,"name":"HoneyBe_","steam_id":76561198288930154,"connected_time":2073000000000,"state":"active","ping":69},{"user_id":97,"name":"JimmyFelix","steam_id":76561197972426883,"connected_time":179000000000,"state":"active","ping":64},{"user_id":71,"name":"Egor Pomidor","steam_id":76561199175688390,"connected_time":883000000000,"state":"active","ping":89},{"user_id":99,"name":"un puie","steam_id":76561198084056439,"connected_time":22000000000,"state":"active","ping":31},{"user_id":47,"name":"*Stare*","steam_id":76561199072209884,"connected_time":1399000000000,"state":"active","ping":54},{"user_id":98,"name":"nut fast, chucklethink","steam_id":76561198151495820,"connected_time":119000000000,"state":"active","ping":81},{"user_id":45,"name":"DEEZ NUTZ 445","steam_id":76561199403997779,"connected_time":1446000000000,"state":"active","ping":196},{"user_id":65,"name":"TPD16","steam_id":76561198354138834,"connected_time":999000000000,"state":"active","ping":58},{"user_id":70,"name":"Fatmagic Mukbang ASMR","steam_id":76561198063492110,"connected_time":935000000000,"state":"active","ping":82},{"user_id":50,"name":"14 ants","steam_id":76561198036119802,"connected_time":1305000000000,"state":"active","ping":57},{"user_id":51,"name":"Degree","steam_id":76561198100486641,"connected_time":1299000000000,"state":"active","ping":87},{"user_id":85,"name":"collateralaoe","steam_id":76561198297151242,"connected_time":395000000000,"state":"active","ping":49},{"user_id":86,"name":"RosieTheBeeScout","steam_id":76561198156007278,"connected_time":381000000000,"state":"active","ping":49},{"user_id":87,"name":"Nick","steam_id":76561199445045503,"connected_time":360000000000,"state":"active","ping":55},{"user_id":89,"name":"aKort","steam_id":76561198975510888,"connected_time":345000000000,"state":"active","ping":62}]},{"server_id":41,"name":"Uncletopia | London | 8 | Community","name_short":"lon-8","host":"lon-1.uk.uncletopia.com","port":27085,"enabled":true,"region":"eu","cc":"gb","latitude":51.509865,"longitude":-0.118092,"reserved":0,"last_update":"0001-01-01T00:00:00Z","name_a2s":"Uncletopia | London | 8 | Community","protocol":17,"map":"workshop/pl_corrode_rc2.ugc546577989","folder":"tf","game":"Team Fortress","app_id":440,"player_count":0,"max_players":24,"Bots":0,"server_type":"Dedicated","server_os":"Linux","password":true,"vac":true,"version":"7961495","steam_id":85568392924964315,"keywords":["nocrits","nodmgspread","payload","uncletopia"],"game_id":440,"stv_port":27086,"stv_name":"Uncletopia | London | 8 | Community | STV","players":null},{"server_id":300,"name":"Uncletopia | Montréal | 1 | One Thousand Uncles","name_short":"mtl-1","host":"mtl-1.ca.uncletopia.com","port":27015,"enabled":true,"region":"us-east","cc":"ca","latitude":45.50889,"longitude":-73.56167,"reserved":0,"last_update":"0001-01-01T00:00:00Z","name_a2s":"","protocol":0,"map":"","folder":"","game":"","app_id":0,"player_count":4,"max_players":0,"Bots":0,"server_type":"","server_os":"","password":false,"vac":false,"version":"","steam_id":0,"keywords":null,"game_id":0,"stv_port":0,"stv_name":"","players":[{"user_id":68,"name":"petitjayd22","steam_id":76561199389238003,"connected_time":972000000000,"state":"active","ping":41},{"user_id":85,"name":"hamletespacial","steam_id":76561199084414649,"connected_time":726000000000,"state":"active","ping":80},{"user_id":86,"name":"Clean Kar","steam_id":76561199397341225,"connected_time":137000000000,"state":"active","ping":54},{"user_id":87,"name":"beeems","steam_id":76561198331890419,"connected_time":25000000000,"state":"active","ping":79}]},{"server_id":301,"name":"Uncletopia | Montréal | 2 | One Thousand Uncles","name_short":"mtl-2","host":"mtl-1.ca.uncletopia.com","port":27025,"enabled":true,"region":"us-east","cc":"ca","latitude":45.50889,"longitude":-73.56167,"reserved":0,"last_update":"0001-01-01T00:00:00Z","name_a2s":"","protocol":0,"map":"","folder":"","game":"","app_id":0,"player_count":0,"max_players":0,"Bots":0,"server_type":"","server_os":"","password":false,"vac":false,"version":"","steam_id":0,"keywords":null,"game_id":0,"stv_port":0,"stv_name":"","players":null},{"server_id":302,"name":"Uncletopia | Montréal | 3 | One Thousand Uncles","name_short":"mtl-3","host":"mtl-1.ca.uncletopia.com","port":27035,"enabled":true,"region":"us-east","cc":"ca","latitude":45.50889,"longitude":-73.56167,"reserved":0,"last_update":"0001-01-01T00:00:00Z","name_a2s":"","protocol":0,"map":"","folder":"","game":"","app_id":0,"player_count":0,"max_players":0,"Bots":0,"server_type":"","server_os":"","password":false,"vac":false,"version":"","steam_id":0,"keywords":null,"game_id":0,"stv_port":0,"stv_name":"","players":null},{"server_id":13,"name":"Uncletopia | New York City | 1 | All Maps","name_short":"nyc-1","host":"nyc-1.us.uncletopia.com","port":27015,"enabled":true,"region":"us-east","cc":"us","latitude":40.73061,"longitude":-73.93524,"reserved":0,"last_update":"0001-01-01T00:00:00Z","name_a2s":"Uncletopia | New York City | 1 | All Maps","protocol":17,"map":"koth_lakeside_final","folder":"tf","game":"Team Fortress","app_id":440,"player_count":0,"max_players":24,"Bots":0,"server_type":"Dedicated","server_os":"Linux","password":true,"vac":true,"version":"7961495","steam_id":85568392924469993,"keywords":["cp","nocrits","nodmgspread","uncletopia"],"game_id":440,"stv_port":27016,"stv_name":"Uncletopia | New York City | 1 | All Maps | STV","players":null},{"server_id":14,"name":"Uncletopia | New York City | 2 | All Maps","name_short":"nyc-2","host":"nyc-1.us.uncletopia.com","port":27025,"enabled":true,"region":"us-east","cc":"us","latitude":40.73061,"longitude":-73.93524,"reserved":0,"last_update":"0001-01-01T00:00:00Z","name_a2s":"Uncletopia | New York City | 2 | All Maps","protocol":17,"map":"cp_snakewater_final1","folder":"tf","game":"Team Fortress","app_id":440,"player_count":24,"max_players":24,"Bots":0,"server_type":"Dedicated","server_os":"Linux","password":true,"vac":true,"version":"7961495","steam_id":85568392924469994,"keywords":["cp","nocrits","nodmgspread","uncletopia"],"game_id":440,"stv_port":27026,"stv_name":"Uncletopia | New York City | 2 | All Maps | STV","players":[{"user_id":193,"name":"Buck","steam_id":76561198064244796,"connected_time":4993000000000,"state":"active","ping":72},{"user_id":227,"name":"Slasher69","steam_id":76561198027679752,"connected_time":2231000000000,"state":"active","ping":87},{"user_id":233,"name":"A Puppy","steam_id":76561198828184456,"connected_time":1867000000000,"state":"active","ping":45},{"user_id":250,"name":"jaytheking05","steam_id":76561198856419769,"connected_time":307000000000,"state":"active","ping":51},{"user_id":210,"name":"splot","steam_id":76561199133681385,"connected_time":3768000000000,"state":"active","ping":85},{"user_id":232,"name":"Sylvain","steam_id":76561198113385271,"connected_time":1953000000000,"state":"active","ping":64},{"user_id":219,"name":"Not Lunar","steam_id":76561199128672031,"connected_time":3235000000000,"state":"active","ping":217},{"user_id":252,"name":"Beta Fish","steam_id":76561198073504861,"connected_time":64000000000,"state":"active","ping":62},{"user_id":243,"name":"peanut butter","steam_id":76561198117839474,"connected_time":1118000000000,"state":"active","ping":64},{"user_id":130,"name":"I eat kids","steam_id":76561199195104977,"connected_time":8287000000000,"state":"active","ping":65},{"user_id":239,"name":"twitch.tv/axities","steam_id":76561198278008225,"connected_time":1342000000000,"state":"active","ping":74},{"user_id":236,"name":"Chase McCain","steam_id":76561198314538469,"connected_time":1545000000000,"state":"active","ping":60},{"user_id":181,"name":"pnut","steam_id":76561198043862737,"connected_time":6131000000000,"state":"active","ping":44},{"user_id":240,"name":"otwtomarsoffdabars(spacecore)","steam_id":76561199085974120,"connected_time":1284000000000,"state":"active","ping":61},{"user_id":251,"name":"leumas","steam_id":76561198240408540,"connected_time":263000000000,"state":"active","ping":44},{"user_id":249,"name":"Berries","steam_id":76561198109312962,"connected_time":370000000000,"state":"active","ping":61},{"user_id":202,"name":"the keebler","steam_id":76561199486326945,"connected_time":4238000000000,"state":"active","ping":74},{"user_id":242,"name":"Peeps","steam_id":76561198427305377,"connected_time":1144000000000,"state":"active","ping":46},{"user_id":244,"name":"epsilene","steam_id":76561198027468624,"connected_time":898000000000,"state":"active","ping":42},{"user_id":247,"name":"there's a spy in my ass","steam_id":76561198336750909,"connected_time":410000000000,"state":"active","ping":48},{"user_id":245,"name":"tailorturtle","steam_id":76561198107481127,"connected_time":681000000000,"state":"active","ping":63},{"user_id":225,"name":"loscemo","steam_id":76561197994884609,"connected_time":2575000000000,"state":"active","ping":67},{"user_id":183,"name":"Fercho Mo","steam_id":76561198168935077,"connected_time":5875000000000,"state":"active","ping":110},{"user_id":238,"name":"Bacchus","steam_id":76561198113244990,"connected_time":1360000000000,"state":"active","ping":72}]},{"server_id":15,"name":"Uncletopia | New York City | 3 | Stopwatch","name_short":"nyc-3","host":"nyc-1.us.uncletopia.com","port":27035,"enabled":true,"region":"us-east","cc":"us","latitude":40.73061,"longitude":-73.93524,"reserved":0,"last_update":"0001-01-01T00:00:00Z","name_a2s":"Uncletopia | New York City | 3 | Stopwatch","protocol":17,"map":"pl_snowycoast","folder":"tf","game":"Team Fortress","app_id":440,"player_count":0,"max_players":24,"Bots":0,"server_type":"Dedicated","server_os":"Linux","password":true,"vac":true,"version":"7961495","steam_id":85568392924742820,"keywords":["nocrits","nodmgspread","payload","uncletopia"],"game_id":440,"stv_port":27036,"stv_name":"Uncletopia | New York City | 3 | Stopwatch | STV","players":null},{"server_id":16,"name":"Uncletopia | New York City | 4 | Community","name_short":"nyc-4","host":"nyc-1.us.uncletopia.com","port":27045,"enabled":true,"region":"us-east","cc":"us","latitude":40.73061,"longitude":-73.93524,"reserved":0,"last_update":"0001-01-01T00:00:00Z","name_a2s":"Uncletopia | New York City | 4 | Community","protocol":17,"map":"cp_altitude","folder":"tf","game":"Team Fortress","app_id":440,"player_count":0,"max_players":24,"Bots":0,"server_type":"Dedicated","server_os":"Linux","password":true,"vac":true,"version":"7961495","steam_id":85568392924742821,"keywords":["cp","nocrits","nodmgspread","uncletopia"],"game_id":440,"stv_port":27046,"stv_name":"Uncletopia | New York City | 4 | Community | STV","players":null},{"server_id":142,"name":"Uncletopia | São Paulo | 1 | All Maps","name_short":"sao-1","host":"sao-1.br.uncletopia.com","port":27015,"enabled":true,"region":"sa","cc":"br","latitude":-23.533773,"longitude":-46.62529,"reserved":0,"last_update":"0001-01-01T00:00:00Z","name_a2s":"Uncletopia | São Paulo | 1 | All Maps","protocol":17,"map":"koth_cascade","folder":"tf","game":"Team Fortress","app_id":440,"player_count":0,"max_players":24,"Bots":0,"server_type":"Dedicated","server_os":"Linux","password":true,"vac":true,"version":"7961495","steam_id":85568392924469996,"keywords":["cp","nocrits","nodmgspread","uncletopia"],"game_id":440,"stv_port":27016,"stv_name":"Uncletopia | São Paulo | 1 | All Maps | STV","players":null},{"server_id":143,"name":"Uncletopia | São Paulo | 2 | Community","name_short":"sao-2","host":"sao-2.br.uncletopia.com","port":27015,"enabled":true,"region":"sa","cc":"br","latitude":-23.533773,"longitude":-46.62529,"reserved":0,"last_update":"0001-01-01T00:00:00Z","name_a2s":"Uncletopia | São Paulo | 2 | Community","protocol":17,"map":"workshop/cp_propaganda_b18.ugc1603743849","folder":"tf","game":"Team Fortress","app_id":440,"player_count":0,"max_players":24,"Bots":0,"server_type":"Dedicated","server_os":"Linux","password":true,"vac":true,"version":"7961495","steam_id":85568392924485349,"keywords":["cp","nocrits","nodmgspread","uncletopia"],"game_id":440,"stv_port":27016,"stv_name":"Uncletopia | São Paulo | 2 | Community | STV","players":null},{"server_id":7,"name":"Uncletopia | Seattle | 1 | All Maps","name_short":"sea-1","host":"sea-1.us.uncletopia.com","port":27015,"enabled":true,"region":"us-west","cc":"us","latitude":47.608013,"longitude":-122.33517,"reserved":0,"last_update":"0001-01-01T00:00:00Z","name_a2s":"Uncletopia | Seattle | 1 | All Maps","protocol":17,"map":"cp_dustbowl","folder":"tf","game":"Team Fortress","app_id":440,"player_count":24,"max_players":24,"Bots":0,"server_type":"Dedicated","server_os":"Linux","password":true,"vac":true,"version":"7961495","steam_id":85568392924469997,"keywords":["cp","nocrits","nodmgspread","uncletopia"],"game_id":440,"stv_port":27016,"stv_name":"Uncletopia | Seattle | 1 | All Maps | STV","players":[{"user_id":257,"name":"slushy :))","steam_id":76561198135281802,"connected_time":1230000000000,"state":"active","ping":30},{"user_id":241,"name":"laughs bigman","steam_id":76561198067714032,"connected_time":2156000000000,"state":"active","ping":81},{"user_id":218,"name":"[GU1Z] Palamute Jho","steam_id":76561199219936729,"connected_time":3561000000000,"state":"active","ping":68},{"user_id":273,"name":"Petrivus","steam_id":76561198202152453,"connected_time":188000000000,"state":"active","ping":46},{"user_id":256,"name":"doomshroom","steam_id":76561198092827250,"connected_time":1237000000000,"state":"active","ping":45},{"user_id":261,"name":"ElShaggy","steam_id":76561198148870214,"connected_time":1144000000000,"state":"active","ping":75},{"user_id":251,"name":"RectalExam","steam_id":76561197970502312,"connected_time":1529000000000,"state":"active","ping":126},{"user_id":188,"name":"cielael","steam_id":76561198043971956,"connected_time":6258000000000,"state":"active","ping":89},{"user_id":255,"name":"shrom???","steam_id":76561198364418982,"connected_time":1436000000000,"state":"active","ping":120},{"user_id":268,"name":"Professor Prostate","steam_id":76561198053117503,"connected_time":687000000000,"state":"active","ping":60},{"user_id":264,"name":"dree :))","steam_id":76561198079178866,"connected_time":1089000000000,"state":"active","ping":120},{"user_id":254,"name":"Onion My Ate Dog My","steam_id":76561198155848925,"connected_time":1440000000000,"state":"active","ping":116},{"user_id":245,"name":"asimus","steam_id":76561199141433499,"connected_time":2045000000000,"state":"active","ping":134},{"user_id":230,"name":"Mystic man of potatoe","steam_id":76561198027267207,"connected_time":3037000000000,"state":"active","ping":81},{"user_id":238,"name":"hotdog gamer","steam_id":76561198146746361,"connected_time":2513000000000,"state":"active","ping":98},{"user_id":248,"name":"Nom Skirrett","steam_id":76561198014600788,"connected_time":1893000000000,"state":"active","ping":65},{"user_id":151,"name":"Explise 209803","steam_id":76561198044413891,"connected_time":8518000000000,"state":"active","ping":83},{"user_id":265,"name":"l u n a r .","steam_id":76561198075773796,"connected_time":1033000000000,"state":"active","ping":69},{"user_id":198,"name":"twitch.tv/rustyorion","steam_id":76561198439186347,"connected_time":5214000000000,"state":"active","ping":53},{"user_id":267,"name":"Certifyed Pimp","steam_id":76561198243238038,"connected_time":846000000000,"state":"active","ping":121},{"user_id":210,"name":"lukamine","steam_id":76561198166827208,"connected_time":4422000000000,"state":"active","ping":44},{"user_id":247,"name":"Junk","steam_id":76561198024382753,"connected_time":2028000000000,"state":"active","ping":95},{"user_id":250,"name":"Hashmere","steam_id":76561198002797253,"connected_time":1573000000000,"state":"active","ping":121},{"user_id":272,"name":"Darkgigglemonster","steam_id":76561198870649125,"connected_time":348000000000,"state":"active","ping":86}]},{"server_id":119,"name":"Uncletopia | Seattle | 2 | All Maps","name_short":"sea-2","host":"sea-1.us.uncletopia.com","port":27025,"enabled":true,"region":"us-west","cc":"us","latitude":47.608013,"longitude":-122.33517,"reserved":0,"last_update":"0001-01-01T00:00:00Z","name_a2s":"Uncletopia | Seattle | 2 | All Maps","protocol":17,"map":"pl_upward","folder":"tf","game":"Team Fortress","app_id":440,"player_count":0,"max_players":24,"Bots":0,"server_type":"Dedicated","server_os":"Linux","password":true,"vac":true,"version":"7961495","steam_id":85568392924469998,"keywords":["nocrits","nodmgspread","payload","uncletopia"],"game_id":440,"stv_port":27026,"stv_name":"Uncletopia | Seattle | 2 | All Maps | STV","players":null},{"server_id":406,"name":"Uncletopia | Seattle | 3 | Stopwatch","name_short":"sea-3","host":"sea-1.us.uncletopia.com","port":27035,"enabled":true,"region":"us-west","cc":"us","latitude":47.608013,"longitude":-122.33517,"reserved":0,"last_update":"0001-01-01T00:00:00Z","name_a2s":"Uncletopia | Seattle | 3 | Stopwatch","protocol":17,"map":"workshop/pl_summercoast_rc8e.ugc1761528829","folder":"tf","game":"Team Fortress","app_id":440,"player_count":0,"max_players":24,"Bots":0,"server_type":"Dedicated","server_os":"Linux","password":true,"vac":true,"version":"7961495","steam_id":85568392924515217,"keywords":["nocrits","nodmgspread","payload","uncletopia"],"game_id":440,"stv_port":27036,"stv_name":"Uncletopia | Seattle | 3 | Stopwatch | STV","players":null},{"server_id":17,"name":"Uncletopia | San Francisco | 1 | All Maps","name_short":"sfo-1","host":"sfo-1.us.uncletopia.com","port":27015,"enabled":true,"region":"us-west","cc":"us","latitude":37.77397,"longitude":-122.4313,"reserved":0,"last_update":"0001-01-01T00:00:00Z","name_a2s":"Uncletopia | San Francisco | 1 | All Maps","protocol":17,"map":"koth_cascade","folder":"tf","game":"Team Fortress","app_id":440,"player_count":0,"max_players":24,"Bots":0,"server_type":"Dedicated","server_os":"Linux","password":true,"vac":true,"version":"7961495","steam_id":85568392924469999,"keywords":["cp","nocrits","nodmgspread","uncletopia"],"game_id":440,"stv_port":27016,"stv_name":"Uncletopia | San Francisco | 1 | All Maps | STV","players":null},{"server_id":18,"name":"Uncletopia | San Francisco | 2 | All Maps","name_short":"sfo-2","host":"sfo-1.us.uncletopia.com","port":27025,"enabled":true,"region":"us-west","cc":"us","latitude":37.77397,"longitude":-122.4313,"reserved":0,"last_update":"0001-01-01T00:00:00Z","name_a2s":"Uncletopia | San Francisco | 2 | All Maps","protocol":17,"map":"pl_frontier_final","folder":"tf","game":"Team Fortress","app_id":440,"player_count":0,"max_players":24,"Bots":0,"server_type":"Dedicated","server_os":"Linux","password":true,"vac":true,"version":"7961495","steam_id":85568392924470000,"keywords":["nocrits","nodmgspread","payload","uncletopia"],"game_id":440,"stv_port":27026,"stv_name":"Uncletopia | San Francisco | 2 | All Maps | STV","players":null},{"server_id":19,"name":"Uncletopia | San Francisco | 3 | Stopwatch","name_short":"sfo-3","host":"sfo-1.us.uncletopia.com","port":27035,"enabled":true,"region":"us-west","cc":"us","latitude":37.77397,"longitude":-122.4313,"reserved":0,"last_update":"0001-01-01T00:00:00Z","name_a2s":"Uncletopia | San Francisco | 3 | Stopwatch","protocol":17,"map":"pl_pier","folder":"tf","game":"Team Fortress","app_id":440,"player_count":0,"max_players":24,"Bots":0,"server_type":"Dedicated","server_os":"Linux","password":true,"vac":true,"version":"7961495","steam_id":85568392924742824,"keywords":["nocrits","nodmgspread","payload","uncletopia"],"game_id":440,"stv_port":27036,"stv_name":"Uncletopia | San Francisco | 3 | Stopwatch | STV","players":null},{"server_id":20,"name":"Uncletopia | San Francisco | 4 | Community","name_short":"sfo-4","host":"sfo-1.us.uncletopia.com","port":27045,"enabled":true,"region":"us-west","cc":"us","latitude":37.77397,"longitude":-122.4313,"reserved":0,"last_update":"0001-01-01T00:00:00Z","name_a2s":"Uncletopia | San Francisco | 4 | Community","protocol":17,"map":"pl_pier","folder":"tf","game":"Team Fortress","app_id":440,"player_count":0,"max_players":24,"Bots":0,"server_type":"Dedicated","server_os":"Linux","password":true,"vac":true,"version":"7961495","steam_id":85568392924742826,"keywords":["nocrits","nodmgspread","payload","uncletopia"],"game_id":440,"stv_port":27046,"stv_name":"Uncletopia | San Francisco | 4 | Community | STV","players":null},{"server_id":141,"name":"Uncletopia | Sydney | 1 | All Maps","name_short":"syd-1","host":"syd-1.au.uncletopia.com","port":27015,"enabled":true,"region":"au","cc":"au","latitude":-33.865143,"longitude":151.2099,"reserved":0,"last_update":"0001-01-01T00:00:00Z","name_a2s":"Uncletopia | Sydney | 1 | All Maps","protocol":17,"map":"koth_viaduct","folder":"tf","game":"Team Fortress","app_id":440,"player_count":0,"max_players":24,"Bots":0,"server_type":"Dedicated","server_os":"Linux","password":true,"vac":true,"version":"7961495","steam_id":85568392924470001,"keywords":["cp","nocrits","nodmgspread","uncletopia"],"game_id":440,"stv_port":27016,"stv_name":"Uncletopia | Sydney | 1 | All Maps | STV","players":null},{"server_id":123,"name":"Uncletopia | Sydney | 2 | All Maps","name_short":"syd-2","host":"syd-1.au.uncletopia.com","port":27025,"enabled":true,"region":"au","cc":"au","latitude":-33.865143,"longitude":151.2099,"reserved":0,"last_update":"0001-01-01T00:00:00Z","name_a2s":"Uncletopia | Sydney | 2 | All Maps","protocol":17,"map":"pl_swiftwater_final1","folder":"tf","game":"Team Fortress","app_id":440,"player_count":0,"max_players":24,"Bots":0,"server_type":"Dedicated","server_os":"Linux","password":true,"vac":true,"version":"7961495","steam_id":85568392924470002,"keywords":["nocrits","nodmgspread","payload","uncletopia"],"game_id":440,"stv_port":27026,"stv_name":"Uncletopia | Sydney | 2 | All Maps | STV","players":null},{"server_id":395,"name":"Uncletopia | Sydney | 3 | All Maps","name_short":"syd-3","host":"syd-1.au.uncletopia.com","port":27035,"enabled":true,"region":"au","cc":"au","latitude":-33.865143,"longitude":151.2099,"reserved":0,"last_update":"0001-01-01T00:00:00Z","name_a2s":"Uncletopia | Sydney | 3 | All Maps","protocol":17,"map":"koth_lakeside_final","folder":"tf","game":"Team Fortress","app_id":440,"player_count":0,"max_players":24,"Bots":0,"server_type":"Dedicated","server_os":"Linux","password":true,"vac":true,"version":"7961495","steam_id":85568392925194467,"keywords":["cp","nocrits","nodmgspread","uncletopia"],"game_id":440,"stv_port":27036,"stv_name":"Uncletopia | Sydney | 3 | All Maps | STV","players":null},{"server_id":396,"name":"Uncletopia | Sydney | 4 | All Maps","name_short":"syd-4","host":"syd-1.au.uncletopia.com","port":27045,"enabled":true,"region":"au","cc":"au","latitude":-33.865143,"longitude":151.2099,"reserved":0,"last_update":"0001-01-01T00:00:00Z","name_a2s":"Uncletopia | Sydney | 4 | All Maps","protocol":17,"map":"pl_snowycoast","folder":"tf","game":"Team Fortress","app_id":440,"player_count":0,"max_players":24,"Bots":0,"server_type":"Dedicated","server_os":"Linux","password":true,"vac":true,"version":"7961495","steam_id":85568392925397958,"keywords":["nocrits","nodmgspread","payload","uncletopia"],"game_id":440,"stv_port":27046,"stv_name":"Uncletopia | Sydney | 4 | All Maps | STV","players":null},{"server_id":58,"name":"Uncletopia | Sydney | 5 | Stopwatch","name_short":"syd-5","host":"syd-1.au.uncletopia.com","port":27055,"enabled":true,"region":"au","cc":"au","latitude":-33.865143,"longitude":151.2099,"reserved":0,"last_update":"0001-01-01T00:00:00Z","name_a2s":"Uncletopia | Sydney | 5 | Stopwatch","protocol":17,"map":"workshop/pl_vigil_rc10.ugc1266210012","folder":"tf","game":"Team Fortress","app_id":440,"player_count":0,"max_players":24,"Bots":0,"server_type":"Dedicated","server_os":"Linux","password":true,"vac":true,"version":"7961495","steam_id":85568392925397959,"keywords":["nocrits","nodmgspread","payload","uncletopia"],"game_id":440,"stv_port":27056,"stv_name":"Uncletopia | Sydney | 5 | Stopwatch | STV","players":null},{"server_id":59,"name":"Uncletopia | Sydney | 6 | Community","name_short":"syd-6","host":"syd-1.au.uncletopia.com","port":27065,"enabled":true,"region":"au","cc":"au","latitude":-33.865143,"longitude":151.2099,"reserved":0,"last_update":"0001-01-01T00:00:00Z","name_a2s":"Uncletopia | Sydney | 6 | Community","protocol":17,"map":"workshop/cp_overgrown_rc8.ugc503939302","folder":"tf","game":"Team Fortress","app_id":440,"player_count":0,"max_players":24,"Bots":0,"server_type":"Dedicated","server_os":"Linux","password":true,"vac":true,"version":"7961495","steam_id":85568392925397960,"keywords":["cp","nocrits","nodmgspread","uncletopia"],"game_id":440,"stv_port":27066,"stv_name":"Uncletopia | Sydney | 6 | Community | STV","players":null},{"server_id":49,"name":"Uncletopia | Warsaw | 1 | One Thousand Uncles","name_short":"waw-1","host":"waw-1.pl.uncletopia.com","port":27015,"enabled":true,"region":"eu","cc":"pl","latitude":52.2297,"longitude":21.017532,"reserved":0,"last_update":"0001-01-01T00:00:00Z","name_a2s":"Uncletopia | Warsaw | 1 | One Thousand Uncles","protocol":17,"map":"cp_dustbowl","folder":"tf","game":"Team Fortress","app_id":440,"player_count":27,"max_players":32,"Bots":16,"server_type":"Dedicated","server_os":"Linux","password":true,"vac":true,"version":"7961495","steam_id":85568392925397850,"keywords":["alltalk","bots","cp","danepve","increased_maxplayers","nocrits","norespawntime","uncletopia"],"game_id":440,"stv_port":0,"stv_name":"","players":[{"user_id":123,"name":"Dennis Reynolds","steam_id":76561197960371259,"connected_time":4217000000000,"state":"active","ping":166},{"user_id":146,"name":"Kotlet schabowy","steam_id":76561198048983509,"connected_time":2416000000000,"state":"active","ping":44},{"user_id":167,"name":"naidrokyt","steam_id":76561198961373507,"connected_time":438000000000,"state":"active","ping":46},{"user_id":184,"name":"God's Drunkest Driver","steam_id":76561199174579733,"connected_time":108000000000,"state":"active","ping":145},{"user_id":185,"name":"Riky95","steam_id":76561198095289436,"connected_time":94000000000,"state":"active","ping":62},{"user_id":154,"name":"Who?","steam_id":76561198271901063,"connected_time":1809000000000,"state":"active","ping":83},{"user_id":134,"name":"lord-carlos","steam_id":76561198025150761,"connected_time":3406000000000,"state":"active","ping":70},{"user_id":152,"name":"[SQ UA] MartianDill","steam_id":76561198405382822,"connected_time":1972000000000,"state":"active","ping":44},{"user_id":163,"name":"AftiksPL","steam_id":76561198875182686,"connected_time":1236000000000,"state":"active","ping":62},{"user_id":141,"name":"Piss man","steam_id":76561199097030380,"connected_time":3042000000000,"state":"active","ping":209},{"user_id":161,"name":"Tispy","steam_id":76561199207410049,"connected_time":1556000000000,"state":"active","ping":80}]},{"server_id":50,"name":"Uncletopia | Warsaw | 2 | One Thousand Uncles","name_short":"waw-2","host":"waw-1.pl.uncletopia.com","port":27025,"enabled":true,"region":"eu","cc":"pl","latitude":52.2297,"longitude":21.017532,"reserved":0,"last_update":"0001-01-01T00:00:00Z","name_a2s":"Uncletopia | Warsaw | 2 | One Thousand Uncles","protocol":17,"map":"pl_pier","folder":"tf","game":"Team Fortress","app_id":440,"player_count":28,"max_players":32,"Bots":16,"server_type":"Dedicated","server_os":"Linux","password":true,"vac":true,"version":"7961495","steam_id":85568392925397851,"keywords":["alltalk","bots","danepve","increased_maxplayers","nocrits","norespawntime","payload","uncletopia"],"game_id":440,"stv_port":0,"stv_name":"","players":[{"user_id":297,"name":"Nr.hamburger","steam_id":76561199430140397,"connected_time":837000000000,"state":"active","ping":65},{"user_id":300,"name":"womandestroyer2006","steam_id":76561198173325629,"connected_time":561000000000,"state":"active","ping":94},{"user_id":262,"name":"CH1NASKEE","steam_id":76561198021531683,"connected_time":2234000000000,"state":"active","ping":101},{"user_id":290,"name":"Spaced","steam_id":76561198143411132,"connected_time":1542000000000,"state":"active","ping":62},{"user_id":268,"name":"Erdogames","steam_id":76561198959564055,"connected_time":1950000000000,"state":"active","ping":95},{"user_id":301,"name":"Lukas","steam_id":76561198009118452,"connected_time":550000000000,"state":"active","ping":67},{"user_id":264,"name":"farfarspace","steam_id":76561198161253565,"connected_time":2213000000000,"state":"active","ping":108},{"user_id":302,"name":"LVIXX","steam_id":76561198188767928,"connected_time":298000000000,"state":"active","ping":95},{"user_id":265,"name":"Lipashok","steam_id":76561198107268896,"connected_time":2213000000000,"state":"active","ping":132},{"user_id":172,"name":"JayMaloney","steam_id":76561198050173547,"connected_time":6264000000000,"state":"active","ping":75},{"user_id":229,"name":"Dosi","steam_id":76561199032025182,"connected_time":3976000000000,"state":"active","ping":54},{"user_id":270,"name":"H4rdas","steam_id":76561198019216676,"connected_time":1858000000000,"state":"active","ping":64}]},{"server_id":51,"name":"Uncletopia | Warsaw | 3 | All Maps","name_short":"waw-3","host":"waw-1.pl.uncletopia.com","port":27035,"enabled":true,"region":"eu","cc":"pl","latitude":52.2297,"longitude":21.017532,"reserved":0,"last_update":"0001-01-01T00:00:00Z","name_a2s":"Uncletopia | Warsaw | 3 | All Maps","protocol":17,"map":"cp_altitude","folder":"tf","game":"Team Fortress","app_id":440,"player_count":22,"max_players":24,"Bots":0,"server_type":"Dedicated","server_os":"Linux","password":true,"vac":true,"version":"7961495","steam_id":85568392925397852,"keywords":["cp","nocrits","nodmgspread","uncletopia"],"game_id":440,"stv_port":27036,"stv_name":"Uncletopia | Warsaw | 3 | All Maps | STV","players":[{"user_id":112,"name":"Jesus","steam_id":76561199187248484,"connected_time":5264000000000,"state":"active","ping":119},{"user_id":173,"name":"Otakuwolf","steam_id":76561198023092381,"connected_time":213000000000,"state":"active","ping":77},{"user_id":174,"name":"Estyle","steam_id":76561198157804700,"connected_time":180000000000,"state":"active","ping":74},{"user_id":139,"name":"Rezzarezz","steam_id":76561198092020043,"connected_time":2587000000000,"state":"active","ping":36},{"user_id":156,"name":"Rock..","steam_id":76561198004641963,"connected_time":2073000000000,"state":"active","ping":74},{"user_id":168,"name":"Not A Fake Uncletopia Server","steam_id":76561198152871288,"connected_time":905000000000,"state":"active","ping":82},{"user_id":80,"name":"Hexagon","steam_id":76561198151205758,"connected_time":7122000000000,"state":"active","ping":60},{"user_id":177,"name":"Guthlaf","steam_id":76561198153564078,"connected_time":69000000000,"state":"active","ping":56},{"user_id":107,"name":"Nick","steam_id":76561198036109469,"connected_time":5812000000000,"state":"active","ping":46},{"user_id":111,"name":"val","steam_id":76561198324316160,"connected_time":5620000000000,"state":"active","ping":77},{"user_id":145,"name":"ozz-man","steam_id":76561198084676522,"connected_time":2309000000000,"state":"active","ping":85},{"user_id":147,"name":"n-ski","steam_id":76561198020550849,"connected_time":2289000000000,"state":"active","ping":89},{"user_id":176,"name":"Octoblue64","steam_id":76561198388997283,"connected_time":114000000000,"state":"active","ping":61},{"user_id":149,"name":"Быдла вой","steam_id":76561198041371314,"connected_time":2265000000000,"state":"active","ping":107},{"user_id":150,"name":"Logingni","steam_id":76561199164232098,"connected_time":2253000000000,"state":"active","ping":78},{"user_id":166,"name":"xiiski","steam_id":76561198152387747,"connected_time":1320000000000,"state":"active","ping":102},{"user_id":178,"name":"TheRock","steam_id":76561198386889558,"connected_time":52000000000,"state":"spawning","ping":63},{"user_id":179,"name":"Laryssa","steam_id":76561198271084076,"connected_time":50000000000,"state":"active","ping":62},{"user_id":180,"name":"Henkat","steam_id":76561199079480352,"connected_time":26000000000,"state":"spawning","ping":123},{"user_id":181,"name":"zyubrin","steam_id":76561199027256840,"connected_time":20000000000,"state":"spawning","ping":92},{"user_id":155,"name":"r^f nyanezt","steam_id":76561198253734265,"connected_time":2103000000000,"state":"active","ping":70},{"user_id":171,"name":"Crol","steam_id":76561198158463173,"connected_time":711000000000,"state":"active","ping":67}]},{"server_id":52,"name":"Uncletopia | Warsaw | 4 | All Maps","name_short":"waw-4","host":"waw-1.pl.uncletopia.com","port":27045,"enabled":true,"region":"eu","cc":"pl","latitude":52.2297,"longitude":21.017532,"reserved":0,"last_update":"0001-01-01T00:00:00Z","name_a2s":"Uncletopia | Warsaw | 4 | All Maps","protocol":17,"map":"koth_lakeside_final","folder":"tf","game":"Team Fortress","app_id":440,"player_count":5,"max_players":24,"Bots":0,"server_type":"Dedicated","server_os":"Linux","password":true,"vac":true,"version":"7961495","steam_id":85568392925397853,"keywords":["cp","nocrits","nodmgspread","uncletopia"],"game_id":440,"stv_port":27046,"stv_name":"Uncletopia | Warsaw | 4 | All Maps | STV","players":[{"user_id":22,"name":"asdfgpiojunior","steam_id":76561199053611779,"connected_time":1520000000000,"state":"active","ping":75},{"user_id":24,"name":"MeerkatOfficial","steam_id":76561199178018465,"connected_time":1492000000000,"state":"active","ping":88},{"user_id":26,"name":"Yuzu","steam_id":76561198121694613,"connected_time":1168000000000,"state":"active","ping":66},{"user_id":28,"name":"TTFIle","steam_id":76561199360918034,"connected_time":253000000000,"state":"active","ping":111},{"user_id":29,"name":"vi","steam_id":76561198303147966,"connected_time":134000000000,"state":"active","ping":72}]},{"server_id":53,"name":"Uncletopia | Warsaw | 5 | Stopwatch","name_short":"waw-5","host":"waw-1.pl.uncletopia.com","port":27055,"enabled":true,"region":"eu","cc":"pl","latitude":52.2297,"longitude":21.017532,"reserved":0,"last_update":"0001-01-01T00:00:00Z","name_a2s":"Uncletopia | Warsaw | 5 | Stopwatch","protocol":17,"map":"workshop/koth_ramjam_rc1.ugc459778887","folder":"tf","game":"Team Fortress","app_id":440,"player_count":0,"max_players":24,"Bots":0,"server_type":"Dedicated","server_os":"Linux","password":true,"vac":true,"version":"7961495","steam_id":85568392925397854,"keywords":["cp","nocrits","nodmgspread","uncletopia"],"game_id":440,"stv_port":27056,"stv_name":"Uncletopia | Warsaw | 5 | Stopwatch | STV","players":null},{"server_id":54,"name":"Uncletopia | Warsaw | 6 | Community","name_short":"waw-6","host":"waw-1.pl.uncletopia.com","port":27065,"enabled":true,"region":"eu","cc":"pl","latitude":52.2297,"longitude":21.017532,"reserved":0,"last_update":"0001-01-01T00:00:00Z","name_a2s":"Uncletopia | Warsaw | 6 | Community","protocol":17,"map":"workshop/pl_badwater_pro_v12.ugc2142942074","folder":"tf","game":"Team Fortress","app_id":440,"player_count":0,"max_players":24,"Bots":0,"server_type":"Dedicated","server_os":"Linux","password":true,"vac":true,"version":"7961495","steam_id":85568392925397856,"keywords":["nocrits","nodmgspread","payload","uncletopia"],"game_id":440,"stv_port":27066,"stv_name":"Uncletopia | Warsaw | 6 | Community | STV","players":null}]}