{"status":true,"message":"","result":[{"server_id":9,"name":"Uncletopia | Atlanta | 1 | All Maps","name_short":"atl-1","host":"atl-1.us.uncletopia.com","port":27015,"enabled":true,"region":"us-east","cc":"us","latitude":33.753746,"longitude":-84.38633,"reserved":0,"last_update":"0001-01-01T00:00:00Z","name_a2s":"Uncletopia | Atlanta | 1 | All Maps","protocol":17,"map":"koth_viaduct","folder":"tf","game":"Team Fortress","app_id":440,"player_count":21,"max_players":24,"Bots":0,"server_type":"Dedicated","server_os":"Linux","password":true,"vac":true,"version":"7932396","steam_id":85568392924469982,"keywords":["cp","nocrits","nodmgspread","uncletopia"],"game_id":440,"stv_port":27016,"stv_name":"Uncletopia | Atlanta | 1 | All Maps | STV","players":[{"user_id":299,"name":"hobbiebobbie","steam_id":76561199168320895,"connected_time":1260000000000,"state":"active","ping":85},{"user_id":332,"name":"Skeeter Squash","steam_id":76561198129162464,"connected_time":232000000000,"state":"active","ping":83},{"user_id":303,"name":"MattAttack","steam_id":76561198815505051,"connected_time":930000000000,"state":"active","ping":161},{"user_id":296,"name":"Big Milk","steam_id":76561198066904836,"connected_time":1474000000000,"state":"active","ping":117},{"user_id":304,"name":"GOLDIE","steam_id":76561199375258674,"connected_time":895000000000,"state":"active","ping":110},{"user_id":308,"name":"Nineteen Spades","steam_id":76561198143618341,"connected_time":771000000000,"state":"active","ping":205},{"user_id":337,"name":"Brooklyn","steam_id":76561199242737130,"connected_time":151000000000,"state":"active","ping":68},{"user_id":306,"name":"Liver stealer","steam_id":76561199029954287,"connected_time":829000000000,"state":"active","ping":157},{"user_id":343,"name":"DoubleTee","steam_id":76561198018980347,"connected_time":14000000000,"state":"spawning","ping":167},{"user_id":310,"name":"uniwu - BUFF THE SPEED","steam_id":76561198864421290,"connected_time":747000000000,"state":"active","ping":67},{"user_id":311,"name":"sock","steam_id":76561199117597830,"connected_time":724000000000,"state":"active","ping":68},{"user_id":340,"name":"stk.","steam_id":76561198239461680,"connected_time":60000000000,"state":"spawning","ping":302},{"user_id":341,"name":"El Bondin","steam_id":76561198820792434,"connected_time":30000000000,"state":"active","ping":106},{"user_id":342,"name":"Trey The Awesome","steam_id":76561198370718264,"connected_time":28000000000,"state":"active","ping":77},{"user_id":344,"name":"Tired","steam_id":76561198072620682,"connected_time":7000000000,"state":"spawning","ping":127},{"user_id":334,"name":"AddamsFamilyReject","steam_id":76561198035046824,"connected_time":226000000000,"state":"active","ping":175},{"user_id":264,"name":"a Salty Individual","steam_id":76561197979951077,"connected_time":2309000000000,"state":"active","ping":138},{"user_id":345,"name":"EERIE OREO","steam_id":76561199013454294,"connected_time":2000000000,"state":"spawning","ping":198},{"user_id":324,"name":"The Incredible Fem Boy","steam_id":76561198355754259,"connected_time":476000000000,"state":"active","ping":102},{"user_id":336,"name":"CJammy","steam_id":76561199074691047,"connected_time":187000000000,"state":"connecting","ping":0},{"user_id":321,"name":"[]{}#^*+=","steam_id":76561198127039453,"connected_time":533000000000,"state":"active","ping":121}]},{"server_id":104,"name":"Uncletopia | Atlanta | 2 | All Maps","name_short":"atl-2","host":"atl-1.us.uncletopia.com","port":27025,"enabled":true,"region":"us-east","cc":"us","latitude":33.753746,"longitude":-84.38633,"reserved":0,"last_update":"0001-01-01T00:00:00Z","name_a2s":"Uncletopia | Atlanta | 2 | All Maps","protocol":17,"map":"koth_highpass","folder":"tf","game":"Team Fortress","app_id":440,"player_count":0,"max_players":24,"Bots":0,"server_type":"Dedicated","server_os":"Linux","password":true,"vac":true,"version":"7932396","steam_id":85568392924469983,"keywords":["cp","nocrits","nodmgspread","uncletopia"],"game_id":440,"stv_port":27026,"stv_name":"Uncletopia | Atlanta | 2 | All Maps | STV","players":null},{"server_id":400,"name":"Uncletopia | Atlanta | 3 | Community","name_short":"atl-3","host":"atl-1.us.uncletopia.com","port":27035,"enabled":true,"region":"us-east","cc":"us","latitude":33.753746,"longitude":-84.38633,"reserved":0,"last_update":"0001-01-01T00:00:00Z","name_a2s":"Uncletopia | Atlanta | 3 | Community","protocol":17,"map":"workshop/koth_ramjam_rc1.ugc459778887","folder":"tf","game":"Team Fortress","app_id":440,"player_count":0,"max_players":24,"Bots":0,"server_type":"Dedicated","server_os":"Linux","password":true,"vac":true,"version":"7932396","steam_id":85568392924515187,"keywords":["cp","nocrits","nodmgspread","uncletopia"],"game_id":440,"stv_port":27036,"stv_name":"Uncletopia | Atlanta | 3 | Community | STV","players":null},{"server_id":401,"name":"Uncletopia | Atlanta | 4 | No Payload","name_short":"atl-4","host":"atl-1.us.uncletopia.com","port":27045,"enabled":true,"region":"us-east","cc":"us","latitude":33.753746,"longitude":-84.38633,"reserved":0,"last_update":"0001-01-01T00:00:00Z","name_a2s":"","protocol":0,"map":"","folder":"","game":"","app_id":0,"player_count":0,"max_players":0,"Bots":0,"server_type":"","server_os":"","password":false,"vac":false,"version":"","steam_id":0,"keywords":null,"game_id":0,"stv_port":0,"stv_name":"","players":null},{"server_id":2,"name":"Uncletopia | Chicago | 1 | All Maps","name_short":"chi-1","host":"chi-1.us.uncletopia.com","port":27015,"enabled":true,"region":"us-central","cc":"us","latitude":41.881832,"longitude":-87.62318,"reserved":0,"last_update":"0001-01-01T00:00:00Z","name_a2s":"Uncletopia | Chicago | 1 | All Maps","protocol":17,"map":"pl_upward","folder":"tf","game":"Team Fortress","app_id":440,"player_count":24,"max_players":24,"Bots":0,"server_type":"Dedicated","server_os":"Linux","password":true,"vac":true,"version":"7932396","steam_id":85568392924469984,"keywords":["nocrits","nodmgspread","payload","uncletopia"],"game_id":440,"stv_port":27016,"stv_name":"Uncletopia | Chicago | 1 | All Maps | STV","players":[{"user_id":587,"name":"stupid ape","steam_id":76561198350027075,"connected_time":2254000000000,"state":"active","ping":55},{"user_id":589,"name":"no. 1 xm fan","steam_id":76561198364485830,"connected_time":2054000000000,"state":"active","ping":62},{"user_id":603,"name":"Gnarly Shark Bite","steam_id":76561198004058342,"connected_time":1002000000000,"state":"active","ping":75},{"user_id":547,"name":"ÜberBurst inVinci","steam_id":76561198044470684,"connected_time":4587000000000,"state":"active","ping":61},{"user_id":602,"name":"TheBrightZone","steam_id":76561199195580276,"connected_time":1168000000000,"state":"active","ping":70},{"user_id":598,"name":"[El Fail] MR.BadassMCLee","steam_id":76561198043787818,"connected_time":1408000000000,"state":"active","ping":121},{"user_id":605,"name":"God's Drunkest Driver","steam_id":76561198165175875,"connected_time":988000000000,"state":"active","ping":55},{"user_id":529,"name":"Soupman_Official","steam_id":76561198314308732,"connected_time":7300000000000,"state":"active","ping":44},{"user_id":609,"name":"rat eater","steam_id":76561199216874750,"connected_time":819000000000,"state":"active","ping":59},{"user_id":592,"name":"Polar","steam_id":76561198043108060,"connected_time":2015000000000,"state":"active","ping":81},{"user_id":608,"name":"Orange Triangle","steam_id":76561198320498182,"connected_time":946000000000,"state":"active","ping":59},{"user_id":556,"name":"tyg","steam_id":76561198056246867,"connected_time":4218000000000,"state":"active","ping":75},{"user_id":593,"name":"Pluto","steam_id":76561198338593690,"connected_time":1857000000000,"state":"active","ping":85},{"user_id":584,"name":"void","steam_id":76561198107501413,"connected_time":2407000000000,"state":"active","ping":45},{"user_id":601,"name":"K I R O V","steam_id":76561198037176979,"connected_time":1242000000000,"state":"active","ping":50},{"user_id":610,"name":"Jeff the 19th","steam_id":76561198189315491,"connected_time":705000000000,"state":"active","ping":63},{"user_id":594,"name":"ᴿᴺᴳ Gʀɪᴍᴠɪʙᴇs","steam_id":76561198065621941,"connected_time":1820000000000,"state":"active","ping":104},{"user_id":600,"name":"Mailer","steam_id":76561198062690074,"connected_time":1333000000000,"state":"active","ping":138},{"user_id":611,"name":"Sheev Palpatine","steam_id":76561198252332430,"connected_time":497000000000,"state":"active","ping":67},{"user_id":597,"name":"Jaunty","steam_id":76561198074916706,"connected_time":1432000000000,"state":"active","ping":96},{"user_id":530,"name":"Doctor Emerald(real)","steam_id":76561199123003872,"connected_time":7141000000000,"state":"active","ping":94},{"user_id":604,"name":"Milkmur","steam_id":76561198210043821,"connected_time":999000000000,"state":"active","ping":72},{"user_id":558,"name":"DrGrimm (She/Her)","steam_id":76561199371072426,"connected_time":4157000000000,"state":"active","ping":77},{"user_id":588,"name":"Len","steam_id":76561198830451722,"connected_time":2223000000000,"state":"active","ping":64}]},{"server_id":106,"name":"Uncletopia | Chicago | 2 | All Maps","name_short":"chi-2","host":"chi-1.us.uncletopia.com","port":27025,"enabled":true,"region":"us-central","cc":"us","latitude":41.881832,"longitude":-87.62318,"reserved":0,"last_update":"0001-01-01T00:00:00Z","name_a2s":"Uncletopia | Chicago | 2 | All Maps","protocol":17,"map":"cp_dustbowl","folder":"tf","game":"Team Fortress","app_id":440,"player_count":24,"max_players":24,"Bots":0,"server_type":"Dedicated","server_os":"Linux","password":true,"vac":true,"version":"7932396","steam_id":85568392924469985,"keywords":["cp","nocrits","nodmgspread","uncletopia"],"game_id":440,"stv_port":27026,"stv_name":"Uncletopia | Chicago | 2 | All Maps | STV","players":[{"user_id":370,"name":"my mom","steam_id":76561199225201569,"connected_time":1213000000000,"state":"active","ping":72},{"user_id":371,"name":"Decrepit Bones","steam_id":76561198053046161,"connected_time":1212000000000,"state":"active","ping":60},{"user_id":366,"name":"Hooked","steam_id":76561198007302139,"connected_time":1596000000000,"state":"active","ping":76},{"user_id":297,"name":"BlueBrim","steam_id":76561199019948607,"connected_time":7360000000000,"state":"active","ping":99},{"user_id":345,"name":"Galaxy_42","steam_id":76561198845514831,"connected_time":3810000000000,"state":"active","ping":72},{"user_id":354,"name":"loser","steam_id":76561198259380127,"connected_time":2612000000000,"state":"active","ping":58},{"user_id":333,"name":"squirtle","steam_id":76561198211451045,"connected_time":4982000000000,"state":"active","ping":81},{"user_id":363,"name":"Mug Moment Gaming","steam_id":76561198233098136,"connected_time":1871000000000,"state":"active","ping":70},{"user_id":376,"name":"ohio enjoyer","steam_id":76561198378382582,"connected_time":1161000000000,"state":"active","ping":46},{"user_id":355,"name":"Cheese4Everyone","steam_id":76561198022333985,"connected_time":2471000000000,"state":"active","ping":74},{"user_id":338,"name":"Retrace","steam_id":76561198080620966,"connected_time":4341000000000,"state":"active","ping":80},{"user_id":351,"name":"Caz","steam_id":76561198055149945,"connected_time":3624000000000,"state":"active","ping":55},{"user_id":374,"name":"we're so back","steam_id":76561198058485742,"connected_time":1174000000000,"state":"active","ping":65},{"user_id":382,"name":"FishGod","steam_id":76561198056156434,"connected_time":877000000000,"state":"active","ping":66},{"user_id":368,"name":"A1_Sauce","steam_id":76561199224566942,"connected_time":1241000000000,"state":"active","ping":67},{"user_id":352,"name":"♡Alyx♡","steam_id":76561198024303978,"connected_time":2938000000000,"state":"active","ping":65},{"user_id":353,"name":"Uncle Majic the Hip Hop Magicia","steam_id":76561198107924303,"connected_time":2625000000000,"state":"active","ping":57},{"user_id":327,"name":"Weeb","steam_id":76561198333568146,"connected_time":5366000000000,"state":"active","ping":69},{"user_id":293,"name":"rosable ☆","steam_id":76561199164371592,"connected_time":7584000000000,"state":"active","ping":63},{"user_id":356,"name":"SСАТТЕR","steam_id":76561198405168492,"connected_time":2453000000000,"state":"active","ping":80},{"user_id":384,"name":"Ivanna Rubbermeat","steam_id":76561198081220016,"connected_time":179000000000,"state":"active","ping":54},{"user_id":381,"name":"[GUT] RiDiK®","steam_id":76561197969756446,"connected_time":929000000000,"state":"active","ping":54},{"user_id":358,"name":"The rat","steam_id":76561198050432341,"connected_time":2180000000000,"state":"active","ping":144},{"user_id":379,"name":"Dzhoshua","steam_id":76561198071915251,"connected_time":1131000000000,"state":"active","ping":69}]},{"server_id":402,"name":"Uncletopia | Chicago | 3 | All Maps","name_short":"chi-3","host":"chi-1.us.uncletopia.com","port":27035,"enabled":true,"region":"us-central","cc":"us","latitude":41.881832,"longitude":-87.62318,"reserved":0,"last_update":"0001-01-01T00:00:00Z","name_a2s":"Uncletopia | Chicago | 3 | All Maps","protocol":17,"map":"pl_swiftwater_final1","folder":"tf","game":"Team Fortress","app_id":440,"player_count":23,"max_players":24,"Bots":0,"server_type":"Dedicated","server_os":"Linux","password":true,"vac":true,"version":"7932396","steam_id":85568392924515191,"keywords":["nocrits","nodmgspread","payload","uncletopia"],"game_id":440,"stv_port":27036,"stv_name":"Uncletopia | Chicago | 3 | All Maps | STV","players":[{"user_id":391,"name":"Lee-Ch","steam_id":76561198164980622,"connected_time":1393000000000,"state":"active","ping":81},{"user_id":362,"name":"JDM Street Cred","steam_id":76561198033035560,"connected_time":2880000000000,"state":"active","ping":62},{"user_id":399,"name":"Goldensliv","steam_id":76561198161673891,"connected_time":550000000000,"state":"active","ping":90},{"user_id":402,"name":"❤Breadshot (She)❤","steam_id":76561199005756738,"connected_time":530000000000,"state":"active","ping":55},{"user_id":337,"name":"Vega","steam_id":76561198057374871,"connected_time":4421000000000,"state":"active","ping":60},{"user_id":403,"name":"Letters","steam_id":76561198035508148,"connected_time":516000000000,"state":"active","ping":96},{"user_id":400,"name":"it's peanut time","steam_id":76561198236028020,"connected_time":549000000000,"state":"active","ping":105},{"user_id":411,"name":"gaintjugernot","steam_id":76561199066566387,"connected_time":87000000000,"state":"active","ping":63},{"user_id":371,"name":"moonage72","steam_id":76561199187008629,"connected_time":2362000000000,"state":"active","ping":60},{"user_id":397,"name":"sewage slurper","steam_id":76561198057076267,"connected_time":591000000000,"state":"active","ping":74},{"user_id":410,"name":"Spiders in your Hair","steam_id":76561198043075077,"connected_time":314000000000,"state":"active","ping":72},{"user_id":363,"name":"Makina","steam_id":76561198057475567,"connected_time":2877000000000,"state":"active","ping":71},{"user_id":404,"name":"Ghille","steam_id":76561198027234838,"connected_time":503000000000,"state":"active","ping":57},{"user_id":405,"name":"Aware","steam_id":76561198013338167,"connected_time":495000000000,"state":"active","ping":60},{"user_id":412,"name":"sharkbyt3","steam_id":76561197985793803,"connected_time":78000000000,"state":"active","ping":70},{"user_id":358,"name":"suns","steam_id":76561198079583278,"connected_time":3701000000000,"state":"active","ping":49},{"user_id":258,"name":"Pizza","steam_id":76561198118748364,"connected_time":9325000000000,"state":"active","ping":81},{"user_id":396,"name":"-π- BakaD","steam_id":76561197960559169,"connected_time":799000000000,"state":"active","ping":59},{"user_id":393,"name":"Spaghetti","steam_id":76561198019383013,"connected_time":1262000000000,"state":"active","ping":68},{"user_id":407,"name":"Kindagoodplayer","steam_id":76561198814625843,"connected_time":481000000000,"state":"active","ping":76},{"user_id":408,"name":"Gutsavo the Branded  Espadachí","steam_id":76561198133608354,"connected_time":449000000000,"state":"active","ping":61},{"user_id":392,"name":"wfaawj8f09h308fa","steam_id":76561198165212575,"connected_time":1344000000000,"state":"active","ping":67},{"user_id":414,"name":"The Power","steam_id":76561198060566884,"connected_time":60000000000,"state":"active","ping":151}]},{"server_id":403,"name":"Uncletopia | Chicago | 4 | All Maps","name_short":"chi-4","host":"chi-1.us.uncletopia.com","port":27045,"enabled":true,"region":"us-central","cc":"us","latitude":41.881832,"longitude":-87.62318,"reserved":0,"last_update":"0001-01-01T00:00:00Z","name_a2s":"Uncletopia | Chicago | 4 | All Maps","protocol":17,"map":"pl_barnblitz","folder":"tf","game":"Team Fortress","app_id":440,"player_count":24,"max_players":24,"Bots":0,"server_type":"Dedicated","server_os":"Linux","password":true,"vac":true,"version":"7932396","steam_id":85568392924515193,"keywords":["nocrits","nodmgspread","payload","uncletopia"],"game_id":440,"stv_port":27046,"stv_name":"Uncletopia | Chicago | 4 | All Maps | STV","players":[{"user_id":76,"name":"Zixzs","steam_id":76561198055504126,"connected_time":1711000000000,"state":"active","ping":62},{"user_id":86,"name":"object permanence","steam_id":76561198050393061,"connected_time":748000000000,"state":"active","ping":68},{"user_id":73,"name":"Fundamental Theorem of Calculus","steam_id":76561198053824515,"connected_time":1827000000000,"state":"active","ping":60},{"user_id":32,"name":"Sup m8","steam_id":76561198081659121,"connected_time":3994000000000,"state":"active","ping":60},{"user_id":90,"name":"gerge","steam_id":76561198092238353,"connected_time":215000000000,"state":"active","ping":65},{"user_id":83,"name":"MonotoneMerc","steam_id":76561198022309851,"connected_time":1051000000000,"state":"active","ping":106},{"user_id":80,"name":"Toxic Medic Main (he/they)","steam_id":76561198009314845,"connected_time":1231000000000,"state":"active","ping":114},{"user_id":87,"name":"Six Piece Chicken McNobody","steam_id":76561198129848222,"connected_time":738000000000,"state":"active","ping":66},{"user_id":47,"name":"Xyverle","steam_id":76561198799726415,"connected_time":3512000000000,"state":"active","ping":60},{"user_id":72,"name":"g8rade","steam_id":76561198070593964,"connected_time":1855000000000,"state":"active","ping":84},{"user_id":71,"name":"30 fps gaming","steam_id":76561199216756079,"connected_time":2037000000000,"state":"active","ping":72},{"user_id":84,"name":"maxscout","steam_id":76561198448497948,"connected_time":1048000000000,"state":"active","ping":87},{"user_id":91,"name":"helen keller","steam_id":76561197979870540,"connected_time":83000000000,"state":"active","ping":49},{"user_id":42,"name":"Scientist005","steam_id":76561198117825609,"connected_time":3710000000000,"state":"active","ping":85},{"user_id":43,"name":"Fraglin","steam_id":76561198124964000,"connected_time":3660000000000,"state":"active","ping":77},{"user_id":53,"name":"Elliot","steam_id":76561198052843856,"connected_time":3425000000000,"state":"active","ping":66},{"user_id":54,"name":"beenus","steam_id":76561198169291863,"connected_time":3417000000000,"state":"active","ping":72},{"user_id":55,"name":"thecal","steam_id":76561198307893384,"connected_time":3401000000000,"state":"active","ping":57},{"user_id":77,"name":"noob tuber","steam_id":76561198041770884,"connected_time":1677000000000,"state":"active","ping":105},{"user_id":82,"name":"Trusty","steam_id":76561198035444237,"connected_time":1160000000000,"state":"active","ping":65},{"user_id":85,"name":"SwagRoxas","steam_id":76561198109759891,"connected_time":991000000000,"state":"active","ping":64},{"user_id":59,"name":"Rushee","steam_id":76561198135962525,"connected_time":3366000000000,"state":"active","ping":151},{"user_id":89,"name":"Edgy McEdgeison","steam_id":76561198047845399,"connected_time":397000000000,"state":"active","ping":73},{"user_id":62,"name":"random orc encounter","steam_id":76561197993279095,"connected_time":3305000000000,"state":"active","ping":63}]},{"server_id":36,"name":"Uncletopia | Chicago | 5 | All Maps","name_short":"chi-5","host":"chi-2.us.uncletopia.com","port":27015,"enabled":true,"region":"us-central","cc":"us","latitude":41.881832,"longitude":-87.62318,"reserved":0,"last_update":"0001-01-01T00:00:00Z","name_a2s":"Uncletopia | Chicago | 5 | All Maps","protocol":17,"map":"pl_upward","folder":"tf","game":"Team Fortress","app_id":440,"player_count":24,"max_players":24,"Bots":0,"server_type":"Dedicated","server_os":"Linux","password":true,"vac":true,"version":"7932396","steam_id":85568392924866362,"keywords":["nocrits","nodmgspread","payload","uncletopia"],"game_id":440,"stv_port":27016,"stv_name":"Uncletopia | Chicago | 5 | All Maps | STV","players":[{"user_id":249,"name":"Stan","steam_id":76561198209150708,"connected_time":3384000000000,"state":"active","ping":67},{"user_id":213,"name":"Scoter1009","steam_id":76561198315464837,"connected_time":5602000000000,"state":"active","ping":71},{"user_id":239,"name":"Cap'n Short Legs","steam_id":76561198164139410,"connected_time":4170000000000,"state":"active","ping":74},{"user_id":298,"name":"Jac","steam_id":76561198093267242,"connected_time":155000000000,"state":"active","ping":72},{"user_id":295,"name":"elementalduck87","steam_id":76561199151043185,"connected_time":519000000000,"state":"active","ping":88},{"user_id":299,"name":"LynBoByn","steam_id":76561198052911142,"connected_time":99000000000,"state":"active","ping":60},{"user_id":300,"name":"Ros","steam_id":76561199055963822,"connected_time":72000000000,"state":"active","ping":63},{"user_id":307,"name":"TheConchinator","steam_id":76561199388149092,"connected_time":6000000000,"state":"spawning","ping":56},{"user_id":255,"name":"Captain Dusk","steam_id":76561199093333752,"connected_time":3261000000000,"state":"active","ping":70},{"user_id":284,"name":"wakeupbdot","steam_id":76561198160786631,"connected_time":1648000000000,"state":"active","ping":65},{"user_id":287,"name":"Ursus Ludius","steam_id":76561198025470722,"connected_time":1329000000000,"state":"active","ping":77},{"user_id":294,"name":"Sugahu17S","steam_id":76561198799403828,"connected_time":574000000000,"state":"active","ping":55},{"user_id":302,"name":"scrapheap","steam_id":76561198202407087,"connected_time":42000000000,"state":"spawning","ping":73},{"user_id":303,"name":"Capybara Enjoyer","steam_id":76561199147114434,"connected_time":40000000000,"state":"active","ping":101},{"user_id":267,"name":"Genki","steam_id":76561198044854333,"connected_time":2747000000000,"state":"active","ping":76},{"user_id":281,"name":"SpectreBurn","steam_id":76561198163300780,"connected_time":1760000000000,"state":"active","ping":72},{"user_id":290,"name":"JonBoy","steam_id":76561198082052480,"connected_time":831000000000,"state":"active","ping":104},{"user_id":304,"name":"Aligote","steam_id":76561199188849493,"connected_time":36000000000,"state":"active","ping":86},{"user_id":210,"name":"tsbro40","steam_id":76561199455605580,"connected_time":5652000000000,"state":"active","ping":130},{"user_id":276,"name":"RyInc","steam_id":76561198874261643,"connected_time":2335000000000,"state":"active","ping":47},{"user_id":266,"name":"Per My Last Email","steam_id":76561197970096950,"connected_time":2801000000000,"state":"active","ping":71},{"user_id":305,"name":"Sturmwolken [1312]","steam_id":76561198260905784,"connected_time":18000000000,"state":"spawning","ping":59},{"user_id":306,"name":"wahooka","steam_id":76561197981211922,"connected_time":13000000000,"state":"active","ping":74},{"user_id":262,"name":"corned beef","steam_id":76561199366782761,"connected_time":2987000000000,"state":"active","ping":151}]},{"server_id":37,"name":"Uncletopia | Chicago | 6 | All Maps","name_short":"chi-6","host":"chi-2.us.uncletopia.com","port":27025,"enabled":true,"region":"us-central","cc":"us","latitude":41.881832,"longitude":-87.62318,"reserved":0,"last_update":"0001-01-01T00:00:00Z","name_a2s":"Uncletopia | Chicago | 6 | All Maps","protocol":17,"map":"pl_pier","folder":"tf","game":"Team Fortress","app_id":440,"player_count":24,"max_players":24,"Bots":0,"server_type":"Dedicated","server_os":"Linux","password":true,"vac":true,"version":"7932396","steam_id":85568392924866363,"keywords":["nocrits","nodmgspread","payload","uncletopia"],"game_id":440,"stv_port":27026,"stv_name":"Uncletopia | Chicago | 6 | All Maps | STV","players":[{"user_id":173,"name":"ProxxiFoxxi","steam_id":76561198152728002,"connected_time":3646000000000,"state":"active","ping":85},{"user_id":218,"name":"some tree","steam_id":76561198166093346,"connected_time":1191000000000,"state":"active","ping":61},{"user_id":219,"name":"n8thegr83008","steam_id":76561198214814260,"connected_time":1157000000000,"state":"active","ping":82},{"user_id":220,"name":"com lag","steam_id":76561198019019392,"connected_time":1094000000000,"state":"active","ping":55},{"user_id":226,"name":"Feed Me 20 lb Bag Of Ice","steam_id":76561198014238912,"connected_time":686000000000,"state":"active","ping":82},{"user_id":207,"name":"primordialheath","steam_id":76561199386942638,"connected_time":1795000000000,"state":"active","ping":57},{"user_id":165,"name":"ᵘⁿᶠᵒʳᵗᵘⁿᵃᵗ\ufffd\ufffd","steam_id":76561198929646112,"connected_time":4267000000000,"state":"active","ping":63},{"user_id":209,"name":"Sweattadpole","steam_id":76561199456100100,"connected_time":1759000000000,"state":"active","ping":159},{"user_id":166,"name":"Xrath","steam_id":76561198220741860,"connected_time":4257000000000,"state":"active","ping":70},{"user_id":188,"name":"ATL1 | cola","steam_id":76561198374390458,"connected_time":3046000000000,"state":"active","ping":62},{"user_id":225,"name":"10KO!","steam_id":76561199134895220,"connected_time":854000000000,"state":"active","ping":82},{"user_id":167,"name":"SneakyJayMLP","steam_id":76561198969565685,"connected_time":4253000000000,"state":"active","ping":85},{"user_id":214,"name":"SkoranShogun","steam_id":76561198091811218,"connected_time":1530000000000,"state":"active","ping":82},{"user_id":162,"name":"Bone Daddy","steam_id":76561198037836736,"connected_time":5210000000000,"state":"active","ping":81},{"user_id":227,"name":"eat Pant","steam_id":76561197974965536,"connected_time":422000000000,"state":"active","ping":60},{"user_id":223,"name":"LonghornCrazy99","steam_id":76561199387520259,"connected_time":1033000000000,"state":"active","ping":77},{"user_id":211,"name":"oddmanoutparisien","steam_id":76561199225591834,"connected_time":1719000000000,"state":"active","ping":84},{"user_id":224,"name":"UNIT 220","steam_id":76561198042243497,"connected_time":1030000000000,"state":"active","ping":65},{"user_id":201,"name":"Dewgong (real)","steam_id":76561198045999391,"connected_time":1953000000000,"state":"active","ping":74},{"user_id":187,"name":"silly water cat","steam_id":76561198897122890,"connected_time":3137000000000,"state":"active","ping":55},{"user_id":191,"name":"Ceige (redemption arc)","steam_id":76561198068538473,"connected_time":2911000000000,"state":"active","ping":75},{"user_id":229,"name":"boe jiden","steam_id":76561198041048289,"connected_time":229000000000,"state":"active","ping":60},{"user_id":194,"name":"BALD SPOTTER 5000","steam_id":76561198352909489,"connected_time":2764000000000,"state":"active","ping":146},{"user_id":205,"name":"cyberas","steam_id":76561198257092290,"connected_time":1846000000000,"state":"active","ping":91}]},{"server_id":38,"name":"Uncletopia | Chicago | 7 | Stopwatch Beta","name_short":"chi-7","host":"chi-2.us.uncletopia.com","port":27035,"enabled":true,"region":"us-central","cc":"us","latitude":41.881832,"longitude":-87.62318,"reserved":0,"last_update":"0001-01-01T00:00:00Z","name_a2s":"Uncletopia | Chicago | 7 | Stopwatch Beta","protocol":17,"map":"pl_borneo","folder":"tf","game":"Team Fortress","app_id":440,"player_count":1,"max_players":24,"Bots":0,"server_type":"Dedicated","server_os":"Linux","password":true,"vac":true,"version":"7932396","steam_id":85568392924866364,"keywords":["nocrits","nodmgspread","payload","uncletopia"],"game_id":440,"stv_port":27036,"stv_name":"Uncletopia | Chicago | 7 | Stopwatch Beta | STV","players":[{"user_id":10,"name":"Demon_Slayer290","steam_id":76561198000782062,"connected_time":114000000000,"state":"active","ping":73}]},{"server_id":39,"name":"Uncletopia | Chicago | 8 | Community","name_short":"chi-8","host":"chi-2.us.uncletopia.com","port":27045,"enabled":true,"region":"us-central","cc":"us","latitude":41.881832,"longitude":-87.62318,"reserved":0,"last_update":"0001-01-01T00:00:00Z","name_a2s":"Uncletopia | Chicago | 8 | Community","protocol":17,"map":"workshop/pl_badwater_pro_v12.ugc2142942074","folder":"tf","game":"Team Fortress","app_id":440,"player_count":24,"max_players":24,"Bots":0,"server_type":"Dedicated","server_os":"Linux","password":true,"vac":true,"version":"7932396","steam_id":85568392924866365,"keywords":["nocrits","nodmgspread","payload","uncletopia"],"game_id":440,"stv_port":27046,"stv_name":"Uncletopia | Chicago | 8 | Community | STV","players":[{"user_id":102,"name":"anipe10","steam_id":76561199084698417,"connected_time":1405000000000,"state":"active","ping":107},{"user_id":103,"name":"RedForger","steam_id":76561199054855854,"connected_time":1400000000000,"state":"active","ping":72},{"user_id":104,"name":"Jean Deere","steam_id":76561198105101309,"connected_time":1398000000000,"state":"active","ping":74},{"user_id":29,"name":"Yayifications","steam_id":76561198066227208,"connected_time":7736000000000,"state":"active","ping":60},{"user_id":84,"name":"Poberl","steam_id":76561198823051158,"connected_time":2778000000000,"state":"active","ping":60},{"user_id":87,"name":"Monolith Soldier","steam_id":76561198171898155,"connected_time":2708000000000,"state":"active","ping":58},{"user_id":123,"name":"shadow6","steam_id":76561197979807910,"connected_time":359000000000,"state":"active","ping":87},{"user_id":106,"name":"Rock Kickass","steam_id":76561198450510841,"connected_time":1372000000000,"state":"active","ping":130},{"user_id":95,"name":"coolfalcon168","steam_id":76561198948665710,"connected_time":1790000000000,"state":"active","ping":85},{"user_id":117,"name":"GotYourNose","steam_id":76561198803527852,"connected_time":836000000000,"state":"active","ping":61},{"user_id":112,"name":"LammyJams","steam_id":76561199038181549,"connected_time":1125000000000,"state":"active","ping":71},{"user_id":68,"name":"❄︎SHIT PISSER JULIANNE❄","steam_id":76561198061955351,"connected_time":3972000000000,"state":"active","ping":51},{"user_id":99,"name":"groudon","steam_id":76561198128347876,"connected_time":1510000000000,"state":"active","ping":74},{"user_id":111,"name":"(◔) Neville","steam_id":76561198025637970,"connected_time":1227000000000,"state":"active","ping":76},{"user_id":113,"name":"leonardo doujinshi","steam_id":76561198025810326,"connected_time":1124000000000,"state":"active","ping":75},{"user_id":124,"name":"french exterminator","steam_id":76561198993412673,"connected_time":333000000000,"state":"active","ping":111},{"user_id":65,"name":"Mundy","steam_id":76561198175490223,"connected_time":4037000000000,"state":"active","ping":76},{"user_id":100,"name":"Real Azure #SaveTF2","steam_id":76561198095912284,"connected_time":1504000000000,"state":"active","ping":114},{"user_id":121,"name":"ultralisk52","steam_id":76561198051666604,"connected_time":557000000000,"state":"active","ping":60},{"user_id":119,"name":"hipster_doofus","steam_id":76561197970902697,"connected_time":737000000000,"state":"active","ping":146},{"user_id":125,"name":"Chiki","steam_id":76561198063590320,"connected_time":63000000000,"state":"spawning","ping":406},{"user_id":109,"name":"HTML","steam_id":76561198099061153,"connected_time":1364000000000,"state":"active","ping":90},{"user_id":110,"name":"gribe","steam_id":76561198398123672,"connected_time":1354000000000,"state":"active","ping":125},{"user_id":116,"name":"Doubting Dave","steam_id":76561198066410749,"connected_time":971000000000,"state":"active","ping":78}]},{"server_id":8,"name":"Uncletopia | Dallas | 1 | All Maps","name_short":"dal-1","host":"dal-1.us.uncletopia.com","port":27015,"enabled":true,"region":"us-central","cc":"us","latitude":32.779167,"longitude":-96.80889,"reserved":0,"last_update":"0001-01-01T00:00:00Z","name_a2s":"Uncletopia | Dallas | 1 | All Maps","protocol":17,"map":"pl_pier","folder":"tf","game":"Team Fortress","app_id":440,"player_count":24,"max_players":24,"Bots":0,"server_type":"Dedicated","server_os":"Linux","password":true,"vac":true,"version":"7932396","steam_id":85568392924469986,"keywords":["nocrits","nodmgspread","payload","uncletopia"],"game_id":440,"stv_port":27016,"stv_name":"Uncletopia | Dallas | 1 | All Maps | STV","players":[{"user_id":517,"name":"The milkman (milks you)","steam_id":76561199155456102,"connected_time":1899000000000,"state":"active","ping":91},{"user_id":434,"name":"pogo","steam_id":76561198148913461,"connected_time":7789000000000,"state":"active","ping":86},{"user_id":455,"name":"Solstrom","steam_id":76561198313364985,"connected_time":6398000000000,"state":"active","ping":81},{"user_id":531,"name":"GLG.Liz","steam_id":76561198021957956,"connected_time":158000000000,"state":"active","ping":50},{"user_id":511,"name":"Mehman big/balls","steam_id":76561199020244051,"connected_time":2137000000000,"state":"active","ping":105},{"user_id":530,"name":"An Actual Civic Si","steam_id":76561198926416886,"connected_time":529000000000,"state":"active","ping":65},{"user_id":527,"name":"Neo Noire","steam_id":76561198222930860,"connected_time":1089000000000,"state":"active","ping":93},{"user_id":514,"name":"Out Like a Light","steam_id":76561198410957728,"connected_time":1975000000000,"state":"active","ping":75},{"user_id":475,"name":"Michaelpc1","steam_id":76561198088365519,"connected_time":4796000000000,"state":"active","ping":84},{"user_id":504,"name":"Alfonso Molestro","steam_id":76561197998677099,"connected_time":2687000000000,"state":"active","ping":112},{"user_id":515,"name":"god's silliest puppygirl","steam_id":76561198128164970,"connected_time":1958000000000,"state":"active","ping":90},{"user_id":447,"name":"TheGFG","steam_id":76561198166150556,"connected_time":7096000000000,"state":"active","ping":69},{"user_id":505,"name":"ATL1 | on my hunting trip","steam_id":76561198315341646,"connected_time":2565000000000,"state":"active","ping":89},{"user_id":524,"name":"Jerk Tryhard (roleplay)","steam_id":76561199470538309,"connected_time":1714000000000,"state":"active","ping":80},{"user_id":509,"name":"Pinetree w/ apples.","steam_id":76561198105411709,"connected_time":2526000000000,"state":"active","ping":114},{"user_id":526,"name":"Daz","steam_id":76561198041431938,"connected_time":1677000000000,"state":"active","ping":104},{"user_id":459,"name":"B.","steam_id":76561198040445907,"connected_time":5844000000000,"state":"active","ping":75},{"user_id":446,"name":"Lost","steam_id":76561198025933206,"connected_time":7258000000000,"state":"active","ping":56},{"user_id":500,"name":"LampMan","steam_id":76561198079857527,"connected_time":2814000000000,"state":"active","ping":61},{"user_id":479,"name":"Snugboo","steam_id":76561198147970327,"connected_time":4786000000000,"state":"active","ping":76},{"user_id":473,"name":"scapegoat","steam_id":76561198188722751,"connected_time":4826000000000,"state":"active","ping":90},{"user_id":521,"name":"Raptortastic","steam_id":76561198105613110,"connected_time":1811000000000,"state":"active","ping":76},{"user_id":525,"name":"minimalpair","steam_id":76561198071788709,"connected_time":1693000000000,"state":"active","ping":86},{"user_id":529,"name":"freak","steam_id":76561198049544552,"connected_time":748000000000,"state":"active","ping":45}]},{"server_id":108,"name":"Uncletopia | Dallas | 2 | All Maps","name_short":"dal-2","host":"dal-1.us.uncletopia.com","port":27025,"enabled":true,"region":"us-central","cc":"us","latitude":32.779167,"longitude":-96.80889,"reserved":0,"last_update":"0001-01-01T00:00:00Z","name_a2s":"Uncletopia | Dallas | 2 | All Maps","protocol":17,"map":"cp_sunshine","folder":"tf","game":"Team Fortress","app_id":440,"player_count":24,"max_players":24,"Bots":0,"server_type":"Dedicated","server_os":"Linux","password":true,"vac":true,"version":"7932396","steam_id":85568392924469988,"keywords":["cp","nocrits","nodmgspread","uncletopia"],"game_id":440,"stv_port":27026,"stv_name":"Uncletopia | Dallas | 2 | All Maps | STV","players":[{"user_id":306,"name":"KaleScrooge","steam_id":76561199229442595,"connected_time":379000000000,"state":"active","ping":115},{"user_id":305,"name":"⛧⸸Gothix⛧⸸","steam_id":76561198996375805,"connected_time":455000000000,"state":"active","ping":45},{"user_id":246,"name":"Soup","steam_id":76561198448801117,"connected_time":3382000000000,"state":"active","ping":70},{"user_id":269,"name":"DMM","steam_id":76561198065426171,"connected_time":2267000000000,"state":"active","ping":52},{"user_id":286,"name":"hforce11","steam_id":76561198087647130,"connected_time":1241000000000,"state":"active","ping":69},{"user_id":299,"name":"Riboflavin","steam_id":76561198077328593,"connected_time":769000000000,"state":"active","ping":54},{"user_id":270,"name":"SmokeyGalaxy","steam_id":76561198118780516,"connected_time":2261000000000,"state":"active","ping":102},{"user_id":298,"name":"AT✪MIC","steam_id":76561198100385184,"connected_time":784000000000,"state":"active","ping":99},{"user_id":250,"name":"American freedom bird","steam_id":76561198366142388,"connected_time":3096000000000,"state":"active","ping":100},{"user_id":300,"name":"Jabs","steam_id":76561198004411240,"connected_time":763000000000,"state":"active","ping":83},{"user_id":271,"name":"malarkeyman","steam_id":76561198844473584,"connected_time":2217000000000,"state":"active","ping":60},{"user_id":295,"name":"antoniov00gaming","steam_id":76561198364632073,"connected_time":996000000000,"state":"active","ping":157},{"user_id":296,"name":"vulture pupy","steam_id":76561198061963965,"connected_time":935000000000,"state":"active","ping":109},{"user_id":304,"name":"*‧˚kitsu ʚ♥ɞ","steam_id":76561198091741658,"connected_time":488000000000,"state":"active","ping":62},{"user_id":302,"name":"The Wok","steam_id":76561199077573980,"connected_time":754000000000,"state":"active","ping":78},{"user_id":258,"name":"BotBee","steam_id":76561198997590783,"connected_time":2886000000000,"state":"active","ping":95},{"user_id":282,"name":"Jesus","steam_id":76561198018890911,"connected_time":1894000000000,"state":"active","ping":43},{"user_id":203,"name":"Yapple Dapple","steam_id":76561198082422815,"connected_time":6739000000000,"state":"active","ping":70},{"user_id":303,"name":"ya ya breathe","steam_id":76561198075858067,"connected_time":731000000000,"state":"active","ping":88},{"user_id":293,"name":"Colonel Salt","steam_id":76561198207009563,"connected_time":1078000000000,"state":"active","ping":59},{"user_id":290,"name":"The Duck","steam_id":76561199362841212,"connected_time":1095000000000,"state":"active","ping":75},{"user_id":275,"name":"Rocco__","steam_id":76561197992824074,"connected_time":2152000000000,"state":"active","ping":91},{"user_id":291,"name":"starLy","steam_id":76561198174428289,"connected_time":1095000000000,"state":"active","ping":76},{"user_id":280,"name":"Not Giga Chad","steam_id":76561198059785363,"connected_time":1959000000000,"state":"active","ping":60}]},{"server_id":5,"name":"Uncletopia | Frankfurt | 1 | All Maps","name_short":"frk-1","host":"frk-1.de.uncletopia.com","port":27015,"enabled":true,"region":"eu","cc":"de","latitude":50.110924,"longitude":8.682127,"reserved":0,"last_update":"0001-01-01T00:00:00Z","name_a2s":"Uncletopia | Frankfurt | 1 | All Maps","protocol":17,"map":"pl_pier","folder":"tf","game":"Team Fortress","app_id":440,"player_count":24,"max_players":24,"Bots":0,"server_type":"Dedicated","server_os":"Linux","password":true,"vac":true,"version":"7932396","steam_id":85568392924469989,"keywords":["nocrits","nodmgspread","payload","uncletopia"],"game_id":440,"stv_port":27016,"stv_name":"Uncletopia | Frankfurt | 1 | All Maps | STV","players":[{"user_id":218,"name":"Klara_AT","steam_id":76561198947975261,"connected_time":2485000000000,"state":"active","ping":67},{"user_id":259,"name":"ifre3","steam_id":76561198052545817,"connected_time":642000000000,"state":"active","ping":99},{"user_id":251,"name":"Teecho","steam_id":76561197995269610,"connected_time":1252000000000,"state":"active","ping":89},{"user_id":248,"name":"tom","steam_id":76561198202442602,"connected_time":1619000000000,"state":"active","ping":83},{"user_id":253,"name":"MacxNxCheese80","steam_id":76561198923725480,"connected_time":1051000000000,"state":"active","ping":144},{"user_id":249,"name":"Salih","steam_id":76561198287934839,"connected_time":1613000000000,"state":"active","ping":57},{"user_id":254,"name":"Milosz52","steam_id":76561199060940204,"connected_time":1049000000000,"state":"active","ping":80},{"user_id":261,"name":"Milk","steam_id":76561198125876588,"connected_time":411000000000,"state":"active","ping":54},{"user_id":245,"name":"Baron","steam_id":76561198021901783,"connected_time":1649000000000,"state":"active","ping":76},{"user_id":191,"name":"Mariny","steam_id":76561198169995378,"connected_time":4184000000000,"state":"active","ping":45},{"user_id":192,"name":"Teacup","steam_id":76561198190654091,"connected_time":4173000000000,"state":"active","ping":66},{"user_id":213,"name":"ant753","steam_id":76561198103458889,"connected_time":2714000000000,"state":"active","ping":68},{"user_id":217,"name":"useless windows applications","steam_id":76561198410066304,"connected_time":2515000000000,"state":"active","ping":51},{"user_id":264,"name":"Jeg","steam_id":76561197994059603,"connected_time":239000000000,"state":"active","ping":76},{"user_id":202,"name":"dmEngineer_tf2 #SaveTF2","steam_id":76561199388956338,"connected_time":3397000000000,"state":"active","ping":76},{"user_id":215,"name":"Lorenzo Lovers","steam_id":76561198073973581,"connected_time":2532000000000,"state":"active","ping":81},{"user_id":214,"name":"Gryoss","steam_id":76561197999837111,"connected_time":2564000000000,"state":"active","ping":100},{"user_id":216,"name":"After8","steam_id":76561198090750865,"connected_time":2520000000000,"state":"active","ping":61},{"user_id":260,"name":"chmiel156","steam_id":76561198079226529,"connected_time":588000000000,"state":"active","ping":70},{"user_id":258,"name":"HOBOEJOE13","steam_id":76561198352094332,"connected_time":1015000000000,"state":"active","ping":45},{"user_id":256,"name":"Deacon Dracul","steam_id":76561198046880663,"connected_time":1042000000000,"state":"active","ping":99},{"user_id":257,"name":"dab-dab","steam_id":76561198088930298,"connected_time":1041000000000,"state":"active","ping":82},{"user_id":263,"name":"Bobirulez","steam_id":76561198009125458,"connected_time":377000000000,"state":"active","ping":75},{"user_id":265,"name":"12Adam12","steam_id":76561198037882443,"connected_time":216000000000,"state":"active","ping":73}]},{"server_id":110,"name":"Uncletopia | Frankfurt | 2 | All Maps","name_short":"frk-2","host":"frk-1.de.uncletopia.com","port":27025,"enabled":true,"region":"eu","cc":"de","latitude":50.110924,"longitude":8.682127,"reserved":0,"last_update":"0001-01-01T00:00:00Z","name_a2s":"Uncletopia | Frankfurt | 2 | All Maps","protocol":17,"map":"koth_viaduct","folder":"tf","game":"Team Fortress","app_id":440,"player_count":3,"max_players":24,"Bots":0,"server_type":"Dedicated","server_os":"Linux","password":true,"vac":true,"version":"7932396","steam_id":85568392924469990,"keywords":["cp","nocrits","nodmgspread","uncletopia"],"game_id":440,"stv_port":27026,"stv_name":"Uncletopia | Frankfurt | 2 | All Maps | STV","players":[{"user_id":65,"name":"sunshine (she/her)","steam_id":76561198084597975,"connected_time":134000000000,"state":"active","ping":59},{"user_id":61,"name":"xoxoxeno","steam_id":76561198019142095,"connected_time":720000000000,"state":"active","ping":55},{"user_id":66,"name":"człowiek kolimator","steam_id":76561198128797110,"connected_time":86000000000,"state":"active","ping":47}]},{"server_id":308,"name":"Uncletopia | Frankfurt | 3 | All Maps","name_short":"frk-3","host":"frk-1.de.uncletopia.com","port":27035,"enabled":true,"region":"eu","cc":"de","latitude":50.110924,"longitude":8.682127,"reserved":0,"last_update":"0001-01-01T00:00:00Z","name_a2s":"Uncletopia | Frankfurt | 3 | All Maps","protocol":17,"map":"pl_frontier_final","folder":"tf","game":"Team Fortress","app_id":440,"player_count":24,"max_players":24,"Bots":0,"server_type":"Dedicated","server_os":"Linux","password":true,"vac":true,"version":"7932396","steam_id":85568392924504274,"keywords":["nocrits","nodmgspread","payload","uncletopia"],"game_id":440,"stv_port":27036,"stv_name":"Uncletopia | Frankfurt | 3 | All Maps | STV","players":[{"user_id":727,"name":"filo","steam_id":76561198103633797,"connected_time":5644000000000,"state":"active","ping":80},{"user_id":773,"name":"Urfangonultasadana","steam_id":76561199389286151,"connected_time":1337000000000,"state":"active","ping":96},{"user_id":783,"name":"TheBeardedM1G","steam_id":76561198040208946,"connected_time":1046000000000,"state":"active","ping":48},{"user_id":766,"name":"Osek","steam_id":76561197972646003,"connected_time":1488000000000,"state":"active","ping":60},{"user_id":774,"name":"Samwell","steam_id":76561198182340393,"connected_time":1314000000000,"state":"active","ping":70},{"user_id":771,"name":"JääJaakko","steam_id":76561198126135559,"connected_time":1401000000000,"state":"active","ping":105},{"user_id":761,"name":"tokss","steam_id":76561198033084982,"connected_time":1942000000000,"state":"active","ping":91},{"user_id":767,"name":"asd:_","steam_id":76561198060417920,"connected_time":1478000000000,"state":"active","ping":77},{"user_id":775,"name":"shablool","steam_id":76561199192795613,"connected_time":1288000000000,"state":"active","ping":92},{"user_id":776,"name":"LemonLeCitron","steam_id":76561198215545267,"connected_time":1286000000000,"state":"active","ping":72},{"user_id":777,"name":"ABbott_","steam_id":76561198030528873,"connected_time":1236000000000,"state":"active","ping":77},{"user_id":778,"name":"Breizbuc","steam_id":76561198118220633,"connected_time":1216000000000,"state":"active","ping":70},{"user_id":785,"name":"Barry","steam_id":76561198317737261,"connected_time":536000000000,"state":"active","ping":64},{"user_id":760,"name":"Hildreth","steam_id":76561197995254867,"connected_time":1987000000000,"state":"active","ping":57},{"user_id":791,"name":"My Favorite Stranger","steam_id":76561198159100379,"connected_time":168000000000,"state":"active","ping":62},{"user_id":786,"name":"_Starlight_","steam_id":76561197993885738,"connected_time":455000000000,"state":"active","ping":88},{"user_id":768,"name":"live funny joke reaction cam","steam_id":76561198346324423,"connected_time":1453000000000,"state":"active","ping":111},{"user_id":657,"name":"Bat Georgi","steam_id":76561198361144342,"connected_time":9477000000000,"state":"active","ping":83},{"user_id":735,"name":"Syd","steam_id":76561198020515027,"connected_time":4890000000000,"state":"active","ping":84},{"user_id":794,"name":"Zzziiighghmuund","steam_id":76561198798167787,"connected_time":20000000000,"state":"active","ping":97},{"user_id":793,"name":"Диди","steam_id":76561199017111268,"connected_time":128000000000,"state":"active","ping":108},{"user_id":770,"name":"robu","steam_id":76561198113874116,"connected_time":1422000000000,"state":"active","ping":74},{"user_id":780,"name":"xLeoparrd","steam_id":76561198940657194,"connected_time":1202000000000,"state":"active","ping":163},{"user_id":782,"name":"dgz","steam_id":76561197979345019,"connected_time":1136000000000,"state":"active","ping":99}]},{"server_id":309,"name":"Uncletopia | Frankfurt | 4 | All Maps","name_short":"frk-4","host":"frk-1.de.uncletopia.com","port":27045,"enabled":true,"region":"eu","cc":"de","latitude":50.110924,"longitude":8.682127,"reserved":0,"last_update":"0001-01-01T00:00:00Z","name_a2s":"Uncletopia | Frankfurt | 4 | All Maps","protocol":17,"map":"pl_barnblitz","folder":"tf","game":"Team Fortress","app_id":440,"player_count":24,"max_players":24,"Bots":0,"server_type":"Dedicated","server_os":"Linux","password":true,"vac":true,"version":"7932396","steam_id":85568392924504275,"keywords":["nocrits","nodmgspread","payload","uncletopia"],"game_id":440,"stv_port":27046,"stv_name":"Uncletopia | Frankfurt | 4 | All Maps | STV","players":[{"user_id":355,"name":"chill","steam_id":76561198198581079,"connected_time":833000000000,"state":"active","ping":92},{"user_id":360,"name":"laser","steam_id":76561198036030697,"connected_time":641000000000,"state":"active","ping":63},{"user_id":349,"name":"cursedbygod♡","steam_id":76561198318291047,"connected_time":1147000000000,"state":"active","ping":114},{"user_id":328,"name":"kilo","steam_id":76561198015641339,"connected_time":2942000000000,"state":"active","ping":63},{"user_id":354,"name":"SEXBOG69","steam_id":76561198877738338,"connected_time":974000000000,"state":"active","ping":81},{"user_id":348,"name":"SunZi","steam_id":76561198139243535,"connected_time":1179000000000,"state":"active","ping":85},{"user_id":358,"name":"eeeeee","steam_id":76561198017786875,"connected_time":664000000000,"state":"active","ping":58},{"user_id":359,"name":"Michal jordan","steam_id":76561199106262610,"connected_time":658000000000,"state":"active","ping":65},{"user_id":361,"name":"Hans","steam_id":76561198030061999,"connected_time":612000000000,"state":"active","ping":77},{"user_id":352,"name":"Halal Goku","steam_id":76561198161822358,"connected_time":1102000000000,"state":"active","ping":60},{"user_id":362,"name":"Lewylow","steam_id":76561198005425686,"connected_time":579000000000,"state":"active","ping":67},{"user_id":341,"name":"Kaishakunin","steam_id":76561198028123874,"connected_time":2190000000000,"state":"active","ping":94},{"user_id":365,"name":"ScaryTree","steam_id":76561199384362833,"connected_time":312000000000,"state":"active","ping":65},{"user_id":335,"name":"Ewelinka Zniszczenia","steam_id":76561198307374456,"connected_time":2363000000000,"state":"active","ping":66},{"user_id":331,"name":"Sulejman______________________\ufffd","steam_id":76561198276847676,"connected_time":2534000000000,"state":"active","ping":93},{"user_id":367,"name":"ran is running","steam_id":76561199443185667,"connected_time":206000000000,"state":"active","ping":139},{"user_id":366,"name":"Ironnicall","steam_id":76561199060151538,"connected_time":300000000000,"state":"active","ping":146},{"user_id":351,"name":"Ross from F.R.I.E.N.D.S.","steam_id":76561198008511665,"connected_time":1114000000000,"state":"active","ping":61},{"user_id":345,"name":"Vitamin Weee","steam_id":76561199183937747,"connected_time":1685000000000,"state":"active","ping":86},{"user_id":338,"name":".:Mr. SnipeR:.","steam_id":76561198070091899,"connected_time":2308000000000,"state":"active","ping":64},{"user_id":369,"name":"♥♥dj_damian( ͡° ͜ʖ ͡°","steam_id":76561198321091340,"connected_time":112000000000,"state":"active","ping":97},{"user_id":353,"name":"Enter69","steam_id":76561199049440719,"connected_time":1090000000000,"state":"active","ping":87},{"user_id":363,"name":"FilipeLuk","steam_id":76561198150675438,"connected_time":508000000000,"state":"active","ping":73},{"user_id":356,"name":"TAFI03","steam_id":76561198213082089,"connected_time":702000000000,"state":"active","ping":56}]},{"server_id":310,"name":"Uncletopia | Frankfurt | 5 | All Maps","name_short":"frk-5","host":"frk-1.de.uncletopia.com","port":27055,"enabled":true,"region":"eu","cc":"de","latitude":50.110924,"longitude":8.682127,"reserved":0,"last_update":"0001-01-01T00:00:00Z","name_a2s":"Uncletopia | Frankfurt | 5 | All Maps","protocol":17,"map":"cp_mountainlab","folder":"tf","game":"Team Fortress","app_id":440,"player_count":24,"max_players":24,"Bots":0,"server_type":"Dedicated","server_os":"Linux","password":true,"vac":true,"version":"7932396","steam_id":85568392924504277,"keywords":["cp","nocrits","nodmgspread","uncletopia"],"game_id":440,"stv_port":27056,"stv_name":"Uncletopia | Frankfurt | 5 | All Maps | STV","players":[{"user_id":614,"name":"Xpload","steam_id":76561198188505089,"connected_time":6479000000000,"state":"active","ping":53},{"user_id":634,"name":"Derpyyy","steam_id":76561198108754919,"connected_time":5310000000000,"state":"active","ping":46},{"user_id":628,"name":"60Hz notebook gamer","steam_id":76561198215359609,"connected_time":6078000000000,"state":"active","ping":51},{"user_id":682,"name":"kaiser18887","steam_id":76561199482346702,"connected_time":1560000000000,"state":"active","ping":91},{"user_id":676,"name":"Mimpy","steam_id":76561198040422830,"connected_time":1779000000000,"state":"active","ping":60},{"user_id":683,"name":"Kaslu","steam_id":76561199058102308,"connected_time":1369000000000,"state":"active","ping":74},{"user_id":662,"name":"FartSlave27","steam_id":76561198131241380,"connected_time":2745000000000,"state":"active","ping":52},{"user_id":664,"name":"Lightboom","steam_id":76561198104645103,"connected_time":2727000000000,"state":"active","ping":79},{"user_id":685,"name":"true","steam_id":76561198031145243,"connected_time":1332000000000,"state":"active","ping":87},{"user_id":606,"name":"Möppy #savetf2","steam_id":76561198020555530,"connected_time":6634000000000,"state":"active","ping":59},{"user_id":686,"name":"_420_StopItDudeCmon","steam_id":76561197997146481,"connected_time":1291000000000,"state":"active","ping":63},{"user_id":608,"name":"Stern","steam_id":76561198065421312,"connected_time":6627000000000,"state":"active","ping":46},{"user_id":687,"name":"conquistadorgt","steam_id":76561198848812449,"connected_time":1242000000000,"state":"active","ping":77},{"user_id":696,"name":"Pyraq","steam_id":76561198163646895,"connected_time":625000000000,"state":"active","ping":62},{"user_id":660,"name":"Zedifo","steam_id":76561198044032070,"connected_time":2908000000000,"state":"active","ping":59},{"user_id":701,"name":"Zeppelin","steam_id":76561198154867991,"connected_time":229000000000,"state":"active","ping":49},{"user_id":669,"name":"Cerberus","steam_id":76561198140442059,"connected_time":2386000000000,"state":"active","ping":54},{"user_id":623,"name":"demolition2n3","steam_id":76561198356060442,"connected_time":6179000000000,"state":"active","ping":57},{"user_id":689,"name":"gloomybub","steam_id":76561199179221733,"connected_time":1180000000000,"state":"active","ping":77},{"user_id":646,"name":"Solid","steam_id":76561198357049292,"connected_time":4454000000000,"state":"active","ping":124},{"user_id":690,"name":"burgz","steam_id":76561198109955787,"connected_time":1178000000000,"state":"active","ping":59},{"user_id":698,"name":"fish","steam_id":76561198995564430,"connected_time":391000000000,"state":"active","ping":155},{"user_id":654,"name":"Lempii","steam_id":76561198433507634,"connected_time":3738000000000,"state":"active","ping":92}]},{"server_id":311,"name":"Uncletopia | Frankfurt | 6 | All Maps","name_short":"frk-6","host":"frk-1.de.uncletopia.com","port":27065,"enabled":true,"region":"eu","cc":"de","latitude":50.110924,"longitude":8.682127,"reserved":0,"last_update":"0001-01-01T00:00:00Z","name_a2s":"Uncletopia | Frankfurt | 6 | All Maps","protocol":17,"map":"pl_barnblitz","folder":"tf","game":"Team Fortress","app_id":440,"player_count":24,"max_players":24,"Bots":0,"server_type":"Dedicated","server_os":"Linux","password":true,"vac":true,"version":"7932396","steam_id":85568392924504278,"keywords":["nocrits","nodmgspread","payload","uncletopia"],"game_id":440,"stv_port":27066,"stv_name":"Uncletopia | Frankfurt | 6 | All Maps | STV","players":[{"user_id":361,"name":"snake","steam_id":76561198097712283,"connected_time":572000000000,"state":"active","ping":85},{"user_id":353,"name":"Leks","steam_id":76561198896459941,"connected_time":1780000000000,"state":"active","ping":112},{"user_id":363,"name":"TheEventGuy","steam_id":76561197972797744,"connected_time":270000000000,"state":"active","ping":55},{"user_id":358,"name":"I.C. Wiener","steam_id":76561197999912254,"connected_time":959000000000,"state":"active","ping":98},{"user_id":321,"name":"Nyhde","steam_id":76561198012771416,"connected_time":3339000000000,"state":"active","ping":88},{"user_id":360,"name":"Labia in Fishnets","steam_id":76561198061382104,"connected_time":663000000000,"state":"active","ping":69},{"user_id":346,"name":"rummy","steam_id":76561197997573379,"connected_time":2024000000000,"state":"active","ping":58},{"user_id":286,"name":"The Chef","steam_id":76561198407754363,"connected_time":5184000000000,"state":"active","ping":97},{"user_id":365,"name":"Nameless","steam_id":76561198084215731,"connected_time":23000000000,"state":"active","ping":54},{"user_id":335,"name":"Sexsmith","steam_id":76561197992927989,"connected_time":2624000000000,"state":"active","ping":88},{"user_id":356,"name":"cazador","steam_id":76561198123096922,"connected_time":975000000000,"state":"active","ping":89},{"user_id":349,"name":"notepad++","steam_id":76561198128664132,"connected_time":1998000000000,"state":"active","ping":67},{"user_id":351,"name":"Jackie Chan","steam_id":76561199378865926,"connected_time":1968000000000,"state":"active","ping":81},{"user_id":362,"name":"TheShield","steam_id":76561199158386096,"connected_time":458000000000,"state":"active","ping":69},{"user_id":355,"name":"Ajoj","steam_id":76561199210963141,"connected_time":1670000000000,"state":"active","ping":72},{"user_id":337,"name":"KNNTX","steam_id":76561198161313074,"connected_time":2577000000000,"state":"active","ping":113},{"user_id":341,"name":"richie","steam_id":76561198124159344,"connected_time":2408000000000,"state":"active","ping":47},{"user_id":342,"name":"iniT","steam_id":76561198019883794,"connected_time":2407000000000,"state":"active","ping":61},{"user_id":268,"name":"EZPK","steam_id":76561197987474355,"connected_time":6566000000000,"state":"active","ping":66},{"user_id":333,"name":"B19-PP","steam_id":76561198057733920,"connected_time":2681000000000,"state":"active","ping":119},{"user_id":326,"name":"why rum gone","steam_id":76561198158484784,"connected_time":2973000000000,"state":"active","ping":60},{"user_id":357,"name":"Lyncurion","steam_id":76561199260022725,"connected_time":973000000000,"state":"active","ping":79},{"user_id":303,"name":"Mau","steam_id":76561198410945277,"connected_time":5039000000000,"state":"active","ping":116},{"user_id":343,"name":"Evil Boss","steam_id":76561198096570937,"connected_time":2386000000000,"state":"active","ping":59}]},{"server_id":23,"name":"Uncletopia | Frankfurt | 7 | Stopwatch Beta","name_short":"frk-7","host":"frk-1.de.uncletopia.com","port":27075,"enabled":true,"region":"eu","cc":"de","latitude":50.110924,"longitude":8.682127,"reserved":0,"last_update":"0001-01-01T00:00:00Z","name_a2s":"Uncletopia | Frankfurt | 7 | Stopwatch Beta","protocol":17,"map":"pl_snowycoast","folder":"tf","game":"Team Fortress","app_id":440,"player_count":0,"max_players":24,"Bots":0,"server_type":"Dedicated","server_os":"Linux","password":true,"vac":true,"version":"7932396","steam_id":85568392924742827,"keywords":["nocrits","nodmgspread","payload","uncletopia"],"game_id":440,"stv_port":27076,"stv_name":"Uncletopia | Frankfurt | 7 | Stopwatch Beta | STV","players":null},{"server_id":24,"name":"Uncletopia | Frankfurt | 8 | Community","name_short":"frk-8","host":"frk-1.de.uncletopia.com","port":27085,"enabled":true,"region":"eu","cc":"de","latitude":50.110924,"longitude":8.682127,"reserved":0,"last_update":"0001-01-01T00:00:00Z","name_a2s":"Uncletopia | Frankfurt | 8 | Community","protocol":17,"map":"workshop/cp_mannbase_rc2a.ugc1900737467","folder":"tf","game":"Team Fortress","app_id":440,"player_count":0,"max_players":24,"Bots":0,"server_type":"Dedicated","server_os":"Linux","password":true,"vac":true,"version":"7932396","steam_id":85568392924742828,"keywords":["cp","nocrits","nodmgspread","uncletopia"],"game_id":440,"stv_port":27086,"stv_name":"Uncletopia | Frankfurt | 8 | Community | STV","players":null},{"server_id":202,"name":"Uncletopia | Hong Kong | 1 | All Maps","name_short":"hgk-1","host":"hgk-1.hk.uncletopia.com","port":27015,"enabled":true,"region":"asia","cc":"hk","latitude":22.302711,"longitude":114.177216,"reserved":0,"last_update":"0001-01-01T00:00:00Z","name_a2s":"Uncletopia | Hong Kong | 1 | All Maps","protocol":17,"map":"cp_process_final","folder":"tf","game":"Team Fortress","app_id":440,"player_count":0,"max_players":24,"Bots":0,"server_type":"Dedicated","server_os":"Linux","password":true,"vac":true,"version":"7932396","steam_id":85568392924494504,"keywords":["cp","nocrits","nodmgspread","uncletopia"],"game_id":440,"stv_port":27016,"stv_name":"Uncletopia | Hong Kong | 1 | All Maps | STV","players":null},{"server_id":1,"name":"Uncletopia | Los Angeles | 1 | All Maps","name_short":"lax-1","host":"lax-1.us.uncletopia.com","port":27015,"enabled":true,"region":"us-west","cc":"us","latitude":33.94279,"longitude":-118.41004,"reserved":0,"last_update":"0001-01-01T00:00:00Z","name_a2s":"Uncletopia | Los Angeles | 1 | All Maps","protocol":17,"map":"cp_dustbowl","folder":"tf","game":"Team Fortress","app_id":440,"player_count":24,"max_players":24,"Bots":0,"server_type":"Dedicated","server_os":"Linux","password":true,"vac":true,"version":"7932396","steam_id":85568392924469991,"keywords":["cp","nocrits","nodmgspread","uncletopia"],"game_id":440,"stv_port":27016,"stv_name":"Uncletopia | Los Angeles | 1 | All Maps | STV","players":[{"user_id":416,"name":"benji","steam_id":76561198084417967,"connected_time":2454000000000,"state":"active","ping":93},{"user_id":448,"name":"StillNotGinger","steam_id":76561198063419189,"connected_time":52000000000,"state":"active","ping":86},{"user_id":442,"name":"An00bis","steam_id":76561198044084508,"connected_time":171000000000,"state":"active","ping":47},{"user_id":236,"name":"Hindmost","steam_id":76561199081837220,"connected_time":12407000000000,"state":"active","ping":105},{"user_id":443,"name":"Clay Pot","steam_id":76561199030644557,"connected_time":158000000000,"state":"active","ping":126},{"user_id":421,"name":"ejschild745","steam_id":76561199013388867,"connected_time":1967000000000,"state":"active","ping":87},{"user_id":444,"name":"mocer","steam_id":76561198329367716,"connected_time":140000000000,"state":"active","ping":57},{"user_id":411,"name":"Mark","steam_id":76561198855925338,"connected_time":2707000000000,"state":"active","ping":90},{"user_id":439,"name":"i lo","steam_id":76561199186223402,"connected_time":185000000000,"state":"active","ping":76},{"user_id":396,"name":"Acedia","steam_id":76561199011373463,"connected_time":4210000000000,"state":"active","ping":49},{"user_id":413,"name":"Crayon15k","steam_id":76561199095492569,"connected_time":2678000000000,"state":"active","ping":109},{"user_id":435,"name":"Battery Acid Slurper","steam_id":76561198439793697,"connected_time":656000000000,"state":"active","ping":131},{"user_id":437,"name":"DARKZONEHUB","steam_id":76561198930526912,"connected_time":266000000000,"state":"spawning","ping":218},{"user_id":429,"name":"a chicken","steam_id":76561198313121580,"connected_time":1061000000000,"state":"active","ping":45},{"user_id":447,"name":"CassiopeiaNeko","steam_id":76561198880417527,"connected_time":74000000000,"state":"active","ping":123},{"user_id":432,"name":"goblin64","steam_id":76561198969156830,"connected_time":1006000000000,"state":"active","ping":57},{"user_id":361,"name":"coolbust carti","steam_id":76561198065384345,"connected_time":5923000000000,"state":"active","ping":55},{"user_id":445,"name":"HiddenEgg","steam_id":76561199045105518,"connected_time":114000000000,"state":"active","ping":51},{"user_id":417,"name":"HAT-WEARING™ Maggot Gamer Cat","steam_id":76561197973992705,"connected_time":2412000000000,"state":"active","ping":68},{"user_id":436,"name":"Landlord","steam_id":76561198987913057,"connected_time":327000000000,"state":"active","ping":73},{"user_id":404,"name":"Valfour","steam_id":76561197995997680,"connected_time":3108000000000,"state":"active","ping":49},{"user_id":395,"name":"Slippy","steam_id":76561198334059206,"connected_time":4337000000000,"state":"active","ping":59},{"user_id":441,"name":"Captain Hotdog","steam_id":76561198059812666,"connected_time":174000000000,"state":"active","ping":51},{"user_id":405,"name":"Dr. Zoidburg","steam_id":76561198174593497,"connected_time":3022000000000,"state":"active","ping":95}]},{"server_id":112,"name":"Uncletopia | Los Angeles | 2 | All Maps","name_short":"lax-2","host":"lax-1.us.uncletopia.com","port":27025,"enabled":true,"region":"us-west","cc":"us","latitude":33.94279,"longitude":-118.41004,"reserved":0,"last_update":"0001-01-01T00:00:00Z","name_a2s":"Uncletopia | Los Angeles | 2 | All Maps","protocol":17,"map":"koth_cascade","folder":"tf","game":"Team Fortress","app_id":440,"player_count":0,"max_players":24,"Bots":0,"server_type":"Dedicated","server_os":"Linux","password":true,"vac":true,"version":"7932396","steam_id":85568392924469992,"keywords":["cp","nocrits","nodmgspread","uncletopia"],"game_id":440,"stv_port":27026,"stv_name":"Uncletopia | Los Angeles | 2 | All Maps | STV","players":null},{"server_id":324,"name":"Uncletopia | Los Angeles | 3 | All Maps","name_short":"lax-3","host":"lax-1.us.uncletopia.com","port":27035,"enabled":true,"region":"us-west","cc":"us","latitude":33.94279,"longitude":-118.41004,"reserved":0,"last_update":"0001-01-01T00:00:00Z","name_a2s":"Uncletopia | Los Angeles | 3 | All Maps","protocol":17,"map":"koth_cascade","folder":"tf","game":"Team Fortress","app_id":440,"player_count":0,"max_players":24,"Bots":0,"server_type":"Dedicated","server_os":"Linux","password":true,"vac":true,"version":"7932396","steam_id":85568392924510198,"keywords":["cp","nocrits","nodmgspread","uncletopia"],"game_id":440,"stv_port":27036,"stv_name":"Uncletopia | Los Angeles | 3 | All Maps | STV","players":null},{"server_id":25,"name":"Uncletopia | Los Angeles | 4 | Stopwatch Beta","name_short":"lax-4","host":"lax-1.us.uncletopia.com","port":27045,"enabled":true,"region":"us-west","cc":"us","latitude":33.94279,"longitude":-118.41004,"reserved":0,"last_update":"0001-01-01T00:00:00Z","name_a2s":"Uncletopia | Los Angeles | 4 | Stopwatch Beta","protocol":17,"map":"cp_altitude","folder":"tf","game":"Team Fortress","app_id":440,"player_count":0,"max_players":24,"Bots":0,"server_type":"Dedicated","server_os":"Linux","password":true,"vac":true,"version":"7932396","steam_id":85568392924510199,"keywords":["cp","nocrits","nodmgspread","uncletopia"],"game_id":440,"stv_port":27046,"stv_name":"Uncletopia | Los Angeles | 4 | Stopwatch Beta | STV","players":null},{"server_id":11,"name":"Uncletopia | London | 1 | All Maps","name_short":"lon-1","host":"lon-1.uk.uncletopia.com","port":27015,"enabled":true,"region":"eu","cc":"gb","latitude":51.509865,"longitude":-0.118092,"reserved":0,"last_update":"0001-01-01T00:00:00Z","name_a2s":"Uncletopia | London | 1 | All Maps","protocol":17,"map":"cp_snakewater_final1","folder":"tf","game":"Team Fortress","app_id":440,"player_count":24,"max_players":24,"Bots":0,"server_type":"Dedicated","server_os":"Linux","password":true,"vac":true,"version":"7932396","steam_id":85568392924367362,"keywords":["cp","nocrits","nodmgspread","uncletopia"],"game_id":440,"stv_port":27016,"stv_name":"Uncletopia | London | 1 | All Maps | STV","players":[{"user_id":544,"name":"S0LDaTo","steam_id":76561198269413360,"connected_time":4770000000000,"state":"active","ping":67},{"user_id":577,"name":"gnarly business","steam_id":76561198832688767,"connected_time":1393000000000,"state":"active","ping":47},{"user_id":553,"name":"Lix","steam_id":76561198130779816,"connected_time":4297000000000,"state":"active","ping":57},{"user_id":564,"name":"flappi","steam_id":76561198072892783,"connected_time":3209000000000,"state":"active","ping":70},{"user_id":545,"name":"SOPHIIEE","steam_id":76561198443798981,"connected_time":4688000000000,"state":"active","ping":59},{"user_id":560,"name":"Pantroglodytestherapy","steam_id":76561198236015392,"connected_time":3641000000000,"state":"active","ping":120},{"user_id":527,"name":"froglids","steam_id":76561198045466919,"connected_time":7004000000000,"state":"active","ping":74},{"user_id":578,"name":"Mr_Pulse_","steam_id":76561198095001602,"connected_time":1360000000000,"state":"active","ping":103},{"user_id":554,"name":"TheButterPickle","steam_id":76561198354317787,"connected_time":4254000000000,"state":"active","ping":57},{"user_id":534,"name":"Aaron","steam_id":76561197990046953,"connected_time":6135000000000,"state":"active","ping":55},{"user_id":580,"name":"poika^_^","steam_id":76561199057953617,"connected_time":261000000000,"state":"active","ping":61},{"user_id":575,"name":"Remi","steam_id":76561198860304357,"connected_time":1805000000000,"state":"active","ping":116},{"user_id":574,"name":"LurkingPancake","steam_id":76561199488567082,"connected_time":2096000000000,"state":"active","ping":90},{"user_id":547,"name":"Munibe","steam_id":76561198107967904,"connected_time":4629000000000,"state":"active","ping":69},{"user_id":555,"name":"regimiro","steam_id":76561198120457008,"connected_time":4029000000000,"state":"active","ping":83},{"user_id":565,"name":"impossible whopper eater","steam_id":76561198058641805,"connected_time":3207000000000,"state":"active","ping":47},{"user_id":582,"name":"Skinny101","steam_id":76561197985599360,"connected_time":192000000000,"state":"active","ping":55},{"user_id":526,"name":"♥aura♥","steam_id":76561198066258544,"connected_time":7078000000000,"state":"active","ping":60},{"user_id":549,"name":"pizzaschnoesel","steam_id":76561198143534694,"connected_time":4498000000000,"state":"active","ping":79},{"user_id":550,"name":"Son Goku","steam_id":76561199383437138,"connected_time":4444000000000,"state":"active","ping":121},{"user_id":576,"name":"WaDIP","steam_id":76561198010270494,"connected_time":1804000000000,"state":"active","ping":107},{"user_id":581,"name":"killer of noob, winner of game","steam_id":76561198190583242,"connected_time":259000000000,"state":"active","ping":83},{"user_id":556,"name":"Fwebbie","steam_id":76561199006875621,"connected_time":3985000000000,"state":"active","ping":53},{"user_id":568,"name":"Jude!","steam_id":76561197983597798,"connected_time":2915000000000,"state":"active","ping":44}]},{"server_id":114,"name":"Uncletopia | London | 2 | All Maps","name_short":"lon-2","host":"lon-1.uk.uncletopia.com","port":27025,"enabled":true,"region":"eu","cc":"gb","latitude":51.509865,"longitude":-0.118092,"reserved":0,"last_update":"0001-01-01T00:00:00Z","name_a2s":"Uncletopia | London | 2 | All Maps","protocol":17,"map":"cp_steel","folder":"tf","game":"Team Fortress","app_id":440,"player_count":23,"max_players":24,"Bots":0,"server_type":"Dedicated","server_os":"Linux","password":true,"vac":true,"version":"7932396","steam_id":85568392924470941,"keywords":["cp","nocrits","nodmgspread","uncletopia"],"game_id":440,"stv_port":27026,"stv_name":"Uncletopia | London | 2 | All Maps | STV","players":[{"user_id":647,"name":"sarii ☆","steam_id":76561199155102111,"connected_time":1862000000000,"state":"active","ping":78},{"user_id":636,"name":"Cosmic Gamer","steam_id":76561198027357981,"connected_time":2127000000000,"state":"active","ping":102},{"user_id":591,"name":"sashimi","steam_id":76561198041964141,"connected_time":3950000000000,"state":"active","ping":42},{"user_id":618,"name":"Ganasti","steam_id":76561198382925185,"connected_time":2784000000000,"state":"active","ping":95},{"user_id":619,"name":"z29ba2t0t1l301e17 (Song)","steam_id":76561198032359132,"connected_time":2764000000000,"state":"active","ping":46},{"user_id":600,"name":"TylowStar","steam_id":76561198357107806,"connected_time":3269000000000,"state":"active","ping":66},{"user_id":655,"name":"Mr. Clemp Smilf","steam_id":76561198081780103,"connected_time":1570000000000,"state":"active","ping":48},{"user_id":669,"name":"ARTI","steam_id":76561199446989613,"connected_time":829000000000,"state":"active","ping":71},{"user_id":668,"name":"Foggi","steam_id":76561198050078642,"connected_time":857000000000,"state":"active","ping":51},{"user_id":671,"name":"nedilya","steam_id":76561198039692077,"connected_time":653000000000,"state":"active","ping":61},{"user_id":643,"name":"Finn","steam_id":76561198179960193,"connected_time":1914000000000,"state":"active","ping":38},{"user_id":663,"name":"Kal_ter","steam_id":76561198067256797,"connected_time":968000000000,"state":"active","ping":93},{"user_id":645,"name":"NoPfizer","steam_id":76561198307914381,"connected_time":1892000000000,"state":"active","ping":58},{"user_id":675,"name":"ethan","steam_id":76561198119495513,"connected_time":525000000000,"state":"active","ping":45},{"user_id":664,"name":"conehead","steam_id":76561198157984921,"connected_time":957000000000,"state":"active","ping":69},{"user_id":678,"name":"Mike Okitches","steam_id":76561198046597584,"connected_time":184000000000,"state":"active","ping":45},{"user_id":615,"name":"UglyTwinYgor","steam_id":76561198132718039,"connected_time":2961000000000,"state":"active","ping":85},{"user_id":677,"name":"V.Kelvin","steam_id":76561198128186089,"connected_time":326000000000,"state":"active","ping":105},{"user_id":676,"name":"poop gaming","steam_id":76561198042268174,"connected_time":513000000000,"state":"active","ping":37},{"user_id":673,"name":"jigsaw falling in to place","steam_id":76561198019065232,"connected_time":601000000000,"state":"active","ping":45},{"user_id":680,"name":"jj","steam_id":76561198079200985,"connected_time":105000000000,"state":"active","ping":50},{"user_id":679,"name":"FatAssHaver55","steam_id":76561199142022395,"connected_time":147000000000,"state":"active","ping":81},{"user_id":653,"name":"Summer ♥","steam_id":76561198047723907,"connected_time":1658000000000,"state":"active","ping":45}]},{"server_id":320,"name":"Uncletopia | London | 3 | All Maps","name_short":"lon-3","host":"lon-1.uk.uncletopia.com","port":27035,"enabled":true,"region":"eu","cc":"gb","latitude":51.509865,"longitude":-0.118092,"reserved":0,"last_update":"0001-01-01T00:00:00Z","name_a2s":"Uncletopia | London | 3 | All Maps","protocol":17,"map":"pl_badwater","folder":"tf","game":"Team Fortress","app_id":440,"player_count":24,"max_players":24,"Bots":0,"server_type":"Dedicated","server_os":"Linux","password":true,"vac":true,"version":"7932396","steam_id":85568392924510192,"keywords":["nocrits","nodmgspread","payload","uncletopia"],"game_id":440,"stv_port":27036,"stv_name":"Uncletopia | London | 3 | All Maps | STV","players":[{"user_id":485,"name":"Nonok","steam_id":76561199480685498,"connected_time":4150000000000,"state":"active","ping":65},{"user_id":532,"name":"Sir Figglebottom Esquire The II","steam_id":76561198307378058,"connected_time":1078000000000,"state":"active","ping":63},{"user_id":541,"name":"Big Sauce","steam_id":76561198046654750,"connected_time":563000000000,"state":"active","ping":122},{"user_id":542,"name":"2shay","steam_id":76561198094467900,"connected_time":503000000000,"state":"active","ping":40},{"user_id":543,"name":"kålman","steam_id":76561198377533237,"connected_time":500000000000,"state":"active","ping":76},{"user_id":540,"name":":)","steam_id":76561198977420882,"connected_time":634000000000,"state":"active","ping":37},{"user_id":535,"name":"fwench fwy","steam_id":76561198058432834,"connected_time":1018000000000,"state":"active","ping":47},{"user_id":523,"name":"engie?","steam_id":76561198331852832,"connected_time":1874000000000,"state":"active","ping":82},{"user_id":551,"name":"daytoday","steam_id":76561199062818404,"connected_time":115000000000,"state":"active","ping":83},{"user_id":552,"name":"GoatLord1","steam_id":76561198157964544,"connected_time":99000000000,"state":"active","ping":54},{"user_id":550,"name":"t0ast","steam_id":76561198141722573,"connected_time":164000000000,"state":"active","ping":32},{"user_id":522,"name":"THY DARK L0RD","steam_id":76561198029005085,"connected_time":1887000000000,"state":"active","ping":84},{"user_id":411,"name":"ROX","steam_id":76561198272289320,"connected_time":9354000000000,"state":"active","ping":61},{"user_id":515,"name":"cat","steam_id":76561198832231975,"connected_time":2369000000000,"state":"active","ping":91},{"user_id":546,"name":"xd","steam_id":76561198218613716,"connected_time":463000000000,"state":"active","ping":94},{"user_id":497,"name":"Maks","steam_id":76561198315278876,"connected_time":3629000000000,"state":"active","ping":39},{"user_id":462,"name":"DeBlauwe","steam_id":76561198003140896,"connected_time":5731000000000,"state":"active","ping":59},{"user_id":516,"name":"Oki (Bon)","steam_id":76561199047748534,"connected_time":2101000000000,"state":"active","ping":56},{"user_id":547,"name":"Chambersite","steam_id":76561198197022399,"connected_time":454000000000,"state":"active","ping":90},{"user_id":549,"name":"tobia s","steam_id":76561198212620899,"connected_time":356000000000,"state":"active","ping":53},{"user_id":538,"name":"dochris.2","steam_id":76561198026478625,"connected_time":895000000000,"state":"active","ping":52},{"user_id":539,"name":"sareena","steam_id":76561198810194062,"connected_time":788000000000,"state":"active","ping":67},{"user_id":481,"name":"Enigmatic Gale","steam_id":76561198039416982,"connected_time":4699000000000,"state":"active","ping":70},{"user_id":531,"name":"Varsk","steam_id":76561198061398890,"connected_time":1117000000000,"state":"active","ping":45}]},{"server_id":321,"name":"Uncletopia | London | 4 | All Maps","name_short":"lon-4","host":"lon-1.uk.uncletopia.com","port":27045,"enabled":true,"region":"eu","cc":"gb","latitude":51.509865,"longitude":-0.118092,"reserved":0,"last_update":"0001-01-01T00:00:00Z","name_a2s":"Uncletopia | London | 4 | All Maps","protocol":17,"map":"pl_frontier_final","folder":"tf","game":"Team Fortress","app_id":440,"player_count":18,"max_players":24,"Bots":0,"server_type":"Dedicated","server_os":"Linux","password":true,"vac":true,"version":"7932396","steam_id":85568392924510193,"keywords":["nocrits","nodmgspread","payload","uncletopia"],"game_id":440,"stv_port":27046,"stv_name":"Uncletopia | London | 4 | All Maps | STV","players":[{"user_id":536,"name":"Dyfed","steam_id":76561198055389492,"connected_time":182000000000,"state":"active","ping":41},{"user_id":537,"name":"John Noob","steam_id":76561197999170026,"connected_time":151000000000,"state":"active","ping":86},{"user_id":538,"name":"Janos1k","steam_id":76561199104684805,"connected_time":136000000000,"state":"active","ping":91},{"user_id":539,"name":"Mavipac","steam_id":76561199187380483,"connected_time":105000000000,"state":"active","ping":114},{"user_id":520,"name":"Doctor Medic","steam_id":76561198100957443,"connected_time":1458000000000,"state":"active","ping":66},{"user_id":483,"name":"MarciDiMarcMarc","steam_id":76561199001920688,"connected_time":4822000000000,"state":"active","ping":71},{"user_id":529,"name":"Grillem Dafoe","steam_id":76561198306874574,"connected_time":978000000000,"state":"active","ping":70},{"user_id":481,"name":"Quiet Kid","steam_id":76561199134800446,"connected_time":4928000000000,"state":"active","ping":109},{"user_id":460,"name":"Farao Ramses II","steam_id":76561198078722712,"connected_time":5427000000000,"state":"active","ping":44},{"user_id":540,"name":"OutOfDucks","steam_id":76561198166376227,"connected_time":52000000000,"state":"active","ping":56},{"user_id":541,"name":"Strife","steam_id":76561197972383519,"connected_time":10000000000,"state":"active","ping":46},{"user_id":478,"name":"Milca, One eye'd Drunkard","steam_id":76561198848650365,"connected_time":4935000000000,"state":"active","ping":68},{"user_id":501,"name":"Mareaucanard","steam_id":76561198351406668,"connected_time":2315000000000,"state":"active","ping":61},{"user_id":490,"name":"Sarah Obama Michella","steam_id":76561198078996559,"connected_time":3778000000000,"state":"active","ping":83},{"user_id":516,"name":"GoblinGaming","steam_id":76561198360395476,"connected_time":1684000000000,"state":"active","ping":42},{"user_id":519,"name":"pyro gaming","steam_id":76561198087970118,"connected_time":1508000000000,"state":"active","ping":76},{"user_id":506,"name":"flange","steam_id":76561198040182692,"connected_time":2066000000000,"state":"active","ping":37},{"user_id":517,"name":"Bottle O' Scrumpy","steam_id":76561199244250562,"connected_time":1682000000000,"state":"active","ping":105}]},{"server_id":21,"name":"Uncletopia | London | 5 | All Maps","name_short":"lon-5","host":"lon-1.uk.uncletopia.com","port":27055,"enabled":true,"region":"eu","cc":"gb","latitude":51.509865,"longitude":-0.118092,"reserved":0,"last_update":"0001-01-01T00:00:00Z","name_a2s":"Uncletopia | London | 5 | All Maps","protocol":17,"map":"pl_badwater","folder":"tf","game":"Team Fortress","app_id":440,"player_count":24,"max_players":24,"Bots":0,"server_type":"Dedicated","server_os":"Linux","password":true,"vac":true,"version":"7932396","steam_id":85568392924742829,"keywords":["nocrits","nodmgspread","payload","uncletopia"],"game_id":440,"stv_port":27056,"stv_name":"Uncletopia | London | 5 | All Maps | STV","players":[{"user_id":841,"name":"cotroD","steam_id":76561198130063938,"connected_time":506000000000,"state":"active","ping":88},{"user_id":842,"name":"Metal","steam_id":76561199013364336,"connected_time":506000000000,"state":"active","ping":54},{"user_id":850,"name":"MeBandae","steam_id":76561198910770432,"connected_time":287000000000,"state":"active","ping":70},{"user_id":827,"name":"outbreak","steam_id":76561198084442561,"connected_time":2304000000000,"state":"active","ping":88},{"user_id":833,"name":"koji","steam_id":76561198051636999,"connected_time":2031000000000,"state":"active","ping":56},{"user_id":812,"name":"nemelex","steam_id":76561198958005865,"connected_time":2868000000000,"state":"active","ping":50},{"user_id":851,"name":"randompixel","steam_id":76561198003941207,"connected_time":286000000000,"state":"active","ping":58},{"user_id":807,"name":"HUGO","steam_id":76561198317134996,"connected_time":3119000000000,"state":"active","ping":88},{"user_id":845,"name":"I Don't Know","steam_id":76561198841011430,"connected_time":444000000000,"state":"active","ping":81},{"user_id":800,"name":"Xiqui","steam_id":76561198818386611,"connected_time":3382000000000,"state":"active","ping":77},{"user_id":838,"name":"Vermin","steam_id":76561198045527771,"connected_time":1646000000000,"state":"active","ping":53},{"user_id":783,"name":"sushii","steam_id":76561198297987372,"connected_time":4058000000000,"state":"active","ping":50},{"user_id":846,"name":"aGryphoN","steam_id":76561198245175308,"connected_time":429000000000,"state":"active","ping":45},{"user_id":847,"name":"quickfast","steam_id":76561199438900919,"connected_time":421000000000,"state":"active","ping":42},{"user_id":848,"name":"bass rattle soldier out the sky","steam_id":76561199013457963,"connected_time":385000000000,"state":"active","ping":52},{"user_id":849,"name":"Ptahotep","steam_id":76561198008708645,"connected_time":375000000000,"state":"active","ping":53},{"user_id":802,"name":"Regular Pashka","steam_id":76561198070502697,"connected_time":3351000000000,"state":"active","ping":82},{"user_id":820,"name":"fregaropa","steam_id":76561198150806166,"connected_time":2547000000000,"state":"active","ping":83},{"user_id":840,"name":"Hey, I´m Andy!","steam_id":76561198060337777,"connected_time":1435000000000,"state":"active","ping":88},{"user_id":822,"name":"PlebCord","steam_id":76561198120685803,"connected_time":2447000000000,"state":"active","ping":79},{"user_id":828,"name":"A tuna sub with extra mayo","steam_id":76561199043570426,"connected_time":2236000000000,"state":"active","ping":153},{"user_id":839,"name":"Klunkerino","steam_id":76561197971081655,"connected_time":1439000000000,"state":"active","ping":76},{"user_id":797,"name":"Skippie","steam_id":76561198102029146,"connected_time":3404000000000,"state":"active","ping":85},{"user_id":809,"name":"TheRedBaron","steam_id":76561198032114629,"connected_time":3000000000000,"state":"active","ping":55}]},{"server_id":22,"name":"Uncletopia | London | 6 | All Maps","name_short":"lon-6","host":"lon-1.uk.uncletopia.com","port":27065,"enabled":true,"region":"eu","cc":"gb","latitude":51.509865,"longitude":-0.118092,"reserved":0,"last_update":"0001-01-01T00:00:00Z","name_a2s":"Uncletopia | London | 6 | All Maps","protocol":17,"map":"cp_sunshine","folder":"tf","game":"Team Fortress","app_id":440,"player_count":12,"max_players":24,"Bots":0,"server_type":"Dedicated","server_os":"Linux","password":true,"vac":true,"version":"7932396","steam_id":85568392924742830,"keywords":["cp","nocrits","nodmgspread","uncletopia"],"game_id":440,"stv_port":27066,"stv_name":"Uncletopia | London | 6 | All Maps | STV","players":[{"user_id":464,"name":"Zelenskiy","steam_id":76561198273199378,"connected_time":261000000000,"state":"active","ping":74},{"user_id":457,"name":"Artoric","steam_id":76561198978834722,"connected_time":1481000000000,"state":"active","ping":44},{"user_id":423,"name":"FirePenguin","steam_id":76561198151468340,"connected_time":3138000000000,"state":"active","ping":40},{"user_id":452,"name":"mèx","steam_id":76561197975951572,"connected_time":1857000000000,"state":"active","ping":63},{"user_id":427,"name":"QuorglepleegJR","steam_id":76561198984658438,"connected_time":3052000000000,"state":"active","ping":49},{"user_id":466,"name":"rabbitface26","steam_id":76561198327540113,"connected_time":222000000000,"state":"active","ping":42},{"user_id":467,"name":"Big_Bunda","steam_id":76561198429058028,"connected_time":142000000000,"state":"active","ping":65},{"user_id":458,"name":"endlesshills","steam_id":76561198081908373,"connected_time":1308000000000,"state":"active","ping":60},{"user_id":462,"name":"Feramansa","steam_id":76561198321286847,"connected_time":672000000000,"state":"active","ping":91},{"user_id":446,"name":"Rook","steam_id":76561197995204779,"connected_time":2077000000000,"state":"active","ping":43},{"user_id":411,"name":"ScarredPixel123","steam_id":76561199165112703,"connected_time":3936000000000,"state":"active","ping":87},{"user_id":417,"name":"DOOT Slayer","steam_id":76561198981093219,"connected_time":3586000000000,"state":"active","ping":81}]},{"server_id":40,"name":"Uncletopia | London | 7 | No Payload","name_short":"lon-7","host":"lon-1.uk.uncletopia.com","port":27075,"enabled":true,"region":"eu","cc":"gb","latitude":51.509865,"longitude":-0.118092,"reserved":0,"last_update":"0001-01-01T00:00:00Z","name_a2s":"Uncletopia | London | 7 | No Payload","protocol":17,"map":"cp_coldfront","folder":"tf","game":"Team Fortress","app_id":440,"player_count":0,"max_players":24,"Bots":0,"server_type":"Dedicated","server_os":"Linux","password":true,"vac":true,"version":"7932396","steam_id":85568392924964314,"keywords":["cp","nocrits","nodmgspread","uncletopia"],"game_id":440,"stv_port":27076,"stv_name":"Uncletopia | London | 7 | No Payload | STV","players":null},{"server_id":41,"name":"Uncletopia | London | 8 | Community","name_short":"lon-8","host":"lon-1.uk.uncletopia.com","port":27085,"enabled":true,"region":"eu","cc":"gb","latitude":51.509865,"longitude":-0.118092,"reserved":0,"last_update":"0001-01-01T00:00:00Z","name_a2s":"Uncletopia | London | 8 | Community","protocol":17,"map":"workshop/cp_propaganda_b18.ugc1603743849","folder":"tf","game":"Team Fortress","app_id":440,"player_count":0,"max_players":24,"Bots":0,"server_type":"Dedicated","server_os":"Linux","password":true,"vac":true,"version":"7932396","steam_id":85568392924964315,"keywords":["cp","nocrits","nodmgspread","uncletopia"],"game_id":440,"stv_port":27086,"stv_name":"Uncletopia | London | 8 | Community | STV","players":null},{"server_id":300,"name":"Uncletopia | Montréal | 1 | All Maps","name_short":"mtl-1","host":"mtl-1.ca.uncletopia.com","port":27015,"enabled":true,"region":"us-east","cc":"ca","latitude":45.50889,"longitude":-73.56167,"reserved":0,"last_update":"0001-01-01T00:00:00Z","name_a2s":"Uncletopia | Montréal | 1 | All Maps","protocol":17,"map":"pl_snowycoast","folder":"tf","game":"Team Fortress","app_id":440,"player_count":0,"max_players":24,"Bots":0,"server_type":"Dedicated","server_os":"Linux","password":true,"vac":true,"version":"7932396","steam_id":85568392924500087,"keywords":["nocrits","nodmgspread","payload","uncletopia"],"game_id":440,"stv_port":27016,"stv_name":"Uncletopia | Montréal | 1 | All Maps | STV","players":null},{"server_id":301,"name":"Uncletopia | Montréal | 2 | All Maps","name_short":"mtl-2","host":"mtl-1.ca.uncletopia.com","port":27025,"enabled":true,"region":"us-east","cc":"ca","latitude":45.50889,"longitude":-73.56167,"reserved":0,"last_update":"0001-01-01T00:00:00Z","name_a2s":"Uncletopia | Montréal | 2 | All Maps","protocol":17,"map":"cp_mountainlab","folder":"tf","game":"Team Fortress","app_id":440,"player_count":0,"max_players":24,"Bots":0,"server_type":"Dedicated","server_os":"Linux","password":true,"vac":true,"version":"7932396","steam_id":85568392924500088,"keywords":["cp","nocrits","nodmgspread","uncletopia"],"game_id":440,"stv_port":27026,"stv_name":"Uncletopia | Montréal | 2 | All Maps | STV","players":null},{"server_id":302,"name":"Uncletopia | Montréal | 3 | All Maps","name_short":"mtl-3","host":"mtl-1.ca.uncletopia.com","port":27035,"enabled":true,"region":"us-east","cc":"ca","latitude":45.50889,"longitude":-73.56167,"reserved":0,"last_update":"0001-01-01T00:00:00Z","name_a2s":"Uncletopia | Montréal | 3 | All Maps","protocol":17,"map":"cp_process_final","folder":"tf","game":"Team Fortress","app_id":440,"player_count":0,"max_players":24,"Bots":0,"server_type":"Dedicated","server_os":"Linux","password":true,"vac":true,"version":"7932396","steam_id":85568392924500089,"keywords":["cp","nocrits","nodmgspread","uncletopia"],"game_id":440,"stv_port":27036,"stv_name":"Uncletopia | Montréal | 3 | All Maps | STV","players":null},{"server_id":303,"name":"Uncletopia | Montréal | 4 | No Payload","name_short":"mtl-4","host":"mtl-1.ca.uncletopia.com","port":27045,"enabled":true,"region":"us-east","cc":"ca","latitude":45.50889,"longitude":-73.56167,"reserved":0,"last_update":"0001-01-01T00:00:00Z","name_a2s":"Uncletopia | Montréal | 4 | No Payload","protocol":17,"map":"cp_5gorge","folder":"tf","game":"Team Fortress","app_id":440,"player_count":0,"max_players":24,"Bots":0,"server_type":"Dedicated","server_os":"Linux","password":true,"vac":true,"version":"7932396","steam_id":85568392924500090,"keywords":["cp","nocrits","nodmgspread","uncletopia"],"game_id":440,"stv_port":27046,"stv_name":"Uncletopia | Montréal | 4 | No Payload | STV","players":null},{"server_id":13,"name":"Uncletopia | New York City | 1 | All Maps","name_short":"nyc-1","host":"nyc-1.us.uncletopia.com","port":27015,"enabled":true,"region":"us-east","cc":"us","latitude":40.73061,"longitude":-73.93524,"reserved":0,"last_update":"0001-01-01T00:00:00Z","name_a2s":"Uncletopia | New York City | 1 | All Maps","protocol":17,"map":"koth_suijin","folder":"tf","game":"Team Fortress","app_id":440,"player_count":22,"max_players":24,"Bots":0,"server_type":"Dedicated","server_os":"Linux","password":true,"vac":true,"version":"7932396","steam_id":85568392924469993,"keywords":["cp","nocrits","nodmgspread","uncletopia"],"game_id":440,"stv_port":27016,"stv_name":"Uncletopia | New York City | 1 | All Maps | STV","players":[{"user_id":325,"name":"Crimson","steam_id":76561198129326627,"connected_time":5403000000000,"state":"active","ping":95},{"user_id":356,"name":"Nerrrd_","steam_id":76561198870129960,"connected_time":2433000000000,"state":"active","ping":34},{"user_id":386,"name":"CRAZY engineer","steam_id":76561198887937902,"connected_time":60000000000,"state":"active","ping":49},{"user_id":373,"name":"Alex Jones","steam_id":76561199145201045,"connected_time":536000000000,"state":"active","ping":98},{"user_id":374,"name":"Bush.exe","steam_id":76561198124385307,"connected_time":520000000000,"state":"active","ping":78},{"user_id":330,"name":"space man","steam_id":76561198066333670,"connected_time":5099000000000,"state":"active","ping":71},{"user_id":369,"name":"vermin","steam_id":76561199051975650,"connected_time":925000000000,"state":"active","ping":53},{"user_id":351,"name":"flootsmcdoots","steam_id":76561198124744765,"connected_time":2829000000000,"state":"active","ping":79},{"user_id":352,"name":"LittleFieryOne","steam_id":76561198107463724,"connected_time":2827000000000,"state":"active","ping":77},{"user_id":353,"name":"MeKaso TropStar","steam_id":76561199109895840,"connected_time":2809000000000,"state":"active","ping":50},{"user_id":378,"name":"Anamm","steam_id":76561198328762510,"connected_time":404000000000,"state":"active","ping":51},{"user_id":383,"name":"Heathcliff","steam_id":76561198044288534,"connected_time":250000000000,"state":"active","ping":89},{"user_id":384,"name":"Cheesi","steam_id":76561199417190840,"connected_time":162000000000,"state":"active","ping":78},{"user_id":371,"name":"Eraserhead Baby","steam_id":76561198010968514,"connected_time":574000000000,"state":"active","ping":113},{"user_id":370,"name":"Idk","steam_id":76561198971629959,"connected_time":835000000000,"state":"active","ping":130},{"user_id":365,"name":"Broadway Rose","steam_id":76561198046083342,"connected_time":1581000000000,"state":"active","ping":106},{"user_id":291,"name":"Porcupine's Revenge!","steam_id":76561199121615234,"connected_time":8425000000000,"state":"active","ping":43},{"user_id":363,"name":"retinz","steam_id":76561198135563495,"connected_time":1999000000000,"state":"active","ping":55},{"user_id":366,"name":"gIBBY","steam_id":76561198080099598,"connected_time":1493000000000,"state":"active","ping":38},{"user_id":308,"name":"Mochi","steam_id":76561199151314140,"connected_time":6903000000000,"state":"active","ping":39},{"user_id":345,"name":"Amaretto Sour","steam_id":76561198063112844,"connected_time":3029000000000,"state":"active","ping":49},{"user_id":380,"name":"Tony hawks pro skater 2 dlc","steam_id":76561198243387974,"connected_time":395000000000,"state":"active","ping":55}]},{"server_id":14,"name":"Uncletopia | New York City | 2 | All Maps","name_short":"nyc-2","host":"nyc-1.us.uncletopia.com","port":27025,"enabled":true,"region":"us-east","cc":"us","latitude":40.73061,"longitude":-73.93524,"reserved":0,"last_update":"0001-01-01T00:00:00Z","name_a2s":"Uncletopia | New York City | 2 | All Maps","protocol":17,"map":"cp_altitude","folder":"tf","game":"Team Fortress","app_id":440,"player_count":24,"max_players":24,"Bots":0,"server_type":"Dedicated","server_os":"Linux","password":true,"vac":true,"version":"7932396","steam_id":85568392924469994,"keywords":["cp","nocrits","nodmgspread","uncletopia"],"game_id":440,"stv_port":27026,"stv_name":"Uncletopia | New York City | 2 | All Maps | STV","players":[{"user_id":208,"name":"goopgrabber","steam_id":76561199029951083,"connected_time":303000000000,"state":"active","ping":116},{"user_id":167,"name":"Former US President Barack Obam","steam_id":76561198014215937,"connected_time":4477000000000,"state":"active","ping":52},{"user_id":194,"name":"Frickballs","steam_id":76561198453089992,"connected_time":1442000000000,"state":"active","ping":87},{"user_id":166,"name":"Bolty","steam_id":76561198084199165,"connected_time":4552000000000,"state":"active","ping":93},{"user_id":146,"name":"msay","steam_id":76561198170888029,"connected_time":6495000000000,"state":"active","ping":71},{"user_id":207,"name":"Johann of Ulm","steam_id":76561198087484922,"connected_time":526000000000,"state":"active","ping":89},{"user_id":188,"name":"Clef","steam_id":76561198985096335,"connected_time":1722000000000,"state":"active","ping":53},{"user_id":204,"name":"NoarBear","steam_id":76561198145929802,"connected_time":672000000000,"state":"active","ping":59},{"user_id":178,"name":"honked off the bobo","steam_id":76561198123287268,"connected_time":3478000000000,"state":"active","ping":61},{"user_id":203,"name":"Isaac Clarke","steam_id":76561198317662346,"connected_time":679000000000,"state":"active","ping":88},{"user_id":147,"name":"Mister Rattlebones","steam_id":76561198065560157,"connected_time":6471000000000,"state":"active","ping":42},{"user_id":170,"name":"Tay","steam_id":76561198059605568,"connected_time":4453000000000,"state":"active","ping":93},{"user_id":175,"name":"Zero","steam_id":76561199383267408,"connected_time":4270000000000,"state":"active","ping":76},{"user_id":199,"name":"farfalle","steam_id":76561198882758067,"connected_time":807000000000,"state":"active","ping":61},{"user_id":177,"name":"Lylith!!!","steam_id":76561198386687546,"connected_time":3653000000000,"state":"active","ping":75},{"user_id":164,"name":"A Puppy","steam_id":76561198828184456,"connected_time":4938000000000,"state":"active","ping":47},{"user_id":111,"name":"Goose of Wisdom","steam_id":76561198233465044,"connected_time":8751000000000,"state":"active","ping":82},{"user_id":205,"name":"Monkey D. Management","steam_id":76561198400603422,"connected_time":664000000000,"state":"active","ping":79},{"user_id":140,"name":"LegendaryMister151","steam_id":76561198064890524,"connected_time":6716000000000,"state":"active","ping":89},{"user_id":154,"name":"Wallem","steam_id":76561198052361822,"connected_time":5902000000000,"state":"active","ping":57},{"user_id":157,"name":"4jess20","steam_id":76561199488852383,"connected_time":5710000000000,"state":"active","ping":70},{"user_id":195,"name":"jah","steam_id":76561198201973900,"connected_time":1368000000000,"state":"active","ping":115},{"user_id":159,"name":"Mr. Durian","steam_id":76561198093813212,"connected_time":5687000000000,"state":"active","ping":65},{"user_id":197,"name":"2cats_2curious","steam_id":76561198027143149,"connected_time":1093000000000,"state":"active","ping":64}]},{"server_id":15,"name":"Uncletopia | New York City | 3 | Stopwatch Beta","name_short":"nyc-3","host":"nyc-1.us.uncletopia.com","port":27035,"enabled":true,"region":"us-east","cc":"us","latitude":40.73061,"longitude":-73.93524,"reserved":0,"last_update":"0001-01-01T00:00:00Z","name_a2s":"Uncletopia | New York City | 3 | Stopwatch Beta","protocol":17,"map":"workshop/pl_barnblitz_pro7.ugc582280235","folder":"tf","game":"Team Fortress","app_id":440,"player_count":0,"max_players":24,"Bots":0,"server_type":"Dedicated","server_os":"Linux","password":true,"vac":true,"version":"7932396","steam_id":85568392924742820,"keywords":["nocrits","nodmgspread","payload","uncletopia"],"game_id":440,"stv_port":27036,"stv_name":"Uncletopia | New York City | 3 | Stopwatch Beta | STV","players":null},{"server_id":16,"name":"Uncletopia | New York City | 4 | Community","name_short":"nyc-4","host":"nyc-1.us.uncletopia.com","port":27045,"enabled":true,"region":"us-east","cc":"us","latitude":40.73061,"longitude":-73.93524,"reserved":0,"last_update":"0001-01-01T00:00:00Z","name_a2s":"Uncletopia | New York City | 4 | Community","protocol":17,"map":"workshop/koth_bagel_rc6.ugc2514036946","folder":"tf","game":"Team Fortress","app_id":440,"player_count":0,"max_players":24,"Bots":0,"server_type":"Dedicated","server_os":"Linux","password":true,"vac":true,"version":"7932396","steam_id":85568392924742821,"keywords":["cp","nocrits","nodmgspread","uncletopia"],"game_id":440,"stv_port":27046,"stv_name":"Uncletopia | New York City | 4 | Community | STV","players":null},{"server_id":142,"name":"Uncletopia | São Paulo | 1 | All Maps","name_short":"sao-1","host":"sao-1.br.uncletopia.com","port":27015,"enabled":true,"region":"sa","cc":"br","latitude":-23.533773,"longitude":-46.62529,"reserved":0,"last_update":"0001-01-01T00:00:00Z","name_a2s":"Uncletopia | São Paulo | 1 | All Maps","protocol":17,"map":"koth_highpass","folder":"tf","game":"Team Fortress","app_id":440,"player_count":0,"max_players":24,"Bots":0,"server_type":"Dedicated","server_os":"Linux","password":true,"vac":true,"version":"7932396","steam_id":85568392924469996,"keywords":["cp","nocrits","nodmgspread","uncletopia"],"game_id":440,"stv_port":27016,"stv_name":"Uncletopia | São Paulo | 1 | All Maps | STV","players":null},{"server_id":143,"name":"Uncletopia | São Paulo | 2 | All Maps","name_short":"sao-2","host":"sao-2.br.uncletopia.com","port":27015,"enabled":true,"region":"sa","cc":"br","latitude":-23.533773,"longitude":-46.62529,"reserved":0,"last_update":"0001-01-01T00:00:00Z","name_a2s":"Uncletopia | São Paulo | 2 | All Maps","protocol":17,"map":"cp_dustbowl","folder":"tf","game":"Team Fortress","app_id":440,"player_count":2,"max_players":24,"Bots":0,"server_type":"Dedicated","server_os":"Linux","password":true,"vac":true,"version":"7932396","steam_id":85568392924485349,"keywords":["cp","nocrits","nodmgspread","uncletopia"],"game_id":440,"stv_port":27016,"stv_name":"Uncletopia | São Paulo | 2 | All Maps | STV","players":[{"user_id":155,"name":"3D","steam_id":76561199036533667,"connected_time":36000000000,"state":"active","ping":87},{"user_id":152,"name":"veada bem dotada","steam_id":76561198305477134,"connected_time":408000000000,"state":"active","ping":56}]},{"server_id":7,"name":"Uncletopia | Seattle | 1 | All Maps","name_short":"sea-1","host":"sea-1.us.uncletopia.com","port":27015,"enabled":true,"region":"us-west","cc":"us","latitude":47.608013,"longitude":-122.33517,"reserved":0,"last_update":"0001-01-01T00:00:00Z","name_a2s":"Uncletopia | Seattle | 1 | All Maps","protocol":17,"map":"pl_upward","folder":"tf","game":"Team Fortress","app_id":440,"player_count":24,"max_players":24,"Bots":0,"server_type":"Dedicated","server_os":"Linux","password":true,"vac":true,"version":"7932396","steam_id":85568392924469997,"keywords":["nocrits","nodmgspread","payload","uncletopia"],"game_id":440,"stv_port":27016,"stv_name":"Uncletopia | Seattle | 1 | All Maps | STV","players":[{"user_id":744,"name":"Fernando","steam_id":76561198443038047,"connected_time":127000000000,"state":"active","ping":86},{"user_id":739,"name":"Keamy","steam_id":76561199471434875,"connected_time":305000000000,"state":"active","ping":30},{"user_id":684,"name":"WhaleShark","steam_id":76561198046945517,"connected_time":3056000000000,"state":"active","ping":103},{"user_id":733,"name":"BlazedBunny","steam_id":76561198243610560,"connected_time":905000000000,"state":"active","ping":68},{"user_id":742,"name":"Shibuya 808","steam_id":76561198040462757,"connected_time":190000000000,"state":"active","ping":130},{"user_id":720,"name":"blamo","steam_id":76561198044769147,"connected_time":1573000000000,"state":"active","ping":63},{"user_id":704,"name":"Neptune˖⁺｡˚⋆˙♥","steam_id":76561199054203198,"connected_time":2234000000000,"state":"active","ping":150},{"user_id":734,"name":"Xenagos","steam_id":76561198045678290,"connected_time":904000000000,"state":"active","ping":49},{"user_id":740,"name":"reymundo","steam_id":76561197989412830,"connected_time":234000000000,"state":"active","ping":81},{"user_id":690,"name":"Dragoninventor (He/Him)","steam_id":76561198956224948,"connected_time":2673000000000,"state":"active","ping":74},{"user_id":745,"name":"CashGordon","steam_id":76561197975594096,"connected_time":23000000000,"state":"active","ping":41},{"user_id":718,"name":"Mr. Sandman","steam_id":76561198065870487,"connected_time":1592000000000,"state":"active","ping":112},{"user_id":722,"name":"bemo","steam_id":76561198344331503,"connected_time":1516000000000,"state":"active","ping":46},{"user_id":741,"name":"Rustyorion","steam_id":76561198439186347,"connected_time":217000000000,"state":"active","ping":51},{"user_id":736,"name":"The CEO of cement","steam_id":76561199107177460,"connected_time":745000000000,"state":"active","ping":102},{"user_id":738,"name":"THE FLUMPSTER","steam_id":76561198060911025,"connected_time":334000000000,"state":"active","ping":86},{"user_id":716,"name":"Themasterman75","steam_id":76561199385573293,"connected_time":1981000000000,"state":"active","ping":75},{"user_id":711,"name":"Your childhood","steam_id":76561198799385466,"connected_time":2154000000000,"state":"active","ping":101},{"user_id":737,"name":"Interrobang","steam_id":76561198385044529,"connected_time":480000000000,"state":"active","ping":124},{"user_id":727,"name":"bobby wasabi","steam_id":76561198380018244,"connected_time":1364000000000,"state":"active","ping":60},{"user_id":735,"name":"BLU3","steam_id":76561198059652670,"connected_time":886000000000,"state":"active","ping":46},{"user_id":730,"name":"ORANGE","steam_id":76561198000401769,"connected_time":932000000000,"state":"active","ping":52},{"user_id":743,"name":"dt-Burt B'dert","steam_id":76561197996380095,"connected_time":182000000000,"state":"active","ping":114},{"user_id":729,"name":"kasper ring","steam_id":76561198263271697,"connected_time":1170000000000,"state":"active","ping":84}]},{"server_id":119,"name":"Uncletopia | Seattle | 2 | All Maps","name_short":"sea-2","host":"sea-1.us.uncletopia.com","port":27025,"enabled":true,"region":"us-west","cc":"us","latitude":47.608013,"longitude":-122.33517,"reserved":0,"last_update":"0001-01-01T00:00:00Z","name_a2s":"Uncletopia | Seattle | 2 | All Maps","protocol":17,"map":"pl_badwater","folder":"tf","game":"Team Fortress","app_id":440,"player_count":23,"max_players":24,"Bots":0,"server_type":"Dedicated","server_os":"Linux","password":true,"vac":true,"version":"7932396","steam_id":85568392924469998,"keywords":["nocrits","nodmgspread","payload","uncletopia"],"game_id":440,"stv_port":27026,"stv_name":"Uncletopia | Seattle | 2 | All Maps | STV","players":[{"user_id":127,"name":"coffee","steam_id":76561198239286750,"connected_time":1479000000000,"state":"active","ping":113},{"user_id":142,"name":"zeplinnn","steam_id":76561198301300987,"connected_time":266000000000,"state":"active","ping":100},{"user_id":119,"name":"HideOnTate","steam_id":76561198209880837,"connected_time":2044000000000,"state":"active","ping":45},{"user_id":122,"name":"Strikerbolt","steam_id":76561199095622897,"connected_time":1929000000000,"state":"active","ping":78},{"user_id":19,"name":"a cat plushie","steam_id":76561198080046542,"connected_time":10038000000000,"state":"active","ping":46},{"user_id":143,"name":"cringy","steam_id":76561198323000455,"connected_time":106000000000,"state":"active","ping":83},{"user_id":128,"name":"Gamer Shades","steam_id":76561198176454023,"connected_time":1460000000000,"state":"active","ping":39},{"user_id":132,"name":"Red Orbama","steam_id":76561198047002366,"connected_time":1304000000000,"state":"active","ping":46},{"user_id":25,"name":"ilun","steam_id":76561198042913843,"connected_time":9567000000000,"state":"active","ping":61},{"user_id":103,"name":"Dr Nefario","steam_id":76561198254646194,"connected_time":3909000000000,"state":"active","ping":104},{"user_id":32,"name":"cubibluer","steam_id":76561198197405295,"connected_time":8566000000000,"state":"active","ping":64},{"user_id":137,"name":"tfangy","steam_id":76561199470646981,"connected_time":474000000000,"state":"active","ping":158},{"user_id":76,"name":"Feathercake \u0026","steam_id":76561198027321950,"connected_time":6278000000000,"state":"active","ping":98},{"user_id":85,"name":"teaf","steam_id":76561198406252824,"connected_time":5713000000000,"state":"active","ping":59},{"user_id":124,"name":"Peachy","steam_id":76561198355191810,"connected_time":1583000000000,"state":"active","ping":46},{"user_id":86,"name":"colon three and lowercase c","steam_id":76561198392539722,"connected_time":5588000000000,"state":"active","ping":132},{"user_id":136,"name":"blockland.fan 4","steam_id":76561198173706067,"connected_time":487000000000,"state":"active","ping":61},{"user_id":135,"name":"Mocha Josie","steam_id":76561198066452726,"connected_time":898000000000,"state":"active","ping":86},{"user_id":55,"name":"Calypso","steam_id":76561199015827567,"connected_time":7707000000000,"state":"active","ping":141},{"user_id":125,"name":"MintyPawz","steam_id":76561198111430103,"connected_time":1500000000000,"state":"active","ping":101},{"user_id":140,"name":"Ajayajax","steam_id":76561198389802335,"connected_time":312000000000,"state":"active","ping":46},{"user_id":115,"name":"methed up criminal vs baby","steam_id":76561198213385439,"connected_time":2904000000000,"state":"active","ping":71},{"user_id":126,"name":"tsaide","steam_id":76561198384120999,"connected_time":1500000000000,"state":"active","ping":117}]},{"server_id":406,"name":"Uncletopia | Seattle | 3 | Stopwatch Beta","name_short":"sea-3","host":"sea-1.us.uncletopia.com","port":27035,"enabled":true,"region":"us-west","cc":"us","latitude":47.608013,"longitude":-122.33517,"reserved":0,"last_update":"0001-01-01T00:00:00Z","name_a2s":"Uncletopia | Seattle | 3 | Stopwatch Beta","protocol":17,"map":"cp_mountainlab","folder":"tf","game":"Team Fortress","app_id":440,"player_count":0,"max_players":24,"Bots":0,"server_type":"Dedicated","server_os":"Linux","password":true,"vac":true,"version":"7932396","steam_id":85568392924515217,"keywords":["cp","nocrits","nodmgspread","uncletopia"],"game_id":440,"stv_port":27036,"stv_name":"Uncletopia | Seattle | 3 | Stopwatch Beta | STV","players":null},{"server_id":17,"name":"Uncletopia | San Francisco | 1 | All Maps","name_short":"sfo-1","host":"sfo-1.us.uncletopia.com","port":27015,"enabled":true,"region":"us-west","cc":"us","latitude":37.77397,"longitude":-122.4313,"reserved":0,"last_update":"0001-01-01T00:00:00Z","name_a2s":"Uncletopia | San Francisco | 1 | All Maps","protocol":17,"map":"ctf_2fort","folder":"tf","game":"Team Fortress","app_id":440,"player_count":24,"max_players":24,"Bots":0,"server_type":"Dedicated","server_os":"Linux","password":true,"vac":true,"version":"7932396","steam_id":85568392924469999,"keywords":["ctf","nocrits","nodmgspread","uncletopia"],"game_id":440,"stv_port":27016,"stv_name":"Uncletopia | San Francisco | 1 | All Maps | STV","players":[{"user_id":94,"name":"SolarusD","steam_id":76561198029279861,"connected_time":6782000000000,"state":"active","ping":45},{"user_id":174,"name":"WaveSmash","steam_id":76561198208785485,"connected_time":2025000000000,"state":"active","ping":69},{"user_id":190,"name":"MarcyGengar","steam_id":76561198315829482,"connected_time":1377000000000,"state":"active","ping":69},{"user_id":201,"name":"ATL1 | TheRealMud","steam_id":76561198138312993,"connected_time":489000000000,"state":"active","ping":96},{"user_id":131,"name":"omnislime","steam_id":76561199382475668,"connected_time":4890000000000,"state":"active","ping":99},{"user_id":206,"name":"Dov-Ah-Bob","steam_id":76561198147798338,"connected_time":226000000000,"state":"active","ping":60},{"user_id":192,"name":"Testament-In-Training","steam_id":76561198281251327,"connected_time":1181000000000,"state":"active","ping":89},{"user_id":123,"name":"Salmon Destroyer 9000","steam_id":76561198065826749,"connected_time":5156000000000,"state":"active","ping":87},{"user_id":198,"name":"Can You Feel It Mr.Krabs","steam_id":76561198128302414,"connected_time":548000000000,"state":"active","ping":63},{"user_id":136,"name":"elijahlong9841","steam_id":76561198977541452,"connected_time":4158000000000,"state":"active","ping":100},{"user_id":191,"name":"AtomSQRRL","steam_id":76561199151951364,"connected_time":1254000000000,"state":"active","ping":45},{"user_id":135,"name":"Mico (Mico)","steam_id":76561198125462953,"connected_time":4326000000000,"state":"active","ping":63},{"user_id":156,"name":"1derboy","steam_id":76561197993492921,"connected_time":3355000000000,"state":"active","ping":137},{"user_id":194,"name":"GlizzLord","steam_id":76561198321010427,"connected_time":1003000000000,"state":"active","ping":77},{"user_id":199,"name":"GhettoSmash","steam_id":76561198168864083,"connected_time":539000000000,"state":"active","ping":76},{"user_id":200,"name":"Saiki k on meth","steam_id":76561199187226776,"connected_time":519000000000,"state":"active","ping":83},{"user_id":202,"name":"cockroach massive","steam_id":76561198011675372,"connected_time":471000000000,"state":"active","ping":76},{"user_id":203,"name":"Taco King","steam_id":76561198141689672,"connected_time":413000000000,"state":"active","ping":66},{"user_id":204,"name":"DrD","steam_id":76561198067266383,"connected_time":367000000000,"state":"active","ping":55},{"user_id":205,"name":"Alan","steam_id":76561198977083959,"connected_time":367000000000,"state":"active","ping":78},{"user_id":193,"name":"Tom Crúaich","steam_id":76561197999439911,"connected_time":1094000000000,"state":"active","ping":76},{"user_id":208,"name":"CatThulhu","steam_id":76561198211620004,"connected_time":53000000000,"state":"active","ping":86},{"user_id":138,"name":"Irritated Duck","steam_id":76561198247792076,"connected_time":4142000000000,"state":"active","ping":130},{"user_id":178,"name":"craxyt","steam_id":76561198050192689,"connected_time":1977000000000,"state":"active","ping":60}]},{"server_id":18,"name":"Uncletopia | San Francisco | 2 | All Maps","name_short":"sfo-2","host":"sfo-1.us.uncletopia.com","port":27025,"enabled":true,"region":"us-west","cc":"us","latitude":37.77397,"longitude":-122.4313,"reserved":0,"last_update":"0001-01-01T00:00:00Z","name_a2s":"Uncletopia | San Francisco | 2 | All Maps","protocol":17,"map":"pl_swiftwater_final1","folder":"tf","game":"Team Fortress","app_id":440,"player_count":24,"max_players":24,"Bots":0,"server_type":"Dedicated","server_os":"Linux","password":true,"vac":true,"version":"7932396","steam_id":85568392924470000,"keywords":["nocrits","nodmgspread","payload","uncletopia"],"game_id":440,"stv_port":27026,"stv_name":"Uncletopia | San Francisco | 2 | All Maps | STV","players":[{"user_id":40,"name":"ninety9dragonfly","steam_id":76561198363406983,"connected_time":810000000000,"state":"active","ping":67},{"user_id":39,"name":"Snoopy","steam_id":76561198273735974,"connected_time":822000000000,"state":"active","ping":118},{"user_id":29,"name":"tunafish64","steam_id":76561199488561842,"connected_time":962000000000,"state":"active","ping":53},{"user_id":25,"name":"schizophrenic luigi","steam_id":76561198993139342,"connected_time":1582000000000,"state":"active","ping":71},{"user_id":38,"name":"chicken","steam_id":76561198196998007,"connected_time":835000000000,"state":"active","ping":58},{"user_id":26,"name":"Moonlily","steam_id":76561198852670061,"connected_time":1454000000000,"state":"active","ping":67},{"user_id":15,"name":"Antreuse","steam_id":76561198219721132,"connected_time":3725000000000,"state":"active","ping":59},{"user_id":16,"name":"Wham Mistress","steam_id":76561198115422032,"connected_time":3722000000000,"state":"active","ping":45},{"user_id":30,"name":"dweamy","steam_id":76561198119181880,"connected_time":961000000000,"state":"active","ping":66},{"user_id":31,"name":"WaywardFinn","steam_id":76561198040391296,"connected_time":927000000000,"state":"active","ping":127},{"user_id":43,"name":"nori_420","steam_id":76561199117134203,"connected_time":747000000000,"state":"active","ping":59},{"user_id":63,"name":"selvhat","steam_id":76561198114225509,"connected_time":105000000000,"state":"active","ping":54},{"user_id":56,"name":"Laxoloni","steam_id":76561199197045700,"connected_time":386000000000,"state":"active","ping":82},{"user_id":64,"name":"Adalbern","steam_id":76561197991785034,"connected_time":72000000000,"state":"active","ping":62},{"user_id":60,"name":"crankshaft","steam_id":76561197992798282,"connected_time":161000000000,"state":"active","ping":53},{"user_id":57,"name":"Jayhem","steam_id":76561199173388434,"connected_time":341000000000,"state":"active","ping":123},{"user_id":65,"name":"Dav","steam_id":76561198116862395,"connected_time":66000000000,"state":"active","ping":70},{"user_id":46,"name":"ark","steam_id":76561198041066271,"connected_time":697000000000,"state":"active","ping":76},{"user_id":61,"name":"Ilban","steam_id":76561197992559225,"connected_time":159000000000,"state":"active","ping":63},{"user_id":48,"name":"RE4 REMAKE IS COOL","steam_id":76561198206922028,"connected_time":635000000000,"state":"active","ping":59},{"user_id":49,"name":"!mute","steam_id":76561198219209367,"connected_time":633000000000,"state":"active","ping":62},{"user_id":50,"name":"exotic fishes","steam_id":76561199046490785,"connected_time":625000000000,"state":"active","ping":127},{"user_id":66,"name":"mega","steam_id":76561198089520959,"connected_time":45000000000,"state":"active","ping":105},{"user_id":52,"name":"D0VE","steam_id":76561198151618566,"connected_time":580000000000,"state":"active","ping":79}]},{"server_id":19,"name":"Uncletopia | San Francisco | 3 | Stopwatch Beta","name_short":"sfo-3","host":"sfo-1.us.uncletopia.com","port":27035,"enabled":true,"region":"us-west","cc":"us","latitude":37.77397,"longitude":-122.4313,"reserved":0,"last_update":"0001-01-01T00:00:00Z","name_a2s":"Uncletopia | San Francisco | 3 | Stopwatch Beta","protocol":17,"map":"workshop/koth_product_final.ugc454272353","folder":"tf","game":"Team Fortress","app_id":440,"player_count":2,"max_players":24,"Bots":0,"server_type":"Dedicated","server_os":"Linux","password":true,"vac":true,"version":"7932396","steam_id":85568392924742824,"keywords":["cp","nocrits","nodmgspread","uncletopia"],"game_id":440,"stv_port":27036,"stv_name":"Uncletopia | San Francisco | 3 | Stopwatch Beta | STV","players":[{"user_id":10,"name":"The_Dart_One","steam_id":76561198968354443,"connected_time":4892000000000,"state":"active","ping":56},{"user_id":7,"name":"SlitherDoodle","steam_id":76561198000275473,"connected_time":6262000000000,"state":"active","ping":76}]},{"server_id":20,"name":"Uncletopia | San Francisco | 4 | Community","name_short":"sfo-4","host":"sfo-1.us.uncletopia.com","port":27045,"enabled":true,"region":"us-west","cc":"us","latitude":37.77397,"longitude":-122.4313,"reserved":0,"last_update":"0001-01-01T00:00:00Z","name_a2s":"Uncletopia | San Francisco | 4 | Community","protocol":17,"map":"workshop/pl_fifthcurve_rc1.ugc648227046","folder":"tf","game":"Team Fortress","app_id":440,"player_count":0,"max_players":24,"Bots":0,"server_type":"Dedicated","server_os":"Linux","password":true,"vac":true,"version":"7932396","steam_id":85568392924742826,"keywords":["nocrits","nodmgspread","payload","uncletopia"],"game_id":440,"stv_port":27046,"stv_name":"Uncletopia | San Francisco | 4 | Community | STV","players":null},{"server_id":141,"name":"Uncletopia | Sydney | 1 | All Maps","name_short":"syd-1","host":"syd-1.au.uncletopia.com","port":27015,"enabled":true,"region":"au","cc":"au","latitude":-33.865143,"longitude":151.2099,"reserved":0,"last_update":"0001-01-01T00:00:00Z","name_a2s":"Uncletopia | Sydney | 1 | All Maps","protocol":17,"map":"pl_pier","folder":"tf","game":"Team Fortress","app_id":440,"player_count":0,"max_players":24,"Bots":0,"server_type":"Dedicated","server_os":"Linux","password":true,"vac":true,"version":"7932396","steam_id":85568392924470001,"keywords":["nocrits","nodmgspread","payload","uncletopia"],"game_id":440,"stv_port":27016,"stv_name":"Uncletopia | Sydney | 1 | All Maps | STV","players":null},{"server_id":123,"name":"Uncletopia | Sydney | 2 | All Maps","name_short":"syd-2","host":"syd-1.au.uncletopia.com","port":27025,"enabled":true,"region":"au","cc":"au","latitude":-33.865143,"longitude":151.2099,"reserved":0,"last_update":"0001-01-01T00:00:00Z","name_a2s":"Uncletopia | Sydney | 2 | All Maps","protocol":17,"map":"koth_lakeside_final","folder":"tf","game":"Team Fortress","app_id":440,"player_count":1,"max_players":24,"Bots":0,"server_type":"Dedicated","server_os":"Linux","password":true,"vac":true,"version":"7932396","steam_id":85568392924470002,"keywords":["cp","nocrits","nodmgspread","uncletopia"],"game_id":440,"stv_port":27026,"stv_name":"Uncletopia | Sydney | 2 | All Maps | STV","players":[{"user_id":3,"name":"Στροπεδες","steam_id":76561199373667471,"connected_time":80000000000,"state":"active","ping":54}]},{"server_id":395,"name":"Uncletopia | Sydney | 3 | All Maps","name_short":"syd-3","host":"syd-1.au.uncletopia.com","port":27035,"enabled":true,"region":"au","cc":"au","latitude":-33.865143,"longitude":151.2099,"reserved":0,"last_update":"0001-01-01T00:00:00Z","name_a2s":"Uncletopia | Sydney | 3 | All Maps","protocol":17,"map":"pl_barnblitz","folder":"tf","game":"Team Fortress","app_id":440,"player_count":0,"max_players":24,"Bots":0,"server_type":"Dedicated","server_os":"Linux","password":true,"vac":true,"version":"7932396","steam_id":85568392925194467,"keywords":["nocrits","nodmgspread","payload","uncletopia"],"game_id":440,"stv_port":27036,"stv_name":"Uncletopia | Sydney | 3 | All Maps | STV","players":null},{"server_id":396,"name":"Uncletopia | Sydney | 4 | All Maps","name_short":"syd-4","host":"syd-1.au.uncletopia.com","port":27045,"enabled":true,"region":"au","cc":"au","latitude":-33.865143,"longitude":151.2099,"reserved":0,"last_update":"0001-01-01T00:00:00Z","name_a2s":"Uncletopia | Sydney | 4 | All Maps","protocol":17,"map":"pl_pier","folder":"tf","game":"Team Fortress","app_id":440,"player_count":0,"max_players":24,"Bots":0,"server_type":"Dedicated","server_os":"Linux","password":true,"vac":true,"version":"7932396","steam_id":85568392925397958,"keywords":["nocrits","nodmgspread","payload","uncletopia"],"game_id":440,"stv_port":27046,"stv_name":"Uncletopia | Sydney | 4 | All Maps | STV","players":null},{"server_id":58,"name":"Uncletopia | Sydney | 5 | Stopwatch Beta","name_short":"syd-5","host":"syd-1.au.uncletopia.com","port":27055,"enabled":true,"region":"au","cc":"au","latitude":-33.865143,"longitude":151.2099,"reserved":0,"last_update":"0001-01-01T00:00:00Z","name_a2s":"Uncletopia | Sydney | 5 | Stopwatch Beta","protocol":17,"map":"pl_borneo","folder":"tf","game":"Team Fortress","app_id":440,"player_count":0,"max_players":24,"Bots":0,"server_type":"Dedicated","server_os":"Linux","password":true,"vac":true,"version":"7932396","steam_id":85568392925397959,"keywords":["nocrits","nodmgspread","payload","uncletopia"],"game_id":440,"stv_port":27056,"stv_name":"Uncletopia | Sydney | 5 | Stopwatch Beta | STV","players":null},{"server_id":59,"name":"Uncletopia | Sydney | 6 | Community","name_short":"syd-6","host":"syd-1.au.uncletopia.com","port":27065,"enabled":true,"region":"au","cc":"au","latitude":-33.865143,"longitude":151.2099,"reserved":0,"last_update":"0001-01-01T00:00:00Z","name_a2s":"Uncletopia | Sydney | 6 | Community","protocol":17,"map":"pl_badwater","folder":"tf","game":"Team Fortress","app_id":440,"player_count":0,"max_players":24,"Bots":0,"server_type":"Dedicated","server_os":"Linux","password":true,"vac":true,"version":"7932396","steam_id":85568392925397960,"keywords":["nocrits","nodmgspread","payload","uncletopia"],"game_id":440,"stv_port":27066,"stv_name":"Uncletopia | Sydney | 6 | Community | STV","players":null},{"server_id":49,"name":"Uncletopia | Warsaw | 1 | All Maps","name_short":"waw-1","host":"waw-1.pl.uncletopia.com","port":27015,"enabled":true,"region":"eu","cc":"pl","latitude":52.2297,"longitude":21.017532,"reserved":0,"last_update":"0001-01-01T00:00:00Z","name_a2s":"","protocol":0,"map":"","folder":"","game":"","app_id":0,"player_count":0,"max_players":0,"Bots":0,"server_type":"","server_os":"","password":false,"vac":false,"version":"","steam_id":0,"keywords":null,"game_id":0,"stv_port":0,"stv_name":"","players":null},{"server_id":50,"name":"Uncletopia | Warsaw | 2 | All Maps","name_short":"waw-2","host":"waw-1.pl.uncletopia.com","port":27025,"enabled":true,"region":"eu","cc":"pl","latitude":52.2297,"longitude":21.017532,"reserved":0,"last_update":"0001-01-01T00:00:00Z","name_a2s":"Uncletopia | Warsaw | 2 | All Maps","protocol":17,"map":"koth_lakeside_final","folder":"tf","game":"Team Fortress","app_id":440,"player_count":0,"max_players":24,"Bots":0,"server_type":"Dedicated","server_os":"Linux","password":true,"vac":true,"version":"7932396","steam_id":85568392925397851,"keywords":["cp","nocrits","nodmgspread","uncletopia"],"game_id":440,"stv_port":27026,"stv_name":"Uncletopia | Warsaw | 2 | All Maps | STV","players":null},{"server_id":51,"name":"Uncletopia | Warsaw | 3 | All Maps","name_short":"waw-3","host":"waw-1.pl.uncletopia.com","port":27035,"enabled":true,"region":"eu","cc":"pl","latitude":52.2297,"longitude":21.017532,"reserved":0,"last_update":"0001-01-01T00:00:00Z","name_a2s":"Uncletopia | Warsaw | 3 | All Maps","protocol":17,"map":"koth_viaduct","folder":"tf","game":"Team Fortress","app_id":440,"player_count":0,"max_players":24,"Bots":0,"server_type":"Dedicated","server_os":"Linux","password":true,"vac":true,"version":"7932396","steam_id":85568392925397852,"keywords":["cp","nocrits","nodmgspread","uncletopia"],"game_id":440,"stv_port":27036,"stv_name":"Uncletopia | Warsaw | 3 | All Maps | STV","players":null},{"server_id":52,"name":"Uncletopia | Warsaw | 4 | All Maps","name_short":"waw-4","host":"waw-1.pl.uncletopia.com","port":27045,"enabled":true,"region":"eu","cc":"pl","latitude":52.2297,"longitude":21.017532,"reserved":0,"last_update":"0001-01-01T00:00:00Z","name_a2s":"Uncletopia | Warsaw | 4 | All Maps","protocol":17,"map":"cp_sunshine","folder":"tf","game":"Team Fortress","app_id":440,"player_count":0,"max_players":24,"Bots":0,"server_type":"Dedicated","server_os":"Linux","password":true,"vac":true,"version":"7932396","steam_id":85568392925397853,"keywords":["cp","nocrits","nodmgspread","uncletopia"],"game_id":440,"stv_port":27046,"stv_name":"Uncletopia | Warsaw | 4 | All Maps | STV","players":null},{"server_id":53,"name":"Uncletopia | Warsaw | 5 | Stopwatch Beta","name_short":"waw-5","host":"waw-1.pl.uncletopia.com","port":27055,"enabled":true,"region":"eu","cc":"pl","latitude":52.2297,"longitude":21.017532,"reserved":0,"last_update":"0001-01-01T00:00:00Z","name_a2s":"Uncletopia | Warsaw | 5 | Stopwatch Beta","protocol":17,"map":"koth_highpass","folder":"tf","game":"Team Fortress","app_id":440,"player_count":0,"max_players":24,"Bots":0,"server_type":"Dedicated","server_os":"Linux","password":true,"vac":true,"version":"7932396","steam_id":85568392925397854,"keywords":["cp","nocrits","nodmgspread","uncletopia"],"game_id":440,"stv_port":27056,"stv_name":"Uncletopia | Warsaw | 5 | Stopwatch Beta | STV","players":null},{"server_id":54,"name":"Uncletopia | Warsaw | 6 | Community","name_short":"waw-6","host":"waw-1.pl.uncletopia.com","port":27065,"enabled":true,"region":"eu","cc":"pl","latitude":52.2297,"longitude":21.017532,"reserved":0,"last_update":"0001-01-01T00:00:00Z","name_a2s":"Uncletopia | Warsaw | 6 | Community","protocol":17,"map":"workshop/pl_shoreleave_rc2.ugc1238849347","folder":"tf","game":"Team Fortress","app_id":440,"player_count":0,"max_players":24,"Bots":0,"server_type":"Dedicated","server_os":"Linux","password":true,"vac":true,"version":"7932396","steam_id":85568392925397856,"keywords":["nocrits","nodmgspread","payload","uncletopia"],"game_id":440,"stv_port":27066,"stv_name":"Uncletopia | Warsaw | 6 | Community | STV","players":null}]}