{"status":true,"message":"","result":[{"server_id":9,"name":"Uncletopia | Atlanta | 1 | All Maps","name_short":"atl-1","host":"atl-1.us.uncletopia.com","port":27015,"enabled":true,"region":"us-east","cc":"us","latitude":33.753746,"longitude":-84.38633,"reserved":0,"last_update":"0001-01-01T00:00:00Z","name_a2s":"Uncletopia | Atlanta | 1 | All Maps","protocol":17,"map":"pl_snowycoast","folder":"tf","game":"Team Fortress","app_id":440,"player_count":24,"max_players":24,"Bots":0,"server_type":"Dedicated","server_os":"Linux","password":true,"vac":true,"version":"7757534","steam_id":85568392924469982,"keywords":["nocrits","nodmgspread","payload","uncletopia"],"game_id":440,"stv_port":27016,"stv_name":"Uncletopia | Atlanta | 1 | All Maps | STV","players":[{"user_id":565,"name":"lil hog","steam_id":76561199230929836,"connected_time":1433000000000,"state":"active","ping":78},{"user_id":544,"name":"shaderoses","steam_id":76561198070800500,"connected_time":2651000000000,"state":"active","ping":66},{"user_id":561,"name":"ATL1 | chubbbo","steam_id":76561198943598378,"connected_time":1728000000000,"state":"active","ping":40},{"user_id":531,"name":"Crystron","steam_id":76561198880437428,"connected_time":4993000000000,"state":"active","ping":75},{"user_id":566,"name":"BIG HOG","steam_id":76561198079923652,"connected_time":1429000000000,"state":"active","ping":70},{"user_id":567,"name":"Shylo","steam_id":76561199276858045,"connected_time":1376000000000,"state":"active","ping":70},{"user_id":578,"name":"Jin","steam_id":76561198119873148,"connected_time":620000000000,"state":"active","ping":86},{"user_id":569,"name":"Cosmic sR","steam_id":76561198081738675,"connected_time":1286000000000,"state":"active","ping":69},{"user_id":496,"name":"daffodil","steam_id":76561198049480053,"connected_time":6964000000000,"state":"active","ping":72},{"user_id":547,"name":"bogginwater","steam_id":76561198155547142,"connected_time":2164000000000,"state":"active","ping":66},{"user_id":515,"name":"KBoneski ‚ô°","steam_id":76561198307409065,"connected_time":6008000000000,"state":"active","ping":104},{"user_id":583,"name":"Bag","steam_id":76561198012395490,"connected_time":16000000000,"state":"spawning","ping":62},{"user_id":574,"name":"Albino Jellyfish","steam_id":76561198208561097,"connected_time":914000000000,"state":"active","ping":67},{"user_id":573,"name":"Nyko","steam_id":76561198143197549,"connected_time":1052000000000,"state":"active","ping":81},{"user_id":582,"name":"capybara","steam_id":76561198182288455,"connected_time":208000000000,"state":"active","ping":74},{"user_id":541,"name":"F_L Jad The Taff","steam_id":76561198095923905,"connected_time":3691000000000,"state":"active","ping":73},{"user_id":542,"name":"nomad","steam_id":76561197998740399,"connected_time":3658000000000,"state":"active","ping":71},{"user_id":564,"name":"Higgle Poggers","steam_id":76561198043960257,"connected_time":1540000000000,"state":"active","ping":71},{"user_id":580,"name":"TheRealMud","steam_id":76561198138312993,"connected_time":379000000000,"state":"active","ping":88},{"user_id":555,"name":"rose","steam_id":76561198048882285,"connected_time":1997000000000,"state":"active","ping":62},{"user_id":579,"name":"SN0W","steam_id":76561198153665468,"connected_time":584000000000,"state":"active","ping":70},{"user_id":560,"name":"ATL1 | on my hunting trip","steam_id":76561198315341646,"connected_time":1882000000000,"state":"active","ping":74},{"user_id":575,"name":"doop","steam_id":76561198370487545,"connected_time":863000000000,"state":"active","ping":84},{"user_id":557,"name":"David De Bergerac","steam_id":76561198010306294,"connected_time":1949000000000,"state":"active","ping":85}]},{"server_id":104,"name":"Uncletopia | Atlanta | 2 | All Maps","name_short":"atl-2","host":"atl-1.us.uncletopia.com","port":27025,"enabled":true,"region":"us-east","cc":"us","latitude":33.753746,"longitude":-84.38633,"reserved":0,"last_update":"0001-01-01T00:00:00Z","name_a2s":"Uncletopia | Atlanta | 2 | All Maps","protocol":17,"map":"pl_badwater","folder":"tf","game":"Team Fortress","app_id":440,"player_count":24,"max_players":24,"Bots":0,"server_type":"Dedicated","server_os":"Linux","password":true,"vac":true,"version":"7757534","steam_id":85568392924469983,"keywords":["nocrits","nodmgspread","payload","uncletopia"],"game_id":440,"stv_port":27026,"stv_name":"Uncletopia | Atlanta | 2 | All Maps | STV","players":[{"user_id":315,"name":"TOKENLIZARD","steam_id":76561198218765205,"connected_time":713000000000,"state":"active","ping":90},{"user_id":328,"name":"Juliocrivera","steam_id":76561198003186978,"connected_time":62000000000,"state":"active","ping":56},{"user_id":323,"name":"wG deez","steam_id":76561198277163301,"connected_time":174000000000,"state":"active","ping":84},{"user_id":320,"name":"TransWomanGaming","steam_id":76561198809645656,"connected_time":204000000000,"state":"active","ping":82},{"user_id":311,"name":"Pouty","steam_id":76561198163313089,"connected_time":1111000000000,"state":"active","ping":122},{"user_id":202,"name":"aisu","steam_id":76561198043768507,"connected_time":9900000000000,"state":"active","ping":89},{"user_id":305,"name":"ShildaShekelbergGaming","steam_id":76561199026893977,"connected_time":1507000000000,"state":"active","ping":92},{"user_id":318,"name":"The Pope","steam_id":76561198313560302,"connected_time":222000000000,"state":"active","ping":44},{"user_id":327,"name":"Space Cops","steam_id":76561198032414253,"connected_time":130000000000,"state":"active","ping":57},{"user_id":223,"name":"C papi","steam_id":76561198027779564,"connected_time":7897000000000,"state":"active","ping":54},{"user_id":316,"name":"Bottom-Fragging Dog Witch","steam_id":76561198103496593,"connected_time":676000000000,"state":"active","ping":45},{"user_id":324,"name":"Roberto Del Fuego","steam_id":76561198043458554,"connected_time":162000000000,"state":"active","ping":69},{"user_id":313,"name":"comet sooicidy","steam_id":76561198025173479,"connected_time":834000000000,"state":"active","ping":85},{"user_id":317,"name":"-W3E- grim10465","steam_id":76561198045698581,"connected_time":675000000000,"state":"active","ping":59},{"user_id":287,"name":"Disco Bandit","steam_id":76561198152639419,"connected_time":2813000000000,"state":"active","ping":50},{"user_id":308,"name":"drooskie","steam_id":76561198036083886,"connected_time":1447000000000,"state":"active","ping":68},{"user_id":278,"name":"trappy (soggy)","steam_id":76561198402801140,"connected_time":3111000000000,"state":"active","ping":86},{"user_id":251,"name":"plank","steam_id":76561198133608972,"connected_time":5113000000000,"state":"active","ping":61},{"user_id":325,"name":"·É¶Lotus","steam_id":76561198205338192,"connected_time":159000000000,"state":"active","ping":102},{"user_id":282,"name":"slonked","steam_id":76561198124191084,"connected_time":3006000000000,"state":"active","ping":49},{"user_id":205,"name":"JellyRoll Jerry","steam_id":76561198037149474,"connected_time":9888000000000,"state":"active","ping":118},{"user_id":329,"name":"Romo","steam_id":76561198243101572,"connected_time":45000000000,"state":"active","ping":70},{"user_id":146,"name":"Pancakes","steam_id":76561198097983190,"connected_time":13250000000000,"state":"active","ping":61},{"user_id":326,"name":"Slashes","steam_id":76561197968573499,"connected_time":146000000000,"state":"active","ping":63}]},{"server_id":400,"name":"Uncletopia | Atlanta | 3 | Community","name_short":"atl-3","host":"atl-1.us.uncletopia.com","port":27035,"enabled":true,"region":"us-east","cc":"us","latitude":33.753746,"longitude":-84.38633,"reserved":0,"last_update":"0001-01-01T00:00:00Z","name_a2s":"Uncletopia | Atlanta | 3 | Community","protocol":17,"map":"workshop/pl_vigil_rc9.ugc1266210012","folder":"tf","game":"Team Fortress","app_id":440,"player_count":0,"max_players":24,"Bots":0,"server_type":"Dedicated","server_os":"Linux","password":true,"vac":true,"version":"7757534","steam_id":85568392924515187,"keywords":["nocrits","nodmgspread","payload","uncletopia"],"game_id":440,"stv_port":27036,"stv_name":"Uncletopia | Atlanta | 3 | Community | STV","players":null},{"server_id":401,"name":"Uncletopia | Atlanta | 4 | No Payload","name_short":"atl-4","host":"atl-1.us.uncletopia.com","port":27045,"enabled":true,"region":"us-east","cc":"us","latitude":33.753746,"longitude":-84.38633,"reserved":0,"last_update":"0001-01-01T00:00:00Z","name_a2s":"","protocol":0,"map":"","folder":"","game":"","app_id":0,"player_count":0,"max_players":0,"Bots":0,"server_type":"","server_os":"","password":false,"vac":false,"version":"","steam_id":0,"keywords":null,"game_id":0,"stv_port":0,"stv_name":"","players":null},{"server_id":2,"name":"Uncletopia | Chicago | 1 | All Maps","name_short":"chi-1","host":"chi-1.us.uncletopia.com","port":27015,"enabled":true,"region":"us-central","cc":"us","latitude":41.881832,"longitude":-87.62318,"reserved":0,"last_update":"0001-01-01T00:00:00Z","name_a2s":"Uncletopia | Chicago | 1 | All Maps","protocol":17,"map":"pl_goldrush","folder":"tf","game":"Team Fortress","app_id":440,"player_count":23,"max_players":24,"Bots":0,"server_type":"Dedicated","server_os":"Linux","password":true,"vac":true,"version":"7757534","steam_id":85568392924469984,"keywords":["nocrits","nodmgspread","payload","uncletopia"],"game_id":440,"stv_port":27016,"stv_name":"Uncletopia | Chicago | 1 | All Maps | STV","players":[{"user_id":595,"name":"sevanial","steam_id":76561198071532126,"connected_time":783000000000,"state":"active","ping":124},{"user_id":589,"name":".JIFF","steam_id":76561198045181760,"connected_time":1297000000000,"state":"active","ping":57},{"user_id":561,"name":"Thundermonkey (SMOKE)","steam_id":76561198017631728,"connected_time":3396000000000,"state":"active","ping":61},{"user_id":599,"name":"Definitely Not A Replicant.","steam_id":76561198087464370,"connected_time":641000000000,"state":"active","ping":76},{"user_id":588,"name":"Lamb Sauce","steam_id":76561198136059840,"connected_time":1498000000000,"state":"active","ping":73},{"user_id":600,"name":"Zoro01","steam_id":76561198407989540,"connected_time":633000000000,"state":"active","ping":139},{"user_id":606,"name":"ayecodex","steam_id":76561199477598858,"connected_time":184000000000,"state":"active","ping":64},{"user_id":557,"name":"Merlinzbeard","steam_id":76561199428305712,"connected_time":3726000000000,"state":"active","ping":73},{"user_id":602,"name":"kogundy","steam_id":76561198449012128,"connected_time":616000000000,"state":"active","ping":147},{"user_id":607,"name":"Oberon","steam_id":76561199360964272,"connected_time":164000000000,"state":"active","ping":56},{"user_id":596,"name":"Murrdogg","steam_id":76561198210491188,"connected_time":769000000000,"state":"active","ping":62},{"user_id":605,"name":"[GUT] RiDiK¬Æ","steam_id":76561197969756446,"connected_time":569000000000,"state":"active","ping":54},{"user_id":502,"name":"Low DROOPing Fruit","steam_id":76561198856700517,"connected_time":6811000000000,"state":"active","ping":61},{"user_id":586,"name":"i really like this dog :)","steam_id":76561198882404753,"connected_time":1634000000000,"state":"active","ping":72},{"user_id":587,"name":"BrendenMad","steam_id":76561198031250581,"connected_time":1625000000000,"state":"active","ping":56},{"user_id":592,"name":"DefectiveWarhead","steam_id":76561198067746049,"connected_time":995000000000,"state":"active","ping":83},{"user_id":598,"name":"TastyWheat","steam_id":76561198855061918,"connected_time":684000000000,"state":"active","ping":104},{"user_id":603,"name":"Streetwise","steam_id":76561197971684268,"connected_time":606000000000,"state":"active","ping":102},{"user_id":567,"name":"Trove","steam_id":76561198110970476,"connected_time":3203000000000,"state":"active","ping":47},{"user_id":610,"name":"Mr. Crispy Lips","steam_id":76561198028157625,"connected_time":7000000000,"state":"spawning","ping":264},{"user_id":582,"name":"Praise_to_the_Flashlight!","steam_id":76561199001728789,"connected_time":1994000000000,"state":"active","ping":54},{"user_id":571,"name":"Darghul the Skeleton Lord","steam_id":76561198004140161,"connected_time":3148000000000,"state":"active","ping":46},{"user_id":597,"name":"raidlps","steam_id":76561199208003679,"connected_time":735000000000,"state":"active","ping":83}]},{"server_id":106,"name":"Uncletopia | Chicago | 2 | All Maps","name_short":"chi-2","host":"chi-1.us.uncletopia.com","port":27025,"enabled":true,"region":"us-central","cc":"us","latitude":41.881832,"longitude":-87.62318,"reserved":0,"last_update":"0001-01-01T00:00:00Z","name_a2s":"Uncletopia | Chicago | 2 | All Maps","protocol":17,"map":"pl_pier","folder":"tf","game":"Team Fortress","app_id":440,"player_count":23,"max_players":24,"Bots":0,"server_type":"Dedicated","server_os":"Linux","password":true,"vac":true,"version":"7757534","steam_id":85568392924469985,"keywords":["nocrits","nodmgspread","payload","uncletopia"],"game_id":440,"stv_port":27026,"stv_name":"Uncletopia | Chicago | 2 | All Maps | STV","players":[{"user_id":485,"name":"OttoDogX","steam_id":76561198042007578,"connected_time":4066000000000,"state":"active","ping":85},{"user_id":524,"name":"Maybe","steam_id":76561198268304564,"connected_time":1891000000000,"state":"active","ping":72},{"user_id":528,"name":"soweli","steam_id":76561198044363630,"connected_time":1678000000000,"state":"active","ping":62},{"user_id":486,"name":"ARGON Soulidity","steam_id":76561198429603550,"connected_time":4064000000000,"state":"active","ping":68},{"user_id":534,"name":"Michael :D","steam_id":76561198041191113,"connected_time":1250000000000,"state":"active","ping":70},{"user_id":533,"name":"Donnie Blasto","steam_id":76561198043432005,"connected_time":1425000000000,"state":"active","ping":52},{"user_id":529,"name":"[S]Mr. X [No Monitor]","steam_id":76561197963746035,"connected_time":1647000000000,"state":"active","ping":134},{"user_id":513,"name":"ameritech","steam_id":76561198064769089,"connected_time":2153000000000,"state":"active","ping":66},{"user_id":517,"name":"I \u003c3 Vore","steam_id":76561198980062131,"connected_time":2032000000000,"state":"active","ping":64},{"user_id":518,"name":"Jake The Snake","steam_id":76561198047722285,"connected_time":1983000000000,"state":"active","ping":84},{"user_id":541,"name":"Xraverz","steam_id":76561198008891628,"connected_time":265000000000,"state":"active","ping":86},{"user_id":511,"name":"Xaukra","steam_id":76561198180742229,"connected_time":2243000000000,"state":"active","ping":80},{"user_id":538,"name":"heavyArmor","steam_id":76561198191056059,"connected_time":581000000000,"state":"active","ping":74},{"user_id":519,"name":"Pokon","steam_id":76561198053113088,"connected_time":1981000000000,"state":"active","ping":61},{"user_id":543,"name":"Jharell","steam_id":76561199479255565,"connected_time":129000000000,"state":"active","ping":140},{"user_id":478,"name":"Soup","steam_id":76561198079000665,"connected_time":5324000000000,"state":"active","ping":58},{"user_id":544,"name":"honk","steam_id":76561198050398028,"connected_time":128000000000,"state":"active","ping":60},{"user_id":503,"name":"Malevo","steam_id":76561198148606522,"connected_time":3270000000000,"state":"active","ping":86},{"user_id":542,"name":"Alexhcgar„ÉÖ","steam_id":76561198085706389,"connected_time":223000000000,"state":"active","ping":112},{"user_id":521,"name":"FrozenCowJuice","steam_id":76561198130568045,"connected_time":1939000000000,"state":"active","ping":49},{"user_id":505,"name":"Nicholas771212","steam_id":76561198318065526,"connected_time":3246000000000,"state":"active","ping":72},{"user_id":530,"name":"Zokie0","steam_id":76561198056035567,"connected_time":1641000000000,"state":"active","ping":69},{"user_id":527,"name":"i forgor","steam_id":76561199120622265,"connected_time":1808000000000,"state":"active","ping":78}]},{"server_id":402,"name":"Uncletopia | Chicago | 3 | All Maps","name_short":"chi-3","host":"chi-1.us.uncletopia.com","port":27035,"enabled":true,"region":"us-central","cc":"us","latitude":41.881832,"longitude":-87.62318,"reserved":0,"last_update":"0001-01-01T00:00:00Z","name_a2s":"Uncletopia | Chicago | 3 | All Maps","protocol":17,"map":"pl_borneo","folder":"tf","game":"Team Fortress","app_id":440,"player_count":24,"max_players":24,"Bots":0,"server_type":"Dedicated","server_os":"Linux","password":true,"vac":true,"version":"7757534","steam_id":85568392924515191,"keywords":["nocrits","nodmgspread","payload","uncletopia"],"game_id":440,"stv_port":27036,"stv_name":"Uncletopia | Chicago | 3 | All Maps | STV","players":[{"user_id":264,"name":"Maxxycat","steam_id":76561198194062681,"connected_time":584000000000,"state":"active","ping":57},{"user_id":266,"name":"turtle","steam_id":76561198112673874,"connected_time":209000000000,"state":"active","ping":98},{"user_id":224,"name":"Concolor","steam_id":76561198027734150,"connected_time":4287000000000,"state":"active","ping":73},{"user_id":253,"name":"Spike","steam_id":76561198141356571,"connected_time":1937000000000,"state":"active","ping":56},{"user_id":260,"name":"Bee","steam_id":76561198074681324,"connected_time":888000000000,"state":"active","ping":60},{"user_id":244,"name":"wiiblob","steam_id":76561198109106242,"connected_time":3286000000000,"state":"active","ping":139},{"user_id":242,"name":"Wallem","steam_id":76561198052361822,"connected_time":3343000000000,"state":"active","ping":75},{"user_id":254,"name":"Remmy","steam_id":76561198268857418,"connected_time":1898000000000,"state":"active","ping":69},{"user_id":270,"name":"zpalmtree","steam_id":76561198134307620,"connected_time":108000000000,"state":"active","ping":76},{"user_id":202,"name":"ùô¥ ùö° ùöå ùöé ùöï ùöï \ufffd","steam_id":76561198011887958,"connected_time":5627000000000,"state":"active","ping":63},{"user_id":172,"name":"java","steam_id":76561198030276792,"connected_time":8513000000000,"state":"active","ping":60},{"user_id":259,"name":"King","steam_id":76561198010019214,"connected_time":928000000000,"state":"active","ping":44},{"user_id":247,"name":"thecal","steam_id":76561198307893384,"connected_time":2877000000000,"state":"active","ping":59},{"user_id":271,"name":"bain dmg","steam_id":76561198102681457,"connected_time":84000000000,"state":"active","ping":68},{"user_id":208,"name":"AlecTheNefarious","steam_id":76561198035291230,"connected_time":5019000000000,"state":"active","ping":59},{"user_id":265,"name":"Bunnyboy","steam_id":76561198298416058,"connected_time":283000000000,"state":"active","ping":71},{"user_id":268,"name":"local man","steam_id":76561198074946673,"connected_time":177000000000,"state":"active","ping":59},{"user_id":257,"name":"Corruptedplatypus","steam_id":76561198193537517,"connected_time":1777000000000,"state":"active","ping":60},{"user_id":171,"name":"slack","steam_id":76561198000564263,"connected_time":8689000000000,"state":"active","ping":75},{"user_id":229,"name":"lanoc","steam_id":76561198055415367,"connected_time":4109000000000,"state":"active","ping":74},{"user_id":190,"name":"Bad Medic Buddy","steam_id":76561198093222632,"connected_time":6155000000000,"state":"active","ping":67},{"user_id":243,"name":"Xiamo'nah","steam_id":76561198067436825,"connected_time":3339000000000,"state":"active","ping":85},{"user_id":269,"name":"Pencil Jump Extraordinaire","steam_id":76561198838223023,"connected_time":174000000000,"state":"active","ping":55}]},{"server_id":403,"name":"Uncletopia | Chicago | 4 | All Maps","name_short":"chi-4","host":"chi-1.us.uncletopia.com","port":27045,"enabled":true,"region":"us-central","cc":"us","latitude":41.881832,"longitude":-87.62318,"reserved":0,"last_update":"0001-01-01T00:00:00Z","name_a2s":"Uncletopia | Chicago | 4 | All Maps","protocol":17,"map":"pl_pier","folder":"tf","game":"Team Fortress","app_id":440,"player_count":24,"max_players":24,"Bots":0,"server_type":"Dedicated","server_os":"Linux","password":true,"vac":true,"version":"7757534","steam_id":85568392924515193,"keywords":["nocrits","nodmgspread","payload","uncletopia"],"game_id":440,"stv_port":27046,"stv_name":"Uncletopia | Chicago | 4 | All Maps | STV","players":[{"user_id":373,"name":"Uzi bin Laden","steam_id":76561198218811453,"connected_time":2722000000000,"state":"active","ping":80},{"user_id":374,"name":"JCooch","steam_id":76561198373877590,"connected_time":2718000000000,"state":"active","ping":79},{"user_id":394,"name":"Scita","steam_id":76561198066861559,"connected_time":1448000000000,"state":"active","ping":71},{"user_id":354,"name":"Kirino Toesucka","steam_id":76561198056684863,"connected_time":5056000000000,"state":"active","ping":72},{"user_id":392,"name":"Rain","steam_id":76561198123437878,"connected_time":1735000000000,"state":"active","ping":90},{"user_id":353,"name":"Lavender","steam_id":76561198142770666,"connected_time":5260000000000,"state":"active","ping":61},{"user_id":375,"name":"ratmonkys","steam_id":76561198064315086,"connected_time":2717000000000,"state":"active","ping":69},{"user_id":395,"name":"tubby","steam_id":76561198174982661,"connected_time":1438000000000,"state":"active","ping":87},{"user_id":376,"name":"ROCK MAN","steam_id":76561198351378299,"connected_time":2715000000000,"state":"active","ping":69},{"user_id":377,"name":"Vaughn Haralson","steam_id":76561198166817980,"connected_time":2710000000000,"state":"active","ping":74},{"user_id":396,"name":"Hemorrhoid Harry","steam_id":76561198092494136,"connected_time":1410000000000,"state":"active","ping":61},{"user_id":402,"name":"Kyzer","steam_id":76561198048034600,"connected_time":1224000000000,"state":"active","ping":71},{"user_id":360,"name":"Jeremopolis","steam_id":76561198079467492,"connected_time":4719000000000,"state":"active","ping":75},{"user_id":349,"name":"Angry Crab","steam_id":76561198055350230,"connected_time":6119000000000,"state":"active","ping":77},{"user_id":359,"name":"„ÅÑ„Å°„Åî„Åæ„Çç","steam_id":76561198166100997,"connected_time":4933000000000,"state":"active","ping":80},{"user_id":397,"name":"„Åè„Åù","steam_id":76561198153398037,"connected_time":1406000000000,"state":"active","ping":83},{"user_id":387,"name":"nachopugz","steam_id":76561199120480873,"connected_time":2029000000000,"state":"active","ping":87},{"user_id":404,"name":"caption cool","steam_id":76561197990612056,"connected_time":180000000000,"state":"active","ping":50},{"user_id":398,"name":"Capit√°n √Ñxis-Flores","steam_id":76561198353865006,"connected_time":1398000000000,"state":"active","ping":69},{"user_id":380,"name":"unlikelycure","steam_id":76561199174450788,"connected_time":2685000000000,"state":"active","ping":102},{"user_id":399,"name":"keffers","steam_id":76561198202338796,"connected_time":1395000000000,"state":"active","ping":75},{"user_id":381,"name":"hopeless","steam_id":76561198305056374,"connected_time":2624000000000,"state":"active","ping":70},{"user_id":400,"name":"Galaxy","steam_id":76561198035134466,"connected_time":1393000000000,"state":"active","ping":78},{"user_id":401,"name":"Blitz3k","steam_id":76561198055758741,"connected_time":1356000000000,"state":"active","ping":68}]},{"server_id":36,"name":"Uncletopia | Chicago | 5 | All Maps","name_short":"chi-5","host":"chi-2.us.uncletopia.com","port":27015,"enabled":true,"region":"us-central","cc":"us","latitude":41.881832,"longitude":-87.62318,"reserved":0,"last_update":"0001-01-01T00:00:00Z","name_a2s":"Uncletopia | Chicago | 5 | All Maps","protocol":17,"map":"koth_lakeside_final","folder":"tf","game":"Team Fortress","app_id":440,"player_count":24,"max_players":24,"Bots":0,"server_type":"Dedicated","server_os":"Linux","password":true,"vac":true,"version":"7757534","steam_id":85568392924866362,"keywords":["cp","nocrits","nodmgspread","uncletopia"],"game_id":440,"stv_port":27016,"stv_name":"Uncletopia | Chicago | 5 | All Maps | STV","players":[{"user_id":216,"name":"ShortenedName","steam_id":76561198079337360,"connected_time":1016000000000,"state":"active","ping":81},{"user_id":199,"name":"Jones","steam_id":76561198046037216,"connected_time":2442000000000,"state":"active","ping":90},{"user_id":185,"name":"Bee's","steam_id":76561198041888432,"connected_time":2925000000000,"state":"active","ping":92},{"user_id":186,"name":"Large Hardon Collider","steam_id":76561198023896605,"connected_time":2868000000000,"state":"active","ping":72},{"user_id":147,"name":"Winter the Witchie","steam_id":76561198151971178,"connected_time":5041000000000,"state":"active","ping":58},{"user_id":224,"name":"loser","steam_id":76561198171507451,"connected_time":492000000000,"state":"active","ping":103},{"user_id":223,"name":"recycle","steam_id":76561198819562111,"connected_time":528000000000,"state":"active","ping":71},{"user_id":209,"name":"Person","steam_id":76561198093244204,"connected_time":1583000000000,"state":"active","ping":76},{"user_id":228,"name":"Fredrick","steam_id":76561197981419964,"connected_time":124000000000,"state":"active","ping":69},{"user_id":225,"name":"9AM | Lunean","steam_id":76561198106546230,"connected_time":337000000000,"state":"active","ping":66},{"user_id":226,"name":"the perpetrator","steam_id":76561198111975583,"connected_time":307000000000,"state":"active","ping":75},{"user_id":207,"name":"Dammit, Jim!","steam_id":76561198038509136,"connected_time":1595000000000,"state":"active","ping":86},{"user_id":227,"name":"Epha","steam_id":76561198079379951,"connected_time":260000000000,"state":"active","ping":64},{"user_id":191,"name":"The Brain Fuckler","steam_id":76561198042601093,"connected_time":2838000000000,"state":"active","ping":74},{"user_id":180,"name":"Zigadox","steam_id":76561198079813479,"connected_time":3133000000000,"state":"active","ping":85},{"user_id":229,"name":"Triforce141","steam_id":76561198063896776,"connected_time":114000000000,"state":"active","ping":71},{"user_id":230,"name":"OBSESS","steam_id":76561197962607364,"connected_time":60000000000,"state":"active","ping":69},{"user_id":192,"name":"Turk Turkleton","steam_id":76561198073265101,"connected_time":2814000000000,"state":"active","ping":77},{"user_id":219,"name":"briggs","steam_id":76561198045655893,"connected_time":983000000000,"state":"active","ping":60},{"user_id":231,"name":"Geniusammyr","steam_id":76561198046649013,"connected_time":27000000000,"state":"active","ping":56},{"user_id":221,"name":"hud_saytext_time 0","steam_id":76561198010327228,"connected_time":596000000000,"state":"active","ping":169},{"user_id":220,"name":"Meet The Amazing Bret","steam_id":76561198137326099,"connected_time":953000000000,"state":"active","ping":103},{"user_id":213,"name":"Knuckwit","steam_id":76561198237343468,"connected_time":1570000000000,"state":"active","ping":54},{"user_id":222,"name":"Baoshan Iron \u0026 Steel Co., Ltd.","steam_id":76561198095313463,"connected_time":550000000000,"state":"active","ping":65}]},{"server_id":37,"name":"Uncletopia | Chicago | 6 | All Maps","name_short":"chi-6","host":"chi-2.us.uncletopia.com","port":27025,"enabled":true,"region":"us-central","cc":"us","latitude":41.881832,"longitude":-87.62318,"reserved":0,"last_update":"0001-01-01T00:00:00Z","name_a2s":"Uncletopia | Chicago | 6 | All Maps","protocol":17,"map":"pl_badwater","folder":"tf","game":"Team Fortress","app_id":440,"player_count":24,"max_players":24,"Bots":0,"server_type":"Dedicated","server_os":"Linux","password":true,"vac":true,"version":"7757534","steam_id":85568392924866363,"keywords":["nocrits","nodmgspread","payload","uncletopia"],"game_id":440,"stv_port":27026,"stv_name":"Uncletopia | Chicago | 6 | All Maps | STV","players":[{"user_id":385,"name":"Aristotle Voulton","steam_id":76561198100174923,"connected_time":294000000000,"state":"active","ping":100},{"user_id":345,"name":"Sychke","steam_id":76561198067144055,"connected_time":3858000000000,"state":"active","ping":54},{"user_id":358,"name":"Peppino Spaghetti","steam_id":76561198155403131,"connected_time":2774000000000,"state":"active","ping":72},{"user_id":386,"name":"leumas","steam_id":76561198240408540,"connected_time":294000000000,"state":"active","ping":61},{"user_id":316,"name":"The Jar","steam_id":76561198146013385,"connected_time":5982000000000,"state":"active","ping":75},{"user_id":372,"name":"chesterwnimitz","steam_id":76561198062664377,"connected_time":1704000000000,"state":"active","ping":96},{"user_id":346,"name":"garbo","steam_id":76561198149280150,"connected_time":3835000000000,"state":"active","ping":89},{"user_id":371,"name":"vegetable","steam_id":76561198190417719,"connected_time":1779000000000,"state":"active","ping":35},{"user_id":373,"name":"Mike From Jordan","steam_id":76561198121217982,"connected_time":1693000000000,"state":"active","ping":56},{"user_id":378,"name":"Novatonix","steam_id":76561198150980760,"connected_time":1565000000000,"state":"active","ping":75},{"user_id":374,"name":"Juevos","steam_id":76561198066142119,"connected_time":1670000000000,"state":"active","ping":110},{"user_id":338,"name":"Warbler","steam_id":76561198132094572,"connected_time":3989000000000,"state":"active","ping":58},{"user_id":375,"name":"Codo Sapien","steam_id":76561198014206810,"connected_time":1652000000000,"state":"active","ping":33},{"user_id":380,"name":"Ortadragon","steam_id":76561198023058412,"connected_time":1291000000000,"state":"active","ping":101},{"user_id":383,"name":"Stan_The_Stick_Man","steam_id":76561198158340112,"connected_time":351000000000,"state":"active","ping":119},{"user_id":342,"name":"vertical orientation correction","steam_id":76561198007464245,"connected_time":3896000000000,"state":"active","ping":77},{"user_id":381,"name":"Countputzala","steam_id":76561198121150316,"connected_time":1216000000000,"state":"active","ping":109},{"user_id":343,"name":"hashmap","steam_id":76561198043794014,"connected_time":3896000000000,"state":"active","ping":51},{"user_id":382,"name":"Randumb","steam_id":76561199083286636,"connected_time":976000000000,"state":"active","ping":74},{"user_id":365,"name":"vcx","steam_id":76561198139371143,"connected_time":2574000000000,"state":"active","ping":75},{"user_id":349,"name":"Venk","steam_id":76561198251131422,"connected_time":3783000000000,"state":"active","ping":72},{"user_id":350,"name":"Wimojimo12","steam_id":76561198370459596,"connected_time":3757000000000,"state":"active","ping":73},{"user_id":369,"name":"Recursive Gamer","steam_id":76561198042102952,"connected_time":2443000000000,"state":"active","ping":64},{"user_id":377,"name":"just another frag","steam_id":76561198249650234,"connected_time":1640000000000,"state":"active","ping":66}]},{"server_id":38,"name":"Uncletopia | Chicago | 7 | Stopwatch Beta","name_short":"chi-7","host":"chi-2.us.uncletopia.com","port":27035,"enabled":true,"region":"us-central","cc":"us","latitude":41.881832,"longitude":-87.62318,"reserved":0,"last_update":"0001-01-01T00:00:00Z","name_a2s":"Uncletopia | Chicago | 7 | Stopwatch Beta","protocol":17,"map":"workshop/koth_bagel_rc6.ugc2514036946","folder":"tf","game":"Team Fortress","app_id":440,"player_count":13,"max_players":24,"Bots":0,"server_type":"Dedicated","server_os":"Linux","password":true,"vac":true,"version":"7757534","steam_id":85568392924866364,"keywords":["cp","nocrits","nodmgspread","uncletopia"],"game_id":440,"stv_port":27036,"stv_name":"Uncletopia | Chicago | 7 | Stopwatch Beta | STV","players":[{"user_id":160,"name":"Blaze_Main","steam_id":76561198973776392,"connected_time":69000000000,"state":"active","ping":44},{"user_id":161,"name":"gromit","steam_id":76561198037746805,"connected_time":28000000000,"state":"active","ping":75},{"user_id":159,"name":"[_Dr.Scythe_]","steam_id":76561198845245858,"connected_time":149000000000,"state":"active","ping":81},{"user_id":155,"name":"yurty","steam_id":76561198036307721,"connected_time":270000000000,"state":"active","ping":69},{"user_id":154,"name":"bogus","steam_id":76561198377555279,"connected_time":333000000000,"state":"active","ping":75},{"user_id":140,"name":"¬øskitt1eS?","steam_id":76561198330093211,"connected_time":1162000000000,"state":"active","ping":60},{"user_id":146,"name":"Genu1ne (She/her)","steam_id":76561198060533330,"connected_time":963000000000,"state":"active","ping":61},{"user_id":128,"name":"Mythius","steam_id":76561198401392472,"connected_time":1984000000000,"state":"active","ping":78},{"user_id":94,"name":"Resh420","steam_id":76561198066619792,"connected_time":3664000000000,"state":"active","ping":64},{"user_id":141,"name":"lesio","steam_id":76561198064249174,"connected_time":1095000000000,"state":"active","ping":75},{"user_id":147,"name":"FuzzyTbone","steam_id":76561198211741396,"connected_time":905000000000,"state":"active","ping":55},{"user_id":152,"name":"ImpoverishedPrune","steam_id":76561198859272795,"connected_time":474000000000,"state":"active","ping":85},{"user_id":151,"name":"sciencenerd42","steam_id":76561198274563320,"connected_time":805000000000,"state":"active","ping":52}]},{"server_id":39,"name":"Uncletopia | Chicago | 8 | Community","name_short":"chi-8","host":"chi-2.us.uncletopia.com","port":27045,"enabled":true,"region":"us-central","cc":"us","latitude":41.881832,"longitude":-87.62318,"reserved":0,"last_update":"0001-01-01T00:00:00Z","name_a2s":"Uncletopia | Chicago | 8 | Community","protocol":17,"map":"workshop/koth_product_final.ugc454272353","folder":"tf","game":"Team Fortress","app_id":440,"player_count":23,"max_players":24,"Bots":0,"server_type":"Dedicated","server_os":"Linux","password":true,"vac":true,"version":"7757534","steam_id":85568392924866365,"keywords":["cp","nocrits","nodmgspread","uncletopia"],"game_id":440,"stv_port":27046,"stv_name":"Uncletopia | Chicago | 8 | Community | STV","players":[{"user_id":303,"name":"Clifford Banes","steam_id":76561198145921847,"connected_time":285000000000,"state":"active","ping":64},{"user_id":296,"name":"Flip","steam_id":76561198858374321,"connected_time":719000000000,"state":"active","ping":58},{"user_id":282,"name":"My dad owns Club Penguin.","steam_id":76561198032864436,"connected_time":1092000000000,"state":"active","ping":72},{"user_id":283,"name":"AllShamNoWow","steam_id":76561198987929393,"connected_time":1024000000000,"state":"active","ping":133},{"user_id":299,"name":"I Cooka Da Pizza","steam_id":76561198084167611,"connected_time":527000000000,"state":"active","ping":70},{"user_id":276,"name":"Dagoth","steam_id":76561198100896443,"connected_time":2114000000000,"state":"active","ping":55},{"user_id":246,"name":"Robin","steam_id":76561198121165149,"connected_time":3545000000000,"state":"active","ping":45},{"user_id":309,"name":"Greg Rock","steam_id":76561198111548861,"connected_time":174000000000,"state":"active","ping":72},{"user_id":310,"name":"Actually a Shoggoth","steam_id":76561198065857964,"connected_time":149000000000,"state":"active","ping":73},{"user_id":284,"name":"Joey Wheelchair„ÉÉ","steam_id":76561198378921790,"connected_time":974000000000,"state":"active","ping":78},{"user_id":285,"name":"SuperSonix","steam_id":76561199089594481,"connected_time":952000000000,"state":"active","ping":111},{"user_id":291,"name":"SaucyKakes","steam_id":76561198253907657,"connected_time":870000000000,"state":"active","ping":49},{"user_id":277,"name":"Walkiing","steam_id":76561198074473413,"connected_time":1967000000000,"state":"active","ping":45},{"user_id":287,"name":"bl8demast3r","steam_id":76561198006308462,"connected_time":940000000000,"state":"active","ping":70},{"user_id":305,"name":"Doggo","steam_id":76561198313355373,"connected_time":267000000000,"state":"active","ping":114},{"user_id":306,"name":"‚òπ","steam_id":76561198804763186,"connected_time":209000000000,"state":"active","ping":63},{"user_id":298,"name":"LEGALIZE NUCLEAR BOMBS","steam_id":76561198031675881,"connected_time":601000000000,"state":"active","ping":44},{"user_id":300,"name":"Chill (new sens)","steam_id":76561198313364985,"connected_time":520000000000,"state":"active","ping":75},{"user_id":301,"name":"Alex Jones","steam_id":76561198272738226,"connected_time":510000000000,"state":"active","ping":85},{"user_id":307,"name":"Kered13","steam_id":76561197985666167,"connected_time":195000000000,"state":"active","ping":56},{"user_id":239,"name":"‡πñ√êiestow","steam_id":76561198046662484,"connected_time":4451000000000,"state":"active","ping":74},{"user_id":312,"name":"Jamrag","steam_id":76561199031241776,"connected_time":73000000000,"state":"active","ping":75},{"user_id":313,"name":"NightmareTheCEO","steam_id":76561198349694120,"connected_time":57000000000,"state":"active","ping":105}]},{"server_id":8,"name":"Uncletopia | Dallas | 1 | All Maps","name_short":"dal-1","host":"dal-1.us.uncletopia.com","port":27015,"enabled":true,"region":"us-central","cc":"us","latitude":32.779167,"longitude":-96.80889,"reserved":0,"last_update":"0001-01-01T00:00:00Z","name_a2s":"Uncletopia | Dallas | 1 | All Maps","protocol":17,"map":"cp_mountainlab","folder":"tf","game":"Team Fortress","app_id":440,"player_count":24,"max_players":24,"Bots":0,"server_type":"Dedicated","server_os":"Linux","password":true,"vac":true,"version":"7757534","steam_id":85568392924469986,"keywords":["cp","nocrits","nodmgspread","uncletopia"],"game_id":440,"stv_port":27016,"stv_name":"Uncletopia | Dallas | 1 | All Maps | STV","players":[{"user_id":255,"name":"Jarate Jihadi","steam_id":76561197999837455,"connected_time":4282000000000,"state":"active","ping":73},{"user_id":304,"name":"Scrambledeggs","steam_id":76561198988504962,"connected_time":452000000000,"state":"active","ping":83},{"user_id":227,"name":"iaPK","steam_id":76561198056618642,"connected_time":7163000000000,"state":"active","ping":49},{"user_id":279,"name":"Tim Wop VI","steam_id":76561198136535844,"connected_time":2247000000000,"state":"active","ping":94},{"user_id":268,"name":"Carnamate","steam_id":76561198138077990,"connected_time":2880000000000,"state":"active","ping":51},{"user_id":231,"name":"giveit5","steam_id":76561198030815437,"connected_time":6477000000000,"state":"active","ping":60},{"user_id":298,"name":"theschmuckwhorunsamok59","steam_id":76561198087570794,"connected_time":497000000000,"state":"active","ping":53},{"user_id":282,"name":"JtsRes","steam_id":76561197994809241,"connected_time":2144000000000,"state":"active","ping":59},{"user_id":283,"name":"Bogey","steam_id":76561198096227944,"connected_time":2119000000000,"state":"active","ping":45},{"user_id":287,"name":"Bergy","steam_id":76561198119703342,"connected_time":2065000000000,"state":"active","ping":111},{"user_id":297,"name":"Kangarule","steam_id":76561198147171260,"connected_time":508000000000,"state":"active","ping":69},{"user_id":284,"name":"Not A Rapper","steam_id":76561198077523537,"connected_time":2101000000000,"state":"active","ping":92},{"user_id":305,"name":"Pleiades, the Sorceror","steam_id":76561198079590693,"connected_time":407000000000,"state":"active","ping":68},{"user_id":296,"name":"hycoda","steam_id":76561198045197971,"connected_time":843000000000,"state":"active","ping":63},{"user_id":293,"name":"Pepe Silvia","steam_id":76561198071775268,"connected_time":1204000000000,"state":"active","ping":82},{"user_id":306,"name":"Brendan","steam_id":76561198041079914,"connected_time":161000000000,"state":"active","ping":87},{"user_id":301,"name":"Kasimir","steam_id":76561198013840333,"connected_time":494000000000,"state":"active","ping":68},{"user_id":307,"name":"clenZORZ","steam_id":76561198835570628,"connected_time":8000000000,"state":"spawning","ping":45},{"user_id":277,"name":"Harold","steam_id":76561198057317770,"connected_time":2429000000000,"state":"active","ping":75},{"user_id":290,"name":"Matisguy","steam_id":76561199020903681,"connected_time":1805000000000,"state":"active","ping":57},{"user_id":221,"name":"Ballista","steam_id":76561197983182562,"connected_time":7970000000000,"state":"active","ping":59},{"user_id":248,"name":"PerliousFalcon","steam_id":76561198124801907,"connected_time":5271000000000,"state":"active","ping":100},{"user_id":286,"name":"Box","steam_id":76561198121444097,"connected_time":2078000000000,"state":"active","ping":67},{"user_id":302,"name":"swag","steam_id":76561198286348196,"connected_time":490000000000,"state":"active","ping":75}]},{"server_id":108,"name":"Uncletopia | Dallas | 2 | All Maps","name_short":"dal-2","host":"dal-1.us.uncletopia.com","port":27025,"enabled":true,"region":"us-central","cc":"us","latitude":32.779167,"longitude":-96.80889,"reserved":0,"last_update":"0001-01-01T00:00:00Z","name_a2s":"Uncletopia | Dallas | 2 | All Maps","protocol":17,"map":"cp_process_final","folder":"tf","game":"Team Fortress","app_id":440,"player_count":19,"max_players":24,"Bots":0,"server_type":"Dedicated","server_os":"Linux","password":true,"vac":true,"version":"7757534","steam_id":85568392924469988,"keywords":["cp","nocrits","nodmgspread","uncletopia"],"game_id":440,"stv_port":27026,"stv_name":"Uncletopia | Dallas | 2 | All Maps | STV","players":[{"user_id":802,"name":"rep","steam_id":76561198070164185,"connected_time":24000000000,"state":"active","ping":63},{"user_id":775,"name":"TheFryingDutchman","steam_id":76561199193784099,"connected_time":2697000000000,"state":"active","ping":67},{"user_id":799,"name":"Lezabel","steam_id":76561198970753261,"connected_time":76000000000,"state":"active","ping":71},{"user_id":798,"name":"C^a^L","steam_id":76561198241124222,"connected_time":78000000000,"state":"active","ping":92},{"user_id":763,"name":"BOT Void","steam_id":76561198961997485,"connected_time":3860000000000,"state":"active","ping":108},{"user_id":788,"name":"Wandering Waldo","steam_id":76561199089984323,"connected_time":1728000000000,"state":"active","ping":83},{"user_id":804,"name":"CupOJo","steam_id":76561198067153390,"connected_time":0,"state":"spawning","ping":32},{"user_id":739,"name":"austintacious","steam_id":76561198054118061,"connected_time":6355000000000,"state":"active","ping":76},{"user_id":803,"name":"John16Mark","steam_id":76561198119445407,"connected_time":21000000000,"state":"spawning","ping":60},{"user_id":800,"name":"TechnoBear2099","steam_id":76561198238863596,"connected_time":73000000000,"state":"active","ping":40},{"user_id":740,"name":"Danger McHazard","steam_id":76561198059451274,"connected_time":6345000000000,"state":"active","ping":77},{"user_id":750,"name":"Joe Swanson","steam_id":76561199089907740,"connected_time":5953000000000,"state":"active","ping":76},{"user_id":749,"name":"—Å—á–∏–∑—è—≥","steam_id":76561199182960322,"connected_time":6087000000000,"state":"active","ping":56},{"user_id":790,"name":"Chad","steam_id":76561198222313772,"connected_time":1619000000000,"state":"active","ping":110},{"user_id":791,"name":"hatchetax","steam_id":76561199013337543,"connected_time":1603000000000,"state":"active","ping":69},{"user_id":794,"name":"Hedsik","steam_id":76561198045797773,"connected_time":1103000000000,"state":"active","ping":49},{"user_id":792,"name":"MrNarwhale","steam_id":76561198222364020,"connected_time":1530000000000,"state":"active","ping":96},{"user_id":793,"name":"beleaguered harlot","steam_id":76561198036884600,"connected_time":1492000000000,"state":"active","ping":90},{"user_id":771,"name":"swag messiah","steam_id":76561197983860697,"connected_time":3036000000000,"state":"active","ping":164}]},{"server_id":5,"name":"Uncletopia | Frankfurt | 1 | All Maps","name_short":"frk-1","host":"frk-1.de.uncletopia.com","port":27015,"enabled":true,"region":"eu","cc":"de","latitude":50.110924,"longitude":8.682127,"reserved":0,"last_update":"0001-01-01T00:00:00Z","name_a2s":"Uncletopia | Frankfurt | 1 | All Maps","protocol":17,"map":"pl_swiftwater_final1","folder":"tf","game":"Team Fortress","app_id":440,"player_count":0,"max_players":24,"Bots":0,"server_type":"Dedicated","server_os":"Linux","password":true,"vac":true,"version":"7757534","steam_id":85568392924469989,"keywords":["nocrits","nodmgspread","payload","uncletopia"],"game_id":440,"stv_port":27016,"stv_name":"Uncletopia | Frankfurt | 1 | All Maps | STV","players":null},{"server_id":110,"name":"Uncletopia | Frankfurt | 2 | All Maps","name_short":"frk-2","host":"frk-1.de.uncletopia.com","port":27025,"enabled":true,"region":"eu","cc":"de","latitude":50.110924,"longitude":8.682127,"reserved":0,"last_update":"0001-01-01T00:00:00Z","name_a2s":"Uncletopia | Frankfurt | 2 | All Maps","protocol":17,"map":"koth_cascade","folder":"tf","game":"Team Fortress","app_id":440,"player_count":0,"max_players":24,"Bots":0,"server_type":"Dedicated","server_os":"Linux","password":true,"vac":true,"version":"7757534","steam_id":85568392924469990,"keywords":["cp","nocrits","nodmgspread","uncletopia"],"game_id":440,"stv_port":27026,"stv_name":"Uncletopia | Frankfurt | 2 | All Maps | STV","players":null},{"server_id":308,"name":"Uncletopia | Frankfurt | 3 | All Maps","name_short":"frk-3","host":"frk-1.de.uncletopia.com","port":27035,"enabled":true,"region":"eu","cc":"de","latitude":50.110924,"longitude":8.682127,"reserved":0,"last_update":"0001-01-01T00:00:00Z","name_a2s":"Uncletopia | Frankfurt | 3 | All Maps","protocol":17,"map":"pl_borneo","folder":"tf","game":"Team Fortress","app_id":440,"player_count":0,"max_players":24,"Bots":0,"server_type":"Dedicated","server_os":"Linux","password":true,"vac":true,"version":"7757534","steam_id":85568392924504274,"keywords":["nocrits","nodmgspread","payload","uncletopia"],"game_id":440,"stv_port":27036,"stv_name":"Uncletopia | Frankfurt | 3 | All Maps | STV","players":null},{"server_id":309,"name":"Uncletopia | Frankfurt | 4 | All Maps","name_short":"frk-4","host":"frk-1.de.uncletopia.com","port":27045,"enabled":true,"region":"eu","cc":"de","latitude":50.110924,"longitude":8.682127,"reserved":0,"last_update":"0001-01-01T00:00:00Z","name_a2s":"Uncletopia | Frankfurt | 4 | All Maps","protocol":17,"map":"pl_snowycoast","folder":"tf","game":"Team Fortress","app_id":440,"player_count":0,"max_players":24,"Bots":0,"server_type":"Dedicated","server_os":"Linux","password":true,"vac":true,"version":"7757534","steam_id":85568392924504275,"keywords":["nocrits","nodmgspread","payload","uncletopia"],"game_id":440,"stv_port":27046,"stv_name":"Uncletopia | Frankfurt | 4 | All Maps | STV","players":null},{"server_id":310,"name":"Uncletopia | Frankfurt | 5 | All Maps","name_short":"frk-5","host":"frk-1.de.uncletopia.com","port":27055,"enabled":true,"region":"eu","cc":"de","latitude":50.110924,"longitude":8.682127,"reserved":0,"last_update":"0001-01-01T00:00:00Z","name_a2s":"Uncletopia | Frankfurt | 5 | All Maps","protocol":17,"map":"cp_mountainlab","folder":"tf","game":"Team Fortress","app_id":440,"player_count":0,"max_players":24,"Bots":0,"server_type":"Dedicated","server_os":"Linux","password":true,"vac":true,"version":"7757534","steam_id":85568392924504277,"keywords":["cp","nocrits","nodmgspread","uncletopia"],"game_id":440,"stv_port":27056,"stv_name":"Uncletopia | Frankfurt | 5 | All Maps | STV","players":null},{"server_id":311,"name":"Uncletopia | Frankfurt | 6 | All Maps","name_short":"frk-6","host":"frk-1.de.uncletopia.com","port":27065,"enabled":true,"region":"eu","cc":"de","latitude":50.110924,"longitude":8.682127,"reserved":0,"last_update":"0001-01-01T00:00:00Z","name_a2s":"Uncletopia | Frankfurt | 6 | All Maps","protocol":17,"map":"koth_cascade","folder":"tf","game":"Team Fortress","app_id":440,"player_count":0,"max_players":24,"Bots":0,"server_type":"Dedicated","server_os":"Linux","password":true,"vac":true,"version":"7757534","steam_id":85568392924504278,"keywords":["cp","nocrits","nodmgspread","uncletopia"],"game_id":440,"stv_port":27066,"stv_name":"Uncletopia | Frankfurt | 6 | All Maps | STV","players":null},{"server_id":23,"name":"Uncletopia | Frankfurt | 7 | Stopwatch Beta","name_short":"frk-7","host":"frk-1.de.uncletopia.com","port":27075,"enabled":true,"region":"eu","cc":"de","latitude":50.110924,"longitude":8.682127,"reserved":0,"last_update":"0001-01-01T00:00:00Z","name_a2s":"Uncletopia | Frankfurt | 7 | Stopwatch Beta","protocol":17,"map":"koth_highpass","folder":"tf","game":"Team Fortress","app_id":440,"player_count":0,"max_players":24,"Bots":0,"server_type":"Dedicated","server_os":"Linux","password":true,"vac":true,"version":"7757534","steam_id":85568392924742827,"keywords":["cp","nocrits","nodmgspread","uncletopia"],"game_id":440,"stv_port":27076,"stv_name":"Uncletopia | Frankfurt | 7 | Stopwatch Beta | STV","players":null},{"server_id":24,"name":"Uncletopia | Frankfurt | 8 | Community","name_short":"frk-8","host":"frk-1.de.uncletopia.com","port":27085,"enabled":true,"region":"eu","cc":"de","latitude":50.110924,"longitude":8.682127,"reserved":0,"last_update":"0001-01-01T00:00:00Z","name_a2s":"Uncletopia | Frankfurt | 8 | Community","protocol":17,"map":"workshop/pl_vigil_rc9.ugc1266210012","folder":"tf","game":"Team Fortress","app_id":440,"player_count":0,"max_players":24,"Bots":0,"server_type":"Dedicated","server_os":"Linux","password":true,"vac":true,"version":"7757534","steam_id":85568392924742828,"keywords":["nocrits","nodmgspread","payload","uncletopia"],"game_id":440,"stv_port":27086,"stv_name":"Uncletopia | Frankfurt | 8 | Community | STV","players":null},{"server_id":202,"name":"Uncletopia | Hong Kong | 1 | All Maps","name_short":"hgk-1","host":"hgk-1.hk.uncletopia.com","port":27015,"enabled":true,"region":"asia","cc":"hk","latitude":22.302711,"longitude":114.177216,"reserved":0,"last_update":"0001-01-01T00:00:00Z","name_a2s":"Uncletopia | Hong Kong | 1 | All Maps","protocol":17,"map":"cp_process_final","folder":"tf","game":"Team Fortress","app_id":440,"player_count":12,"max_players":24,"Bots":0,"server_type":"Dedicated","server_os":"Linux","password":true,"vac":true,"version":"7757534","steam_id":85568392924494504,"keywords":["cp","nocrits","nodmgspread","uncletopia"],"game_id":440,"stv_port":27016,"stv_name":"Uncletopia | Hong Kong | 1 | All Maps | STV","players":[{"user_id":24,"name":"Engihanic (f2p)","steam_id":76561198813233123,"connected_time":1987000000000,"state":"active","ping":60},{"user_id":18,"name":"Gefin","steam_id":76561198944317181,"connected_time":3021000000000,"state":"active","ping":75},{"user_id":25,"name":"derek.patriarca30","steam_id":76561199427230206,"connected_time":1763000000000,"state":"active","ping":63},{"user_id":21,"name":"Fis1cA","steam_id":76561199273824817,"connected_time":2253000000000,"state":"active","ping":81},{"user_id":11,"name":"„Éó„É≠„Ç≤„Éº„Éû„Éº","steam_id":76561199017344476,"connected_time":4834000000000,"state":"active","ping":77},{"user_id":23,"name":"NSCBot","steam_id":76561199310610428,"connected_time":2043000000000,"state":"active","ping":76},{"user_id":26,"name":"‚ô±  I LuV Loona  ‚ô±","steam_id":76561199020745258,"connected_time":1088000000000,"state":"active","ping":75},{"user_id":30,"name":"Hmmm","steam_id":76561198860991924,"connected_time":378000000000,"state":"active","ping":105},{"user_id":28,"name":"j.","steam_id":76561198271534653,"connected_time":529000000000,"state":"active","ping":59},{"user_id":29,"name":"MeeYe","steam_id":76561199227871384,"connected_time":523000000000,"state":"active","ping":55},{"user_id":31,"name":"20flawless","steam_id":76561199001718639,"connected_time":371000000000,"state":"active","ping":86},{"user_id":33,"name":"TheChainsaw","steam_id":76561198312001455,"connected_time":284000000000,"state":"active","ping":110}]},{"server_id":1,"name":"Uncletopia | Los Angeles | 1 | All Maps","name_short":"lax-1","host":"lax-1.us.uncletopia.com","port":27015,"enabled":true,"region":"us-west","cc":"us","latitude":33.94279,"longitude":-118.41004,"reserved":0,"last_update":"0001-01-01T00:00:00Z","name_a2s":"Uncletopia | Los Angeles | 1 | All Maps","protocol":17,"map":"pl_badwater","folder":"tf","game":"Team Fortress","app_id":440,"player_count":21,"max_players":24,"Bots":0,"server_type":"Dedicated","server_os":"Linux","password":true,"vac":true,"version":"7757534","steam_id":85568392924469991,"keywords":["nocrits","nodmgspread","payload","uncletopia"],"game_id":440,"stv_port":27016,"stv_name":"Uncletopia | Los Angeles | 1 | All Maps | STV","players":[{"user_id":337,"name":"sammie.tebo","steam_id":76561199212495985,"connected_time":3288000000000,"state":"active","ping":102},{"user_id":383,"name":"Pah-Wraith Gul Dukat","steam_id":76561198033918106,"connected_time":20000000000,"state":"spawning","ping":60},{"user_id":384,"name":"GJDon","steam_id":76561199026755019,"connected_time":14000000000,"state":"spawning","ping":83},{"user_id":346,"name":"Love Waffle","steam_id":76561197990077189,"connected_time":3132000000000,"state":"active","ping":78},{"user_id":385,"name":"Inadequate","steam_id":76561198108263810,"connected_time":5000000000,"state":"spawning","ping":60},{"user_id":353,"name":"[DATS‚û°] Sugar Meowth","steam_id":76561197995251793,"connected_time":1979000000000,"state":"active","ping":75},{"user_id":364,"name":"Geight","steam_id":76561197991645292,"connected_time":1346000000000,"state":"active","ping":85},{"user_id":371,"name":"HeartAttack","steam_id":76561198135833968,"connected_time":899000000000,"state":"active","ping":66},{"user_id":354,"name":"fart","steam_id":76561198010204565,"connected_time":1916000000000,"state":"active","ping":68},{"user_id":195,"name":"Rustyorion","steam_id":76561198439186347,"connected_time":13169000000000,"state":"active","ping":75},{"user_id":386,"name":"twitch.tv/Don_Bongo","steam_id":76561197976735155,"connected_time":3000000000,"state":"spawning","ping":60},{"user_id":376,"name":"RocketofPanda(It/They)","steam_id":76561198133133187,"connected_time":552000000000,"state":"active","ping":55},{"user_id":379,"name":"Kave_in","steam_id":76561198032713622,"connected_time":469000000000,"state":"active","ping":114},{"user_id":357,"name":"TBNRBusStop","steam_id":76561199001440066,"connected_time":1836000000000,"state":"active","ping":78},{"user_id":373,"name":"golia","steam_id":76561198000264266,"connected_time":837000000000,"state":"active","ping":69},{"user_id":374,"name":"Johnson, Navin R.","steam_id":76561197961107982,"connected_time":800000000000,"state":"active","ping":96},{"user_id":358,"name":"TeriyakiDynamite","steam_id":76561198050049346,"connected_time":1797000000000,"state":"active","ping":66},{"user_id":375,"name":"Loggybears","steam_id":76561198366828434,"connected_time":755000000000,"state":"active","ping":97},{"user_id":347,"name":"Dr. B Busta","steam_id":76561198206387303,"connected_time":3120000000000,"state":"active","ping":44},{"user_id":336,"name":"squids a Grandmaster","steam_id":76561199200296010,"connected_time":3682000000000,"state":"active","ping":84},{"user_id":279,"name":"LAN!!K^","steam_id":76561199229169363,"connected_time":6523000000000,"state":"active","ping":125}]},{"server_id":112,"name":"Uncletopia | Los Angeles | 2 | All Maps","name_short":"lax-2","host":"lax-1.us.uncletopia.com","port":27025,"enabled":true,"region":"us-west","cc":"us","latitude":33.94279,"longitude":-118.41004,"reserved":0,"last_update":"0001-01-01T00:00:00Z","name_a2s":"Uncletopia | Los Angeles | 2 | All Maps","protocol":17,"map":"pl_thundermountain","folder":"tf","game":"Team Fortress","app_id":440,"player_count":24,"max_players":24,"Bots":0,"server_type":"Dedicated","server_os":"Linux","password":true,"vac":true,"version":"7757534","steam_id":85568392924469992,"keywords":["nocrits","nodmgspread","payload","uncletopia"],"game_id":440,"stv_port":27026,"stv_name":"Uncletopia | Los Angeles | 2 | All Maps | STV","players":[{"user_id":376,"name":"Snapcaster","steam_id":76561199127590316,"connected_time":547000000000,"state":"active","ping":66},{"user_id":374,"name":"Mickmissi√≥n","steam_id":76561199133527421,"connected_time":610000000000,"state":"active","ping":55},{"user_id":385,"name":"Ian","steam_id":76561198159334435,"connected_time":287000000000,"state":"active","ping":175},{"user_id":383,"name":"cactus stealer","steam_id":76561199103120314,"connected_time":324000000000,"state":"active","ping":54},{"user_id":323,"name":"Agent BSoD","steam_id":76561198050346368,"connected_time":3758000000000,"state":"active","ping":76},{"user_id":327,"name":"MonkeyNobody","steam_id":76561199451266605,"connected_time":3452000000000,"state":"active","ping":56},{"user_id":377,"name":"The Broken Lightbulb","steam_id":76561198141566312,"connected_time":539000000000,"state":"active","ping":62},{"user_id":378,"name":"Dededoo","steam_id":76561198279033471,"connected_time":528000000000,"state":"active","ping":102},{"user_id":336,"name":"A UsedNom","steam_id":76561198402832756,"connected_time":3147000000000,"state":"active","ping":61},{"user_id":326,"name":"Petroleum Jelly","steam_id":76561198118778800,"connected_time":3532000000000,"state":"active","ping":59},{"user_id":379,"name":"The Foolish Samurai","steam_id":76561198094494945,"connected_time":501000000000,"state":"active","ping":73},{"user_id":372,"name":"TheBuildingEndy","steam_id":76561198373739713,"connected_time":804000000000,"state":"active","ping":48},{"user_id":369,"name":"RipHunter77","steam_id":76561198272973014,"connected_time":919000000000,"state":"active","ping":89},{"user_id":386,"name":"AST Sir Pantoja","steam_id":76561198118858300,"connected_time":215000000000,"state":"active","ping":72},{"user_id":367,"name":"VoodooPapa","steam_id":76561199160439066,"connected_time":1106000000000,"state":"active","ping":62},{"user_id":359,"name":"greg","steam_id":76561199206080182,"connected_time":1415000000000,"state":"active","ping":103},{"user_id":389,"name":"Glar","steam_id":76561198341907150,"connected_time":12000000000,"state":"spawning","ping":74},{"user_id":384,"name":"SpeakerD","steam_id":76561198032618618,"connected_time":318000000000,"state":"active","ping":92},{"user_id":363,"name":"SneekiCheekiQbone","steam_id":76561198045077980,"connected_time":1234000000000,"state":"active","ping":43},{"user_id":325,"name":"Red Soldier","steam_id":76561198169484186,"connected_time":3745000000000,"state":"active","ping":84},{"user_id":381,"name":"Baggage","steam_id":76561198215128080,"connected_time":491000000000,"state":"active","ping":70},{"user_id":373,"name":"Garfelf","steam_id":76561198419850129,"connected_time":800000000000,"state":"active","ping":86},{"user_id":388,"name":"Slim Charles","steam_id":76561197981687895,"connected_time":40000000000,"state":"active","ping":59},{"user_id":371,"name":"Smells","steam_id":76561197985297402,"connected_time":884000000000,"state":"active","ping":67}]},{"server_id":324,"name":"Uncletopia | Los Angeles | 3 | All Maps","name_short":"lax-3","host":"lax-1.us.uncletopia.com","port":27035,"enabled":true,"region":"us-west","cc":"us","latitude":33.94279,"longitude":-118.41004,"reserved":0,"last_update":"0001-01-01T00:00:00Z","name_a2s":"Uncletopia | Los Angeles | 3 | All Maps","protocol":17,"map":"cp_granary","folder":"tf","game":"Team Fortress","app_id":440,"player_count":24,"max_players":24,"Bots":0,"server_type":"Dedicated","server_os":"Linux","password":true,"vac":true,"version":"7757534","steam_id":85568392924510198,"keywords":["cp","nocrits","nodmgspread","uncletopia"],"game_id":440,"stv_port":27036,"stv_name":"Uncletopia | Los Angeles | 3 | All Maps | STV","players":[{"user_id":182,"name":"Thunder","steam_id":76561198097721532,"connected_time":488000000000,"state":"active","ping":45},{"user_id":165,"name":"Keyboardbreaker","steam_id":76561198372836132,"connected_time":1851000000000,"state":"active","ping":69},{"user_id":191,"name":"Umami Socks","steam_id":76561198062688146,"connected_time":164000000000,"state":"active","ping":98},{"user_id":168,"name":"128 GB RAM SENTRY","steam_id":76561198059500571,"connected_time":1427000000000,"state":"active","ping":96},{"user_id":183,"name":"VicLoL","steam_id":76561198045580784,"connected_time":464000000000,"state":"active","ping":54},{"user_id":187,"name":"game","steam_id":76561198334059206,"connected_time":334000000000,"state":"active","ping":57},{"user_id":185,"name":"Ellis","steam_id":76561198993634489,"connected_time":377000000000,"state":"active","ping":59},{"user_id":186,"name":"SillyGoose","steam_id":76561199229023662,"connected_time":358000000000,"state":"active","ping":132},{"user_id":173,"name":"Deeply","steam_id":76561199000786530,"connected_time":1178000000000,"state":"active","ping":89},{"user_id":172,"name":"Hakase","steam_id":76561198066844816,"connected_time":1230000000000,"state":"active","ping":55},{"user_id":188,"name":"Power Jake","steam_id":76561198051510260,"connected_time":277000000000,"state":"active","ping":62},{"user_id":189,"name":"koncept","steam_id":76561198027812652,"connected_time":222000000000,"state":"active","ping":46},{"user_id":190,"name":"Squirrel","steam_id":76561198010113101,"connected_time":202000000000,"state":"active","ping":82},{"user_id":154,"name":"autumnal.messenger","steam_id":76561199345816635,"connected_time":2332000000000,"state":"active","ping":84},{"user_id":192,"name":"Greg Tree","steam_id":76561198449712775,"connected_time":162000000000,"state":"active","ping":60},{"user_id":180,"name":"Big Oil","steam_id":76561199238964574,"connected_time":951000000000,"state":"active","ping":61},{"user_id":157,"name":"Lightning Bolt 1O1","steam_id":76561199099630600,"connected_time":2220000000000,"state":"active","ping":71},{"user_id":181,"name":"Frank (#ripJimmyCarter)","steam_id":76561198126681511,"connected_time":729000000000,"state":"active","ping":68},{"user_id":166,"name":"Aino","steam_id":76561198053662930,"connected_time":1715000000000,"state":"active","ping":129},{"user_id":108,"name":"Gerbias","steam_id":76561198001002427,"connected_time":5431000000000,"state":"active","ping":60},{"user_id":177,"name":"Grand","steam_id":76561198290143399,"connected_time":1068000000000,"state":"active","ping":83},{"user_id":163,"name":"donutdagger","steam_id":76561199203048300,"connected_time":1987000000000,"state":"active","ping":60},{"user_id":179,"name":"Truffles","steam_id":76561198095868800,"connected_time":1031000000000,"state":"active","ping":101},{"user_id":164,"name":"The Cop Fentanyl Debuff","steam_id":76561197991817974,"connected_time":1952000000000,"state":"active","ping":56}]},{"server_id":25,"name":"Uncletopia | Los Angeles | 4 | Stopwatch Beta","name_short":"lax-4","host":"lax-1.us.uncletopia.com","port":27045,"enabled":true,"region":"us-west","cc":"us","latitude":33.94279,"longitude":-118.41004,"reserved":0,"last_update":"0001-01-01T00:00:00Z","name_a2s":"Uncletopia | Los Angeles | 4 | Stopwatch Beta","protocol":17,"map":"pl_swiftwater_final1","folder":"tf","game":"Team Fortress","app_id":440,"player_count":0,"max_players":24,"Bots":0,"server_type":"Dedicated","server_os":"Linux","password":true,"vac":true,"version":"7757534","steam_id":85568392924510199,"keywords":["nocrits","nodmgspread","payload","uncletopia"],"game_id":440,"stv_port":27046,"stv_name":"Uncletopia | Los Angeles | 4 | Stopwatch Beta | STV","players":null},{"server_id":11,"name":"Uncletopia | London | 1 | All Maps","name_short":"lon-1","host":"lon-1.uk.uncletopia.com","port":27015,"enabled":true,"region":"eu","cc":"gb","latitude":51.509865,"longitude":-0.118092,"reserved":0,"last_update":"0001-01-01T00:00:00Z","name_a2s":"Uncletopia | London | 1 | All Maps","protocol":17,"map":"pl_barnblitz","folder":"tf","game":"Team Fortress","app_id":440,"player_count":24,"max_players":24,"Bots":0,"server_type":"Dedicated","server_os":"Linux","password":true,"vac":true,"version":"7757534","steam_id":85568392924367362,"keywords":["nocrits","nodmgspread","payload","uncletopia"],"game_id":440,"stv_port":27016,"stv_name":"Uncletopia | London | 1 | All Maps | STV","players":[{"user_id":866,"name":"ZackMcRizzl","steam_id":76561198062075870,"connected_time":12961000000000,"state":"active","ping":61},{"user_id":1066,"name":"Kavary","steam_id":76561198024792146,"connected_time":707000000000,"state":"active","ping":89},{"user_id":1074,"name":"Taha","steam_id":76561199259524970,"connected_time":30000000000,"state":"active","ping":115},{"user_id":1061,"name":"etc","steam_id":76561197998394797,"connected_time":1073000000000,"state":"active","ping":55},{"user_id":1026,"name":"Ballbag Barry","steam_id":76561197970114051,"connected_time":5432000000000,"state":"active","ping":40},{"user_id":1068,"name":"foureyesfries","steam_id":76561198271831555,"connected_time":371000000000,"state":"active","ping":78},{"user_id":1063,"name":"minn","steam_id":76561198099101232,"connected_time":873000000000,"state":"active","ping":50},{"user_id":972,"name":"anguish‚ù§","steam_id":76561198086442571,"connected_time":8810000000000,"state":"active","ping":45},{"user_id":1040,"name":"DED (CEO of Jar-A-Tea)","steam_id":76561198110469231,"connected_time":3440000000000,"state":"active","ping":55},{"user_id":1065,"name":"JeiVron","steam_id":76561199115124869,"connected_time":813000000000,"state":"active","ping":154},{"user_id":1056,"name":"Lewylow","steam_id":76561198005425686,"connected_time":1414000000000,"state":"active","ping":46},{"user_id":1010,"name":"puck","steam_id":76561198121260981,"connected_time":6671000000000,"state":"active","ping":35},{"user_id":1069,"name":"Shekelstein","steam_id":76561198874759252,"connected_time":370000000000,"state":"active","ping":60},{"user_id":1037,"name":"Loaf","steam_id":76561198148290115,"connected_time":4080000000000,"state":"active","ping":62},{"user_id":1070,"name":"AndyMcDandy","steam_id":76561198074122428,"connected_time":347000000000,"state":"active","ping":76},{"user_id":1041,"name":"the pharaoh's curse","steam_id":76561198060619306,"connected_time":3062000000000,"state":"active","ping":45},{"user_id":1031,"name":"Milca_11 [Wielder of Ham]","steam_id":76561198848650365,"connected_time":4831000000000,"state":"active","ping":104},{"user_id":1071,"name":"Arkainiel Silver","steam_id":76561198188302519,"connected_time":282000000000,"state":"active","ping":59},{"user_id":910,"name":"Peat","steam_id":76561197992168067,"connected_time":10114000000000,"state":"active","ping":66},{"user_id":1048,"name":"QueefiNG","steam_id":76561198145465595,"connected_time":1962000000000,"state":"active","ping":36},{"user_id":1072,"name":"Pinochet","steam_id":76561198194042394,"connected_time":159000000000,"state":"active","ping":150},{"user_id":1049,"name":"cooler bones","steam_id":76561199480942903,"connected_time":1906000000000,"state":"active","ping":80},{"user_id":1038,"name":"knavepunk","steam_id":76561198158631142,"connected_time":4007000000000,"state":"active","ping":43},{"user_id":1075,"name":"JZ","steam_id":76561198377029198,"connected_time":11000000000,"state":"active","ping":235}]},{"server_id":114,"name":"Uncletopia | London | 2 | All Maps","name_short":"lon-2","host":"lon-1.uk.uncletopia.com","port":27025,"enabled":true,"region":"eu","cc":"gb","latitude":51.509865,"longitude":-0.118092,"reserved":0,"last_update":"0001-01-01T00:00:00Z","name_a2s":"Uncletopia | London | 2 | All Maps","protocol":17,"map":"koth_viaduct","folder":"tf","game":"Team Fortress","app_id":440,"player_count":0,"max_players":24,"Bots":0,"server_type":"Dedicated","server_os":"Linux","password":true,"vac":true,"version":"7757534","steam_id":85568392924470941,"keywords":["cp","nocrits","nodmgspread","uncletopia"],"game_id":440,"stv_port":27026,"stv_name":"Uncletopia | London | 2 | All Maps | STV","players":null},{"server_id":320,"name":"Uncletopia | London | 3 | All Maps","name_short":"lon-3","host":"lon-1.uk.uncletopia.com","port":27035,"enabled":true,"region":"eu","cc":"gb","latitude":51.509865,"longitude":-0.118092,"reserved":0,"last_update":"0001-01-01T00:00:00Z","name_a2s":"Uncletopia | London | 3 | All Maps","protocol":17,"map":"koth_lakeside_final","folder":"tf","game":"Team Fortress","app_id":440,"player_count":0,"max_players":24,"Bots":0,"server_type":"Dedicated","server_os":"Linux","password":true,"vac":true,"version":"7757534","steam_id":85568392924510192,"keywords":["cp","nocrits","nodmgspread","uncletopia"],"game_id":440,"stv_port":27036,"stv_name":"Uncletopia | London | 3 | All Maps | STV","players":null},{"server_id":321,"name":"Uncletopia | London | 4 | All Maps","name_short":"lon-4","host":"lon-1.uk.uncletopia.com","port":27045,"enabled":true,"region":"eu","cc":"gb","latitude":51.509865,"longitude":-0.118092,"reserved":0,"last_update":"0001-01-01T00:00:00Z","name_a2s":"Uncletopia | London | 4 | All Maps","protocol":17,"map":"koth_viaduct","folder":"tf","game":"Team Fortress","app_id":440,"player_count":0,"max_players":24,"Bots":0,"server_type":"Dedicated","server_os":"Linux","password":true,"vac":true,"version":"7757534","steam_id":85568392924510193,"keywords":["cp","nocrits","nodmgspread","uncletopia"],"game_id":440,"stv_port":27046,"stv_name":"Uncletopia | London | 4 | All Maps | STV","players":null},{"server_id":21,"name":"Uncletopia | London | 5 | All Maps","name_short":"lon-5","host":"lon-1.uk.uncletopia.com","port":27055,"enabled":true,"region":"eu","cc":"gb","latitude":51.509865,"longitude":-0.118092,"reserved":0,"last_update":"0001-01-01T00:00:00Z","name_a2s":"Uncletopia | London | 5 | All Maps","protocol":17,"map":"koth_highpass","folder":"tf","game":"Team Fortress","app_id":440,"player_count":0,"max_players":24,"Bots":0,"server_type":"Dedicated","server_os":"Linux","password":true,"vac":true,"version":"7757534","steam_id":85568392924742829,"keywords":["cp","nocrits","nodmgspread","uncletopia"],"game_id":440,"stv_port":27056,"stv_name":"Uncletopia | London | 5 | All Maps | STV","players":null},{"server_id":22,"name":"Uncletopia | London | 6 | All Maps","name_short":"lon-6","host":"lon-1.uk.uncletopia.com","port":27065,"enabled":true,"region":"eu","cc":"gb","latitude":51.509865,"longitude":-0.118092,"reserved":0,"last_update":"0001-01-01T00:00:00Z","name_a2s":"Uncletopia | London | 6 | All Maps","protocol":17,"map":"cp_dustbowl","folder":"tf","game":"Team Fortress","app_id":440,"player_count":0,"max_players":24,"Bots":0,"server_type":"Dedicated","server_os":"Linux","password":true,"vac":true,"version":"7757534","steam_id":85568392924742830,"keywords":["cp","nocrits","nodmgspread","uncletopia"],"game_id":440,"stv_port":27066,"stv_name":"Uncletopia | London | 6 | All Maps | STV","players":null},{"server_id":40,"name":"Uncletopia | London | 7 | No Payload","name_short":"lon-7","host":"lon-1.uk.uncletopia.com","port":27075,"enabled":true,"region":"eu","cc":"gb","latitude":51.509865,"longitude":-0.118092,"reserved":0,"last_update":"0001-01-01T00:00:00Z","name_a2s":"Uncletopia | London | 7 | No Payload","protocol":17,"map":"ctf_doublecross","folder":"tf","game":"Team Fortress","app_id":440,"player_count":0,"max_players":24,"Bots":0,"server_type":"Dedicated","server_os":"Linux","password":true,"vac":true,"version":"7757534","steam_id":85568392924964314,"keywords":["ctf","nocrits","nodmgspread","uncletopia"],"game_id":440,"stv_port":27076,"stv_name":"Uncletopia | London | 7 | No Payload | STV","players":null},{"server_id":41,"name":"Uncletopia | London | 8 | Community","name_short":"lon-8","host":"lon-1.uk.uncletopia.com","port":27085,"enabled":true,"region":"eu","cc":"gb","latitude":51.509865,"longitude":-0.118092,"reserved":0,"last_update":"0001-01-01T00:00:00Z","name_a2s":"Uncletopia | London | 8 | Community","protocol":17,"map":"pl_barnblitz","folder":"tf","game":"Team Fortress","app_id":440,"player_count":0,"max_players":24,"Bots":0,"server_type":"Dedicated","server_os":"Linux","password":true,"vac":true,"version":"7757534","steam_id":85568392924964315,"keywords":["nocrits","nodmgspread","payload","uncletopia"],"game_id":440,"stv_port":27086,"stv_name":"Uncletopia | London | 8 | Community | STV","players":null},{"server_id":300,"name":"Uncletopia | Montr√©al | 1 | All Maps","name_short":"mtl-1","host":"mtl-1.ca.uncletopia.com","port":27015,"enabled":true,"region":"us-east","cc":"ca","latitude":45.50889,"longitude":-73.56167,"reserved":0,"last_update":"0001-01-01T00:00:00Z","name_a2s":"Uncletopia | Montr√©al | 1 | All Maps","protocol":17,"map":"koth_viaduct","folder":"tf","game":"Team Fortress","app_id":440,"player_count":4,"max_players":24,"Bots":0,"server_type":"Dedicated","server_os":"Linux","password":true,"vac":true,"version":"7757534","steam_id":85568392924500087,"keywords":["cp","nocrits","nodmgspread","uncletopia"],"game_id":440,"stv_port":27016,"stv_name":"Uncletopia | Montr√©al | 1 | All Maps | STV","players":[{"user_id":26,"name":"drdoofus123","steam_id":76561198016826181,"connected_time":5378000000000,"state":"active","ping":74},{"user_id":30,"name":"loboto gaming","steam_id":76561199088321574,"connected_time":3548000000000,"state":"active","ping":63},{"user_id":36,"name":"Lesbian Chungus","steam_id":76561198055964295,"connected_time":214000000000,"state":"active","ping":47},{"user_id":35,"name":"theoreminegaming","steam_id":76561198175573917,"connected_time":676000000000,"state":"active","ping":50}]},{"server_id":301,"name":"Uncletopia | Montr√©al | 2 | All Maps","name_short":"mtl-2","host":"mtl-1.ca.uncletopia.com","port":27025,"enabled":true,"region":"us-east","cc":"ca","latitude":45.50889,"longitude":-73.56167,"reserved":0,"last_update":"0001-01-01T00:00:00Z","name_a2s":"Uncletopia | Montr√©al | 2 | All Maps","protocol":17,"map":"pl_badwater","folder":"tf","game":"Team Fortress","app_id":440,"player_count":0,"max_players":24,"Bots":0,"server_type":"Dedicated","server_os":"Linux","password":true,"vac":true,"version":"7757534","steam_id":85568392924500088,"keywords":["nocrits","nodmgspread","payload","uncletopia"],"game_id":440,"stv_port":27026,"stv_name":"Uncletopia | Montr√©al | 2 | All Maps | STV","players":null},{"server_id":302,"name":"Uncletopia | Montr√©al | 3 | All Maps","name_short":"mtl-3","host":"mtl-1.ca.uncletopia.com","port":27035,"enabled":true,"region":"us-east","cc":"ca","latitude":45.50889,"longitude":-73.56167,"reserved":0,"last_update":"0001-01-01T00:00:00Z","name_a2s":"Uncletopia | Montr√©al | 3 | All Maps","protocol":17,"map":"pl_borneo","folder":"tf","game":"Team Fortress","app_id":440,"player_count":0,"max_players":24,"Bots":0,"server_type":"Dedicated","server_os":"Linux","password":true,"vac":true,"version":"7757534","steam_id":85568392924500089,"keywords":["nocrits","nodmgspread","payload","uncletopia"],"game_id":440,"stv_port":27036,"stv_name":"Uncletopia | Montr√©al | 3 | All Maps | STV","players":null},{"server_id":303,"name":"Uncletopia | Montr√©al | 4 | No Payload","name_short":"mtl-4","host":"mtl-1.ca.uncletopia.com","port":27045,"enabled":true,"region":"us-east","cc":"ca","latitude":45.50889,"longitude":-73.56167,"reserved":0,"last_update":"0001-01-01T00:00:00Z","name_a2s":"Uncletopia | Montr√©al | 4 | No Payload","protocol":17,"map":"koth_suijin","folder":"tf","game":"Team Fortress","app_id":440,"player_count":0,"max_players":24,"Bots":0,"server_type":"Dedicated","server_os":"Linux","password":true,"vac":true,"version":"7757534","steam_id":85568392924500090,"keywords":["cp","nocrits","nodmgspread","uncletopia"],"game_id":440,"stv_port":27046,"stv_name":"Uncletopia | Montr√©al | 4 | No Payload | STV","players":null},{"server_id":13,"name":"Uncletopia | New York City | 1 | All Maps","name_short":"nyc-1","host":"nyc-1.us.uncletopia.com","port":27015,"enabled":true,"region":"us-east","cc":"us","latitude":40.73061,"longitude":-73.93524,"reserved":0,"last_update":"0001-01-01T00:00:00Z","name_a2s":"Uncletopia | New York City | 1 | All Maps","protocol":17,"map":"pl_upward","folder":"tf","game":"Team Fortress","app_id":440,"player_count":22,"max_players":24,"Bots":0,"server_type":"Dedicated","server_os":"Linux","password":true,"vac":true,"version":"7757534","steam_id":85568392924469993,"keywords":["nocrits","nodmgspread","payload","uncletopia"],"game_id":440,"stv_port":27016,"stv_name":"Uncletopia | New York City | 1 | All Maps | STV","players":[{"user_id":699,"name":"Alva","steam_id":76561198023665618,"connected_time":593000000000,"state":"active","ping":76},{"user_id":703,"name":"BasicPeaches","steam_id":76561198190890150,"connected_time":366000000000,"state":"active","ping":60},{"user_id":631,"name":"Victor Skull","steam_id":76561198352212864,"connected_time":4816000000000,"state":"active","ping":43},{"user_id":707,"name":"ShwingyWingos","steam_id":76561198882909333,"connected_time":57000000000,"state":"active","ping":119},{"user_id":700,"name":"maybe it‚Äôs randall","steam_id":76561199060774318,"connected_time":568000000000,"state":"active","ping":58},{"user_id":708,"name":"planned demic 1984","steam_id":76561197981536402,"connected_time":3000000000,"state":"spawning","ping":58},{"user_id":704,"name":"Uncle Dale","steam_id":76561199144302768,"connected_time":348000000000,"state":"active","ping":62},{"user_id":701,"name":"Rei Ayanami","steam_id":76561198853092631,"connected_time":526000000000,"state":"active","ping":88},{"user_id":656,"name":"Heropon","steam_id":76561198105224481,"connected_time":3519000000000,"state":"active","ping":63},{"user_id":684,"name":"vragozin","steam_id":76561199342162423,"connected_time":1722000000000,"state":"active","ping":105},{"user_id":659,"name":"Fishman_200","steam_id":76561198152455167,"connected_time":3404000000000,"state":"active","ping":58},{"user_id":670,"name":"alex","steam_id":76561198095203229,"connected_time":2905000000000,"state":"active","ping":70},{"user_id":695,"name":"googy doogy","steam_id":76561199025852100,"connected_time":1017000000000,"state":"active","ping":49},{"user_id":706,"name":"Slazzer","steam_id":76561198404351844,"connected_time":333000000000,"state":"active","ping":61},{"user_id":687,"name":"mashallah","steam_id":76561198075111427,"connected_time":1624000000000,"state":"active","ping":65},{"user_id":671,"name":"Bobfleadip","steam_id":76561198043788642,"connected_time":2874000000000,"state":"active","ping":84},{"user_id":510,"name":"Gentoo Linux Gaming","steam_id":76561197999657118,"connected_time":14455000000000,"state":"active","ping":63},{"user_id":581,"name":"OldGreg97","steam_id":76561198048772813,"connected_time":7093000000000,"state":"active","ping":57},{"user_id":697,"name":"Queso2469","steam_id":76561197993024580,"connected_time":902000000000,"state":"active","ping":42},{"user_id":628,"name":"Broadway Rose","steam_id":76561198046083342,"connected_time":4923000000000,"state":"active","ping":50},{"user_id":568,"name":"CatGurl Exterminator","steam_id":76561198124311404,"connected_time":9490000000000,"state":"active","ping":75}]},{"server_id":14,"name":"Uncletopia | New York City | 2 | All Maps","name_short":"nyc-2","host":"nyc-1.us.uncletopia.com","port":27025,"enabled":true,"region":"us-east","cc":"us","latitude":40.73061,"longitude":-73.93524,"reserved":0,"last_update":"0001-01-01T00:00:00Z","name_a2s":"Uncletopia | New York City | 2 | All Maps","protocol":17,"map":"pl_goldrush","folder":"tf","game":"Team Fortress","app_id":440,"player_count":24,"max_players":24,"Bots":0,"server_type":"Dedicated","server_os":"Linux","password":true,"vac":true,"version":"7757534","steam_id":85568392924469994,"keywords":["nocrits","nodmgspread","payload","uncletopia"],"game_id":440,"stv_port":27026,"stv_name":"Uncletopia | New York City | 2 | All Maps | STV","players":[{"user_id":481,"name":"puss","steam_id":76561198409588134,"connected_time":2320000000000,"state":"active","ping":75},{"user_id":491,"name":"1001NinjaDucks","steam_id":76561198058169660,"connected_time":1854000000000,"state":"active","ping":49},{"user_id":482,"name":"cum snorter","steam_id":76561198303251899,"connected_time":2308000000000,"state":"active","ping":77},{"user_id":484,"name":"Guy In A Peashooter Costume","steam_id":76561198832738000,"connected_time":2099000000000,"state":"active","ping":55},{"user_id":483,"name":"Antwan","steam_id":76561198246200638,"connected_time":2207000000000,"state":"active","ping":83},{"user_id":510,"name":"Alice in Rubberland","steam_id":76561198087328346,"connected_time":262000000000,"state":"active","ping":62},{"user_id":471,"name":"Wigl","steam_id":76561198019324464,"connected_time":2967000000000,"state":"active","ping":61},{"user_id":501,"name":"ItsTanleyCrunch","steam_id":76561198037915942,"connected_time":975000000000,"state":"active","ping":79},{"user_id":440,"name":"Kdash","steam_id":76561198043829155,"connected_time":6031000000000,"state":"active","ping":92},{"user_id":507,"name":"Heillion","steam_id":76561198037205922,"connected_time":550000000000,"state":"active","ping":76},{"user_id":477,"name":"Zero","steam_id":76561199383267408,"connected_time":2708000000000,"state":"active","ping":84},{"user_id":460,"name":"Periculosum PhD in Funny","steam_id":76561198123370914,"connected_time":4523000000000,"state":"active","ping":85},{"user_id":500,"name":"clcktwn","steam_id":76561198066405943,"connected_time":1055000000000,"state":"active","ping":57},{"user_id":476,"name":"Terror-Billy #SaveTF2","steam_id":76561198328141870,"connected_time":2879000000000,"state":"active","ping":72},{"user_id":511,"name":"Spring Beans","steam_id":76561197978546259,"connected_time":238000000000,"state":"active","ping":76},{"user_id":486,"name":"Ratsmacker","steam_id":76561199156102683,"connected_time":2026000000000,"state":"active","ping":103},{"user_id":502,"name":"Your Wurst Nightmare","steam_id":76561198874531590,"connected_time":777000000000,"state":"active","ping":65},{"user_id":445,"name":"DemaculusCross","steam_id":76561197983858397,"connected_time":5987000000000,"state":"active","ping":68},{"user_id":478,"name":"Bear bird","steam_id":76561198166769479,"connected_time":2597000000000,"state":"active","ping":70},{"user_id":453,"name":"Bawower","steam_id":76561198347769261,"connected_time":5722000000000,"state":"active","ping":63},{"user_id":503,"name":"MAXIMUS","steam_id":76561198085809453,"connected_time":756000000000,"state":"active","ping":82},{"user_id":504,"name":"ikaes","steam_id":76561198834496029,"connected_time":751000000000,"state":"active","ping":57},{"user_id":499,"name":"LAB8","steam_id":76561198047743526,"connected_time":1101000000000,"state":"active","ping":107},{"user_id":461,"name":"sparejaguar","steam_id":76561199057045306,"connected_time":4515000000000,"state":"active","ping":111}]},{"server_id":15,"name":"Uncletopia | New York City | 3 | Stopwatch Beta","name_short":"nyc-3","host":"nyc-1.us.uncletopia.com","port":27035,"enabled":true,"region":"us-east","cc":"us","latitude":40.73061,"longitude":-73.93524,"reserved":0,"last_update":"0001-01-01T00:00:00Z","name_a2s":"Uncletopia | New York City | 3 | Stopwatch Beta","protocol":17,"map":"workshop/koth_clearcut_b15.ugc2107050255","folder":"tf","game":"Team Fortress","app_id":440,"player_count":23,"max_players":24,"Bots":0,"server_type":"Dedicated","server_os":"Linux","password":true,"vac":true,"version":"7757534","steam_id":85568392924742820,"keywords":["cp","nocrits","nodmgspread","uncletopia"],"game_id":440,"stv_port":27036,"stv_name":"Uncletopia | New York City | 3 | Stopwatch Beta | STV","players":[{"user_id":103,"name":"john piss","steam_id":76561199029030831,"connected_time":2676000000000,"state":"active","ping":65},{"user_id":95,"name":"Û†Ä°Û†Ä°","steam_id":76561198140627349,"connected_time":2943000000000,"state":"active","ping":72},{"user_id":105,"name":"frizzle fried","steam_id":76561198062991744,"connected_time":2646000000000,"state":"spawning","ping":184},{"user_id":144,"name":"lamadre07","steam_id":76561198067337453,"connected_time":160000000000,"state":"active","ping":102},{"user_id":142,"name":"trepidotractatos","steam_id":76561198815950232,"connected_time":483000000000,"state":"active","ping":71},{"user_id":147,"name":"DonutKillMe","steam_id":76561198160221212,"connected_time":6000000000,"state":"spawning","ping":83},{"user_id":106,"name":"Junko","steam_id":76561198146089003,"connected_time":2620000000000,"state":"active","ping":30},{"user_id":107,"name":"Jomo716","steam_id":76561199098476021,"connected_time":2602000000000,"state":"active","ping":121},{"user_id":32,"name":"crashymicsplody","steam_id":76561198213916765,"connected_time":6485000000000,"state":"active","ping":81},{"user_id":109,"name":"BillyWithaT","steam_id":76561199427729136,"connected_time":2472000000000,"state":"active","ping":101},{"user_id":101,"name":"Zeebop","steam_id":76561198148332988,"connected_time":2730000000000,"state":"active","ping":67},{"user_id":138,"name":"R. Lee Ermey","steam_id":76561198052620241,"connected_time":760000000000,"state":"active","ping":92},{"user_id":84,"name":"Spike Bones","steam_id":76561198234926120,"connected_time":3579000000000,"state":"active","ping":80},{"user_id":127,"name":"Reisen Udongein Inaba","steam_id":76561198051082314,"connected_time":1382000000000,"state":"active","ping":137},{"user_id":139,"name":"FlaminSarge","steam_id":76561197998466511,"connected_time":723000000000,"state":"active","ping":130},{"user_id":140,"name":"Menacing Pile of Frogs","steam_id":76561198360134800,"connected_time":643000000000,"state":"active","ping":61},{"user_id":128,"name":"Fuzzy","steam_id":76561199100612353,"connected_time":1330000000000,"state":"active","ping":66},{"user_id":133,"name":"Flak Maniak","steam_id":76561198005653808,"connected_time":987000000000,"state":"active","ping":58},{"user_id":130,"name":"kris736","steam_id":76561198038208255,"connected_time":1204000000000,"state":"active","ping":60},{"user_id":143,"name":"teapot","steam_id":76561198065889595,"connected_time":342000000000,"state":"active","ping":154},{"user_id":115,"name":"space mann","steam_id":76561198174447043,"connected_time":2273000000000,"state":"active","ping":43},{"user_id":124,"name":"Crime Minister","steam_id":76561198106055104,"connected_time":1561000000000,"state":"active","ping":46},{"user_id":134,"name":"Wendigo","steam_id":76561198031942404,"connected_time":983000000000,"state":"active","ping":70}]},{"server_id":16,"name":"Uncletopia | New York City | 4 | Community","name_short":"nyc-4","host":"nyc-1.us.uncletopia.com","port":27045,"enabled":true,"region":"us-east","cc":"us","latitude":40.73061,"longitude":-73.93524,"reserved":0,"last_update":"0001-01-01T00:00:00Z","name_a2s":"Uncletopia | New York City | 4 | Community","protocol":17,"map":"workshop/pl_divulgence_b4b.ugc2884808746","folder":"tf","game":"Team Fortress","app_id":440,"player_count":0,"max_players":24,"Bots":0,"server_type":"Dedicated","server_os":"Linux","password":true,"vac":true,"version":"7757534","steam_id":85568392924742821,"keywords":["nocrits","nodmgspread","payload","uncletopia"],"game_id":440,"stv_port":27046,"stv_name":"Uncletopia | New York City | 4 | Community | STV","players":null},{"server_id":142,"name":"Uncletopia | S√£o Paulo | 1 | All Maps","name_short":"sao-1","host":"sao-1.br.uncletopia.com","port":27015,"enabled":true,"region":"sa","cc":"br","latitude":-23.533773,"longitude":-46.62529,"reserved":0,"last_update":"0001-01-01T00:00:00Z","name_a2s":"Uncletopia | S√£o Paulo | 1 | All Maps","protocol":17,"map":"koth_highpass","folder":"tf","game":"Team Fortress","app_id":440,"player_count":0,"max_players":24,"Bots":0,"server_type":"Dedicated","server_os":"Linux","password":true,"vac":true,"version":"7757534","steam_id":85568392924469996,"keywords":["cp","nocrits","nodmgspread","uncletopia"],"game_id":440,"stv_port":27016,"stv_name":"Uncletopia | S√£o Paulo | 1 | All Maps | STV","players":null},{"server_id":143,"name":"Uncletopia | S√£o Paulo | 2 | All Maps","name_short":"sao-2","host":"sao-2.br.uncletopia.com","port":27015,"enabled":true,"region":"sa","cc":"br","latitude":-23.533773,"longitude":-46.62529,"reserved":0,"last_update":"0001-01-01T00:00:00Z","name_a2s":"Uncletopia | S√£o Paulo | 2 | All Maps","protocol":17,"map":"cp_dustbowl","folder":"tf","game":"Team Fortress","app_id":440,"player_count":0,"max_players":24,"Bots":0,"server_type":"Dedicated","server_os":"Linux","password":true,"vac":true,"version":"7757534","steam_id":85568392924485349,"keywords":["cp","nocrits","nodmgspread","uncletopia"],"game_id":440,"stv_port":27016,"stv_name":"Uncletopia | S√£o Paulo | 2 | All Maps | STV","players":null},{"server_id":7,"name":"Uncletopia | Seattle | 1 | All Maps","name_short":"sea-1","host":"sea-1.us.uncletopia.com","port":27015,"enabled":true,"region":"us-west","cc":"us","latitude":47.608013,"longitude":-122.33517,"reserved":0,"last_update":"0001-01-01T00:00:00Z","name_a2s":"Uncletopia | Seattle | 1 | All Maps","protocol":17,"map":"cp_steel","folder":"tf","game":"Team Fortress","app_id":440,"player_count":24,"max_players":24,"Bots":0,"server_type":"Dedicated","server_os":"Linux","password":true,"vac":true,"version":"7757534","steam_id":85568392924469997,"keywords":["cp","nocrits","nodmgspread","uncletopia"],"game_id":440,"stv_port":27016,"stv_name":"Uncletopia | Seattle | 1 | All Maps | STV","players":[{"user_id":701,"name":"The Bait Meat Boat","steam_id":76561198031796855,"connected_time":368000000000,"state":"active","ping":88},{"user_id":700,"name":"Rain","steam_id":76561198065612273,"connected_time":413000000000,"state":"active","ping":50},{"user_id":663,"name":"imtoofadedicantevendapuup","steam_id":76561198180372310,"connected_time":2833000000000,"state":"active","ping":60},{"user_id":664,"name":"liliLovesUnicorns83","steam_id":76561199391478575,"connected_time":2795000000000,"state":"active","ping":72},{"user_id":680,"name":"Mitchell","steam_id":76561197972922328,"connected_time":2113000000000,"state":"active","ping":86},{"user_id":616,"name":"MCman","steam_id":76561198412110305,"connected_time":6554000000000,"state":"active","ping":76},{"user_id":687,"name":"CassandraRC7","steam_id":76561198094123940,"connected_time":1058000000000,"state":"active","ping":128},{"user_id":677,"name":"Snoogs","steam_id":76561198444880931,"connected_time":2336000000000,"state":"active","ping":131},{"user_id":667,"name":"FoodzAreGoodz","steam_id":76561198309262052,"connected_time":2716000000000,"state":"active","ping":79},{"user_id":660,"name":"Battery Acid Addict","steam_id":76561198439793697,"connected_time":3225000000000,"state":"active","ping":129},{"user_id":696,"name":"Crake","steam_id":76561198001959071,"connected_time":745000000000,"state":"active","ping":59},{"user_id":695,"name":"Themasterman75","steam_id":76561199385573293,"connected_time":789000000000,"state":"active","ping":76},{"user_id":704,"name":"korkskrou","steam_id":76561198422156430,"connected_time":94000000000,"state":"active","ping":48},{"user_id":697,"name":"blinkerton city","steam_id":76561198054270410,"connected_time":721000000000,"state":"active","ping":55},{"user_id":702,"name":"Silver","steam_id":76561198071716025,"connected_time":262000000000,"state":"active","ping":71},{"user_id":661,"name":"Captain Boopers","steam_id":76561197980385816,"connected_time":3025000000000,"state":"active","ping":79},{"user_id":674,"name":"bomb bomb bomb","steam_id":76561198207881077,"connected_time":2449000000000,"state":"active","ping":106},{"user_id":645,"name":"Fh","steam_id":76561198000903511,"connected_time":4125000000000,"state":"active","ping":61},{"user_id":699,"name":"Big Boss","steam_id":76561198850781444,"connected_time":479000000000,"state":"active","ping":93},{"user_id":684,"name":"Mico (Mico)","steam_id":76561198125462953,"connected_time":1559000000000,"state":"active","ping":47},{"user_id":644,"name":"makeshift_burrito","steam_id":76561198042510825,"connected_time":4176000000000,"state":"active","ping":71},{"user_id":703,"name":"gloobern","steam_id":76561198341190679,"connected_time":153000000000,"state":"active","ping":83},{"user_id":643,"name":"smeasly","steam_id":76561198028718812,"connected_time":4253000000000,"state":"active","ping":41},{"user_id":656,"name":"ImmuneToPeas","steam_id":76561198342411594,"connected_time":3551000000000,"state":"active","ping":62}]},{"server_id":119,"name":"Uncletopia | Seattle | 2 | All Maps","name_short":"sea-2","host":"sea-1.us.uncletopia.com","port":27025,"enabled":true,"region":"us-west","cc":"us","latitude":47.608013,"longitude":-122.33517,"reserved":0,"last_update":"0001-01-01T00:00:00Z","name_a2s":"Uncletopia | Seattle | 2 | All Maps","protocol":17,"map":"pl_frontier_final","folder":"tf","game":"Team Fortress","app_id":440,"player_count":24,"max_players":24,"Bots":0,"server_type":"Dedicated","server_os":"Linux","password":true,"vac":true,"version":"7757534","steam_id":85568392924469998,"keywords":["nocrits","nodmgspread","payload","uncletopia"],"game_id":440,"stv_port":27026,"stv_name":"Uncletopia | Seattle | 2 | All Maps | STV","players":[{"user_id":482,"name":"Spaceman","steam_id":76561198349305249,"connected_time":332000000000,"state":"active","ping":69},{"user_id":479,"name":"Greskrendtregk","steam_id":76561197969553142,"connected_time":398000000000,"state":"active","ping":50},{"user_id":477,"name":"General Fisticuffs","steam_id":76561198255721392,"connected_time":405000000000,"state":"active","ping":115},{"user_id":449,"name":"KellyKapoor","steam_id":76561198040828123,"connected_time":2367000000000,"state":"active","ping":49},{"user_id":484,"name":"Fried Gabagool","steam_id":76561198198543126,"connected_time":305000000000,"state":"active","ping":66},{"user_id":457,"name":"SadChicken Œª","steam_id":76561198082458968,"connected_time":1644000000000,"state":"active","ping":101},{"user_id":438,"name":"BlazedBunny","steam_id":76561198243610560,"connected_time":3087000000000,"state":"active","ping":127},{"user_id":465,"name":"OmniMoto","steam_id":76561198091298557,"connected_time":1361000000000,"state":"active","ping":84},{"user_id":496,"name":"Snippykeegan","steam_id":76561198274529343,"connected_time":59000000000,"state":"active","ping":66},{"user_id":450,"name":"SAD MOSCOVIA","steam_id":76561198101081520,"connected_time":2295000000000,"state":"active","ping":71},{"user_id":456,"name":"Big Jon","steam_id":76561198402285099,"connected_time":1682000000000,"state":"active","ping":79},{"user_id":481,"name":"Communist Zobomafoo","steam_id":76561198068173978,"connected_time":348000000000,"state":"active","ping":126},{"user_id":476,"name":"=Silver=","steam_id":76561198292307127,"connected_time":585000000000,"state":"active","ping":70},{"user_id":393,"name":"aoka","steam_id":76561198838294547,"connected_time":6144000000000,"state":"active","ping":51},{"user_id":471,"name":"Qwef","steam_id":76561198020361104,"connected_time":996000000000,"state":"active","ping":57},{"user_id":474,"name":"Green_GarBear","steam_id":76561199468912415,"connected_time":665000000000,"state":"active","ping":71},{"user_id":472,"name":"Mike Bean Burritos","steam_id":76561198173430607,"connected_time":964000000000,"state":"active","ping":48},{"user_id":483,"name":"thebestman982","steam_id":76561199001698710,"connected_time":330000000000,"state":"active","ping":89},{"user_id":443,"name":"Kuvorious","steam_id":76561198153729934,"connected_time":3011000000000,"state":"active","ping":115},{"user_id":463,"name":"HideOnTate","steam_id":76561198209880837,"connected_time":1540000000000,"state":"active","ping":52},{"user_id":461,"name":"lolgamer247","steam_id":76561198974645534,"connected_time":1578000000000,"state":"active","ping":70},{"user_id":444,"name":"Mount Wannahockaloogie","steam_id":76561198924316615,"connected_time":3005000000000,"state":"active","ping":131},{"user_id":487,"name":"090-nsalih","steam_id":76561199467467873,"connected_time":249000000000,"state":"active","ping":188},{"user_id":470,"name":"Mellow Marshal","steam_id":76561198828607652,"connected_time":1020000000000,"state":"active","ping":115}]},{"server_id":406,"name":"Uncletopia | Seattle | 3 | Stopwatch Beta","name_short":"sea-3","host":"sea-1.us.uncletopia.com","port":27035,"enabled":true,"region":"us-west","cc":"us","latitude":47.608013,"longitude":-122.33517,"reserved":0,"last_update":"0001-01-01T00:00:00Z","name_a2s":"Uncletopia | Seattle | 3 | Stopwatch Beta","protocol":17,"map":"koth_lakeside_final","folder":"tf","game":"Team Fortress","app_id":440,"player_count":23,"max_players":24,"Bots":0,"server_type":"Dedicated","server_os":"Linux","password":true,"vac":true,"version":"7757534","steam_id":85568392924515217,"keywords":["cp","nocrits","nodmgspread","uncletopia"],"game_id":440,"stv_port":27036,"stv_name":"Uncletopia | Seattle | 3 | Stopwatch Beta | STV","players":[{"user_id":42,"name":"‡πá","steam_id":76561198067666595,"connected_time":3679000000000,"state":"active","ping":41},{"user_id":72,"name":"calvin","steam_id":76561198408702012,"connected_time":719000000000,"state":"active","ping":121},{"user_id":73,"name":"Dongus","steam_id":76561197979056451,"connected_time":699000000000,"state":"active","ping":45},{"user_id":84,"name":"Spruce","steam_id":76561198081684676,"connected_time":16000000000,"state":"active","ping":65},{"user_id":15,"name":"(TTV) The_Astrum_Guardian","steam_id":76561198130134103,"connected_time":5147000000000,"state":"active","ping":108},{"user_id":51,"name":"westward (was/were)","steam_id":76561198805512350,"connected_time":2437000000000,"state":"active","ping":62},{"user_id":77,"name":"VOY BOT","steam_id":76561199094836444,"connected_time":328000000000,"state":"active","ping":86},{"user_id":76,"name":"eatmysteel","steam_id":76561198976437527,"connected_time":420000000000,"state":"active","ping":132},{"user_id":85,"name":"Rock Kickass","steam_id":76561198450510841,"connected_time":12000000000,"state":"spawning","ping":84},{"user_id":62,"name":"mango cafe","steam_id":76561198142328193,"connected_time":1087000000000,"state":"active","ping":48},{"user_id":58,"name":"Citizen Light","steam_id":76561198046609389,"connected_time":1600000000000,"state":"active","ping":60},{"user_id":29,"name":"catrinaisahuman","steam_id":76561198281355729,"connected_time":4514000000000,"state":"active","ping":75},{"user_id":63,"name":"gregory house m.d.","steam_id":76561199117672749,"connected_time":1077000000000,"state":"active","ping":89},{"user_id":75,"name":"hobbes","steam_id":76561198274281527,"connected_time":506000000000,"state":"active","ping":120},{"user_id":78,"name":"Johni3FireFly","steam_id":76561198089760607,"connected_time":287000000000,"state":"active","ping":79},{"user_id":64,"name":"Remedy Rex","steam_id":76561198181128247,"connected_time":1046000000000,"state":"active","ping":85},{"user_id":65,"name":"BreadQuest","steam_id":76561198082425960,"connected_time":1023000000000,"state":"active","ping":49},{"user_id":68,"name":"bruhvil","steam_id":76561199148843989,"connected_time":914000000000,"state":"active","ping":91},{"user_id":81,"name":"gaming ground_atclicker","steam_id":76561198233978116,"connected_time":115000000000,"state":"active","ping":62},{"user_id":37,"name":"i eated sand","steam_id":76561198062763756,"connected_time":3993000000000,"state":"active","ping":100},{"user_id":80,"name":"Doctor","steam_id":76561198245100508,"connected_time":172000000000,"state":"active","ping":79},{"user_id":82,"name":"abhorrent","steam_id":76561198295113883,"connected_time":84000000000,"state":"active","ping":64},{"user_id":86,"name":"Lucky_Boi","steam_id":76561199208835578,"connected_time":9000000000,"state":"active","ping":58}]},{"server_id":17,"name":"Uncletopia | San Francisco | 1 | All Maps","name_short":"sfo-1","host":"sfo-1.us.uncletopia.com","port":27015,"enabled":true,"region":"us-west","cc":"us","latitude":37.77397,"longitude":-122.4313,"reserved":0,"last_update":"0001-01-01T00:00:00Z","name_a2s":"Uncletopia | San Francisco | 1 | All Maps","protocol":17,"map":"koth_highpass","folder":"tf","game":"Team Fortress","app_id":440,"player_count":6,"max_players":24,"Bots":0,"server_type":"Dedicated","server_os":"Linux","password":true,"vac":true,"version":"7757534","steam_id":85568392924469999,"keywords":["cp","nocrits","nodmgspread","uncletopia"],"game_id":440,"stv_port":27016,"stv_name":"Uncletopia | San Francisco | 1 | All Maps | STV","players":[{"user_id":129,"name":"SuperViolence","steam_id":76561198973670368,"connected_time":4847000000000,"state":"active","ping":80},{"user_id":181,"name":"THE DOUBLE DONKER","steam_id":76561199442139670,"connected_time":660000000000,"state":"active","ping":215},{"user_id":184,"name":"Shamrock Shake Oct.10.2020 @8pm","steam_id":76561198833313201,"connected_time":397000000000,"state":"active","ping":71},{"user_id":162,"name":"VioletChan She/Her","steam_id":76561198074713124,"connected_time":2667000000000,"state":"active","ping":73},{"user_id":161,"name":"Wormhole","steam_id":76561199008302939,"connected_time":2722000000000,"state":"active","ping":56},{"user_id":112,"name":"runicarc","steam_id":76561199209277380,"connected_time":5865000000000,"state":"active","ping":79}]},{"server_id":18,"name":"Uncletopia | San Francisco | 2 | All Maps","name_short":"sfo-2","host":"sfo-1.us.uncletopia.com","port":27025,"enabled":true,"region":"us-west","cc":"us","latitude":37.77397,"longitude":-122.4313,"reserved":0,"last_update":"0001-01-01T00:00:00Z","name_a2s":"Uncletopia | San Francisco | 2 | All Maps","protocol":17,"map":"pl_frontier_final","folder":"tf","game":"Team Fortress","app_id":440,"player_count":0,"max_players":24,"Bots":0,"server_type":"Dedicated","server_os":"Linux","password":true,"vac":true,"version":"7757534","steam_id":85568392924470000,"keywords":["nocrits","nodmgspread","payload","uncletopia"],"game_id":440,"stv_port":27026,"stv_name":"Uncletopia | San Francisco | 2 | All Maps | STV","players":null},{"server_id":19,"name":"Uncletopia | San Francisco | 3 | Stopwatch Beta","name_short":"sfo-3","host":"sfo-1.us.uncletopia.com","port":27035,"enabled":true,"region":"us-west","cc":"us","latitude":37.77397,"longitude":-122.4313,"reserved":0,"last_update":"0001-01-01T00:00:00Z","name_a2s":"Uncletopia | San Francisco | 3 | Stopwatch Beta","protocol":17,"map":"koth_highpass","folder":"tf","game":"Team Fortress","app_id":440,"player_count":0,"max_players":24,"Bots":0,"server_type":"Dedicated","server_os":"Linux","password":true,"vac":true,"version":"7757534","steam_id":85568392924742824,"keywords":["cp","nocrits","nodmgspread","uncletopia"],"game_id":440,"stv_port":27036,"stv_name":"Uncletopia | San Francisco | 3 | Stopwatch Beta | STV","players":null},{"server_id":20,"name":"Uncletopia | San Francisco | 4 | Community","name_short":"sfo-4","host":"sfo-1.us.uncletopia.com","port":27045,"enabled":true,"region":"us-west","cc":"us","latitude":37.77397,"longitude":-122.4313,"reserved":0,"last_update":"0001-01-01T00:00:00Z","name_a2s":"Uncletopia | San Francisco | 4 | Community","protocol":17,"map":"workshop/koth_product_final.ugc454272353","folder":"tf","game":"Team Fortress","app_id":440,"player_count":0,"max_players":24,"Bots":0,"server_type":"Dedicated","server_os":"Linux","password":true,"vac":true,"version":"7757534","steam_id":85568392924742826,"keywords":["cp","nocrits","nodmgspread","uncletopia"],"game_id":440,"stv_port":27046,"stv_name":"Uncletopia | San Francisco | 4 | Community | STV","players":null},{"server_id":141,"name":"Uncletopia | Sydney | 1 | All Maps","name_short":"syd-1","host":"syd-1.au.uncletopia.com","port":27015,"enabled":true,"region":"au","cc":"au","latitude":-33.865143,"longitude":151.2099,"reserved":0,"last_update":"0001-01-01T00:00:00Z","name_a2s":"Uncletopia | Sydney | 1 | All Maps","protocol":17,"map":"pl_upward","folder":"tf","game":"Team Fortress","app_id":440,"player_count":1,"max_players":24,"Bots":0,"server_type":"Dedicated","server_os":"Linux","password":true,"vac":true,"version":"7757534","steam_id":85568392924470001,"keywords":["nocrits","nodmgspread","payload","uncletopia"],"game_id":440,"stv_port":27016,"stv_name":"Uncletopia | Sydney | 1 | All Maps | STV","players":[{"user_id":44,"name":"Koume","steam_id":76561198797778391,"connected_time":534000000000,"state":"active","ping":47}]},{"server_id":123,"name":"Uncletopia | Sydney | 2 | All Maps","name_short":"syd-2","host":"syd-1.au.uncletopia.com","port":27025,"enabled":true,"region":"au","cc":"au","latitude":-33.865143,"longitude":151.2099,"reserved":0,"last_update":"0001-01-01T00:00:00Z","name_a2s":"Uncletopia | Sydney | 2 | All Maps","protocol":17,"map":"cp_process_final","folder":"tf","game":"Team Fortress","app_id":440,"player_count":0,"max_players":24,"Bots":0,"server_type":"Dedicated","server_os":"Linux","password":true,"vac":true,"version":"7757534","steam_id":85568392924470002,"keywords":["cp","nocrits","nodmgspread","uncletopia"],"game_id":440,"stv_port":27026,"stv_name":"Uncletopia | Sydney | 2 | All Maps | STV","players":null},{"server_id":395,"name":"Uncletopia | Sydney | 3 | All Maps","name_short":"syd-3","host":"syd-1.au.uncletopia.com","port":27035,"enabled":true,"region":"au","cc":"au","latitude":-33.865143,"longitude":151.2099,"reserved":0,"last_update":"0001-01-01T00:00:00Z","name_a2s":"Uncletopia | Sydney | 3 | All Maps","protocol":17,"map":"pl_swiftwater_final1","folder":"tf","game":"Team Fortress","app_id":440,"player_count":0,"max_players":24,"Bots":0,"server_type":"Dedicated","server_os":"Linux","password":true,"vac":true,"version":"7757534","steam_id":85568392925194467,"keywords":["nocrits","nodmgspread","payload","uncletopia"],"game_id":440,"stv_port":27036,"stv_name":"Uncletopia | Sydney | 3 | All Maps | STV","players":null},{"server_id":396,"name":"Uncletopia | Sydney | 4 | All Maps","name_short":"syd-4","host":"syd-1.au.uncletopia.com","port":27045,"enabled":true,"region":"au","cc":"au","latitude":-33.865143,"longitude":151.2099,"reserved":0,"last_update":"0001-01-01T00:00:00Z","name_a2s":"Uncletopia | Sydney | 4 | All Maps","protocol":17,"map":"koth_highpass","folder":"tf","game":"Team Fortress","app_id":440,"player_count":0,"max_players":24,"Bots":0,"server_type":"Dedicated","server_os":"Linux","password":true,"vac":true,"version":"7757534","steam_id":85568392925397958,"keywords":["cp","nocrits","nodmgspread","uncletopia"],"game_id":440,"stv_port":27046,"stv_name":"Uncletopia | Sydney | 4 | All Maps | STV","players":null},{"server_id":58,"name":"Uncletopia | Sydney | 5 | Stopwatch Beta","name_short":"syd-5","host":"syd-1.au.uncletopia.com","port":27055,"enabled":true,"region":"au","cc":"au","latitude":-33.865143,"longitude":151.2099,"reserved":0,"last_update":"0001-01-01T00:00:00Z","name_a2s":"Uncletopia | Sydney | 5 | Stopwatch Beta","protocol":17,"map":"koth_cascade","folder":"tf","game":"Team Fortress","app_id":440,"player_count":0,"max_players":24,"Bots":0,"server_type":"Dedicated","server_os":"Linux","password":true,"vac":true,"version":"7757534","steam_id":85568392925397959,"keywords":["cp","nocrits","nodmgspread","uncletopia"],"game_id":440,"stv_port":27056,"stv_name":"Uncletopia | Sydney | 5 | Stopwatch Beta | STV","players":null},{"server_id":59,"name":"Uncletopia | Sydney | 6 | Community","name_short":"syd-6","host":"syd-1.au.uncletopia.com","port":27065,"enabled":true,"region":"au","cc":"au","latitude":-33.865143,"longitude":151.2099,"reserved":0,"last_update":"0001-01-01T00:00:00Z","name_a2s":"Uncletopia | Sydney | 6 | Community","protocol":17,"map":"workshop/pl_corrode_rc2.ugc546577989","folder":"tf","game":"Team Fortress","app_id":440,"player_count":0,"max_players":24,"Bots":0,"server_type":"Dedicated","server_os":"Linux","password":true,"vac":true,"version":"7757534","steam_id":85568392925397960,"keywords":["nocrits","nodmgspread","payload","uncletopia"],"game_id":440,"stv_port":27066,"stv_name":"Uncletopia | Sydney | 6 | Community | STV","players":null},{"server_id":49,"name":"Uncletopia | Warsaw | 1 | All Maps","name_short":"waw-1","host":"waw-1.pl.uncletopia.com","port":27015,"enabled":true,"region":"eu","cc":"pl","latitude":52.2297,"longitude":21.017532,"reserved":0,"last_update":"0001-01-01T00:00:00Z","name_a2s":"","protocol":0,"map":"","folder":"","game":"","app_id":0,"player_count":0,"max_players":0,"Bots":0,"server_type":"","server_os":"","password":false,"vac":false,"version":"","steam_id":0,"keywords":null,"game_id":0,"stv_port":0,"stv_name":"","players":null},{"server_id":50,"name":"Uncletopia | Warsaw | 2 | All Maps","name_short":"waw-2","host":"waw-1.pl.uncletopia.com","port":27025,"enabled":true,"region":"eu","cc":"pl","latitude":52.2297,"longitude":21.017532,"reserved":0,"last_update":"0001-01-01T00:00:00Z","name_a2s":"Uncletopia | Warsaw | 2 | All Maps","protocol":17,"map":"cp_sunshine","folder":"tf","game":"Team Fortress","app_id":440,"player_count":0,"max_players":24,"Bots":0,"server_type":"Dedicated","server_os":"Linux","password":true,"vac":true,"version":"7757534","steam_id":85568392925397851,"keywords":["cp","nocrits","nodmgspread","uncletopia"],"game_id":440,"stv_port":27026,"stv_name":"Uncletopia | Warsaw | 2 | All Maps | STV","players":null},{"server_id":51,"name":"Uncletopia | Warsaw | 3 | All Maps","name_short":"waw-3","host":"waw-1.pl.uncletopia.com","port":27035,"enabled":true,"region":"eu","cc":"pl","latitude":52.2297,"longitude":21.017532,"reserved":0,"last_update":"0001-01-01T00:00:00Z","name_a2s":"Uncletopia | Warsaw | 3 | All Maps","protocol":17,"map":"koth_cascade","folder":"tf","game":"Team Fortress","app_id":440,"player_count":0,"max_players":24,"Bots":0,"server_type":"Dedicated","server_os":"Linux","password":true,"vac":true,"version":"7757534","steam_id":85568392925397852,"keywords":["cp","nocrits","nodmgspread","uncletopia"],"game_id":440,"stv_port":27036,"stv_name":"Uncletopia | Warsaw | 3 | All Maps | STV","players":null},{"server_id":52,"name":"Uncletopia | Warsaw | 4 | All Maps","name_short":"waw-4","host":"waw-1.pl.uncletopia.com","port":27045,"enabled":true,"region":"eu","cc":"pl","latitude":52.2297,"longitude":21.017532,"reserved":0,"last_update":"0001-01-01T00:00:00Z","name_a2s":"Uncletopia | Warsaw | 4 | All Maps","protocol":17,"map":"koth_lakeside_final","folder":"tf","game":"Team Fortress","app_id":440,"player_count":0,"max_players":24,"Bots":0,"server_type":"Dedicated","server_os":"Linux","password":true,"vac":true,"version":"7757534","steam_id":85568392925397853,"keywords":["cp","nocrits","nodmgspread","uncletopia"],"game_id":440,"stv_port":27046,"stv_name":"Uncletopia | Warsaw | 4 | All Maps | STV","players":null},{"server_id":53,"name":"Uncletopia | Warsaw | 5 | Stopwatch Beta","name_short":"waw-5","host":"waw-1.pl.uncletopia.com","port":27055,"enabled":true,"region":"eu","cc":"pl","latitude":52.2297,"longitude":21.017532,"reserved":0,"last_update":"0001-01-01T00:00:00Z","name_a2s":"Uncletopia | Warsaw | 5 | Stopwatch Beta","protocol":17,"map":"pl_borneo","folder":"tf","game":"Team Fortress","app_id":440,"player_count":0,"max_players":24,"Bots":0,"server_type":"Dedicated","server_os":"Linux","password":true,"vac":true,"version":"7757534","steam_id":85568392925397854,"keywords":["nocrits","nodmgspread","payload","uncletopia"],"game_id":440,"stv_port":27056,"stv_name":"Uncletopia | Warsaw | 5 | Stopwatch Beta | STV","players":null},{"server_id":54,"name":"Uncletopia | Warsaw | 6 | Community","name_short":"waw-6","host":"waw-1.pl.uncletopia.com","port":27065,"enabled":true,"region":"eu","cc":"pl","latitude":52.2297,"longitude":21.017532,"reserved":0,"last_update":"0001-01-01T00:00:00Z","name_a2s":"Uncletopia | Warsaw | 6 | Community","protocol":17,"map":"workshop/cp_mannbase_rc2a.ugc1900737467","folder":"tf","game":"Team Fortress","app_id":440,"player_count":0,"max_players":24,"Bots":0,"server_type":"Dedicated","server_os":"Linux","password":true,"vac":true,"version":"7757534","steam_id":85568392925397856,"keywords":["cp","nocrits","nodmgspread","uncletopia"],"game_id":440,"stv_port":27066,"stv_name":"Uncletopia | Warsaw | 6 | Community | STV","players":null}]}