{"status":true,"message":"","result":[{"server_id":9,"name":"Uncletopia | Atlanta | 1 | All Maps","name_short":"atl-1","host":"atl-1.us.uncletopia.com","port":27015,"enabled":true,"region":"us-east","cc":"us","latitude":33.753746,"longitude":-84.38633,"reserved":0,"last_update":"0001-01-01T00:00:00Z","name_a2s":"Uncletopia | Atlanta | 1 | All Maps","protocol":17,"map":"pl_barnblitz","folder":"tf","game":"Team Fortress","app_id":440,"player_count":24,"max_players":24,"Bots":0,"server_type":"Dedicated","server_os":"Linux","password":true,"vac":true,"version":"7701286","steam_id":85568392924469982,"keywords":["nocrits","nodmgspread","payload","uncletopia"],"game_id":440,"stv_port":27016,"stv_name":"Uncletopia | Atlanta | 1 | All Maps | STV","players":[{"user_id":74,"name":"TRHD_Pharaxer‚Ñ¢","steam_id":76561198051236069,"connected_time":6402000000000,"state":"active","ping":149},{"user_id":73,"name":"Jin but white","steam_id":76561198119873148,"connected_time":6732000000000,"state":"active","ping":63},{"user_id":90,"name":"Zillers","steam_id":76561198095248744,"connected_time":3741000000000,"state":"active","ping":65},{"user_id":101,"name":"ATL1 | spoonful","steam_id":76561198927517471,"connected_time":2584000000000,"state":"active","ping":52},{"user_id":99,"name":"APACHE","steam_id":76561198089910625,"connected_time":2935000000000,"state":"active","ping":91},{"user_id":100,"name":"harry gooch","steam_id":76561198024817457,"connected_time":2884000000000,"state":"active","ping":60},{"user_id":111,"name":"gallowsCalibrator","steam_id":76561198404707578,"connected_time":812000000000,"state":"active","ping":58},{"user_id":36,"name":"--_Cook_--","steam_id":76561198080855748,"connected_time":9664000000000,"state":"active","ping":45},{"user_id":96,"name":"christmastreebee","steam_id":76561199217507591,"connected_time":2965000000000,"state":"active","ping":68},{"user_id":112,"name":"joe lft","steam_id":76561198045781320,"connected_time":572000000000,"state":"active","ping":67},{"user_id":56,"name":"Im High","steam_id":76561198049954886,"connected_time":7489000000000,"state":"active","ping":64},{"user_id":46,"name":"abomination","steam_id":76561198167974713,"connected_time":8379000000000,"state":"active","ping":49},{"user_id":106,"name":"spunk pap","steam_id":76561198202278895,"connected_time":1643000000000,"state":"active","ping":70},{"user_id":92,"name":"Ben Derisgreat","steam_id":76561198799240455,"connected_time":3275000000000,"state":"active","ping":58},{"user_id":81,"name":"HARRY","steam_id":76561198842067238,"connected_time":5013000000000,"state":"active","ping":70},{"user_id":68,"name":"‚ùÖAlyx‚ùÖ","steam_id":76561198024303978,"connected_time":7164000000000,"state":"active","ping":57},{"user_id":97,"name":"[txc] milk and cookies","steam_id":76561198127457787,"connected_time":2956000000000,"state":"active","ping":72},{"user_id":105,"name":"Heavy Ye (Hitla Suit)","steam_id":76561198176618461,"connected_time":1658000000000,"state":"active","ping":60},{"user_id":43,"name":"C papi","steam_id":76561198027779564,"connected_time":8818000000000,"state":"active","ping":52},{"user_id":103,"name":"Papa Vegi","steam_id":76561198085223303,"connected_time":1699000000000,"state":"active","ping":65},{"user_id":109,"name":"JOVA","steam_id":76561198090333536,"connected_time":1427000000000,"state":"active","ping":60},{"user_id":88,"name":"morbidly a beast","steam_id":76561199079614516,"connected_time":3767000000000,"state":"active","ping":90},{"user_id":104,"name":"oni","steam_id":76561198095104925,"connected_time":1694000000000,"state":"active","ping":105},{"user_id":85,"name":"[txc] garf","steam_id":76561198083078030,"connected_time":3884000000000,"state":"active","ping":50}]},{"server_id":400,"name":"Uncletopia | Atlanta | 3 | All Maps","name_short":"atl-3","host":"atl-1.us.uncletopia.com","port":27035,"enabled":true,"region":"us-east","cc":"us","latitude":33.753746,"longitude":-84.38633,"reserved":0,"last_update":"0001-01-01T00:00:00Z","name_a2s":"Uncletopia | Atlanta | 3 | All Maps","protocol":17,"map":"koth_highpass","folder":"tf","game":"Team Fortress","app_id":440,"player_count":0,"max_players":24,"Bots":0,"server_type":"Dedicated","server_os":"Linux","password":true,"vac":true,"version":"7701286","steam_id":85568392924515187,"keywords":["cp","nocrits","nodmgspread","uncletopia"],"game_id":440,"stv_port":0,"stv_name":"","players":null},{"server_id":401,"name":"Uncletopia | Atlanta | 4 | No Payload","name_short":"atl-4","host":"atl-1.us.uncletopia.com","port":27045,"enabled":true,"region":"us-east","cc":"us","latitude":33.753746,"longitude":-84.38633,"reserved":0,"last_update":"0001-01-01T00:00:00Z","name_a2s":"Uncletopia | Atlanta | 4 | No Payload","protocol":17,"map":"koth_sawmill","folder":"tf","game":"Team Fortress","app_id":440,"player_count":2,"max_players":24,"Bots":0,"server_type":"Dedicated","server_os":"Linux","password":true,"vac":true,"version":"7701286","steam_id":85568392924515188,"keywords":["cp","nocrits","nodmgspread","uncletopia"],"game_id":440,"stv_port":27046,"stv_name":"Uncletopia | Atlanta | 4 | No Payload | STV","players":[{"user_id":10,"name":"Panty Sniff Gaming","steam_id":76561198261421420,"connected_time":319000000000,"state":"active","ping":45},{"user_id":11,"name":"Ann","steam_id":76561198933027278,"connected_time":292000000000,"state":"active","ping":45}]},{"server_id":2,"name":"Uncletopia | Chicago | 1 | All Maps","name_short":"chi-1","host":"chi-1.us.uncletopia.com","port":27015,"enabled":true,"region":"us-central","cc":"us","latitude":41.881832,"longitude":-87.62318,"reserved":0,"last_update":"0001-01-01T00:00:00Z","name_a2s":"Uncletopia | Chicago | 1 | All Maps","protocol":17,"map":"pl_pier","folder":"tf","game":"Team Fortress","app_id":440,"player_count":24,"max_players":24,"Bots":0,"server_type":"Dedicated","server_os":"Linux","password":true,"vac":true,"version":"7701286","steam_id":85568392924469984,"keywords":["nocrits","nodmgspread","payload","uncletopia"],"game_id":440,"stv_port":27016,"stv_name":"Uncletopia | Chicago | 1 | All Maps | STV","players":[{"user_id":119,"name":"motorized bar of soap","steam_id":76561198882404753,"connected_time":5986000000000,"state":"active","ping":76},{"user_id":190,"name":"Den_Doofed","steam_id":76561198064418407,"connected_time":61000000000,"state":"active","ping":155},{"user_id":173,"name":"luminen","steam_id":76561198044479631,"connected_time":872000000000,"state":"active","ping":61},{"user_id":5,"name":"ohton","steam_id":76561199033233448,"connected_time":9847000000000,"state":"active","ping":98},{"user_id":184,"name":"Jaypelt","steam_id":76561198053906849,"connected_time":464000000000,"state":"active","ping":84},{"user_id":7,"name":"pw","steam_id":76561198087945065,"connected_time":9838000000000,"state":"active","ping":55},{"user_id":185,"name":"Ignalis","steam_id":76561198025662927,"connected_time":461000000000,"state":"active","ping":53},{"user_id":174,"name":"Alabit","steam_id":76561198065578560,"connected_time":855000000000,"state":"active","ping":85},{"user_id":187,"name":"Devious Wink","steam_id":76561198043571022,"connected_time":457000000000,"state":"active","ping":64},{"user_id":164,"name":"SkyJett","steam_id":76561198040719249,"connected_time":1763000000000,"state":"active","ping":51},{"user_id":159,"name":"Soju","steam_id":76561198044130442,"connected_time":2149000000000,"state":"active","ping":66},{"user_id":176,"name":"Capt on PC","steam_id":76561198396814154,"connected_time":698000000000,"state":"active","ping":97},{"user_id":166,"name":"Salt_Inventor","steam_id":76561198090433209,"connected_time":1532000000000,"state":"active","ping":85},{"user_id":188,"name":"River Rat","steam_id":76561198116383976,"connected_time":448000000000,"state":"active","ping":103},{"user_id":189,"name":"Ipseiit","steam_id":76561198294670312,"connected_time":435000000000,"state":"active","ping":73},{"user_id":78,"name":"Ace Chromatica","steam_id":76561198042211131,"connected_time":6725000000000,"state":"active","ping":49},{"user_id":149,"name":"Demonfax04","steam_id":76561198243551652,"connected_time":3951000000000,"state":"active","ping":94},{"user_id":106,"name":"√íw√ì","steam_id":76561197997304387,"connected_time":6262000000000,"state":"active","ping":62},{"user_id":181,"name":"sweaterfan","steam_id":76561199389567214,"connected_time":499000000000,"state":"active","ping":63},{"user_id":179,"name":"Toonice","steam_id":76561198402994885,"connected_time":559000000000,"state":"active","ping":67},{"user_id":178,"name":"Umbran Fox","steam_id":76561198981815451,"connected_time":622000000000,"state":"active","ping":112},{"user_id":182,"name":"Mashallah","steam_id":76561198093229614,"connected_time":473000000000,"state":"active","ping":49},{"user_id":175,"name":"XD","steam_id":76561198101393625,"connected_time":833000000000,"state":"active","ping":61},{"user_id":191,"name":"M249 | Spectre","steam_id":76561198118334485,"connected_time":49000000000,"state":"spawning","ping":125}]},{"server_id":106,"name":"Uncletopia | Chicago | 2 | All Maps","name_short":"chi-2","host":"chi-1.us.uncletopia.com","port":27025,"enabled":true,"region":"us-central","cc":"us","latitude":41.881832,"longitude":-87.62318,"reserved":0,"last_update":"0001-01-01T00:00:00Z","name_a2s":"Uncletopia | Chicago | 2 | All Maps","protocol":17,"map":"pl_borneo","folder":"tf","game":"Team Fortress","app_id":440,"player_count":17,"max_players":24,"Bots":0,"server_type":"Dedicated","server_os":"Linux","password":true,"vac":true,"version":"7701286","steam_id":85568392924469985,"keywords":["nocrits","nodmgspread","payload","uncletopia"],"game_id":440,"stv_port":27026,"stv_name":"Uncletopia | Chicago | 2 | All Maps | STV","players":[{"user_id":136,"name":"Drizzle","steam_id":76561198152143806,"connected_time":67000000000,"state":"active","ping":44},{"user_id":137,"name":"money squared","steam_id":76561198046775352,"connected_time":10000000000,"state":"active","ping":85},{"user_id":138,"name":"Pasta","steam_id":76561198170042173,"connected_time":3000000000,"state":"spawning","ping":92},{"user_id":130,"name":"Dragon_Spiced","steam_id":76561198097517957,"connected_time":1278000000000,"state":"active","ping":84},{"user_id":135,"name":"gourmet salad","steam_id":76561198173128765,"connected_time":131000000000,"state":"active","ping":51},{"user_id":139,"name":"Apollyon","steam_id":76561198149260918,"connected_time":3000000000,"state":"spawning","ping":68},{"user_id":51,"name":"Titty Mousepad User","steam_id":76561198008455368,"connected_time":6774000000000,"state":"active","ping":55},{"user_id":123,"name":"T√ñZI","steam_id":76561198045268695,"connected_time":1816000000000,"state":"active","ping":45},{"user_id":99,"name":"ethix","steam_id":76561198072592880,"connected_time":2798000000000,"state":"active","ping":40},{"user_id":100,"name":"floofy","steam_id":76561198389769098,"connected_time":2797000000000,"state":"active","ping":77},{"user_id":101,"name":"Smelowskia","steam_id":76561198084251115,"connected_time":2797000000000,"state":"active","ping":62},{"user_id":126,"name":"toq","steam_id":76561198400316620,"connected_time":1659000000000,"state":"active","ping":80},{"user_id":131,"name":"a crazy hobo","steam_id":76561198289650060,"connected_time":1258000000000,"state":"active","ping":119},{"user_id":118,"name":"fallin","steam_id":76561198205386960,"connected_time":1943000000000,"state":"active","ping":107},{"user_id":134,"name":"Ambrosius","steam_id":76561198037451684,"connected_time":996000000000,"state":"active","ping":46},{"user_id":120,"name":"‚ô° horny femboy ‚ô°","steam_id":76561198248636560,"connected_time":1922000000000,"state":"active","ping":60},{"user_id":80,"name":"Grease monkey","steam_id":76561199229169396,"connected_time":4329000000000,"state":"active","ping":52}]},{"server_id":402,"name":"Uncletopia | Chicago | 3 | All Maps","name_short":"chi-3","host":"chi-1.us.uncletopia.com","port":27035,"enabled":true,"region":"us-central","cc":"us","latitude":41.881832,"longitude":-87.62318,"reserved":0,"last_update":"0001-01-01T00:00:00Z","name_a2s":"Uncletopia | Chicago | 3 | All Maps","protocol":17,"map":"koth_lakeside_final","folder":"tf","game":"Team Fortress","app_id":440,"player_count":0,"max_players":24,"Bots":0,"server_type":"Dedicated","server_os":"Linux","password":true,"vac":true,"version":"7701286","steam_id":85568392924515191,"keywords":["cp","nocrits","nodmgspread","uncletopia"],"game_id":440,"stv_port":0,"stv_name":"","players":null},{"server_id":403,"name":"Uncletopia | Chicago | 4 | All Maps","name_short":"chi-4","host":"chi-1.us.uncletopia.com","port":27045,"enabled":true,"region":"us-central","cc":"us","latitude":41.881832,"longitude":-87.62318,"reserved":0,"last_update":"0001-01-01T00:00:00Z","name_a2s":"Uncletopia | Chicago | 4 | All Maps","protocol":17,"map":"pl_barnblitz","folder":"tf","game":"Team Fortress","app_id":440,"player_count":0,"max_players":24,"Bots":0,"server_type":"Dedicated","server_os":"Linux","password":true,"vac":true,"version":"7701286","steam_id":85568392924515193,"keywords":["nocrits","nodmgspread","payload","uncletopia"],"game_id":440,"stv_port":27046,"stv_name":"Uncletopia | Chicago | 4 | All Maps | STV","players":null},{"server_id":36,"name":"Uncletopia | Chicago | 5 | All Maps","name_short":"chi-5","host":"chi-2.us.uncletopia.com","port":27015,"enabled":true,"region":"us-central","cc":"us","latitude":41.881832,"longitude":-87.62318,"reserved":0,"last_update":"0001-01-01T00:00:00Z","name_a2s":"Uncletopia | Chicago | 5 | All Maps","protocol":17,"map":"pl_borneo","folder":"tf","game":"Team Fortress","app_id":440,"player_count":0,"max_players":24,"Bots":0,"server_type":"Dedicated","server_os":"Linux","password":true,"vac":true,"version":"7701286","steam_id":85568392924866362,"keywords":["nocrits","nodmgspread","payload","uncletopia"],"game_id":440,"stv_port":27016,"stv_name":"Uncletopia | Chicago | 5 | All Maps | STV","players":null},{"server_id":37,"name":"Uncletopia | Chicago | 6 | All Maps","name_short":"chi-6","host":"chi-2.us.uncletopia.com","port":27025,"enabled":true,"region":"us-central","cc":"us","latitude":41.881832,"longitude":-87.62318,"reserved":0,"last_update":"0001-01-01T00:00:00Z","name_a2s":"Uncletopia | Chicago | 6 | All Maps","protocol":17,"map":"pl_swiftwater_final1","folder":"tf","game":"Team Fortress","app_id":440,"player_count":0,"max_players":24,"Bots":0,"server_type":"Dedicated","server_os":"Linux","password":true,"vac":true,"version":"7701286","steam_id":85568392924866363,"keywords":["nocrits","nodmgspread","payload","uncletopia"],"game_id":440,"stv_port":27026,"stv_name":"Uncletopia | Chicago | 6 | All Maps | STV","players":null},{"server_id":38,"name":"Uncletopia | Chicago | 7 | No Payload","name_short":"chi-7","host":"chi-2.us.uncletopia.com","port":27035,"enabled":true,"region":"us-central","cc":"us","latitude":41.881832,"longitude":-87.62318,"reserved":0,"last_update":"0001-01-01T00:00:00Z","name_a2s":"Uncletopia | Chicago | 7 | No Payload","protocol":17,"map":"cp_snakewater_final1","folder":"tf","game":"Team Fortress","app_id":440,"player_count":0,"max_players":24,"Bots":0,"server_type":"Dedicated","server_os":"Linux","password":true,"vac":true,"version":"7701286","steam_id":85568392924866364,"keywords":["cp","nocrits","nodmgspread","uncletopia"],"game_id":440,"stv_port":0,"stv_name":"","players":null},{"server_id":39,"name":"Uncletopia | Chicago | 8 | Community","name_short":"chi-8","host":"chi-2.us.uncletopia.com","port":27045,"enabled":true,"region":"us-central","cc":"us","latitude":41.881832,"longitude":-87.62318,"reserved":0,"last_update":"0001-01-01T00:00:00Z","name_a2s":"Uncletopia | Chicago | 8 | Community","protocol":17,"map":"workshop/koth_ramjam_v2_b2.ugc2865676487","folder":"tf","game":"Team Fortress","app_id":440,"player_count":21,"max_players":24,"Bots":0,"server_type":"Dedicated","server_os":"Linux","password":true,"vac":true,"version":"7701286","steam_id":85568392924866365,"keywords":["cp","nocrits","nodmgspread","uncletopia"],"game_id":440,"stv_port":27046,"stv_name":"Uncletopia | Chicago | 8 | Community | STV","players":[{"user_id":188,"name":"King","steam_id":76561198010019214,"connected_time":432000000000,"state":"active","ping":43},{"user_id":159,"name":"sithreis","steam_id":76561198000564263,"connected_time":1874000000000,"state":"active","ping":63},{"user_id":177,"name":"your mom misses me","steam_id":76561198017748754,"connected_time":1101000000000,"state":"active","ping":49},{"user_id":172,"name":"maArk","steam_id":76561198200380143,"connected_time":1279000000000,"state":"active","ping":137},{"user_id":190,"name":"5'3\" 85 IQ Astrophysics PhD","steam_id":76561198188776646,"connected_time":231000000000,"state":"active","ping":57},{"user_id":144,"name":"gamer in training","steam_id":76561198035375228,"connected_time":2656000000000,"state":"active","ping":87},{"user_id":160,"name":"orbit","steam_id":76561198042584324,"connected_time":1823000000000,"state":"active","ping":60},{"user_id":185,"name":"James","steam_id":76561198081313916,"connected_time":636000000000,"state":"active","ping":75},{"user_id":191,"name":"BullSocks","steam_id":76561198137299537,"connected_time":196000000000,"state":"active","ping":42},{"user_id":192,"name":"Yaixs","steam_id":76561199091650038,"connected_time":164000000000,"state":"active","ping":50},{"user_id":167,"name":"eryn üó∫","steam_id":76561198004433070,"connected_time":1606000000000,"state":"active","ping":81},{"user_id":123,"name":"AlecTheNefarious","steam_id":76561198035291230,"connected_time":4308000000000,"state":"active","ping":60},{"user_id":183,"name":"Convo-B-Gone","steam_id":76561198029527751,"connected_time":773000000000,"state":"active","ping":62},{"user_id":194,"name":"monkies","steam_id":76561199216408567,"connected_time":40000000000,"state":"active","ping":113},{"user_id":181,"name":"Trackwolf","steam_id":76561198077576503,"connected_time":837000000000,"state":"active","ping":88},{"user_id":195,"name":"hop","steam_id":76561198039914843,"connected_time":35000000000,"state":"active","ping":69},{"user_id":127,"name":"java","steam_id":76561198030276792,"connected_time":4270000000000,"state":"active","ping":75},{"user_id":196,"name":"Festive Treason","steam_id":76561198143882626,"connected_time":28000000000,"state":"active","ping":99},{"user_id":135,"name":"Colin102004","steam_id":76561198202384334,"connected_time":3320000000000,"state":"active","ping":52},{"user_id":197,"name":"Air Fryer - $39.99 (4 Payments)","steam_id":76561198043572048,"connected_time":11000000000,"state":"spawning","ping":134},{"user_id":171,"name":"lanoc","steam_id":76561198055415367,"connected_time":1475000000000,"state":"active","ping":53}]},{"server_id":8,"name":"Uncletopia | Dallas | 1 | All Maps","name_short":"dal-1","host":"dal-1.us.uncletopia.com","port":27015,"enabled":true,"region":"us-central","cc":"us","latitude":32.779167,"longitude":-96.80889,"reserved":0,"last_update":"0001-01-01T00:00:00Z","name_a2s":"Uncletopia | Dallas | 1 | All Maps","protocol":17,"map":"pl_borneo","folder":"tf","game":"Team Fortress","app_id":440,"player_count":24,"max_players":24,"Bots":0,"server_type":"Dedicated","server_os":"Linux","password":true,"vac":true,"version":"7701286","steam_id":85568392924469986,"keywords":["nocrits","nodmgspread","payload","uncletopia"],"game_id":440,"stv_port":27016,"stv_name":"Uncletopia | Dallas | 1 | All Maps | STV","players":[{"user_id":114,"name":"space","steam_id":76561198353704776,"connected_time":3728000000000,"state":"active","ping":38},{"user_id":160,"name":"Strangelove","steam_id":76561198353773611,"connected_time":116000000000,"state":"active","ping":89},{"user_id":148,"name":"iluvtoust","steam_id":76561198869269207,"connected_time":618000000000,"state":"active","ping":52},{"user_id":154,"name":"KingSteve42","steam_id":76561198409455888,"connected_time":199000000000,"state":"active","ping":98},{"user_id":122,"name":"rolt bagger","steam_id":76561198026664629,"connected_time":3410000000000,"state":"active","ping":75},{"user_id":147,"name":"World Famous Skater Sean Pablo","steam_id":76561197999261387,"connected_time":943000000000,"state":"active","ping":74},{"user_id":143,"name":"Rusty","steam_id":76561198056557928,"connected_time":1070000000000,"state":"active","ping":45},{"user_id":135,"name":"danchen104912","steam_id":76561198210314003,"connected_time":1774000000000,"state":"active","ping":81},{"user_id":113,"name":"Flubdy_","steam_id":76561198073338521,"connected_time":3796000000000,"state":"active","ping":58},{"user_id":161,"name":"Caoticaos","steam_id":76561198114800227,"connected_time":81000000000,"state":"active","ping":127},{"user_id":152,"name":"Batso","steam_id":76561198106589452,"connected_time":297000000000,"state":"active","ping":81},{"user_id":144,"name":"Kuyumiester","steam_id":76561198126835302,"connected_time":1068000000000,"state":"active","ping":61},{"user_id":117,"name":"+","steam_id":76561198262422184,"connected_time":3717000000000,"state":"active","ping":52},{"user_id":137,"name":"SaulMan","steam_id":76561198131929494,"connected_time":1607000000000,"state":"active","ping":63},{"user_id":157,"name":"salad Turtle","steam_id":76561198038036122,"connected_time":170000000000,"state":"active","ping":73},{"user_id":131,"name":"Foam","steam_id":76561198334511480,"connected_time":1989000000000,"state":"active","ping":62},{"user_id":158,"name":"Pessimystic","steam_id":76561199081761364,"connected_time":169000000000,"state":"active","ping":108},{"user_id":150,"name":"SavHud","steam_id":76561199111713748,"connected_time":332000000000,"state":"active","ping":84},{"user_id":149,"name":"Warmitchine","steam_id":76561198046183642,"connected_time":333000000000,"state":"active","ping":50},{"user_id":138,"name":"able","steam_id":76561198292552182,"connected_time":1484000000000,"state":"active","ping":73},{"user_id":125,"name":"Snakeye3490","steam_id":76561198197060503,"connected_time":2784000000000,"state":"active","ping":52},{"user_id":136,"name":"zzz ms","steam_id":76561198837444917,"connected_time":1688000000000,"state":"active","ping":61},{"user_id":159,"name":"Marv_L","steam_id":76561198035709541,"connected_time":161000000000,"state":"active","ping":92},{"user_id":162,"name":"KewlKris","steam_id":76561198260738308,"connected_time":68000000000,"state":"active","ping":45}]},{"server_id":108,"name":"Uncletopia | Dallas | 2 | All Maps","name_short":"dal-2","host":"dal-1.us.uncletopia.com","port":27025,"enabled":true,"region":"us-central","cc":"us","latitude":32.779167,"longitude":-96.80889,"reserved":0,"last_update":"0001-01-01T00:00:00Z","name_a2s":"Uncletopia | Dallas | 2 | All Maps","protocol":17,"map":"koth_lakeside_final","folder":"tf","game":"Team Fortress","app_id":440,"player_count":3,"max_players":24,"Bots":0,"server_type":"Dedicated","server_os":"Linux","password":true,"vac":true,"version":"7701286","steam_id":85568392924469988,"keywords":["cp","nocrits","nodmgspread","uncletopia"],"game_id":440,"stv_port":27026,"stv_name":"Uncletopia | Dallas | 2 | All Maps | STV","players":[{"user_id":22,"name":"Captin_Ciyro","steam_id":76561198861899909,"connected_time":3113000000000,"state":"active","ping":69},{"user_id":34,"name":"Gammaplex","steam_id":76561198981228176,"connected_time":57000000000,"state":"active","ping":65},{"user_id":26,"name":"Matt","steam_id":76561199122703238,"connected_time":2897000000000,"state":"active","ping":94}]},{"server_id":5,"name":"Uncletopia | Frankfurt | 1 | All Maps","name_short":"frk-1","host":"frk-1.de.uncletopia.com","port":27015,"enabled":true,"region":"eu","cc":"de","latitude":50.110924,"longitude":8.682127,"reserved":0,"last_update":"0001-01-01T00:00:00Z","name_a2s":"Uncletopia | Frankfurt | 1 | All Maps","protocol":17,"map":"cp_mountainlab","folder":"tf","game":"Team Fortress","app_id":440,"player_count":0,"max_players":24,"Bots":0,"server_type":"Dedicated","server_os":"Linux","password":true,"vac":true,"version":"7701286","steam_id":85568392924469989,"keywords":["cp","nocrits","nodmgspread","uncletopia"],"game_id":440,"stv_port":0,"stv_name":"","players":null},{"server_id":110,"name":"Uncletopia | Frankfurt | 2 | All Maps","name_short":"frk-2","host":"frk-1.de.uncletopia.com","port":27025,"enabled":true,"region":"eu","cc":"de","latitude":50.110924,"longitude":8.682127,"reserved":0,"last_update":"0001-01-01T00:00:00Z","name_a2s":"Uncletopia | Frankfurt | 2 | All Maps","protocol":17,"map":"cp_sunshine","folder":"tf","game":"Team Fortress","app_id":440,"player_count":0,"max_players":24,"Bots":0,"server_type":"Dedicated","server_os":"Linux","password":true,"vac":true,"version":"7701286","steam_id":85568392924469990,"keywords":["cp","nocrits","nodmgspread","uncletopia"],"game_id":440,"stv_port":0,"stv_name":"","players":null},{"server_id":308,"name":"Uncletopia | Frankfurt | 3 | All Maps","name_short":"frk-3","host":"frk-1.de.uncletopia.com","port":27035,"enabled":true,"region":"eu","cc":"de","latitude":50.110924,"longitude":8.682127,"reserved":0,"last_update":"0001-01-01T00:00:00Z","name_a2s":"Uncletopia | Frankfurt | 3 | All Maps","protocol":17,"map":"pl_barnblitz","folder":"tf","game":"Team Fortress","app_id":440,"player_count":0,"max_players":24,"Bots":0,"server_type":"Dedicated","server_os":"Linux","password":true,"vac":true,"version":"7701286","steam_id":85568392924504274,"keywords":["nocrits","nodmgspread","payload","uncletopia"],"game_id":440,"stv_port":0,"stv_name":"","players":null},{"server_id":309,"name":"Uncletopia | Frankfurt | 4 | All Maps","name_short":"frk-4","host":"frk-1.de.uncletopia.com","port":27045,"enabled":true,"region":"eu","cc":"de","latitude":50.110924,"longitude":8.682127,"reserved":0,"last_update":"0001-01-01T00:00:00Z","name_a2s":"Uncletopia | Frankfurt | 4 | All Maps","protocol":17,"map":"cp_sunshine","folder":"tf","game":"Team Fortress","app_id":440,"player_count":0,"max_players":24,"Bots":0,"server_type":"Dedicated","server_os":"Linux","password":true,"vac":true,"version":"7701286","steam_id":85568392924504275,"keywords":["cp","nocrits","nodmgspread","uncletopia"],"game_id":440,"stv_port":0,"stv_name":"","players":null},{"server_id":310,"name":"Uncletopia | Frankfurt | 5 | All Maps","name_short":"frk-5","host":"frk-1.de.uncletopia.com","port":27055,"enabled":true,"region":"eu","cc":"de","latitude":50.110924,"longitude":8.682127,"reserved":0,"last_update":"0001-01-01T00:00:00Z","name_a2s":"Uncletopia | Frankfurt | 5 | All Maps","protocol":17,"map":"koth_viaduct","folder":"tf","game":"Team Fortress","app_id":440,"player_count":0,"max_players":24,"Bots":0,"server_type":"Dedicated","server_os":"Linux","password":true,"vac":true,"version":"7701286","steam_id":85568392924504277,"keywords":["cp","nocrits","nodmgspread","uncletopia"],"game_id":440,"stv_port":0,"stv_name":"","players":null},{"server_id":311,"name":"Uncletopia | Frankfurt | 6 | All Maps","name_short":"frk-6","host":"frk-1.de.uncletopia.com","port":27065,"enabled":true,"region":"eu","cc":"de","latitude":50.110924,"longitude":8.682127,"reserved":0,"last_update":"0001-01-01T00:00:00Z","name_a2s":"Uncletopia | Frankfurt | 6 | All Maps","protocol":17,"map":"koth_lakeside_final","folder":"tf","game":"Team Fortress","app_id":440,"player_count":0,"max_players":24,"Bots":0,"server_type":"Dedicated","server_os":"Linux","password":true,"vac":true,"version":"7701286","steam_id":85568392924504278,"keywords":["cp","nocrits","nodmgspread","uncletopia"],"game_id":440,"stv_port":0,"stv_name":"","players":null},{"server_id":23,"name":"Uncletopia | Frankfurt | 7 | No Payload","name_short":"frk-7","host":"frk-1.de.uncletopia.com","port":27075,"enabled":true,"region":"eu","cc":"de","latitude":50.110924,"longitude":8.682127,"reserved":0,"last_update":"0001-01-01T00:00:00Z","name_a2s":"Uncletopia | Frankfurt | 7 | No Payload","protocol":17,"map":"pl_badwater","folder":"tf","game":"Team Fortress","app_id":440,"player_count":0,"max_players":24,"Bots":0,"server_type":"Dedicated","server_os":"Linux","password":true,"vac":true,"version":"7701286","steam_id":85568392924742827,"keywords":["nocrits","nodmgspread","payload","uncletopia"],"game_id":440,"stv_port":0,"stv_name":"","players":null},{"server_id":24,"name":"Uncletopia | Frankfurt | 8 | Community","name_short":"frk-8","host":"frk-1.de.uncletopia.com","port":27085,"enabled":true,"region":"eu","cc":"de","latitude":50.110924,"longitude":8.682127,"reserved":0,"last_update":"0001-01-01T00:00:00Z","name_a2s":"Uncletopia | Frankfurt | 8 | Community","protocol":17,"map":"pl_barnblitz","folder":"tf","game":"Team Fortress","app_id":440,"player_count":0,"max_players":24,"Bots":0,"server_type":"Dedicated","server_os":"Linux","password":true,"vac":true,"version":"7701286","steam_id":85568392924742828,"keywords":["nocrits","nodmgspread","payload","uncletopia"],"game_id":440,"stv_port":0,"stv_name":"","players":null},{"server_id":202,"name":"Uncletopia | Hong Kong | 1 | All Maps","name_short":"hgk-1","host":"hgk-1.hk.uncletopia.com","port":27015,"enabled":true,"region":"asia","cc":"hk","latitude":22.302711,"longitude":114.177216,"reserved":0,"last_update":"0001-01-01T00:00:00Z","name_a2s":"Uncletopia | Hong Kong | 1 | All Maps","protocol":17,"map":"cp_dustbowl","folder":"tf","game":"Team Fortress","app_id":440,"player_count":24,"max_players":24,"Bots":0,"server_type":"Dedicated","server_os":"Linux","password":true,"vac":true,"version":"7701286","steam_id":85568392924494504,"keywords":["cp","nocrits","nodmgspread","uncletopia"],"game_id":440,"stv_port":27016,"stv_name":"Uncletopia | Hong Kong | 1 | All Maps | STV","players":[{"user_id":8,"name":"Violezine","steam_id":76561199000502615,"connected_time":4627000000000,"state":"active","ping":78},{"user_id":40,"name":"msi","steam_id":76561198339641444,"connected_time":1114000000000,"state":"active","ping":105},{"user_id":14,"name":"iced","steam_id":76561198999114004,"connected_time":4034000000000,"state":"active","ping":97},{"user_id":58,"name":"Fish","steam_id":76561198971351426,"connected_time":189000000000,"state":"active","ping":133},{"user_id":30,"name":"Nimbus","steam_id":76561198877713016,"connected_time":1501000000000,"state":"active","ping":96},{"user_id":41,"name":"Mega 00F","steam_id":76561198962485791,"connected_time":1042000000000,"state":"active","ping":75},{"user_id":28,"name":"Mel„ÅÑ„Åã","steam_id":76561199250249487,"connected_time":1723000000000,"state":"active","ping":94},{"user_id":27,"name":"Piggy","steam_id":76561199293416159,"connected_time":2035000000000,"state":"active","ping":78},{"user_id":31,"name":"üé∂C4ndy_caneÏ∫îÎîî_ÏºÄÏù∏üé∂","steam_id":76561198275465052,"connected_time":1462000000000,"state":"active","ping":78},{"user_id":32,"name":"WuNDOWs","steam_id":76561198404104664,"connected_time":1439000000000,"state":"active","ping":108},{"user_id":59,"name":"MS PowerPoint","steam_id":76561198369523192,"connected_time":89000000000,"state":"spawning","ping":86},{"user_id":34,"name":"ellz","steam_id":76561199216074568,"connected_time":1398000000000,"state":"active","ping":74},{"user_id":35,"name":"S c u m p","steam_id":76561199172582978,"connected_time":1354000000000,"state":"active","ping":144},{"user_id":36,"name":"mching","steam_id":76561198044327754,"connected_time":1334000000000,"state":"active","ping":61},{"user_id":42,"name":"mufat","steam_id":76561199205514309,"connected_time":1032000000000,"state":"active","ping":76},{"user_id":38,"name":"im_0ff","steam_id":76561198339346695,"connected_time":1285000000000,"state":"active","ping":123},{"user_id":54,"name":"Dits","steam_id":76561198283833960,"connected_time":469000000000,"state":"active","ping":43},{"user_id":56,"name":"IZ*","steam_id":76561198834621927,"connected_time":296000000000,"state":"active","ping":84},{"user_id":50,"name":"heaviest f2p","steam_id":76561199209331489,"connected_time":628000000000,"state":"active","ping":95},{"user_id":57,"name":"zxcvbnm","steam_id":76561198866884809,"connected_time":276000000000,"state":"active","ping":63},{"user_id":51,"name":"T.","steam_id":76561198337887896,"connected_time":565000000000,"state":"active","ping":88},{"user_id":55,"name":"doggybile","steam_id":76561199235409252,"connected_time":389000000000,"state":"active","ping":51},{"user_id":60,"name":"√≠–≤√≠n AwŒ±d Œ±l FŒ±ruzŒ±√≠","steam_id":76561198201999740,"connected_time":83000000000,"state":"active","ping":73},{"user_id":61,"name":"tuxy","steam_id":76561198996816684,"connected_time":31000000000,"state":"active","ping":67}]},{"server_id":1,"name":"Uncletopia | Los Angeles | 1 | All Maps","name_short":"lax-1","host":"lax-1.us.uncletopia.com","port":27015,"enabled":true,"region":"us-west","cc":"us","latitude":33.94279,"longitude":-118.41004,"reserved":0,"last_update":"0001-01-01T00:00:00Z","name_a2s":"Uncletopia | Los Angeles | 1 | All Maps","protocol":17,"map":"pl_borneo","folder":"tf","game":"Team Fortress","app_id":440,"player_count":24,"max_players":24,"Bots":0,"server_type":"Dedicated","server_os":"Linux","password":true,"vac":true,"version":"7701286","steam_id":85568392924469991,"keywords":["nocrits","nodmgspread","payload","uncletopia"],"game_id":440,"stv_port":27016,"stv_name":"Uncletopia | Los Angeles | 1 | All Maps | STV","players":[{"user_id":98,"name":"Jax O'Gaytor","steam_id":76561198288922168,"connected_time":4840000000000,"state":"active","ping":63},{"user_id":125,"name":"Marp","steam_id":76561197999988084,"connected_time":818000000000,"state":"active","ping":51},{"user_id":111,"name":"June","steam_id":76561198141803658,"connected_time":3509000000000,"state":"active","ping":49},{"user_id":119,"name":"Woshingo","steam_id":76561199164819248,"connected_time":2289000000000,"state":"active","ping":47},{"user_id":69,"name":"cielael","steam_id":76561198043971956,"connected_time":6218000000000,"state":"active","ping":51},{"user_id":134,"name":"moe","steam_id":76561198929586245,"connected_time":455000000000,"state":"active","ping":42},{"user_id":127,"name":"02vg3","steam_id":76561198404320154,"connected_time":767000000000,"state":"active","ping":65},{"user_id":124,"name":"cookiegenius2398.r2","steam_id":76561198970759258,"connected_time":1707000000000,"state":"active","ping":54},{"user_id":128,"name":"DALE","steam_id":76561199365672047,"connected_time":732000000000,"state":"active","ping":126},{"user_id":116,"name":"ldr","steam_id":76561198151135298,"connected_time":2906000000000,"state":"active","ping":36},{"user_id":136,"name":"Agent Q","steam_id":76561198830829003,"connected_time":401000000000,"state":"active","ping":73},{"user_id":137,"name":"troglodyte","steam_id":76561198046033518,"connected_time":398000000000,"state":"active","ping":87},{"user_id":135,"name":"video games","steam_id":76561198334059206,"connected_time":444000000000,"state":"active","ping":57},{"user_id":138,"name":"Speedycat","steam_id":76561198024821259,"connected_time":393000000000,"state":"active","ping":47},{"user_id":131,"name":"SodaMazing","steam_id":76561198087297121,"connected_time":641000000000,"state":"active","ping":149},{"user_id":139,"name":"LYTEWERK","steam_id":76561198002819791,"connected_time":385000000000,"state":"active","ping":98},{"user_id":97,"name":"Sun Sugar","steam_id":76561198385085005,"connected_time":4886000000000,"state":"active","ping":60},{"user_id":118,"name":"DaBeatGoOff?","steam_id":76561198106507400,"connected_time":2450000000000,"state":"active","ping":52},{"user_id":140,"name":"MrLeftTurn","steam_id":76561198856743969,"connected_time":358000000000,"state":"active","ping":113},{"user_id":143,"name":"luke8538","steam_id":76561198067480563,"connected_time":202000000000,"state":"active","ping":66},{"user_id":113,"name":"El Doktor","steam_id":76561198413013439,"connected_time":3462000000000,"state":"active","ping":48},{"user_id":141,"name":"pooping.peter.2009","steam_id":76561198171368867,"connected_time":353000000000,"state":"active","ping":51},{"user_id":132,"name":"breadBREH","steam_id":76561199260475539,"connected_time":634000000000,"state":"active","ping":72},{"user_id":75,"name":"BIGGS","steam_id":76561198057399996,"connected_time":6079000000000,"state":"active","ping":50}]},{"server_id":112,"name":"Uncletopia | Los Angeles | 2 | All Maps","name_short":"lax-2","host":"lax-1.us.uncletopia.com","port":27025,"enabled":true,"region":"us-west","cc":"us","latitude":33.94279,"longitude":-118.41004,"reserved":0,"last_update":"0001-01-01T00:00:00Z","name_a2s":"Uncletopia | Los Angeles | 2 | All Maps","protocol":17,"map":"koth_highpass","folder":"tf","game":"Team Fortress","app_id":440,"player_count":0,"max_players":24,"Bots":0,"server_type":"Dedicated","server_os":"Linux","password":true,"vac":true,"version":"7701286","steam_id":85568392924469992,"keywords":["cp","nocrits","nodmgspread","uncletopia"],"game_id":440,"stv_port":27026,"stv_name":"Uncletopia | Los Angeles | 2 | All Maps | STV","players":null},{"server_id":324,"name":"Uncletopia | Los Angeles | 3 | All Maps","name_short":"lax-3","host":"lax-1.us.uncletopia.com","port":27035,"enabled":true,"region":"us-west","cc":"us","latitude":33.94279,"longitude":-118.41004,"reserved":0,"last_update":"0001-01-01T00:00:00Z","name_a2s":"Uncletopia | Los Angeles | 3 | All Maps","protocol":17,"map":"cp_process_final","folder":"tf","game":"Team Fortress","app_id":440,"player_count":0,"max_players":24,"Bots":0,"server_type":"Dedicated","server_os":"Linux","password":true,"vac":true,"version":"7701286","steam_id":85568392924510198,"keywords":["cp","nocrits","nodmgspread","uncletopia"],"game_id":440,"stv_port":27036,"stv_name":"Uncletopia | Los Angeles | 3 | All Maps | STV","players":null},{"server_id":25,"name":"Uncletopia | Los Angeles | 4 | No Payload","name_short":"lax-4","host":"lax-1.us.uncletopia.com","port":27045,"enabled":true,"region":"us-west","cc":"us","latitude":33.94279,"longitude":-118.41004,"reserved":0,"last_update":"0001-01-01T00:00:00Z","name_a2s":"Uncletopia | Los Angeles | 4 | No Payload","protocol":17,"map":"cp_vanguard","folder":"tf","game":"Team Fortress","app_id":440,"player_count":0,"max_players":24,"Bots":0,"server_type":"Dedicated","server_os":"Linux","password":true,"vac":true,"version":"7701286","steam_id":85568392924510199,"keywords":["cp","nocrits","nodmgspread","uncletopia"],"game_id":440,"stv_port":27046,"stv_name":"Uncletopia | Los Angeles | 4 | No Payload | STV","players":null},{"server_id":11,"name":"Uncletopia | London | 1 | All Maps","name_short":"lon-1","host":"lon-1.uk.uncletopia.com","port":27015,"enabled":true,"region":"eu","cc":"gb","latitude":51.509865,"longitude":-0.118092,"reserved":0,"last_update":"0001-01-01T00:00:00Z","name_a2s":"Uncletopia | London | 1 | All Maps","protocol":17,"map":"pl_pier","folder":"tf","game":"Team Fortress","app_id":440,"player_count":17,"max_players":24,"Bots":0,"server_type":"Dedicated","server_os":"Linux","password":true,"vac":true,"version":"7701286","steam_id":85568392924367362,"keywords":["nocrits","nodmgspread","payload","uncletopia"],"game_id":440,"stv_port":27016,"stv_name":"Uncletopia | London | 1 | All Maps | STV","players":[{"user_id":190,"name":"Amandus","steam_id":76561198036281079,"connected_time":148000000000,"state":"active","ping":61},{"user_id":177,"name":"–®–∫–æ–ª–∞ 17","steam_id":76561199440030481,"connected_time":1143000000000,"state":"active","ping":113},{"user_id":184,"name":"Leviopterix","steam_id":76561198172397734,"connected_time":501000000000,"state":"active","ping":64},{"user_id":161,"name":"g6","steam_id":76561197994492154,"connected_time":1402000000000,"state":"active","ping":74},{"user_id":144,"name":"schizo gamer moment","steam_id":76561199414716848,"connected_time":2729000000000,"state":"active","ping":75},{"user_id":75,"name":"Kjell Kriminell","steam_id":76561198062075870,"connected_time":5805000000000,"state":"active","ping":65},{"user_id":14,"name":"Logic Not Found","steam_id":76561198273025576,"connected_time":9634000000000,"state":"active","ping":55},{"user_id":163,"name":"Sarip","steam_id":76561198113330438,"connected_time":1370000000000,"state":"active","ping":54},{"user_id":182,"name":"krevetchat1y","steam_id":76561199019941445,"connected_time":768000000000,"state":"active","ping":145},{"user_id":155,"name":"Peddler Êû™ÁÅ´ÈáçÁîü","steam_id":76561198121260981,"connected_time":1986000000000,"state":"active","ping":37},{"user_id":183,"name":"Cosmetic brain","steam_id":76561198055936410,"connected_time":758000000000,"state":"active","ping":78},{"user_id":185,"name":"Epi","steam_id":76561198041175008,"connected_time":403000000000,"state":"active","ping":64},{"user_id":186,"name":"Mad","steam_id":76561198114232642,"connected_time":402000000000,"state":"active","ping":65},{"user_id":156,"name":"Alfiine","steam_id":76561198206082887,"connected_time":1869000000000,"state":"active","ping":66},{"user_id":188,"name":"Beamz","steam_id":76561198014230017,"connected_time":312000000000,"state":"active","ping":156},{"user_id":191,"name":"Per√§miehen√§","steam_id":76561197968945306,"connected_time":139000000000,"state":"active","ping":74},{"user_id":69,"name":"THE MVP","steam_id":76561198060619306,"connected_time":6670000000000,"state":"active","ping":41}]},{"server_id":114,"name":"Uncletopia | London | 2 | All Maps","name_short":"lon-2","host":"lon-1.uk.uncletopia.com","port":27025,"enabled":true,"region":"eu","cc":"gb","latitude":51.509865,"longitude":-0.118092,"reserved":0,"last_update":"0001-01-01T00:00:00Z","name_a2s":"Uncletopia | London | 2 | All Maps","protocol":17,"map":"cp_process_final","folder":"tf","game":"Team Fortress","app_id":440,"player_count":0,"max_players":24,"Bots":0,"server_type":"Dedicated","server_os":"Linux","password":true,"vac":true,"version":"7701286","steam_id":85568392924470941,"keywords":["cp","nocrits","nodmgspread","uncletopia"],"game_id":440,"stv_port":27026,"stv_name":"Uncletopia | London | 2 | All Maps | STV","players":null},{"server_id":320,"name":"Uncletopia | London | 3 | All Maps","name_short":"lon-3","host":"lon-1.uk.uncletopia.com","port":27035,"enabled":true,"region":"eu","cc":"gb","latitude":51.509865,"longitude":-0.118092,"reserved":0,"last_update":"0001-01-01T00:00:00Z","name_a2s":"Uncletopia | London | 3 | All Maps","protocol":17,"map":"pl_swiftwater_final1","folder":"tf","game":"Team Fortress","app_id":440,"player_count":0,"max_players":24,"Bots":0,"server_type":"Dedicated","server_os":"Linux","password":true,"vac":true,"version":"7701286","steam_id":85568392924510192,"keywords":["nocrits","nodmgspread","payload","uncletopia"],"game_id":440,"stv_port":27036,"stv_name":"Uncletopia | London | 3 | All Maps | STV","players":null},{"server_id":321,"name":"Uncletopia | London | 4 | All Maps","name_short":"lon-4","host":"lon-1.uk.uncletopia.com","port":27045,"enabled":true,"region":"eu","cc":"gb","latitude":51.509865,"longitude":-0.118092,"reserved":0,"last_update":"0001-01-01T00:00:00Z","name_a2s":"Uncletopia | London | 4 | All Maps","protocol":17,"map":"koth_viaduct","folder":"tf","game":"Team Fortress","app_id":440,"player_count":0,"max_players":24,"Bots":0,"server_type":"Dedicated","server_os":"Linux","password":true,"vac":true,"version":"7701286","steam_id":85568392924510193,"keywords":["cp","nocrits","nodmgspread","uncletopia"],"game_id":440,"stv_port":0,"stv_name":"","players":null},{"server_id":21,"name":"Uncletopia | London | 5 | All Maps","name_short":"lon-5","host":"lon-1.uk.uncletopia.com","port":27055,"enabled":true,"region":"eu","cc":"gb","latitude":51.509865,"longitude":-0.118092,"reserved":0,"last_update":"0001-01-01T00:00:00Z","name_a2s":"Uncletopia | London | 5 | All Maps","protocol":17,"map":"pl_badwater","folder":"tf","game":"Team Fortress","app_id":440,"player_count":0,"max_players":24,"Bots":0,"server_type":"Dedicated","server_os":"Linux","password":true,"vac":true,"version":"7701286","steam_id":85568392924742829,"keywords":["nocrits","nodmgspread","payload","uncletopia"],"game_id":440,"stv_port":0,"stv_name":"","players":null},{"server_id":22,"name":"Uncletopia | London | 6 | All Maps","name_short":"lon-6","host":"lon-1.uk.uncletopia.com","port":27065,"enabled":true,"region":"eu","cc":"gb","latitude":51.509865,"longitude":-0.118092,"reserved":0,"last_update":"0001-01-01T00:00:00Z","name_a2s":"Uncletopia | London | 6 | All Maps","protocol":17,"map":"koth_highpass","folder":"tf","game":"Team Fortress","app_id":440,"player_count":0,"max_players":24,"Bots":0,"server_type":"Dedicated","server_os":"Linux","password":true,"vac":true,"version":"7701286","steam_id":85568392924742830,"keywords":["cp","nocrits","nodmgspread","uncletopia"],"game_id":440,"stv_port":27066,"stv_name":"Uncletopia | London | 6 | All Maps | STV","players":null},{"server_id":40,"name":"Uncletopia | London | 7 | No Payload","name_short":"lon-7","host":"lon-1.uk.uncletopia.com","port":27075,"enabled":true,"region":"eu","cc":"gb","latitude":51.509865,"longitude":-0.118092,"reserved":0,"last_update":"0001-01-01T00:00:00Z","name_a2s":"Uncletopia | London | 7 | No Payload","protocol":17,"map":"pl_frontier_final","folder":"tf","game":"Team Fortress","app_id":440,"player_count":0,"max_players":24,"Bots":0,"server_type":"Dedicated","server_os":"Linux","password":true,"vac":true,"version":"7701286","steam_id":85568392924964314,"keywords":["nocrits","nodmgspread","payload","uncletopia"],"game_id":440,"stv_port":0,"stv_name":"","players":null},{"server_id":41,"name":"Uncletopia | London | 8 | Community","name_short":"lon-8","host":"lon-1.uk.uncletopia.com","port":27085,"enabled":true,"region":"eu","cc":"gb","latitude":51.509865,"longitude":-0.118092,"reserved":0,"last_update":"0001-01-01T00:00:00Z","name_a2s":"Uncletopia | London | 8 | Community","protocol":17,"map":"pl_pier","folder":"tf","game":"Team Fortress","app_id":440,"player_count":0,"max_players":24,"Bots":0,"server_type":"Dedicated","server_os":"Linux","password":true,"vac":true,"version":"7701286","steam_id":85568392924964315,"keywords":["nocrits","nodmgspread","payload","uncletopia"],"game_id":440,"stv_port":0,"stv_name":"","players":null},{"server_id":300,"name":"Uncletopia | Montr√©al | 1 | All Maps","name_short":"mtl-1","host":"mtl-1.ca.uncletopia.com","port":27015,"enabled":true,"region":"us-east","cc":"ca","latitude":45.50889,"longitude":-73.56167,"reserved":0,"last_update":"0001-01-01T00:00:00Z","name_a2s":"Uncletopia | Montr√©al | 1 | All Maps","protocol":17,"map":"koth_lakeside_final","folder":"tf","game":"Team Fortress","app_id":440,"player_count":0,"max_players":24,"Bots":0,"server_type":"Dedicated","server_os":"Linux","password":true,"vac":true,"version":"7701286","steam_id":85568392924500087,"keywords":["cp","nocrits","nodmgspread","uncletopia"],"game_id":440,"stv_port":0,"stv_name":"","players":null},{"server_id":301,"name":"Uncletopia | Montr√©al | 2 | All Maps","name_short":"mtl-2","host":"mtl-1.ca.uncletopia.com","port":27025,"enabled":true,"region":"us-east","cc":"ca","latitude":45.50889,"longitude":-73.56167,"reserved":0,"last_update":"0001-01-01T00:00:00Z","name_a2s":"Uncletopia | Montr√©al | 2 | All Maps","protocol":17,"map":"koth_cascade","folder":"tf","game":"Team Fortress","app_id":440,"player_count":0,"max_players":24,"Bots":0,"server_type":"Dedicated","server_os":"Linux","password":true,"vac":true,"version":"7701286","steam_id":85568392924500088,"keywords":["cp","nocrits","nodmgspread","uncletopia"],"game_id":440,"stv_port":27026,"stv_name":"Uncletopia | Montr√©al | 2 | All Maps | STV","players":null},{"server_id":302,"name":"Uncletopia | Montr√©al | 3 | All Maps","name_short":"mtl-3","host":"mtl-1.ca.uncletopia.com","port":27035,"enabled":true,"region":"us-east","cc":"ca","latitude":45.50889,"longitude":-73.56167,"reserved":0,"last_update":"0001-01-01T00:00:00Z","name_a2s":"Uncletopia | Montr√©al | 3 | All Maps","protocol":17,"map":"cp_dustbowl","folder":"tf","game":"Team Fortress","app_id":440,"player_count":24,"max_players":24,"Bots":0,"server_type":"Dedicated","server_os":"Linux","password":true,"vac":true,"version":"7701286","steam_id":85568392924500089,"keywords":["cp","nocrits","nodmgspread","uncletopia"],"game_id":440,"stv_port":27036,"stv_name":"Uncletopia | Montr√©al | 3 | All Maps | STV","players":[{"user_id":96,"name":"Kiwi","steam_id":76561198082824979,"connected_time":3428000000000,"state":"active","ping":91},{"user_id":123,"name":"Thelonious Prime, King of Jazz","steam_id":76561198077785482,"connected_time":1430000000000,"state":"active","ping":50},{"user_id":105,"name":"MOLEMAN","steam_id":76561198311403760,"connected_time":3042000000000,"state":"active","ping":54},{"user_id":99,"name":":]","steam_id":76561198018947778,"connected_time":3290000000000,"state":"active","ping":143},{"user_id":127,"name":"Dill","steam_id":76561197985091914,"connected_time":1272000000000,"state":"active","ping":50},{"user_id":106,"name":"GuyGoom","steam_id":76561198254522178,"connected_time":2989000000000,"state":"active","ping":73},{"user_id":101,"name":"onionman0106","steam_id":76561199067766868,"connected_time":3236000000000,"state":"active","ping":119},{"user_id":132,"name":"BayanTheBear","steam_id":76561198134537476,"connected_time":690000000000,"state":"active","ping":82},{"user_id":86,"name":"urine trouble","steam_id":76561199013266640,"connected_time":4933000000000,"state":"active","ping":43},{"user_id":124,"name":"CunTrollinGBombSiteA\u0026B","steam_id":76561198061412592,"connected_time":1427000000000,"state":"active","ping":59},{"user_id":125,"name":"i'll have what you're having","steam_id":76561198035337657,"connected_time":1374000000000,"state":"active","ping":47},{"user_id":81,"name":"Mariopan","steam_id":76561198166980348,"connected_time":5023000000000,"state":"active","ping":129},{"user_id":119,"name":"Cafe Alpha","steam_id":76561197965022076,"connected_time":2072000000000,"state":"active","ping":31},{"user_id":118,"name":"harmless","steam_id":76561197990799645,"connected_time":2212000000000,"state":"active","ping":92},{"user_id":110,"name":"Sicko Mode (Chris Pratt Cover)","steam_id":76561198315786174,"connected_time":2734000000000,"state":"active","ping":54},{"user_id":128,"name":"glug slug","steam_id":76561197988690273,"connected_time":1268000000000,"state":"active","ping":54},{"user_id":135,"name":"8Z","steam_id":76561198027025876,"connected_time":307000000000,"state":"active","ping":96},{"user_id":46,"name":"emctwo","steam_id":76561198095082517,"connected_time":8713000000000,"state":"active","ping":59},{"user_id":114,"name":"Mudd","steam_id":76561199220612917,"connected_time":2460000000000,"state":"active","ping":127},{"user_id":129,"name":"Jimmy","steam_id":76561197970838363,"connected_time":1268000000000,"state":"active","ping":66},{"user_id":130,"name":"Father Bob","steam_id":76561197961329340,"connected_time":1251000000000,"state":"active","ping":55},{"user_id":66,"name":"dosimeter","steam_id":76561198039608940,"connected_time":7232000000000,"state":"active","ping":123},{"user_id":134,"name":"Jolly Jon","steam_id":76561198424248616,"connected_time":388000000000,"state":"active","ping":134},{"user_id":94,"name":"hashmap","steam_id":76561198043794014,"connected_time":3640000000000,"state":"active","ping":64}]},{"server_id":303,"name":"Uncletopia | Montr√©al | 4 | No Payload","name_short":"mtl-4","host":"mtl-1.ca.uncletopia.com","port":27045,"enabled":true,"region":"us-east","cc":"ca","latitude":45.50889,"longitude":-73.56167,"reserved":0,"last_update":"0001-01-01T00:00:00Z","name_a2s":"Uncletopia | Montr√©al | 4 | No Payload","protocol":17,"map":"koth_viaduct","folder":"tf","game":"Team Fortress","app_id":440,"player_count":0,"max_players":24,"Bots":0,"server_type":"Dedicated","server_os":"Linux","password":true,"vac":true,"version":"7701286","steam_id":85568392924500090,"keywords":["cp","nocrits","nodmgspread","uncletopia"],"game_id":440,"stv_port":27046,"stv_name":"Uncletopia | Montr√©al | 4 | No Payload | STV","players":null},{"server_id":13,"name":"Uncletopia | New York City | 1 | All Maps","name_short":"nyc-1","host":"nyc-1.us.uncletopia.com","port":27015,"enabled":true,"region":"us-east","cc":"us","latitude":40.73061,"longitude":-73.93524,"reserved":0,"last_update":"0001-01-01T00:00:00Z","name_a2s":"Uncletopia | New York City | 1 | All Maps","protocol":17,"map":"ctf_2fort","folder":"tf","game":"Team Fortress","app_id":440,"player_count":23,"max_players":24,"Bots":0,"server_type":"Dedicated","server_os":"Linux","password":true,"vac":true,"version":"7701286","steam_id":85568392924469993,"keywords":["ctf","nocrits","nodmgspread","uncletopia"],"game_id":440,"stv_port":27016,"stv_name":"Uncletopia | New York City | 1 | All Maps | STV","players":[{"user_id":148,"name":"werecat","steam_id":76561198005091213,"connected_time":170000000000,"state":"active","ping":35},{"user_id":95,"name":"Deobot","steam_id":76561198243697604,"connected_time":4147000000000,"state":"active","ping":115},{"user_id":150,"name":"hoots","steam_id":76561198015609525,"connected_time":77000000000,"state":"active","ping":52},{"user_id":122,"name":"Drakkona","steam_id":76561198095449994,"connected_time":3104000000000,"state":"active","ping":86},{"user_id":102,"name":"Ion{M}","steam_id":76561197993457435,"connected_time":3842000000000,"state":"active","ping":66},{"user_id":138,"name":"Yeshie the Dragon Layer","steam_id":76561198080214214,"connected_time":851000000000,"state":"active","ping":64},{"user_id":141,"name":"Joker Joestar","steam_id":76561198115696839,"connected_time":481000000000,"state":"active","ping":77},{"user_id":62,"name":"Amaretto Sour","steam_id":76561198063112844,"connected_time":7330000000000,"state":"active","ping":61},{"user_id":149,"name":"Chuhak","steam_id":76561198071964800,"connected_time":107000000000,"state":"active","ping":55},{"user_id":125,"name":"Lumen","steam_id":76561197985372319,"connected_time":2883000000000,"state":"active","ping":50},{"user_id":147,"name":"faxxy","steam_id":76561198079621240,"connected_time":263000000000,"state":"active","ping":75},{"user_id":108,"name":"Fantastic","steam_id":76561198079088978,"connected_time":3624000000000,"state":"active","ping":72},{"user_id":111,"name":"Vulpes","steam_id":76561198038929334,"connected_time":3499000000000,"state":"active","ping":45},{"user_id":127,"name":"Monkey","steam_id":76561198031015186,"connected_time":2675000000000,"state":"active","ping":83},{"user_id":119,"name":"Infinitytacos","steam_id":76561198884260211,"connected_time":3263000000000,"state":"active","ping":60},{"user_id":133,"name":"Parth Makeo","steam_id":76561198002516581,"connected_time":1712000000000,"state":"active","ping":46},{"user_id":144,"name":"it_do_be_ivy","steam_id":76561198077796736,"connected_time":402000000000,"state":"active","ping":49},{"user_id":120,"name":"KnightShock","steam_id":76561199086307667,"connected_time":3167000000000,"state":"active","ping":120},{"user_id":124,"name":"VX Ghost","steam_id":76561198072541436,"connected_time":2976000000000,"state":"active","ping":56},{"user_id":112,"name":"Ras","steam_id":76561198123546775,"connected_time":3471000000000,"state":"active","ping":78},{"user_id":113,"name":"nibbaiffyuh","steam_id":76561198109499986,"connected_time":3464000000000,"state":"active","ping":122},{"user_id":116,"name":"Glucouse Guardian","steam_id":76561198066933921,"connected_time":3398000000000,"state":"active","ping":45},{"user_id":134,"name":"Urbanzpinapple","steam_id":76561198115426938,"connected_time":1506000000000,"state":"active","ping":109}]},{"server_id":14,"name":"Uncletopia | New York City | 2 | All Maps","name_short":"nyc-2","host":"nyc-1.us.uncletopia.com","port":27025,"enabled":true,"region":"us-east","cc":"us","latitude":40.73061,"longitude":-73.93524,"reserved":0,"last_update":"0001-01-01T00:00:00Z","name_a2s":"Uncletopia | New York City | 2 | All Maps","protocol":17,"map":"pl_pier","folder":"tf","game":"Team Fortress","app_id":440,"player_count":24,"max_players":24,"Bots":0,"server_type":"Dedicated","server_os":"Linux","password":true,"vac":true,"version":"7701286","steam_id":85568392924469994,"keywords":["nocrits","nodmgspread","payload","uncletopia"],"game_id":440,"stv_port":27026,"stv_name":"Uncletopia | New York City | 2 | All Maps | STV","players":[{"user_id":117,"name":"Mikel","steam_id":76561198260708562,"connected_time":1106000000000,"state":"active","ping":65},{"user_id":107,"name":"HonoredOgre","steam_id":76561198353496638,"connected_time":2491000000000,"state":"active","ping":55},{"user_id":74,"name":"matkaster","steam_id":76561197998546486,"connected_time":5282000000000,"state":"active","ping":81},{"user_id":118,"name":"Redside","steam_id":76561198026564313,"connected_time":1062000000000,"state":"active","ping":60},{"user_id":124,"name":"boot","steam_id":76561198806968845,"connected_time":282000000000,"state":"active","ping":40},{"user_id":88,"name":"Loafus","steam_id":76561198154561111,"connected_time":4502000000000,"state":"active","ping":74},{"user_id":125,"name":"kevingates25@gmail.com","steam_id":76561198059575962,"connected_time":196000000000,"state":"active","ping":51},{"user_id":61,"name":"PBnJames","steam_id":76561198834000962,"connected_time":6260000000000,"state":"active","ping":48},{"user_id":108,"name":"Christoph Waltz eating a burger","steam_id":76561199215811448,"connected_time":2491000000000,"state":"active","ping":53},{"user_id":110,"name":"Saijax","steam_id":76561198056439274,"connected_time":2383000000000,"state":"active","ping":76},{"user_id":120,"name":"Lord Vile the Impaler","steam_id":76561198040425096,"connected_time":958000000000,"state":"active","ping":75},{"user_id":121,"name":"IVV4","steam_id":76561198194356583,"connected_time":952000000000,"state":"active","ping":101},{"user_id":72,"name":"LORD JIMJACK YE-YE","steam_id":76561199151780779,"connected_time":5336000000000,"state":"active","ping":57},{"user_id":103,"name":"G_Bob","steam_id":76561198098133233,"connected_time":3485000000000,"state":"active","ping":84},{"user_id":106,"name":"Not Slavoj ≈Ωi≈æek","steam_id":76561198004619616,"connected_time":2521000000000,"state":"active","ping":128},{"user_id":115,"name":"Dylanxp300","steam_id":76561198271974937,"connected_time":1502000000000,"state":"active","ping":60},{"user_id":64,"name":"Terranfear","steam_id":76561197975409022,"connected_time":6176000000000,"state":"active","ping":42},{"user_id":98,"name":"stewfat","steam_id":76561198084066964,"connected_time":4059000000000,"state":"active","ping":46},{"user_id":92,"name":"Fever Dreams","steam_id":76561198116614620,"connected_time":4485000000000,"state":"active","ping":73},{"user_id":60,"name":"CoolerK","steam_id":76561197993787252,"connected_time":6281000000000,"state":"active","ping":61},{"user_id":126,"name":"tame","steam_id":76561198925005855,"connected_time":166000000000,"state":"active","ping":173},{"user_id":99,"name":"Pika","steam_id":76561198068063436,"connected_time":4055000000000,"state":"active","ping":73},{"user_id":123,"name":"I LOVE MUG","steam_id":76561198048047546,"connected_time":938000000000,"state":"active","ping":97},{"user_id":128,"name":"weeb_whacker #Jenius","steam_id":76561198187098041,"connected_time":110000000000,"state":"active","ping":75}]},{"server_id":15,"name":"Uncletopia | New York City | 3 | All Maps","name_short":"nyc-3","host":"nyc-1.us.uncletopia.com","port":27035,"enabled":true,"region":"us-east","cc":"us","latitude":40.73061,"longitude":-73.93524,"reserved":0,"last_update":"0001-01-01T00:00:00Z","name_a2s":"Uncletopia | New York City | 3 | All Maps","protocol":17,"map":"cp_egypt_final","folder":"tf","game":"Team Fortress","app_id":440,"player_count":24,"max_players":24,"Bots":0,"server_type":"Dedicated","server_os":"Linux","password":true,"vac":true,"version":"7701286","steam_id":85568392924742820,"keywords":["cp","nocrits","nodmgspread","uncletopia"],"game_id":440,"stv_port":27036,"stv_name":"Uncletopia | New York City | 3 | All Maps | STV","players":[{"user_id":117,"name":"ethanweegee","steam_id":76561198272400016,"connected_time":2702000000000,"state":"active","ping":66},{"user_id":145,"name":"Vivid Hut 64","steam_id":76561198170050059,"connected_time":1025000000000,"state":"active","ping":79},{"user_id":148,"name":"NepNep","steam_id":76561198116712585,"connected_time":837000000000,"state":"active","ping":60},{"user_id":157,"name":"Bashirider","steam_id":76561198260522253,"connected_time":82000000000,"state":"active","ping":43},{"user_id":159,"name":"{SuN} Astyloblatta","steam_id":76561199222909666,"connected_time":65000000000,"state":"active","ping":135},{"user_id":93,"name":"novacheri1","steam_id":76561198345120143,"connected_time":4606000000000,"state":"active","ping":62},{"user_id":142,"name":"üê±Lukewarmcatüê±","steam_id":76561197987285974,"connected_time":1245000000000,"state":"active","ping":58},{"user_id":123,"name":"M00NM4DN355 || Buff The Speed","steam_id":76561198082775439,"connected_time":2263000000000,"state":"active","ping":61},{"user_id":146,"name":"QuakAtack","steam_id":76561198870770157,"connected_time":966000000000,"state":"active","ping":88},{"user_id":73,"name":"schmopp","steam_id":76561198076490954,"connected_time":5469000000000,"state":"active","ping":64},{"user_id":139,"name":"Bismarck","steam_id":76561198442873012,"connected_time":1462000000000,"state":"active","ping":57},{"user_id":125,"name":"Stressmelo","steam_id":76561199204445185,"connected_time":2159000000000,"state":"active","ping":86},{"user_id":130,"name":"Soap","steam_id":76561198074619142,"connected_time":2002000000000,"state":"active","ping":76},{"user_id":147,"name":"Mythical Lag","steam_id":76561198347031281,"connected_time":956000000000,"state":"active","ping":91},{"user_id":143,"name":"-BRH- Tangled up in Bluegrass","steam_id":76561197987181139,"connected_time":1236000000000,"state":"active","ping":88},{"user_id":128,"name":"johnboi","steam_id":76561198142582772,"connected_time":2050000000000,"state":"active","ping":77},{"user_id":160,"name":"Professor Peppermint","steam_id":76561198184017082,"connected_time":4000000000,"state":"spawning","ping":84},{"user_id":152,"name":"Clean","steam_id":76561198061224922,"connected_time":701000000000,"state":"active","ping":75},{"user_id":155,"name":"Bee","steam_id":76561198074681324,"connected_time":547000000000,"state":"active","ping":46},{"user_id":149,"name":"RelativeToZero","steam_id":76561198175875733,"connected_time":831000000000,"state":"active","ping":117},{"user_id":150,"name":"TYLERTHECREATOR","steam_id":76561198353072928,"connected_time":822000000000,"state":"active","ping":72},{"user_id":156,"name":"Bear \"Dr.Butt\" Porn MD","steam_id":76561197994425084,"connected_time":540000000000,"state":"active","ping":77},{"user_id":151,"name":"Brendan","steam_id":76561198041079914,"connected_time":780000000000,"state":"active","ping":51},{"user_id":115,"name":"Chechens Spotted","steam_id":76561199028910893,"connected_time":2989000000000,"state":"active","ping":90}]},{"server_id":16,"name":"Uncletopia | New York City | 4 | Community","name_short":"nyc-4","host":"nyc-1.us.uncletopia.com","port":27045,"enabled":true,"region":"us-east","cc":"us","latitude":40.73061,"longitude":-73.93524,"reserved":0,"last_update":"0001-01-01T00:00:00Z","name_a2s":"Uncletopia | New York City | 4 | Community","protocol":17,"map":"workshop/rd_asteroid_redux_rc9.ugc2154902912","folder":"tf","game":"Team Fortress","app_id":440,"player_count":0,"max_players":24,"Bots":0,"server_type":"Dedicated","server_os":"Linux","password":true,"vac":true,"version":"7701286","steam_id":85568392924742821,"keywords":["beta","nocrits","nodmgspread","rd","uncletopia"],"game_id":440,"stv_port":27046,"stv_name":"Uncletopia | New York City | 4 | Community | STV","players":null},{"server_id":142,"name":"Uncletopia | S√£o Paulo | 1 | All Maps","name_short":"sao-1","host":"sao-1.br.uncletopia.com","port":27015,"enabled":true,"region":"sa","cc":"br","latitude":-23.533773,"longitude":-46.62529,"reserved":0,"last_update":"0001-01-01T00:00:00Z","name_a2s":"Uncletopia | S√£o Paulo | 1 | All Maps","protocol":17,"map":"pl_pier","folder":"tf","game":"Team Fortress","app_id":440,"player_count":0,"max_players":24,"Bots":0,"server_type":"Dedicated","server_os":"Linux","password":true,"vac":true,"version":"7701286","steam_id":85568392924469996,"keywords":["nocrits","nodmgspread","payload","uncletopia"],"game_id":440,"stv_port":0,"stv_name":"","players":null},{"server_id":143,"name":"Uncletopia | S√£o Paulo | 2 | All Maps","name_short":"sao-2","host":"sao-2.br.uncletopia.com","port":27015,"enabled":true,"region":"sa","cc":"br","latitude":-23.533773,"longitude":-46.62529,"reserved":0,"last_update":"0001-01-01T00:00:00Z","name_a2s":"Uncletopia | S√£o Paulo | 2 | All Maps","protocol":17,"map":"koth_cascade","folder":"tf","game":"Team Fortress","app_id":440,"player_count":0,"max_players":24,"Bots":0,"server_type":"Dedicated","server_os":"Linux","password":true,"vac":true,"version":"7701286","steam_id":85568392924485349,"keywords":["cp","nocrits","nodmgspread","uncletopia"],"game_id":440,"stv_port":0,"stv_name":"","players":null},{"server_id":7,"name":"Uncletopia | Seattle | 1 | All Maps","name_short":"sea-1","host":"sea-1.us.uncletopia.com","port":27015,"enabled":true,"region":"us-west","cc":"us","latitude":47.608013,"longitude":-122.33517,"reserved":0,"last_update":"0001-01-01T00:00:00Z","name_a2s":"Uncletopia | Seattle | 1 | All Maps","protocol":17,"map":"pl_thundermountain","folder":"tf","game":"Team Fortress","app_id":440,"player_count":24,"max_players":24,"Bots":0,"server_type":"Dedicated","server_os":"Linux","password":true,"vac":true,"version":"7701286","steam_id":85568392924469997,"keywords":["nocrits","nodmgspread","payload","uncletopia"],"game_id":440,"stv_port":27016,"stv_name":"Uncletopia | Seattle | 1 | All Maps | STV","players":[{"user_id":134,"name":"Common","steam_id":76561198041083863,"connected_time":1387000000000,"state":"active","ping":57},{"user_id":86,"name":"McNamJam","steam_id":76561198028128686,"connected_time":5077000000000,"state":"active","ping":72},{"user_id":120,"name":"highWayy","steam_id":76561198042844908,"connected_time":1739000000000,"state":"active","ping":135},{"user_id":135,"name":"Wrench","steam_id":76561198137242573,"connected_time":876000000000,"state":"active","ping":49},{"user_id":136,"name":"GUITAR GAMING!!!","steam_id":76561198199604767,"connected_time":867000000000,"state":"active","ping":51},{"user_id":100,"name":"ubiquitous man","steam_id":76561198073782350,"connected_time":4238000000000,"state":"active","ping":89},{"user_id":126,"name":"PP_PhD","steam_id":76561198168851111,"connected_time":1496000000000,"state":"active","ping":61},{"user_id":105,"name":"Ahzain","steam_id":76561198035894333,"connected_time":3272000000000,"state":"active","ping":82},{"user_id":137,"name":"Arsonist Goose","steam_id":76561198147441830,"connected_time":844000000000,"state":"active","ping":75},{"user_id":143,"name":"Super Mighty G","steam_id":76561198020932806,"connected_time":314000000000,"state":"active","ping":85},{"user_id":121,"name":"spenca","steam_id":76561198025371154,"connected_time":1736000000000,"state":"active","ping":77},{"user_id":140,"name":"hedahman","steam_id":76561198052398134,"connected_time":373000000000,"state":"active","ping":50},{"user_id":142,"name":"CrazySpace","steam_id":76561198183980530,"connected_time":351000000000,"state":"active","ping":75},{"user_id":133,"name":"Waaaaz","steam_id":76561198029754301,"connected_time":1440000000000,"state":"active","ping":90},{"user_id":129,"name":"Stone Toad Steve Austin","steam_id":76561198030622861,"connected_time":1480000000000,"state":"active","ping":129},{"user_id":138,"name":"agent 4 my beloved","steam_id":76561198035698704,"connected_time":821000000000,"state":"active","ping":72},{"user_id":63,"name":"Amogous Supreme","steam_id":76561198025476774,"connected_time":7503000000000,"state":"active","ping":71},{"user_id":78,"name":"CheeseCake488","steam_id":76561199407617942,"connected_time":5678000000000,"state":"active","ping":125},{"user_id":74,"name":"Krazzle","steam_id":76561198029782412,"connected_time":6646000000000,"state":"active","ping":75},{"user_id":118,"name":"Festive Kappa","steam_id":76561198392375910,"connected_time":2035000000000,"state":"active","ping":92},{"user_id":123,"name":"nescoceo","steam_id":76561198040801160,"connected_time":1651000000000,"state":"active","ping":85},{"user_id":108,"name":"Zykio","steam_id":76561198122490182,"connected_time":3133000000000,"state":"active","ping":113},{"user_id":109,"name":"Large Package","steam_id":76561198045403508,"connected_time":3130000000000,"state":"active","ping":91},{"user_id":112,"name":"cmoffs „Ç∑","steam_id":76561198050505566,"connected_time":2861000000000,"state":"active","ping":58}]},{"server_id":119,"name":"Uncletopia | Seattle | 2 | All Maps","name_short":"sea-2","host":"sea-1.us.uncletopia.com","port":27025,"enabled":true,"region":"us-west","cc":"us","latitude":47.608013,"longitude":-122.33517,"reserved":0,"last_update":"0001-01-01T00:00:00Z","name_a2s":"Uncletopia | Seattle | 2 | All Maps","protocol":17,"map":"pl_frontier_final","folder":"tf","game":"Team Fortress","app_id":440,"player_count":24,"max_players":24,"Bots":0,"server_type":"Dedicated","server_os":"Linux","password":true,"vac":true,"version":"7701286","steam_id":85568392924469998,"keywords":["nocrits","nodmgspread","payload","uncletopia"],"game_id":440,"stv_port":27026,"stv_name":"Uncletopia | Seattle | 2 | All Maps | STV","players":[{"user_id":127,"name":"Some Dood on the Internet","steam_id":76561198054657687,"connected_time":323000000000,"state":"active","ping":59},{"user_id":112,"name":"ehs","steam_id":76561198431048339,"connected_time":1333000000000,"state":"active","ping":72},{"user_id":91,"name":"Gentlegen","steam_id":76561198257368619,"connected_time":3503000000000,"state":"active","ping":136},{"user_id":113,"name":"atrocity exhibition","steam_id":76561198966232220,"connected_time":1194000000000,"state":"active","ping":44},{"user_id":85,"name":"2 Point Tom","steam_id":76561198087617008,"connected_time":4142000000000,"state":"active","ping":49},{"user_id":71,"name":"General Fisticuffs","steam_id":76561198255721392,"connected_time":5264000000000,"state":"active","ping":109},{"user_id":97,"name":"S Q U I S H E  T H A T  C A T","steam_id":76561198293865429,"connected_time":2571000000000,"state":"active","ping":43},{"user_id":104,"name":"R.Y.","steam_id":76561199384459715,"connected_time":2227000000000,"state":"active","ping":108},{"user_id":99,"name":"OmniXVII","steam_id":76561198027183394,"connected_time":2531000000000,"state":"active","ping":92},{"user_id":107,"name":"PotatoKing","steam_id":76561198302517491,"connected_time":2042000000000,"state":"active","ping":120},{"user_id":128,"name":"The Dumper","steam_id":76561198147302569,"connected_time":321000000000,"state":"active","ping":123},{"user_id":122,"name":"KingTinkerer","steam_id":76561198226856548,"connected_time":674000000000,"state":"active","ping":73},{"user_id":123,"name":"ansoonii","steam_id":76561198092494136,"connected_time":598000000000,"state":"active","ping":102},{"user_id":132,"name":"k","steam_id":76561198835242836,"connected_time":243000000000,"state":"active","ping":51},{"user_id":94,"name":"THAT CAT","steam_id":76561198010828625,"connected_time":2623000000000,"state":"active","ping":45},{"user_id":129,"name":"hypotenuse","steam_id":76561198062479158,"connected_time":315000000000,"state":"active","ping":62},{"user_id":124,"name":"Goldbug","steam_id":76561198025221202,"connected_time":584000000000,"state":"active","ping":67},{"user_id":126,"name":"Space bar ¬©","steam_id":76561199405318831,"connected_time":414000000000,"state":"active","ping":102},{"user_id":81,"name":"GameGuru the Green Gryphon","steam_id":76561198118495354,"connected_time":4610000000000,"state":"active","ping":57},{"user_id":133,"name":"supcupman","steam_id":76561198051513866,"connected_time":205000000000,"state":"active","ping":82},{"user_id":74,"name":"Mom","steam_id":76561198207936000,"connected_time":5163000000000,"state":"active","ping":69},{"user_id":130,"name":"Bob the Builder","steam_id":76561199069029812,"connected_time":314000000000,"state":"active","ping":73},{"user_id":117,"name":"bappo del taco","steam_id":76561199068510270,"connected_time":1121000000000,"state":"active","ping":65},{"user_id":119,"name":"goldhed","steam_id":76561198051751133,"connected_time":884000000000,"state":"active","ping":62}]},{"server_id":17,"name":"Uncletopia | San Francisco | 1 | All Maps","name_short":"sfo-1","host":"sfo-1.us.uncletopia.com","port":27015,"enabled":true,"region":"us-west","cc":"us","latitude":37.77397,"longitude":-122.4313,"reserved":0,"last_update":"0001-01-01T00:00:00Z","name_a2s":"Uncletopia | San Francisco | 1 | All Maps","protocol":17,"map":"cp_snakewater_final1","folder":"tf","game":"Team Fortress","app_id":440,"player_count":0,"max_players":24,"Bots":0,"server_type":"Dedicated","server_os":"Linux","password":true,"vac":true,"version":"7701286","steam_id":85568392924469999,"keywords":["cp","nocrits","nodmgspread","uncletopia"],"game_id":440,"stv_port":27016,"stv_name":"Uncletopia | San Francisco | 1 | All Maps | STV","players":null},{"server_id":18,"name":"Uncletopia | San Francisco | 2 | All Maps","name_short":"sfo-2","host":"sfo-1.us.uncletopia.com","port":27025,"enabled":true,"region":"us-west","cc":"us","latitude":37.77397,"longitude":-122.4313,"reserved":0,"last_update":"0001-01-01T00:00:00Z","name_a2s":"Uncletopia | San Francisco | 2 | All Maps","protocol":17,"map":"cp_altitude","folder":"tf","game":"Team Fortress","app_id":440,"player_count":5,"max_players":24,"Bots":0,"server_type":"Dedicated","server_os":"Linux","password":true,"vac":true,"version":"7701286","steam_id":85568392924470000,"keywords":["cp","nocrits","nodmgspread","uncletopia"],"game_id":440,"stv_port":27026,"stv_name":"Uncletopia | San Francisco | 2 | All Maps | STV","players":[{"user_id":18,"name":"GrandpappyCripes","steam_id":76561198086994768,"connected_time":3059000000000,"state":"active","ping":57},{"user_id":28,"name":"Facepalm","steam_id":76561198001935226,"connected_time":149000000000,"state":"active","ping":51},{"user_id":29,"name":"BrightOrangeMango","steam_id":76561198023144607,"connected_time":57000000000,"state":"active","ping":60},{"user_id":20,"name":"wubber","steam_id":76561198286627157,"connected_time":2547000000000,"state":"active","ping":108},{"user_id":25,"name":"El Monte","steam_id":76561198263562991,"connected_time":998000000000,"state":"active","ping":45}]},{"server_id":19,"name":"Uncletopia | San Francisco | 3 | No Payload","name_short":"sfo-3","host":"sfo-1.us.uncletopia.com","port":27035,"enabled":true,"region":"us-west","cc":"us","latitude":37.77397,"longitude":-122.4313,"reserved":0,"last_update":"0001-01-01T00:00:00Z","name_a2s":"Uncletopia | San Francisco | 3 | No Payload","protocol":17,"map":"koth_harvest_final","folder":"tf","game":"Team Fortress","app_id":440,"player_count":22,"max_players":24,"Bots":0,"server_type":"Dedicated","server_os":"Linux","password":true,"vac":true,"version":"7701286","steam_id":85568392924742824,"keywords":["cp","nocrits","nodmgspread","uncletopia"],"game_id":440,"stv_port":27036,"stv_name":"Uncletopia | San Francisco | 3 | No Payload | STV","players":[{"user_id":143,"name":"The Gremlin","steam_id":76561198419066993,"connected_time":1595000000000,"state":"active","ping":91},{"user_id":145,"name":"SesataPomang","steam_id":76561198145133059,"connected_time":1557000000000,"state":"active","ping":104},{"user_id":140,"name":"Jed I. Knight","steam_id":76561198047404704,"connected_time":1940000000000,"state":"active","ping":48},{"user_id":146,"name":"A UsedNom","steam_id":76561198402832756,"connected_time":1518000000000,"state":"active","ping":45},{"user_id":147,"name":"Miragelol","steam_id":76561198310890987,"connected_time":1479000000000,"state":"active","ping":40},{"user_id":166,"name":"Wormy Getting Coal","steam_id":76561198054539200,"connected_time":427000000000,"state":"active","ping":70},{"user_id":170,"name":"Nomad","steam_id":76561198170173062,"connected_time":354000000000,"state":"active","ping":40},{"user_id":152,"name":"The Squid Gamer‚Ñ¢","steam_id":76561198340621517,"connected_time":1203000000000,"state":"active","ping":76},{"user_id":167,"name":"oil","steam_id":76561198099980149,"connected_time":425000000000,"state":"active","ping":61},{"user_id":139,"name":"Bleebi","steam_id":76561197971264259,"connected_time":2094000000000,"state":"active","ping":98},{"user_id":168,"name":"Ricky","steam_id":76561198942322003,"connected_time":409000000000,"state":"active","ping":103},{"user_id":169,"name":"cwalczak253","steam_id":76561199416716038,"connected_time":398000000000,"state":"active","ping":60},{"user_id":173,"name":"Steves Supple Lips","steam_id":76561198278254798,"connected_time":154000000000,"state":"active","ping":100},{"user_id":171,"name":"BobbyLord_II","steam_id":76561198062356650,"connected_time":232000000000,"state":"active","ping":103},{"user_id":109,"name":"The Mincer","steam_id":76561198209881263,"connected_time":3246000000000,"state":"active","ping":56},{"user_id":151,"name":"johnman gooberguy","steam_id":76561199014859764,"connected_time":1311000000000,"state":"active","ping":61},{"user_id":107,"name":"nelly modelo","steam_id":76561198044875206,"connected_time":3309000000000,"state":"active","ping":69},{"user_id":154,"name":"estruli","steam_id":76561198295690725,"connected_time":1130000000000,"state":"active","ping":96},{"user_id":161,"name":"geirangerfjord","steam_id":76561198318126190,"connected_time":851000000000,"state":"active","ping":166},{"user_id":129,"name":"Eros","steam_id":76561198000530934,"connected_time":2589000000000,"state":"active","ping":52},{"user_id":163,"name":"DistantJragon","steam_id":76561198117563641,"connected_time":525000000000,"state":"active","ping":109},{"user_id":158,"name":"Cobrac","steam_id":76561198322428636,"connected_time":1045000000000,"state":"active","ping":60}]},{"server_id":20,"name":"Uncletopia | San Francisco | 4 | Community","name_short":"sfo-4","host":"sfo-1.us.uncletopia.com","port":27045,"enabled":true,"region":"us-west","cc":"us","latitude":37.77397,"longitude":-122.4313,"reserved":0,"last_update":"0001-01-01T00:00:00Z","name_a2s":"Uncletopia | San Francisco | 4 | Community","protocol":17,"map":"workshop/pl_barnblitz_pro7.ugc582280235","folder":"tf","game":"Team Fortress","app_id":440,"player_count":16,"max_players":24,"Bots":0,"server_type":"Dedicated","server_os":"Linux","password":true,"vac":true,"version":"7701286","steam_id":85568392924742826,"keywords":["nocrits","nodmgspread","payload","uncletopia"],"game_id":440,"stv_port":27046,"stv_name":"Uncletopia | San Francisco | 4 | Community | STV","players":[{"user_id":89,"name":"Cactus‚Ñ¢ ‚ô•","steam_id":76561198036441270,"connected_time":943000000000,"state":"active","ping":88},{"user_id":86,"name":"Breasticle Gaming","steam_id":76561198081765494,"connected_time":1455000000000,"state":"active","ping":60},{"user_id":66,"name":"Coolio-aid","steam_id":76561198218361691,"connected_time":3402000000000,"state":"active","ping":56},{"user_id":98,"name":"Ben","steam_id":76561198964345807,"connected_time":373000000000,"state":"active","ping":237},{"user_id":7,"name":"Kick Down Door 6:00AM TUCK‚òÉRO","steam_id":76561197976146738,"connected_time":7042000000000,"state":"active","ping":119},{"user_id":91,"name":"Soupreem","steam_id":76561198091944393,"connected_time":898000000000,"state":"active","ping":73},{"user_id":99,"name":"CSharp","steam_id":76561199185191710,"connected_time":157000000000,"state":"active","ping":114},{"user_id":12,"name":"Sliced_Kiwi","steam_id":76561198245104568,"connected_time":6936000000000,"state":"active","ping":81},{"user_id":60,"name":"Yarrun","steam_id":76561198046616908,"connected_time":4128000000000,"state":"active","ping":66},{"user_id":79,"name":"marknakhla11","steam_id":76561198122038289,"connected_time":2565000000000,"state":"active","ping":64},{"user_id":85,"name":"TYPICAL HUMAN","steam_id":76561198060914982,"connected_time":1458000000000,"state":"active","ping":64},{"user_id":44,"name":"aisu","steam_id":76561198043768507,"connected_time":4547000000000,"state":"active","ping":104},{"user_id":64,"name":"brae","steam_id":76561198047126327,"connected_time":3631000000000,"state":"active","ping":75},{"user_id":70,"name":"SolarusD","steam_id":76561198029279861,"connected_time":3161000000000,"state":"active","ping":46},{"user_id":92,"name":"Boiling Oil","steam_id":76561199238964574,"connected_time":886000000000,"state":"active","ping":63},{"user_id":94,"name":"Quietsharp","steam_id":76561198277968438,"connected_time":841000000000,"state":"active","ping":60}]},{"server_id":141,"name":"Uncletopia | Sydney | 1 | All Maps","name_short":"syd-1","host":"syd-1.au.uncletopia.com","port":27015,"enabled":true,"region":"au","cc":"au","latitude":-33.865143,"longitude":151.2099,"reserved":0,"last_update":"0001-01-01T00:00:00Z","name_a2s":"Uncletopia | Sydney | 1 | All Maps","protocol":17,"map":"pl_pier","folder":"tf","game":"Team Fortress","app_id":440,"player_count":24,"max_players":24,"Bots":0,"server_type":"Dedicated","server_os":"Linux","password":true,"vac":true,"version":"7701286","steam_id":85568392924470001,"keywords":["nocrits","nodmgspread","payload","uncletopia"],"game_id":440,"stv_port":27016,"stv_name":"Uncletopia | Sydney | 1 | All Maps | STV","players":[{"user_id":135,"name":"Michaelsoft Binbows","steam_id":76561198422847304,"connected_time":4480000000000,"state":"active","ping":57},{"user_id":201,"name":"Deltairl","steam_id":76561198058866284,"connected_time":601000000000,"state":"active","ping":36},{"user_id":200,"name":"hellmage20","steam_id":76561198060121268,"connected_time":675000000000,"state":"active","ping":68},{"user_id":150,"name":"Kumbya Kumbya","steam_id":76561198117979249,"connected_time":3299000000000,"state":"active","ping":60},{"user_id":177,"name":"Madison Ivy","steam_id":76561198074674290,"connected_time":1531000000000,"state":"active","ping":62},{"user_id":145,"name":"sweeney","steam_id":76561198164574293,"connected_time":3774000000000,"state":"active","ping":33},{"user_id":198,"name":"War","steam_id":76561198157868917,"connected_time":699000000000,"state":"active","ping":63},{"user_id":197,"name":"fuschu","steam_id":76561198125648728,"connected_time":732000000000,"state":"active","ping":40},{"user_id":164,"name":"blicky","steam_id":76561198029829077,"connected_time":2711000000000,"state":"active","ping":90},{"user_id":187,"name":"On My Way to Smooch You, I Am","steam_id":76561198041713339,"connected_time":1454000000000,"state":"active","ping":72},{"user_id":199,"name":"Xael","steam_id":76561198183528818,"connected_time":699000000000,"state":"active","ping":56},{"user_id":172,"name":"Squishy","steam_id":76561198985769205,"connected_time":2428000000000,"state":"active","ping":58},{"user_id":179,"name":"callistoAshley","steam_id":76561198178116375,"connected_time":1528000000000,"state":"active","ping":36},{"user_id":192,"name":"toots","steam_id":76561198094589768,"connected_time":1112000000000,"state":"active","ping":73},{"user_id":190,"name":"Big Booty Llama","steam_id":76561198074422721,"connected_time":1263000000000,"state":"active","ping":60},{"user_id":134,"name":"Glockenspe (She/Her)","steam_id":76561199184115241,"connected_time":4686000000000,"state":"active","ping":44},{"user_id":205,"name":"‚ô• Sharpy \u003e v \u003c","steam_id":76561198091613743,"connected_time":475000000000,"state":"active","ping":98},{"user_id":204,"name":"cimpact","steam_id":76561198452258917,"connected_time":501000000000,"state":"active","ping":137},{"user_id":206,"name":"jakefromrac","steam_id":76561198130390461,"connected_time":462000000000,"state":"active","ping":89},{"user_id":175,"name":"Macca","steam_id":76561198010207998,"connected_time":1740000000000,"state":"active","ping":58},{"user_id":207,"name":"Gasoline","steam_id":76561198879023728,"connected_time":319000000000,"state":"active","ping":90},{"user_id":171,"name":"Sherpa","steam_id":76561198018913829,"connected_time":2463000000000,"state":"active","ping":56},{"user_id":203,"name":"sweet","steam_id":76561198075311236,"connected_time":547000000000,"state":"active","ping":45},{"user_id":208,"name":"Classic Enjoyer","steam_id":76561198039843013,"connected_time":266000000000,"state":"active","ping":89}]},{"server_id":123,"name":"Uncletopia | Sydney | 2 | All Maps","name_short":"syd-2","host":"syd-1.au.uncletopia.com","port":27025,"enabled":true,"region":"au","cc":"au","latitude":-33.865143,"longitude":151.2099,"reserved":0,"last_update":"0001-01-01T00:00:00Z","name_a2s":"Uncletopia | Sydney | 2 | All Maps","protocol":17,"map":"koth_cascade","folder":"tf","game":"Team Fortress","app_id":440,"player_count":16,"max_players":24,"Bots":0,"server_type":"Dedicated","server_os":"Linux","password":true,"vac":true,"version":"7701286","steam_id":85568392924470002,"keywords":["cp","nocrits","nodmgspread","uncletopia"],"game_id":440,"stv_port":27026,"stv_name":"Uncletopia | Sydney | 2 | All Maps | STV","players":[{"user_id":112,"name":"pigeonpumper1991","steam_id":76561197985197292,"connected_time":1254000000000,"state":"active","ping":58},{"user_id":101,"name":"1000 Ping King","steam_id":76561198797058125,"connected_time":2671000000000,"state":"active","ping":79},{"user_id":138,"name":"A random douche","steam_id":76561198330644283,"connected_time":22000000000,"state":"active","ping":45},{"user_id":110,"name":"Editor_Billy","steam_id":76561199165608946,"connected_time":1530000000000,"state":"active","ping":58},{"user_id":119,"name":"microman502","steam_id":76561198193457850,"connected_time":713000000000,"state":"active","ping":43},{"user_id":114,"name":"shucks","steam_id":76561198260357417,"connected_time":1143000000000,"state":"active","ping":59},{"user_id":121,"name":"SuperNova","steam_id":76561198418441094,"connected_time":653000000000,"state":"active","ping":58},{"user_id":124,"name":"Bun Bun","steam_id":76561199437996642,"connected_time":588000000000,"state":"active","ping":45},{"user_id":136,"name":"Xenix","steam_id":76561198795888766,"connected_time":147000000000,"state":"active","ping":58},{"user_id":127,"name":"john","steam_id":76561198072743507,"connected_time":465000000000,"state":"active","ping":57},{"user_id":128,"name":"whiteshaq","steam_id":76561198131988811,"connected_time":397000000000,"state":"active","ping":71},{"user_id":132,"name":"maximind123","steam_id":76561199237473824,"connected_time":222000000000,"state":"active","ping":53},{"user_id":131,"name":"PsychoTy","steam_id":76561198806631730,"connected_time":288000000000,"state":"active","ping":59},{"user_id":134,"name":"fatheavytf2","steam_id":76561198369296417,"connected_time":173000000000,"state":"active","ping":56},{"user_id":135,"name":"Esiotrot101","steam_id":76561199017575950,"connected_time":166000000000,"state":"active","ping":53},{"user_id":137,"name":"Yegg","steam_id":76561198219898025,"connected_time":110000000000,"state":"active","ping":61}]},{"server_id":395,"name":"Uncletopia | Sydney | 3 | All Maps","name_short":"syd-3","host":"syd-1.au.uncletopia.com","port":27035,"enabled":true,"region":"au","cc":"au","latitude":-33.865143,"longitude":151.2099,"reserved":0,"last_update":"0001-01-01T00:00:00Z","name_a2s":"Uncletopia | Sydney | 3 | All Maps","protocol":17,"map":"cp_process_final","folder":"tf","game":"Team Fortress","app_id":440,"player_count":0,"max_players":24,"Bots":0,"server_type":"Dedicated","server_os":"Linux","password":true,"vac":true,"version":"7701286","steam_id":85568392925194467,"keywords":["cp","nocrits","nodmgspread","uncletopia"],"game_id":440,"stv_port":0,"stv_name":"","players":null},{"server_id":396,"name":"Uncletopia | Sydney | 4 | All Maps","name_short":"syd-4","host":"syd-1.au.uncletopia.com","port":27045,"enabled":true,"region":"au","cc":"au","latitude":-33.865143,"longitude":151.2099,"reserved":0,"last_update":"0001-01-01T00:00:00Z","name_a2s":"Uncletopia | Sydney | 4 | All Maps","protocol":17,"map":"koth_highpass","folder":"tf","game":"Team Fortress","app_id":440,"player_count":0,"max_players":24,"Bots":0,"server_type":"Dedicated","server_os":"Linux","password":true,"vac":true,"version":"7701286","steam_id":85568392925397958,"keywords":["cp","nocrits","nodmgspread","uncletopia"],"game_id":440,"stv_port":0,"stv_name":"","players":null},{"server_id":58,"name":"Uncletopia | Sydney | 5 | No Payload","name_short":"syd-5","host":"syd-1.au.uncletopia.com","port":27055,"enabled":true,"region":"au","cc":"au","latitude":-33.865143,"longitude":151.2099,"reserved":0,"last_update":"0001-01-01T00:00:00Z","name_a2s":"Uncletopia | Sydney | 5 | No Payload","protocol":17,"map":"cp_egypt_final","folder":"tf","game":"Team Fortress","app_id":440,"player_count":0,"max_players":24,"Bots":0,"server_type":"Dedicated","server_os":"Linux","password":true,"vac":true,"version":"7701286","steam_id":85568392925397959,"keywords":["cp","nocrits","nodmgspread","uncletopia"],"game_id":440,"stv_port":27056,"stv_name":"Uncletopia | Sydney | 5 | No Payload | STV","players":null},{"server_id":59,"name":"Uncletopia | Sydney | 6 | Community","name_short":"syd-6","host":"syd-1.au.uncletopia.com","port":27065,"enabled":true,"region":"au","cc":"au","latitude":-33.865143,"longitude":151.2099,"reserved":0,"last_update":"0001-01-01T00:00:00Z","name_a2s":"Uncletopia | Sydney | 6 | Community","protocol":17,"map":"workshop/cp_reckoner_rc6.ugc674719999","folder":"tf","game":"Team Fortress","app_id":440,"player_count":0,"max_players":24,"Bots":0,"server_type":"Dedicated","server_os":"Linux","password":true,"vac":true,"version":"7701286","steam_id":85568392925397960,"keywords":["cp","nocrits","nodmgspread","uncletopia"],"game_id":440,"stv_port":27066,"stv_name":"Uncletopia | Sydney | 6 | Community | STV","players":null},{"server_id":49,"name":"Uncletopia | Warsaw | 1 | All Maps","name_short":"waw-1","host":"waw-1.pl.uncletopia.com","port":27015,"enabled":true,"region":"eu","cc":"pl","latitude":52.2297,"longitude":21.017532,"reserved":0,"last_update":"0001-01-01T00:00:00Z","name_a2s":"Uncletopia | Warsaw | 1 | All Maps","protocol":17,"map":"pl_upward","folder":"tf","game":"Team Fortress","app_id":440,"player_count":0,"max_players":24,"Bots":0,"server_type":"Dedicated","server_os":"Linux","password":true,"vac":true,"version":"7701286","steam_id":85568392925397850,"keywords":["nocrits","nodmgspread","payload","uncletopia"],"game_id":440,"stv_port":0,"stv_name":"","players":null},{"server_id":50,"name":"Uncletopia | Warsaw | 2 | All Maps","name_short":"waw-2","host":"waw-1.pl.uncletopia.com","port":27025,"enabled":true,"region":"eu","cc":"pl","latitude":52.2297,"longitude":21.017532,"reserved":0,"last_update":"0001-01-01T00:00:00Z","name_a2s":"Uncletopia | Warsaw | 2 | All Maps","protocol":17,"map":"koth_highpass","folder":"tf","game":"Team Fortress","app_id":440,"player_count":0,"max_players":24,"Bots":0,"server_type":"Dedicated","server_os":"Linux","password":true,"vac":true,"version":"7701286","steam_id":85568392925397851,"keywords":["cp","nocrits","nodmgspread","uncletopia"],"game_id":440,"stv_port":0,"stv_name":"","players":null},{"server_id":51,"name":"Uncletopia | Warsaw | 3 | All Maps","name_short":"waw-3","host":"waw-1.pl.uncletopia.com","port":27035,"enabled":true,"region":"eu","cc":"pl","latitude":52.2297,"longitude":21.017532,"reserved":0,"last_update":"0001-01-01T00:00:00Z","name_a2s":"Uncletopia | Warsaw | 3 | All Maps","protocol":17,"map":"cp_mountainlab","folder":"tf","game":"Team Fortress","app_id":440,"player_count":0,"max_players":24,"Bots":0,"server_type":"Dedicated","server_os":"Linux","password":true,"vac":true,"version":"7701286","steam_id":85568392925397852,"keywords":["cp","nocrits","nodmgspread","uncletopia"],"game_id":440,"stv_port":0,"stv_name":"","players":null},{"server_id":52,"name":"Uncletopia | Warsaw | 4 | All Maps","name_short":"waw-4","host":"waw-1.pl.uncletopia.com","port":27045,"enabled":true,"region":"eu","cc":"pl","latitude":52.2297,"longitude":21.017532,"reserved":0,"last_update":"0001-01-01T00:00:00Z","name_a2s":"Uncletopia | Warsaw | 4 | All Maps","protocol":17,"map":"pl_borneo","folder":"tf","game":"Team Fortress","app_id":440,"player_count":0,"max_players":24,"Bots":0,"server_type":"Dedicated","server_os":"Linux","password":true,"vac":true,"version":"7701286","steam_id":85568392925397853,"keywords":["nocrits","nodmgspread","payload","uncletopia"],"game_id":440,"stv_port":0,"stv_name":"","players":null},{"server_id":53,"name":"Uncletopia | Warsaw | 5 | No Payload","name_short":"waw-5","host":"waw-1.pl.uncletopia.com","port":27055,"enabled":true,"region":"eu","cc":"pl","latitude":52.2297,"longitude":21.017532,"reserved":0,"last_update":"0001-01-01T00:00:00Z","name_a2s":"Uncletopia | Warsaw | 5 | No Payload","protocol":17,"map":"pl_frontier_final","folder":"tf","game":"Team Fortress","app_id":440,"player_count":0,"max_players":24,"Bots":0,"server_type":"Dedicated","server_os":"Linux","password":true,"vac":true,"version":"7701286","steam_id":85568392925397854,"keywords":["nocrits","nodmgspread","payload","uncletopia"],"game_id":440,"stv_port":0,"stv_name":"","players":null},{"server_id":54,"name":"Uncletopia | Warsaw | 6 | Community","name_short":"waw-6","host":"waw-1.pl.uncletopia.com","port":27065,"enabled":true,"region":"eu","cc":"pl","latitude":52.2297,"longitude":21.017532,"reserved":0,"last_update":"0001-01-01T00:00:00Z","name_a2s":"Uncletopia | Warsaw | 6 | Community","protocol":17,"map":"pl_pier","folder":"tf","game":"Team Fortress","app_id":440,"player_count":0,"max_players":24,"Bots":0,"server_type":"Dedicated","server_os":"Linux","password":true,"vac":true,"version":"7701286","steam_id":85568392925397856,"keywords":["nocrits","nodmgspread","payload","uncletopia"],"game_id":440,"stv_port":0,"stv_name":"","players":null}]}