{"status":true,"message":"","result":[{"server_id":9,"name":"Uncletopia | Atlanta | 1 | All Maps","name_short":"atl-1","host":"atl-1.us.uncletopia.com","port":27015,"enabled":true,"region":"us-east","cc":"us","latitude":33.753746,"longitude":-84.38633,"reserved":0,"last_update":"0001-01-01T00:00:00Z","name_a2s":"Uncletopia | Atlanta | 1 | All Maps","protocol":17,"map":"cp_snakewater_final1","folder":"tf","game":"Team Fortress","app_id":440,"player_count":0,"max_players":24,"Bots":0,"server_type":"Dedicated","server_os":"Linux","password":false,"vac":true,"version":"7961495","steam_id":85568392924469982,"keywords":["cp","nocrits","nodmgspread","uncletopia"],"game_id":440,"stv_port":27016,"stv_name":"Uncletopia | Atlanta | 1 | All Maps | STV","players":null},{"server_id":104,"name":"Uncletopia | Atlanta | 2 | All Maps","name_short":"atl-2","host":"atl-1.us.uncletopia.com","port":27025,"enabled":true,"region":"us-east","cc":"us","latitude":33.753746,"longitude":-84.38633,"reserved":0,"last_update":"0001-01-01T00:00:00Z","name_a2s":"Uncletopia | Atlanta | 2 | All Maps","protocol":17,"map":"cp_mountainlab","folder":"tf","game":"Team Fortress","app_id":440,"player_count":0,"max_players":24,"Bots":0,"server_type":"Dedicated","server_os":"Linux","password":false,"vac":true,"version":"7961495","steam_id":85568392924469983,"keywords":["cp","nocrits","nodmgspread","uncletopia"],"game_id":440,"stv_port":27026,"stv_name":"Uncletopia | Atlanta | 2 | All Maps | STV","players":null},{"server_id":400,"name":"Uncletopia | Atlanta | 3 | All Maps","name_short":"atl-3","host":"atl-1.us.uncletopia.com","port":27035,"enabled":true,"region":"us-east","cc":"us","latitude":33.753746,"longitude":-84.38633,"reserved":0,"last_update":"0001-01-01T00:00:00Z","name_a2s":"Uncletopia | Atlanta | 3 | All Maps","protocol":17,"map":"cp_process_final","folder":"tf","game":"Team Fortress","app_id":440,"player_count":0,"max_players":24,"Bots":0,"server_type":"Dedicated","server_os":"Linux","password":false,"vac":true,"version":"7961495","steam_id":85568392924515187,"keywords":["cp","nocrits","nodmgspread","uncletopia"],"game_id":440,"stv_port":27036,"stv_name":"Uncletopia | Atlanta | 3 | All Maps | STV","players":null},{"server_id":401,"name":"Uncletopia | Atlanta | 4 | Community","name_short":"atl-4","host":"atl-1.us.uncletopia.com","port":27045,"enabled":true,"region":"us-east","cc":"us","latitude":33.753746,"longitude":-84.38633,"reserved":0,"last_update":"0001-01-01T00:00:00Z","name_a2s":"Uncletopia | Atlanta | 4 | Community","protocol":17,"map":"koth_lakeside_final","folder":"tf","game":"Team Fortress","app_id":440,"player_count":0,"max_players":24,"Bots":0,"server_type":"Dedicated","server_os":"Linux","password":false,"vac":true,"version":"7961495","steam_id":85568392924515188,"keywords":["cp","nocrits","nodmgspread","uncletopia"],"game_id":440,"stv_port":27046,"stv_name":"Uncletopia | Atlanta | 4 | Community | STV","players":null},{"server_id":2,"name":"Uncletopia | Chicago | 1 | All Maps","name_short":"chi-1","host":"chi-1.us.uncletopia.com","port":27015,"enabled":true,"region":"us-central","cc":"us","latitude":41.881832,"longitude":-87.62318,"reserved":0,"last_update":"0001-01-01T00:00:00Z","name_a2s":"Uncletopia | Chicago | 1 | All Maps","protocol":17,"map":"cp_process_final","folder":"tf","game":"Team Fortress","app_id":440,"player_count":0,"max_players":24,"Bots":0,"server_type":"Dedicated","server_os":"Linux","password":true,"vac":true,"version":"7961495","steam_id":85568392924469984,"keywords":["cp","nocrits","nodmgspread","uncletopia"],"game_id":440,"stv_port":27016,"stv_name":"Uncletopia | Chicago | 1 | All Maps | STV","players":null},{"server_id":106,"name":"Uncletopia | Chicago | 2 | All Maps","name_short":"chi-2","host":"chi-1.us.uncletopia.com","port":27025,"enabled":true,"region":"us-central","cc":"us","latitude":41.881832,"longitude":-87.62318,"reserved":0,"last_update":"0001-01-01T00:00:00Z","name_a2s":"Uncletopia | Chicago | 2 | All Maps","protocol":17,"map":"koth_highpass","folder":"tf","game":"Team Fortress","app_id":440,"player_count":0,"max_players":24,"Bots":0,"server_type":"Dedicated","server_os":"Linux","password":true,"vac":true,"version":"7961495","steam_id":85568392924469985,"keywords":["cp","nocrits","nodmgspread","uncletopia"],"game_id":440,"stv_port":27026,"stv_name":"Uncletopia | Chicago | 2 | All Maps | STV","players":null},{"server_id":402,"name":"Uncletopia | Chicago | 3 | All Maps","name_short":"chi-3","host":"chi-1.us.uncletopia.com","port":27035,"enabled":true,"region":"us-central","cc":"us","latitude":41.881832,"longitude":-87.62318,"reserved":0,"last_update":"0001-01-01T00:00:00Z","name_a2s":"Uncletopia | Chicago | 3 | All Maps","protocol":17,"map":"cp_mountainlab","folder":"tf","game":"Team Fortress","app_id":440,"player_count":0,"max_players":24,"Bots":0,"server_type":"Dedicated","server_os":"Linux","password":true,"vac":true,"version":"7961495","steam_id":85568392924515191,"keywords":["cp","nocrits","nodmgspread","uncletopia"],"game_id":440,"stv_port":27036,"stv_name":"Uncletopia | Chicago | 3 | All Maps | STV","players":null},{"server_id":403,"name":"Uncletopia | Chicago | 4 | All Maps","name_short":"chi-4","host":"chi-1.us.uncletopia.com","port":27045,"enabled":true,"region":"us-central","cc":"us","latitude":41.881832,"longitude":-87.62318,"reserved":0,"last_update":"0001-01-01T00:00:00Z","name_a2s":"Uncletopia | Chicago | 4 | All Maps","protocol":17,"map":"cp_dustbowl","folder":"tf","game":"Team Fortress","app_id":440,"player_count":25,"max_players":24,"Bots":0,"server_type":"Dedicated","server_os":"Linux","password":true,"vac":true,"version":"7961495","steam_id":85568392924515193,"keywords":["cp","nocrits","nodmgspread","uncletopia"],"game_id":440,"stv_port":27046,"stv_name":"Uncletopia | Chicago | 4 | All Maps | STV","players":[{"user_id":911,"name":"zpalmtree","steam_id":76561198134307620,"connected_time":3191000000000,"state":"active","ping":69},{"user_id":912,"name":"Mufalito","steam_id":76561198951889482,"connected_time":3153000000000,"state":"active","ping":139},{"user_id":947,"name":"JamJohn","steam_id":76561198812294103,"connected_time":1350000000000,"state":"active","ping":63},{"user_id":972,"name":"coral","steam_id":76561199020638552,"connected_time":17000000000,"state":"spawning","ping":86},{"user_id":926,"name":"Elena Manetta","steam_id":76561197998344054,"connected_time":2203000000000,"state":"active","ping":51},{"user_id":958,"name":"Sanity Impaired Toast Man","steam_id":76561198057654265,"connected_time":691000000000,"state":"active","ping":81},{"user_id":948,"name":"ARegularJohnDoe","steam_id":76561198015020139,"connected_time":1314000000000,"state":"active","ping":59},{"user_id":925,"name":"Crunchy Coconut Cashew Crumble","steam_id":76561198092494136,"connected_time":2379000000000,"state":"active","ping":61},{"user_id":905,"name":"Bewen","steam_id":76561198325334261,"connected_time":3452000000000,"state":"active","ping":60},{"user_id":928,"name":"pele","steam_id":76561198021224745,"connected_time":2197000000000,"state":"active","ping":56},{"user_id":907,"name":"Burgmin","steam_id":76561198046678918,"connected_time":3358000000000,"state":"active","ping":109},{"user_id":908,"name":"AsianCthulhu","steam_id":76561198079761055,"connected_time":3279000000000,"state":"active","ping":119},{"user_id":973,"name":"AAA.tRs","steam_id":76561197995592740,"connected_time":5000000000,"state":"spawning","ping":106},{"user_id":942,"name":"Flexo","steam_id":76561198111618506,"connected_time":1710000000000,"state":"active","ping":111},{"user_id":936,"name":"ilovemymom","steam_id":76561198063119561,"connected_time":1978000000000,"state":"active","ping":75},{"user_id":915,"name":"Mixelg","steam_id":76561198026806132,"connected_time":3046000000000,"state":"active","ping":99},{"user_id":916,"name":"JoshRosh","steam_id":76561198959352313,"connected_time":3031000000000,"state":"active","ping":102},{"user_id":962,"name":"Digresser","steam_id":76561198016426367,"connected_time":403000000000,"state":"active","ping":58},{"user_id":960,"name":"ColdTooth","steam_id":76561197994963901,"connected_time":531000000000,"state":"active","ping":80},{"user_id":945,"name":"V","steam_id":76561198998082956,"connected_time":1608000000000,"state":"active","ping":48},{"user_id":920,"name":"Zyro","steam_id":76561198101249688,"connected_time":2837000000000,"state":"active","ping":104},{"user_id":961,"name":"Boo! Boo I Say!","steam_id":76561198272427405,"connected_time":503000000000,"state":"active","ping":77},{"user_id":939,"name":"4 life","steam_id":76561198175961598,"connected_time":1941000000000,"state":"active","ping":117},{"user_id":940,"name":"DragonHaert","steam_id":76561198132516061,"connected_time":1806000000000,"state":"active","ping":65},{"user_id":955,"name":"basilthenasa","steam_id":76561199388111764,"connected_time":931000000000,"state":"active","ping":100}]},{"server_id":36,"name":"Uncletopia | Chicago | 5 | All Maps","name_short":"chi-5","host":"chi-2.us.uncletopia.com","port":27015,"enabled":true,"region":"us-central","cc":"us","latitude":41.881832,"longitude":-87.62318,"reserved":0,"last_update":"0001-01-01T00:00:00Z","name_a2s":"Uncletopia | Chicago | 5 | All Maps","protocol":17,"map":"cp_yukon_final","folder":"tf","game":"Team Fortress","app_id":440,"player_count":0,"max_players":24,"Bots":0,"server_type":"Dedicated","server_os":"Linux","password":true,"vac":true,"version":"7961495","steam_id":85568392924866362,"keywords":["cp","nocrits","nodmgspread","uncletopia"],"game_id":440,"stv_port":27016,"stv_name":"Uncletopia | Chicago | 5 | All Maps | STV","players":null},{"server_id":37,"name":"Uncletopia | Chicago | 6 | All Maps","name_short":"chi-6","host":"chi-2.us.uncletopia.com","port":27025,"enabled":true,"region":"us-central","cc":"us","latitude":41.881832,"longitude":-87.62318,"reserved":0,"last_update":"0001-01-01T00:00:00Z","name_a2s":"Uncletopia | Chicago | 6 | All Maps","protocol":17,"map":"koth_suijin","folder":"tf","game":"Team Fortress","app_id":440,"player_count":5,"max_players":24,"Bots":0,"server_type":"Dedicated","server_os":"Linux","password":true,"vac":true,"version":"7961495","steam_id":85568392924866363,"keywords":["cp","nocrits","nodmgspread","uncletopia"],"game_id":440,"stv_port":27026,"stv_name":"Uncletopia | Chicago | 6 | All Maps | STV","players":[{"user_id":524,"name":"=alice","steam_id":76561199093026056,"connected_time":752000000000,"state":"active","ping":60},{"user_id":525,"name":"The Man of sex","steam_id":76561199215144646,"connected_time":418000000000,"state":"active","ping":171},{"user_id":526,"name":"NINJADRAGONS + COSMIC WAFFLES","steam_id":76561198148479997,"connected_time":5000000000,"state":"spawning","ping":318},{"user_id":523,"name":"Axelonemillion15","steam_id":76561198421342282,"connected_time":1704000000000,"state":"active","ping":104},{"user_id":505,"name":"Two","steam_id":76561198207078715,"connected_time":4526000000000,"state":"active","ping":100}]},{"server_id":38,"name":"Uncletopia | Chicago | 7 | Stopwatch Beta","name_short":"chi-7","host":"chi-2.us.uncletopia.com","port":27035,"enabled":true,"region":"us-central","cc":"us","latitude":41.881832,"longitude":-87.62318,"reserved":0,"last_update":"0001-01-01T00:00:00Z","name_a2s":"Uncletopia | Chicago | 7 | Stopwatch Beta","protocol":17,"map":"workshop/pl_summercoast_rc8e.ugc1761528829","folder":"tf","game":"Team Fortress","app_id":440,"player_count":0,"max_players":24,"Bots":0,"server_type":"Dedicated","server_os":"Linux","password":true,"vac":true,"version":"7961495","steam_id":85568392924866364,"keywords":["nocrits","nodmgspread","payload","uncletopia"],"game_id":440,"stv_port":27036,"stv_name":"Uncletopia | Chicago | 7 | Stopwatch Beta | STV","players":null},{"server_id":39,"name":"Uncletopia | Chicago | 8 | Community","name_short":"chi-8","host":"chi-2.us.uncletopia.com","port":27045,"enabled":true,"region":"us-central","cc":"us","latitude":41.881832,"longitude":-87.62318,"reserved":0,"last_update":"0001-01-01T00:00:00Z","name_a2s":"Uncletopia | Chicago | 8 | Community","protocol":17,"map":"workshop/pl_shoreleave_rc2.ugc1238849347","folder":"tf","game":"Team Fortress","app_id":440,"player_count":17,"max_players":24,"Bots":0,"server_type":"Dedicated","server_os":"Linux","password":true,"vac":true,"version":"7961495","steam_id":85568392924866365,"keywords":["nocrits","nodmgspread","payload","uncletopia"],"game_id":440,"stv_port":27046,"stv_name":"Uncletopia | Chicago | 8 | Community | STV","players":[{"user_id":575,"name":"SPECREY","steam_id":76561199070114026,"connected_time":24000000000,"state":"spawning","ping":198},{"user_id":512,"name":"speakers","steam_id":76561198138221795,"connected_time":5898000000000,"state":"spawning","ping":317},{"user_id":557,"name":"thug hunter","steam_id":76561198355738163,"connected_time":1473000000000,"state":"spawning","ping":356},{"user_id":550,"name":"That Darned Imperialist","steam_id":76561198854501307,"connected_time":2627000000000,"state":"spawning","ping":280},{"user_id":563,"name":"Laz0r","steam_id":76561197971114767,"connected_time":1070000000000,"state":"spawning","ping":303},{"user_id":564,"name":"Gun 4 Hire","steam_id":76561198064361438,"connected_time":767000000000,"state":"spawning","ping":183},{"user_id":554,"name":"_Denis_Stefan_","steam_id":76561198452592266,"connected_time":1770000000000,"state":"spawning","ping":290},{"user_id":565,"name":"Kbass421","steam_id":76561198104684512,"connected_time":764000000000,"state":"spawning","ping":137},{"user_id":566,"name":"Spenjo59","steam_id":76561198082358486,"connected_time":685000000000,"state":"spawning","ping":241},{"user_id":558,"name":"JaM724","steam_id":76561199077582671,"connected_time":1378000000000,"state":"spawning","ping":193},{"user_id":546,"name":"WaffleSailor","steam_id":76561198105315951,"connected_time":3185000000000,"state":"spawning","ping":172},{"user_id":514,"name":"JimmyJelqs1994","steam_id":76561198132068284,"connected_time":5849000000000,"state":"active","ping":84},{"user_id":513,"name":"love from kazakhstan","steam_id":76561199161322235,"connected_time":5897000000000,"state":"active","ping":106},{"user_id":571,"name":"glue on roach","steam_id":76561198027298961,"connected_time":232000000000,"state":"active","ping":53},{"user_id":525,"name":"zhaye #abolishallverbs","steam_id":76561198178638591,"connected_time":5199000000000,"state":"active","ping":70},{"user_id":572,"name":"Triwq","steam_id":76561198054810406,"connected_time":231000000000,"state":"active","ping":73},{"user_id":574,"name":"dmdr1969","steam_id":76561198080469611,"connected_time":171000000000,"state":"active","ping":100}]},{"server_id":8,"name":"Uncletopia | Dallas | 1 | All Maps","name_short":"dal-1","host":"dal-1.us.uncletopia.com","port":27015,"enabled":true,"region":"us-central","cc":"us","latitude":32.779167,"longitude":-96.80889,"reserved":0,"last_update":"0001-01-01T00:00:00Z","name_a2s":"Uncletopia | Dallas | 1 | All Maps","protocol":17,"map":"pl_frontier_final","folder":"tf","game":"Team Fortress","app_id":440,"player_count":24,"max_players":24,"Bots":0,"server_type":"Dedicated","server_os":"Linux","password":true,"vac":true,"version":"7961495","steam_id":85568392924469986,"keywords":["nocrits","nodmgspread","payload","uncletopia"],"game_id":440,"stv_port":27016,"stv_name":"Uncletopia | Dallas | 1 | All Maps | STV","players":[{"user_id":642,"name":"I am NOT a Spy","steam_id":76561199153596010,"connected_time":75000000000,"state":"active","ping":119},{"user_id":632,"name":"loser","steam_id":76561198259380127,"connected_time":1355000000000,"state":"active","ping":76},{"user_id":640,"name":"KrylonHeretic","steam_id":76561198139811459,"connected_time":138000000000,"state":"active","ping":94},{"user_id":619,"name":"MrNarwhale","steam_id":76561198222364020,"connected_time":2956000000000,"state":"active","ping":96},{"user_id":626,"name":"Bong Wick","steam_id":76561198024531021,"connected_time":1839000000000,"state":"active","ping":96},{"user_id":562,"name":"OG Coach Player","steam_id":76561198070465100,"connected_time":6181000000000,"state":"active","ping":83},{"user_id":622,"name":"Techne","steam_id":76561198090486583,"connected_time":2710000000000,"state":"active","ping":98},{"user_id":610,"name":"Chad","steam_id":76561198222313772,"connected_time":3370000000000,"state":"active","ping":101},{"user_id":627,"name":"DRLdestroyer","steam_id":76561198085803893,"connected_time":1832000000000,"state":"active","ping":91},{"user_id":635,"name":"Deadline","steam_id":76561199079078845,"connected_time":949000000000,"state":"active","ping":88},{"user_id":599,"name":"KevilPo","steam_id":76561199244507267,"connected_time":4036000000000,"state":"active","ping":90},{"user_id":549,"name":"PegFear","steam_id":76561198048488824,"connected_time":7680000000000,"state":"active","ping":72},{"user_id":575,"name":"Will5550","steam_id":76561198273838135,"connected_time":5500000000000,"state":"active","ping":77},{"user_id":628,"name":"Lucky","steam_id":76561198418262145,"connected_time":1832000000000,"state":"active","ping":131},{"user_id":636,"name":"Killerfish360","steam_id":76561198115029584,"connected_time":896000000000,"state":"active","ping":71},{"user_id":621,"name":"Tsih \u003e:D","steam_id":76561198068209121,"connected_time":2808000000000,"state":"active","ping":95},{"user_id":589,"name":"exten-z","steam_id":76561198004359190,"connected_time":4549000000000,"state":"active","ping":77},{"user_id":637,"name":"burp","steam_id":76561198090531755,"connected_time":891000000000,"state":"active","ping":45},{"user_id":612,"name":"SpicyTacoMan","steam_id":76561198335699828,"connected_time":3366000000000,"state":"active","ping":101},{"user_id":638,"name":"Kirbothebrony","steam_id":76561198971911330,"connected_time":474000000000,"state":"active","ping":73},{"user_id":643,"name":"Wan Shi Tong","steam_id":76561198076441225,"connected_time":49000000000,"state":"active","ping":81},{"user_id":641,"name":"chemâœ¨","steam_id":76561198972045654,"connected_time":130000000000,"state":"active","ping":85},{"user_id":593,"name":"Smoke Stacks","steam_id":76561197999478769,"connected_time":4512000000000,"state":"active","ping":62},{"user_id":630,"name":"(TPT) Ghost","steam_id":76561198123262873,"connected_time":1789000000000,"state":"active","ping":96}]},{"server_id":108,"name":"Uncletopia | Dallas | 2 | All Maps","name_short":"dal-2","host":"dal-1.us.uncletopia.com","port":27025,"enabled":true,"region":"us-central","cc":"us","latitude":32.779167,"longitude":-96.80889,"reserved":0,"last_update":"0001-01-01T00:00:00Z","name_a2s":"Uncletopia | Dallas | 2 | All Maps","protocol":17,"map":"pl_upward","folder":"tf","game":"Team Fortress","app_id":440,"player_count":3,"max_players":24,"Bots":0,"server_type":"Dedicated","server_os":"Linux","password":true,"vac":true,"version":"7961495","steam_id":85568392924469988,"keywords":["nocrits","nodmgspread","payload","uncletopia"],"game_id":440,"stv_port":27026,"stv_name":"Uncletopia | Dallas | 2 | All Maps | STV","players":[{"user_id":549,"name":"ShadowWasUhOh","steam_id":76561198400361935,"connected_time":1606000000000,"state":"active","ping":62},{"user_id":551,"name":"banan team fortes","steam_id":76561199073621650,"connected_time":1014000000000,"state":"active","ping":77},{"user_id":552,"name":"David","steam_id":76561198008157353,"connected_time":515000000000,"state":"active","ping":101}]},{"server_id":404,"name":"Uncletopia | Dallas | 3 | All Maps","name_short":"dal-3","host":"dal-1.us.uncletopia.com","port":27035,"enabled":true,"region":"us-central","cc":"us","latitude":32.779167,"longitude":-96.80889,"reserved":0,"last_update":"0001-01-01T00:00:00Z","name_a2s":"Uncletopia | Dallas | 3 | All Maps","protocol":17,"map":"cp_snakewater_final1","folder":"tf","game":"Team Fortress","app_id":440,"player_count":10,"max_players":24,"Bots":0,"server_type":"Dedicated","server_os":"Linux","password":true,"vac":true,"version":"7961495","steam_id":85568392924515219,"keywords":["cp","nocrits","nodmgspread","uncletopia"],"game_id":440,"stv_port":27036,"stv_name":"Uncletopia | Dallas | 3 | All Maps | STV","players":[{"user_id":522,"name":"1000 Ping","steam_id":76561198098330939,"connected_time":542000000000,"state":"active","ping":98},{"user_id":527,"name":"Levi","steam_id":76561198089832776,"connected_time":37000000000,"state":"active","ping":52},{"user_id":524,"name":"PBxJAY","steam_id":76561198402471788,"connected_time":279000000000,"state":"active","ping":113},{"user_id":526,"name":"sentry food","steam_id":76561198042926224,"connected_time":88000000000,"state":"active","ping":72},{"user_id":498,"name":"cincoyt LFB","steam_id":76561198041643833,"connected_time":2334000000000,"state":"active","ping":59},{"user_id":512,"name":"goliath birdeater","steam_id":76561198089852954,"connected_time":1383000000000,"state":"active","ping":77},{"user_id":507,"name":"Missing Minus","steam_id":76561198120822928,"connected_time":2066000000000,"state":"active","ping":63},{"user_id":508,"name":"Rusted Cake","steam_id":76561198209755931,"connected_time":2065000000000,"state":"active","ping":86},{"user_id":516,"name":"LobsterDog","steam_id":76561198055441918,"connected_time":1018000000000,"state":"active","ping":82},{"user_id":520,"name":"MothManMan","steam_id":76561198048781101,"connected_time":691000000000,"state":"active","ping":83}]},{"server_id":405,"name":"Uncletopia | Dallas | 4 | Community","name_short":"dal-4","host":"dal-1.us.uncletopia.com","port":27045,"enabled":true,"region":"us-central","cc":"us","latitude":32.779167,"longitude":-96.80889,"reserved":0,"last_update":"0001-01-01T00:00:00Z","name_a2s":"Uncletopia | Dallas | 4 | Community","protocol":17,"map":"workshop/cp_sulfur_rc2.ugc619869471","folder":"tf","game":"Team Fortress","app_id":440,"player_count":0,"max_players":24,"Bots":0,"server_type":"Dedicated","server_os":"Linux","password":true,"vac":true,"version":"7961495","steam_id":85568392924515220,"keywords":["cp","nocrits","nodmgspread","uncletopia"],"game_id":440,"stv_port":27046,"stv_name":"Uncletopia | Dallas | 4 | Community | STV","players":null},{"server_id":5,"name":"Uncletopia | Frankfurt | 1 | All Maps","name_short":"frk-1","host":"frk-1.de.uncletopia.com","port":27015,"enabled":true,"region":"eu","cc":"de","latitude":50.110924,"longitude":8.682127,"reserved":0,"last_update":"0001-01-01T00:00:00Z","name_a2s":"Uncletopia | Frankfurt | 1 | All Maps","protocol":17,"map":"koth_highpass","folder":"tf","game":"Team Fortress","app_id":440,"player_count":0,"max_players":24,"Bots":0,"server_type":"Dedicated","server_os":"Linux","password":true,"vac":true,"version":"7961495","steam_id":85568392924469989,"keywords":["cp","nocrits","nodmgspread","uncletopia"],"game_id":440,"stv_port":27016,"stv_name":"Uncletopia | Frankfurt | 1 | All Maps | STV","players":null},{"server_id":110,"name":"Uncletopia | Frankfurt | 2 | All Maps","name_short":"frk-2","host":"frk-1.de.uncletopia.com","port":27025,"enabled":true,"region":"eu","cc":"de","latitude":50.110924,"longitude":8.682127,"reserved":0,"last_update":"0001-01-01T00:00:00Z","name_a2s":"Uncletopia | Frankfurt | 2 | All Maps","protocol":17,"map":"koth_lakeside_final","folder":"tf","game":"Team Fortress","app_id":440,"player_count":0,"max_players":24,"Bots":0,"server_type":"Dedicated","server_os":"Linux","password":true,"vac":true,"version":"7961495","steam_id":85568392924469990,"keywords":["cp","nocrits","nodmgspread","uncletopia"],"game_id":440,"stv_port":27026,"stv_name":"Uncletopia | Frankfurt | 2 | All Maps | STV","players":null},{"server_id":308,"name":"Uncletopia | Frankfurt | 3 | All Maps","name_short":"frk-3","host":"frk-1.de.uncletopia.com","port":27035,"enabled":true,"region":"eu","cc":"de","latitude":50.110924,"longitude":8.682127,"reserved":0,"last_update":"0001-01-01T00:00:00Z","name_a2s":"Uncletopia | Frankfurt | 3 | All Maps","protocol":17,"map":"pl_snowycoast","folder":"tf","game":"Team Fortress","app_id":440,"player_count":1,"max_players":24,"Bots":0,"server_type":"Dedicated","server_os":"Linux","password":true,"vac":true,"version":"7961495","steam_id":85568392924504274,"keywords":["nocrits","nodmgspread","payload","uncletopia"],"game_id":440,"stv_port":27036,"stv_name":"Uncletopia | Frankfurt | 3 | All Maps | STV","players":[{"user_id":5,"name":"Zedespook","steam_id":76561198265479349,"connected_time":264000000000,"state":"active","ping":53}]},{"server_id":309,"name":"Uncletopia | Frankfurt | 4 | All Maps","name_short":"frk-4","host":"frk-1.de.uncletopia.com","port":27045,"enabled":true,"region":"eu","cc":"de","latitude":50.110924,"longitude":8.682127,"reserved":0,"last_update":"0001-01-01T00:00:00Z","name_a2s":"Uncletopia | Frankfurt | 4 | All Maps","protocol":17,"map":"cp_altitude","folder":"tf","game":"Team Fortress","app_id":440,"player_count":0,"max_players":24,"Bots":0,"server_type":"Dedicated","server_os":"Linux","password":true,"vac":true,"version":"7961495","steam_id":85568392924504275,"keywords":["cp","nocrits","nodmgspread","uncletopia"],"game_id":440,"stv_port":27046,"stv_name":"Uncletopia | Frankfurt | 4 | All Maps | STV","players":null},{"server_id":310,"name":"Uncletopia | Frankfurt | 5 | All Maps","name_short":"frk-5","host":"frk-1.de.uncletopia.com","port":27055,"enabled":true,"region":"eu","cc":"de","latitude":50.110924,"longitude":8.682127,"reserved":0,"last_update":"0001-01-01T00:00:00Z","name_a2s":"Uncletopia | Frankfurt | 5 | All Maps","protocol":17,"map":"cp_process_final","folder":"tf","game":"Team Fortress","app_id":440,"player_count":0,"max_players":24,"Bots":0,"server_type":"Dedicated","server_os":"Linux","password":true,"vac":true,"version":"7961495","steam_id":85568392924504277,"keywords":["cp","nocrits","nodmgspread","uncletopia"],"game_id":440,"stv_port":27056,"stv_name":"Uncletopia | Frankfurt | 5 | All Maps | STV","players":null},{"server_id":311,"name":"Uncletopia | Frankfurt | 6 | All Maps","name_short":"frk-6","host":"frk-1.de.uncletopia.com","port":27065,"enabled":true,"region":"eu","cc":"de","latitude":50.110924,"longitude":8.682127,"reserved":0,"last_update":"0001-01-01T00:00:00Z","name_a2s":"Uncletopia | Frankfurt | 6 | All Maps","protocol":17,"map":"pl_barnblitz","folder":"tf","game":"Team Fortress","app_id":440,"player_count":0,"max_players":24,"Bots":0,"server_type":"Dedicated","server_os":"Linux","password":true,"vac":true,"version":"7961495","steam_id":85568392924504278,"keywords":["nocrits","nodmgspread","payload","uncletopia"],"game_id":440,"stv_port":27066,"stv_name":"Uncletopia | Frankfurt | 6 | All Maps | STV","players":null},{"server_id":23,"name":"Uncletopia | Frankfurt | 7 | Stopwatch Beta","name_short":"frk-7","host":"frk-1.de.uncletopia.com","port":27075,"enabled":true,"region":"eu","cc":"de","latitude":50.110924,"longitude":8.682127,"reserved":0,"last_update":"0001-01-01T00:00:00Z","name_a2s":"Uncletopia | Frankfurt | 7 | Stopwatch Beta","protocol":17,"map":"koth_cascade","folder":"tf","game":"Team Fortress","app_id":440,"player_count":0,"max_players":24,"Bots":0,"server_type":"Dedicated","server_os":"Linux","password":true,"vac":true,"version":"7961495","steam_id":85568392924742827,"keywords":["cp","nocrits","nodmgspread","uncletopia"],"game_id":440,"stv_port":27076,"stv_name":"Uncletopia | Frankfurt | 7 | Stopwatch Beta | STV","players":null},{"server_id":24,"name":"Uncletopia | Frankfurt | 8 | Community","name_short":"frk-8","host":"frk-1.de.uncletopia.com","port":27085,"enabled":true,"region":"eu","cc":"de","latitude":50.110924,"longitude":8.682127,"reserved":0,"last_update":"0001-01-01T00:00:00Z","name_a2s":"Uncletopia | Frankfurt | 8 | Community","protocol":17,"map":"cp_dustbowl","folder":"tf","game":"Team Fortress","app_id":440,"player_count":0,"max_players":24,"Bots":0,"server_type":"Dedicated","server_os":"Linux","password":true,"vac":true,"version":"7961495","steam_id":85568392924742828,"keywords":["cp","nocrits","nodmgspread","uncletopia"],"game_id":440,"stv_port":27086,"stv_name":"Uncletopia | Frankfurt | 8 | Community | STV","players":null},{"server_id":202,"name":"Uncletopia | Hong Kong | 1 | All Maps","name_short":"hgk-1","host":"hgk-1.hk.uncletopia.com","port":27015,"enabled":true,"region":"asia","cc":"hk","latitude":22.302711,"longitude":114.177216,"reserved":0,"last_update":"0001-01-01T00:00:00Z","name_a2s":"Uncletopia | Hong Kong | 1 | All Maps","protocol":17,"map":"pl_upward","folder":"tf","game":"Team Fortress","app_id":440,"player_count":24,"max_players":24,"Bots":0,"server_type":"Dedicated","server_os":"Linux","password":true,"vac":true,"version":"7961495","steam_id":85568392924494504,"keywords":["nocrits","nodmgspread","payload","uncletopia"],"game_id":440,"stv_port":27016,"stv_name":"Uncletopia | Hong Kong | 1 | All Maps | STV","players":[{"user_id":114,"name":"ðŸ’€","steam_id":76561198061628689,"connected_time":1020000000000,"state":"active","ping":49},{"user_id":89,"name":"let him cook","steam_id":76561199219484527,"connected_time":3568000000000,"state":"active","ping":124},{"user_id":104,"name":"doctor morbin' (official)","steam_id":76561199365241695,"connected_time":2302000000000,"state":"active","ping":77},{"user_id":90,"name":"aron","steam_id":76561198160062999,"connected_time":3528000000000,"state":"active","ping":56},{"user_id":74,"name":"MemeManButWorse","steam_id":76561199173914462,"connected_time":4618000000000,"state":"active","ping":82},{"user_id":122,"name":"asian shaman","steam_id":76561198412329672,"connected_time":549000000000,"state":"active","ping":89},{"user_id":73,"name":"Brick","steam_id":76561199177456602,"connected_time":4631000000000,"state":"active","ping":111},{"user_id":102,"name":"trout","steam_id":76561198798927037,"connected_time":2843000000000,"state":"active","ping":87},{"user_id":86,"name":"nicky manage","steam_id":76561198055553140,"connected_time":3624000000000,"state":"active","ping":75},{"user_id":88,"name":"brizzard","steam_id":76561198048438653,"connected_time":3576000000000,"state":"active","ping":56},{"user_id":123,"name":"yes ah!","steam_id":76561198106803228,"connected_time":173000000000,"state":"active","ping":86},{"user_id":58,"name":"ê¹€ê´‘ë§Œ","steam_id":76561198295279503,"connected_time":5808000000000,"state":"active","ping":82},{"user_id":68,"name":"spinach (old mouse)","steam_id":76561198042539541,"connected_time":5470000000000,"state":"active","ping":80},{"user_id":77,"name":"Mari (Femboy therapy)","steam_id":76561199034546642,"connected_time":4544000000000,"state":"active","ping":112},{"user_id":71,"name":"TomProPlayer","steam_id":76561199223292521,"connected_time":5268000000000,"state":"active","ping":72},{"user_id":100,"name":"allyoucangamer","steam_id":76561199179250525,"connected_time":2931000000000,"state":"active","ping":66},{"user_id":110,"name":"guy fucks girl","steam_id":76561198320532821,"connected_time":1343000000000,"state":"active","ping":56},{"user_id":80,"name":"Yes","steam_id":76561198854425654,"connected_time":4356000000000,"state":"active","ping":100},{"user_id":117,"name":"Hay","steam_id":76561199438952901,"connected_time":599000000000,"state":"active","ping":57},{"user_id":85,"name":"redmond","steam_id":76561198056390902,"connected_time":3636000000000,"state":"active","ping":59},{"user_id":78,"name":"áƒ¦Jun.","steam_id":76561198275846469,"connected_time":4514000000000,"state":"active","ping":77},{"user_id":118,"name":"Lelouch","steam_id":76561198828840546,"connected_time":595000000000,"state":"active","ping":81},{"user_id":120,"name":"meowdy","steam_id":76561198337154745,"connected_time":591000000000,"state":"active","ping":90},{"user_id":116,"name":"Ivy","steam_id":76561198400698408,"connected_time":620000000000,"state":"active","ping":94}]},{"server_id":1,"name":"Uncletopia | Los Angeles | 1 | All Maps","name_short":"lax-1","host":"lax-1.us.uncletopia.com","port":27015,"enabled":true,"region":"us-west","cc":"us","latitude":33.94279,"longitude":-118.41004,"reserved":0,"last_update":"0001-01-01T00:00:00Z","name_a2s":"Uncletopia | Los Angeles | 1 | All Maps","protocol":17,"map":"cp_dustbowl","folder":"tf","game":"Team Fortress","app_id":440,"player_count":23,"max_players":24,"Bots":0,"server_type":"Dedicated","server_os":"Linux","password":true,"vac":true,"version":"7961495","steam_id":85568392924469991,"keywords":["cp","nocrits","nodmgspread","uncletopia"],"game_id":440,"stv_port":27016,"stv_name":"Uncletopia | Los Angeles | 1 | All Maps | STV","players":[{"user_id":900,"name":"Scorpion","steam_id":76561198325651066,"connected_time":2563000000000,"state":"active","ping":64},{"user_id":923,"name":"sora","steam_id":76561198094256973,"connected_time":1493000000000,"state":"active","ping":42},{"user_id":890,"name":"orangePulp","steam_id":76561198038373636,"connected_time":4087000000000,"state":"active","ping":55},{"user_id":935,"name":"Vegan Veal","steam_id":76561198123607452,"connected_time":84000000000,"state":"spawning","ping":77},{"user_id":844,"name":"Happytoe","steam_id":76561198001295503,"connected_time":8971000000000,"state":"active","ping":69},{"user_id":932,"name":"RIP Old Man Chico :(","steam_id":76561198865172720,"connected_time":319000000000,"state":"active","ping":60},{"user_id":910,"name":"Tech Deck","steam_id":76561199070437675,"connected_time":2080000000000,"state":"active","ping":56},{"user_id":921,"name":"meat","steam_id":76561198209153291,"connected_time":1557000000000,"state":"active","ping":48},{"user_id":899,"name":"Nate","steam_id":76561198045186954,"connected_time":2580000000000,"state":"active","ping":54},{"user_id":934,"name":"Ralph Kramden (Slim Charles)","steam_id":76561197981687895,"connected_time":203000000000,"state":"active","ping":56},{"user_id":918,"name":"Jerusalem BBQ","steam_id":76561198072897408,"connected_time":1776000000000,"state":"active","ping":70},{"user_id":922,"name":"orbisg","steam_id":76561198004133638,"connected_time":1553000000000,"state":"active","ping":49},{"user_id":845,"name":"pieoflife7","steam_id":76561198049517264,"connected_time":8964000000000,"state":"active","ping":65},{"user_id":888,"name":"Killerofzombie23","steam_id":76561198799173778,"connected_time":4301000000000,"state":"active","ping":72},{"user_id":924,"name":"Apex","steam_id":76561199058954656,"connected_time":1474000000000,"state":"active","ping":61},{"user_id":882,"name":"Canned Lobster","steam_id":76561198110847328,"connected_time":4839000000000,"state":"active","ping":52},{"user_id":929,"name":"IM DRINMK AS FICKE","steam_id":76561198381199862,"connected_time":1112000000000,"state":"active","ping":104},{"user_id":914,"name":"n99k","steam_id":76561198203732449,"connected_time":1873000000000,"state":"active","ping":105},{"user_id":927,"name":"geronimo fucks","steam_id":76561198041863231,"connected_time":1405000000000,"state":"active","ping":71},{"user_id":895,"name":"Tonic the Eggnog","steam_id":76561198085810161,"connected_time":3115000000000,"state":"active","ping":45},{"user_id":876,"name":"Whisper!","steam_id":76561198119609795,"connected_time":5567000000000,"state":"active","ping":46},{"user_id":909,"name":"OneMisguidedSlyGuy","steam_id":76561198372243261,"connected_time":2111000000000,"state":"active","ping":47},{"user_id":928,"name":"sunday marcela","steam_id":76561198143371128,"connected_time":1387000000000,"state":"active","ping":69}]},{"server_id":112,"name":"Uncletopia | Los Angeles | 2 | All Maps","name_short":"lax-2","host":"lax-1.us.uncletopia.com","port":27025,"enabled":true,"region":"us-west","cc":"us","latitude":33.94279,"longitude":-118.41004,"reserved":0,"last_update":"0001-01-01T00:00:00Z","name_a2s":"Uncletopia | Los Angeles | 2 | All Maps","protocol":17,"map":"pl_barnblitz","folder":"tf","game":"Team Fortress","app_id":440,"player_count":19,"max_players":24,"Bots":0,"server_type":"Dedicated","server_os":"Linux","password":true,"vac":true,"version":"7961495","steam_id":85568392924469992,"keywords":["nocrits","nodmgspread","payload","uncletopia"],"game_id":440,"stv_port":27026,"stv_name":"Uncletopia | Los Angeles | 2 | All Maps | STV","players":[{"user_id":210,"name":"Gyr0sphere","steam_id":76561198183900735,"connected_time":20289000000000,"state":"active","ping":60},{"user_id":439,"name":"cringeass nae-nae girl","steam_id":76561198108753857,"connected_time":7000000000,"state":"spawning","ping":94},{"user_id":434,"name":"Hatty","steam_id":76561198076880281,"connected_time":224000000000,"state":"active","ping":86},{"user_id":415,"name":"C4eam","steam_id":76561199099537250,"connected_time":1114000000000,"state":"active","ping":49},{"user_id":425,"name":"Coolstuff #ForFountain","steam_id":76561198178350213,"connected_time":486000000000,"state":"active","ping":90},{"user_id":417,"name":"The Ghostâ„¢","steam_id":76561198061292612,"connected_time":992000000000,"state":"active","ping":54},{"user_id":360,"name":"SolarusD","steam_id":76561198029279861,"connected_time":6713000000000,"state":"active","ping":56},{"user_id":420,"name":"Lambchop","steam_id":76561198043900363,"connected_time":931000000000,"state":"active","ping":62},{"user_id":422,"name":"XX mann","steam_id":76561199102391736,"connected_time":673000000000,"state":"active","ping":47},{"user_id":436,"name":"Clornk (Destroyer of Happiness)","steam_id":76561198360396485,"connected_time":134000000000,"state":"active","ping":62},{"user_id":424,"name":"Zoom","steam_id":76561198968058652,"connected_time":531000000000,"state":"active","ping":75},{"user_id":437,"name":"kwetzal","steam_id":76561198845749671,"connected_time":85000000000,"state":"active","ping":71},{"user_id":427,"name":"alen","steam_id":76561198110731302,"connected_time":328000000000,"state":"active","ping":54},{"user_id":428,"name":"CaiGaming","steam_id":76561198313023508,"connected_time":318000000000,"state":"active","ping":66},{"user_id":431,"name":"Yung Tdoug","steam_id":76561199023039901,"connected_time":276000000000,"state":"active","ping":33},{"user_id":440,"name":"Star_Mann_Jr.","steam_id":76561198071148924,"connected_time":4000000000,"state":"spawning","ping":52},{"user_id":396,"name":"Semen Protector","steam_id":76561199247095754,"connected_time":3798000000000,"state":"active","ping":102},{"user_id":432,"name":"Amogous Supreme","steam_id":76561198025476774,"connected_time":256000000000,"state":"active","ping":67},{"user_id":403,"name":"weedmaster","steam_id":76561199012869095,"connected_time":2918000000000,"state":"active","ping":112}]},{"server_id":324,"name":"Uncletopia | Los Angeles | 3 | All Maps","name_short":"lax-3","host":"lax-1.us.uncletopia.com","port":27035,"enabled":true,"region":"us-west","cc":"us","latitude":33.94279,"longitude":-118.41004,"reserved":0,"last_update":"0001-01-01T00:00:00Z","name_a2s":"Uncletopia | Los Angeles | 3 | All Maps","protocol":17,"map":"pl_swiftwater_final1","folder":"tf","game":"Team Fortress","app_id":440,"player_count":24,"max_players":24,"Bots":0,"server_type":"Dedicated","server_os":"Linux","password":true,"vac":true,"version":"7961495","steam_id":85568392924510198,"keywords":["nocrits","nodmgspread","payload","uncletopia"],"game_id":440,"stv_port":27036,"stv_name":"Uncletopia | Los Angeles | 3 | All Maps | STV","players":[{"user_id":393,"name":"Giorno Giovanna","steam_id":76561198044106874,"connected_time":3105000000000,"state":"active","ping":61},{"user_id":344,"name":"Krancky","steam_id":76561198037754361,"connected_time":6829000000000,"state":"active","ping":91},{"user_id":400,"name":"Accents","steam_id":76561198038339224,"connected_time":2012000000000,"state":"active","ping":85},{"user_id":401,"name":"magickk_","steam_id":76561198311162618,"connected_time":1939000000000,"state":"active","ping":81},{"user_id":416,"name":"mjr","steam_id":76561198148301033,"connected_time":846000000000,"state":"active","ping":88},{"user_id":407,"name":"Scott","steam_id":76561198145939702,"connected_time":1711000000000,"state":"active","ping":148},{"user_id":405,"name":"NobodyYouKnow","steam_id":76561198124804899,"connected_time":1727000000000,"state":"active","ping":128},{"user_id":349,"name":"Rust","steam_id":76561197998431701,"connected_time":6555000000000,"state":"active","ping":71},{"user_id":381,"name":"AimBÃ¼tter","steam_id":76561198060108739,"connected_time":3708000000000,"state":"active","ping":51},{"user_id":403,"name":"ZeeKThe3rd","steam_id":76561198190156546,"connected_time":1821000000000,"state":"active","ping":58},{"user_id":415,"name":"â›§Snuffoâ›§","steam_id":76561198110883015,"connected_time":907000000000,"state":"active","ping":55},{"user_id":412,"name":"Petravox","steam_id":76561198044102138,"connected_time":1558000000000,"state":"active","ping":75},{"user_id":419,"name":"Beepleton The 3rd","steam_id":76561198081466207,"connected_time":493000000000,"state":"active","ping":91},{"user_id":395,"name":"Frost","steam_id":76561198272014381,"connected_time":2492000000000,"state":"active","ping":69},{"user_id":387,"name":"10HourNaps","steam_id":76561199082304859,"connected_time":3493000000000,"state":"active","ping":83},{"user_id":373,"name":"Vitae Kakon","steam_id":76561198307440313,"connected_time":4891000000000,"state":"active","ping":55},{"user_id":408,"name":"La Bomba","steam_id":76561198069948353,"connected_time":1702000000000,"state":"active","ping":106},{"user_id":420,"name":"Sleuth","steam_id":76561198418288939,"connected_time":215000000000,"state":"active","ping":71},{"user_id":394,"name":"i saw'er","steam_id":76561199305518744,"connected_time":2816000000000,"state":"active","ping":39},{"user_id":411,"name":"TRASHMASTER3000","steam_id":76561198118546107,"connected_time":1608000000000,"state":"active","ping":59},{"user_id":418,"name":"minerkid2004","steam_id":76561198044262827,"connected_time":796000000000,"state":"active","ping":61},{"user_id":414,"name":"ChimCham","steam_id":76561198311221811,"connected_time":1393000000000,"state":"active","ping":70},{"user_id":391,"name":"Tully","steam_id":76561198862509250,"connected_time":3374000000000,"state":"active","ping":102},{"user_id":397,"name":"Irony is pretty cringy","steam_id":76561198120391460,"connected_time":2412000000000,"state":"active","ping":45}]},{"server_id":25,"name":"Uncletopia | Los Angeles | 4 | Stopwatch Beta","name_short":"lax-4","host":"lax-1.us.uncletopia.com","port":27045,"enabled":true,"region":"us-west","cc":"us","latitude":33.94279,"longitude":-118.41004,"reserved":0,"last_update":"0001-01-01T00:00:00Z","name_a2s":"Uncletopia | Los Angeles | 4 | Stopwatch Beta","protocol":17,"map":"pl_borneo","folder":"tf","game":"Team Fortress","app_id":440,"player_count":0,"max_players":24,"Bots":0,"server_type":"Dedicated","server_os":"Linux","password":true,"vac":true,"version":"7961495","steam_id":85568392924510199,"keywords":["nocrits","nodmgspread","payload","uncletopia"],"game_id":440,"stv_port":27046,"stv_name":"Uncletopia | Los Angeles | 4 | Stopwatch Beta | STV","players":null},{"server_id":11,"name":"Uncletopia | London | 1 | All Maps","name_short":"lon-1","host":"lon-1.uk.uncletopia.com","port":27015,"enabled":true,"region":"eu","cc":"gb","latitude":51.509865,"longitude":-0.118092,"reserved":0,"last_update":"0001-01-01T00:00:00Z","name_a2s":"Uncletopia | London | 1 | All Maps","protocol":17,"map":"koth_viaduct","folder":"tf","game":"Team Fortress","app_id":440,"player_count":24,"max_players":24,"Bots":0,"server_type":"Dedicated","server_os":"Linux","password":true,"vac":true,"version":"7961495","steam_id":85568392924367362,"keywords":["cp","nocrits","nodmgspread","uncletopia"],"game_id":440,"stv_port":27016,"stv_name":"Uncletopia | London | 1 | All Maps | STV","players":[{"user_id":78,"name":"Bounty_","steam_id":76561199060704870,"connected_time":5018000000000,"state":"active","ping":79},{"user_id":135,"name":"duplicated","steam_id":76561198344952248,"connected_time":242000000000,"state":"active","ping":60},{"user_id":124,"name":"Fat Pigeon","steam_id":76561198817940142,"connected_time":1203000000000,"state":"active","ping":48},{"user_id":137,"name":"Perci","steam_id":76561198097789669,"connected_time":68000000000,"state":"active","ping":69},{"user_id":131,"name":"Cookies and Bakies","steam_id":76561198017442928,"connected_time":331000000000,"state":"active","ping":64},{"user_id":129,"name":"summer","steam_id":76561198170056395,"connected_time":641000000000,"state":"active","ping":48},{"user_id":119,"name":"Sim","steam_id":76561198086641180,"connected_time":1453000000000,"state":"active","ping":99},{"user_id":120,"name":"mark","steam_id":76561198309246388,"connected_time":1447000000000,"state":"active","ping":53},{"user_id":138,"name":"Syrex","steam_id":76561199183163344,"connected_time":53000000000,"state":"active","ping":80},{"user_id":94,"name":"i hate this game","steam_id":76561198066977580,"connected_time":3705000000000,"state":"active","ping":99},{"user_id":112,"name":"Not Sussy Tanuki","steam_id":76561198137289375,"connected_time":2526000000000,"state":"active","ping":107},{"user_id":123,"name":"Sochin","steam_id":76561198967412865,"connected_time":1246000000000,"state":"active","ping":73},{"user_id":136,"name":"NNH.Ñ‡Ñ‘ Ð²Ñ‹","steam_id":76561198275235668,"connected_time":208000000000,"state":"active","ping":126},{"user_id":110,"name":"The ADHD GUY","steam_id":76561198383864449,"connected_time":2569000000000,"state":"active","ping":84},{"user_id":122,"name":"Pahlberg","steam_id":76561198208547929,"connected_time":1393000000000,"state":"active","ping":88},{"user_id":57,"name":"lagzer","steam_id":76561198029295449,"connected_time":7171000000000,"state":"active","ping":80},{"user_id":61,"name":"MichaÅ‚","steam_id":76561198320346362,"connected_time":6932000000000,"state":"active","ping":70},{"user_id":105,"name":"justajem101","steam_id":76561199228510573,"connected_time":3247000000000,"state":"active","ping":87},{"user_id":113,"name":"yuno appreciator","steam_id":76561198083286511,"connected_time":2349000000000,"state":"active","ping":42},{"user_id":103,"name":"EagleDeath","steam_id":76561198282441198,"connected_time":3296000000000,"state":"active","ping":83},{"user_id":116,"name":"SVIFT ympo","steam_id":76561198202441870,"connected_time":1938000000000,"state":"active","ping":57},{"user_id":133,"name":"cock","steam_id":76561198307522022,"connected_time":331000000000,"state":"active","ping":47},{"user_id":109,"name":"drooling plushy","steam_id":76561199041264644,"connected_time":2650000000000,"state":"active","ping":71},{"user_id":118,"name":"Barneeyy","steam_id":76561198252413532,"connected_time":1907000000000,"state":"active","ping":60}]},{"server_id":114,"name":"Uncletopia | London | 2 | All Maps","name_short":"lon-2","host":"lon-1.uk.uncletopia.com","port":27025,"enabled":true,"region":"eu","cc":"gb","latitude":51.509865,"longitude":-0.118092,"reserved":0,"last_update":"0001-01-01T00:00:00Z","name_a2s":"Uncletopia | London | 2 | All Maps","protocol":17,"map":"koth_viaduct","folder":"tf","game":"Team Fortress","app_id":440,"player_count":0,"max_players":24,"Bots":0,"server_type":"Dedicated","server_os":"Linux","password":true,"vac":true,"version":"7961495","steam_id":85568392924470941,"keywords":["cp","nocrits","nodmgspread","uncletopia"],"game_id":440,"stv_port":27026,"stv_name":"Uncletopia | London | 2 | All Maps | STV","players":null},{"server_id":320,"name":"Uncletopia | London | 3 | All Maps","name_short":"lon-3","host":"lon-1.uk.uncletopia.com","port":27035,"enabled":true,"region":"eu","cc":"gb","latitude":51.509865,"longitude":-0.118092,"reserved":0,"last_update":"0001-01-01T00:00:00Z","name_a2s":"Uncletopia | London | 3 | All Maps","protocol":17,"map":"pl_pier","folder":"tf","game":"Team Fortress","app_id":440,"player_count":0,"max_players":24,"Bots":0,"server_type":"Dedicated","server_os":"Linux","password":true,"vac":true,"version":"7961495","steam_id":85568392924510192,"keywords":["nocrits","nodmgspread","payload","uncletopia"],"game_id":440,"stv_port":27036,"stv_name":"Uncletopia | London | 3 | All Maps | STV","players":null},{"server_id":321,"name":"Uncletopia | London | 4 | All Maps","name_short":"lon-4","host":"lon-1.uk.uncletopia.com","port":27045,"enabled":true,"region":"eu","cc":"gb","latitude":51.509865,"longitude":-0.118092,"reserved":0,"last_update":"0001-01-01T00:00:00Z","name_a2s":"Uncletopia | London | 4 | All Maps","protocol":17,"map":"cp_dustbowl","folder":"tf","game":"Team Fortress","app_id":440,"player_count":1,"max_players":24,"Bots":0,"server_type":"Dedicated","server_os":"Linux","password":true,"vac":true,"version":"7961495","steam_id":85568392924510193,"keywords":["cp","nocrits","nodmgspread","uncletopia"],"game_id":440,"stv_port":27046,"stv_name":"Uncletopia | London | 4 | All Maps | STV","players":[{"user_id":18,"name":"Put dispenser here!","steam_id":76561199223828948,"connected_time":63000000000,"state":"active","ping":113}]},{"server_id":21,"name":"Uncletopia | London | 5 | All Maps","name_short":"lon-5","host":"lon-1.uk.uncletopia.com","port":27055,"enabled":true,"region":"eu","cc":"gb","latitude":51.509865,"longitude":-0.118092,"reserved":0,"last_update":"0001-01-01T00:00:00Z","name_a2s":"Uncletopia | London | 5 | All Maps","protocol":17,"map":"pl_barnblitz","folder":"tf","game":"Team Fortress","app_id":440,"player_count":0,"max_players":24,"Bots":0,"server_type":"Dedicated","server_os":"Linux","password":true,"vac":true,"version":"7961495","steam_id":85568392924742829,"keywords":["nocrits","nodmgspread","payload","uncletopia"],"game_id":440,"stv_port":27056,"stv_name":"Uncletopia | London | 5 | All Maps | STV","players":null},{"server_id":22,"name":"Uncletopia | London | 6 | All Maps","name_short":"lon-6","host":"lon-1.uk.uncletopia.com","port":27065,"enabled":true,"region":"eu","cc":"gb","latitude":51.509865,"longitude":-0.118092,"reserved":0,"last_update":"0001-01-01T00:00:00Z","name_a2s":"Uncletopia | London | 6 | All Maps","protocol":17,"map":"pl_borneo","folder":"tf","game":"Team Fortress","app_id":440,"player_count":0,"max_players":24,"Bots":0,"server_type":"Dedicated","server_os":"Linux","password":true,"vac":true,"version":"7961495","steam_id":85568392924742830,"keywords":["nocrits","nodmgspread","payload","uncletopia"],"game_id":440,"stv_port":27066,"stv_name":"Uncletopia | London | 6 | All Maps | STV","players":null},{"server_id":40,"name":"Uncletopia | London | 7 | No Payload","name_short":"lon-7","host":"lon-1.uk.uncletopia.com","port":27075,"enabled":true,"region":"eu","cc":"gb","latitude":51.509865,"longitude":-0.118092,"reserved":0,"last_update":"0001-01-01T00:00:00Z","name_a2s":"Uncletopia | London | 7 | No Payload","protocol":17,"map":"pl_pier","folder":"tf","game":"Team Fortress","app_id":440,"player_count":0,"max_players":24,"Bots":0,"server_type":"Dedicated","server_os":"Linux","password":true,"vac":true,"version":"7961495","steam_id":85568392924964314,"keywords":["nocrits","nodmgspread","payload","uncletopia"],"game_id":440,"stv_port":27076,"stv_name":"Uncletopia | London | 7 | No Payload | STV","players":null},{"server_id":41,"name":"Uncletopia | London | 8 | Community","name_short":"lon-8","host":"lon-1.uk.uncletopia.com","port":27085,"enabled":true,"region":"eu","cc":"gb","latitude":51.509865,"longitude":-0.118092,"reserved":0,"last_update":"0001-01-01T00:00:00Z","name_a2s":"Uncletopia | London | 8 | Community","protocol":17,"map":"pl_borneo","folder":"tf","game":"Team Fortress","app_id":440,"player_count":0,"max_players":24,"Bots":0,"server_type":"Dedicated","server_os":"Linux","password":true,"vac":true,"version":"7961495","steam_id":85568392924964315,"keywords":["nocrits","nodmgspread","payload","uncletopia"],"game_id":440,"stv_port":27086,"stv_name":"Uncletopia | London | 8 | Community | STV","players":null},{"server_id":300,"name":"Uncletopia | MontrÃ©al | 1 | All Maps","name_short":"mtl-1","host":"mtl-1.ca.uncletopia.com","port":27015,"enabled":true,"region":"us-east","cc":"ca","latitude":45.50889,"longitude":-73.56167,"reserved":0,"last_update":"0001-01-01T00:00:00Z","name_a2s":"","protocol":0,"map":"","folder":"","game":"","app_id":0,"player_count":0,"max_players":0,"Bots":0,"server_type":"","server_os":"","password":false,"vac":false,"version":"","steam_id":0,"keywords":null,"game_id":0,"stv_port":0,"stv_name":"","players":null},{"server_id":301,"name":"Uncletopia | MontrÃ©al | 2 | All Maps","name_short":"mtl-2","host":"mtl-1.ca.uncletopia.com","port":27025,"enabled":true,"region":"us-east","cc":"ca","latitude":45.50889,"longitude":-73.56167,"reserved":0,"last_update":"0001-01-01T00:00:00Z","name_a2s":"","protocol":0,"map":"","folder":"","game":"","app_id":0,"player_count":0,"max_players":0,"Bots":0,"server_type":"","server_os":"","password":false,"vac":false,"version":"","steam_id":0,"keywords":null,"game_id":0,"stv_port":0,"stv_name":"","players":null},{"server_id":302,"name":"Uncletopia | MontrÃ©al | 3 | All Maps","name_short":"mtl-3","host":"mtl-1.ca.uncletopia.com","port":27035,"enabled":true,"region":"us-east","cc":"ca","latitude":45.50889,"longitude":-73.56167,"reserved":0,"last_update":"0001-01-01T00:00:00Z","name_a2s":"","protocol":0,"map":"","folder":"","game":"","app_id":0,"player_count":0,"max_players":0,"Bots":0,"server_type":"","server_os":"","password":false,"vac":false,"version":"","steam_id":0,"keywords":null,"game_id":0,"stv_port":0,"stv_name":"","players":null},{"server_id":303,"name":"Uncletopia | MontrÃ©al | 4 | No Payload","name_short":"mtl-4","host":"mtl-1.ca.uncletopia.com","port":27045,"enabled":true,"region":"us-east","cc":"ca","latitude":45.50889,"longitude":-73.56167,"reserved":0,"last_update":"0001-01-01T00:00:00Z","name_a2s":"","protocol":0,"map":"","folder":"","game":"","app_id":0,"player_count":0,"max_players":0,"Bots":0,"server_type":"","server_os":"","password":false,"vac":false,"version":"","steam_id":0,"keywords":null,"game_id":0,"stv_port":0,"stv_name":"","players":null},{"server_id":13,"name":"Uncletopia | New York City | 1 | All Maps","name_short":"nyc-1","host":"nyc-1.us.uncletopia.com","port":27015,"enabled":true,"region":"us-east","cc":"us","latitude":40.73061,"longitude":-73.93524,"reserved":0,"last_update":"0001-01-01T00:00:00Z","name_a2s":"Uncletopia | New York City | 1 | All Maps","protocol":17,"map":"cp_dustbowl","folder":"tf","game":"Team Fortress","app_id":440,"player_count":24,"max_players":24,"Bots":0,"server_type":"Dedicated","server_os":"Linux","password":true,"vac":true,"version":"7961495","steam_id":85568392924469993,"keywords":["cp","nocrits","nodmgspread","uncletopia"],"game_id":440,"stv_port":27016,"stv_name":"Uncletopia | New York City | 1 | All Maps | STV","players":[{"user_id":727,"name":"I light my penis on fire","steam_id":76561198175878398,"connected_time":2648000000000,"state":"active","ping":44},{"user_id":754,"name":"Dominus Di Spiritus","steam_id":76561198200488383,"connected_time":707000000000,"state":"active","ping":152},{"user_id":748,"name":"Labracababrador","steam_id":76561198255280285,"connected_time":1081000000000,"state":"active","ping":150},{"user_id":721,"name":"concrete_car","steam_id":76561198388207363,"connected_time":4017000000000,"state":"active","ping":66},{"user_id":749,"name":"Thundeer","steam_id":76561198353425202,"connected_time":1078000000000,"state":"active","ping":72},{"user_id":719,"name":"Gary - Mode æ­»å·å¿ƒä¸­","steam_id":76561198040933595,"connected_time":4207000000000,"state":"active","ping":52},{"user_id":750,"name":"Loashes","steam_id":76561198119608299,"connected_time":1059000000000,"state":"active","ping":100},{"user_id":751,"name":"Michaelpc1","steam_id":76561198088365519,"connected_time":1011000000000,"state":"active","ping":65},{"user_id":735,"name":"Team Fartpiss Poo","steam_id":76561199163591880,"connected_time":2116000000000,"state":"active","ping":95},{"user_id":731,"name":"Ping","steam_id":76561198072947773,"connected_time":2409000000000,"state":"active","ping":72},{"user_id":755,"name":"rokasbambyzas","steam_id":76561198267458427,"connected_time":672000000000,"state":"active","ping":145},{"user_id":722,"name":"The Captain","steam_id":76561198855153637,"connected_time":4001000000000,"state":"active","ping":54},{"user_id":737,"name":"JustKerfuffles","steam_id":76561198247979236,"connected_time":1971000000000,"state":"active","ping":104},{"user_id":733,"name":"Gilbert Dolphin","steam_id":76561199151569144,"connected_time":2277000000000,"state":"active","ping":86},{"user_id":734,"name":"Punga","steam_id":76561198083529226,"connected_time":2227000000000,"state":"active","ping":178},{"user_id":738,"name":"Lardex Seeker of Parmesan","steam_id":76561198195682953,"connected_time":1967000000000,"state":"active","ping":113},{"user_id":687,"name":"cody (he/him)","steam_id":76561198366299848,"connected_time":6653000000000,"state":"active","ping":65},{"user_id":739,"name":"NyQuil For Seals","steam_id":76561198258642624,"connected_time":1908000000000,"state":"active","ping":103},{"user_id":745,"name":"Skipikip","steam_id":76561198125019458,"connected_time":1534000000000,"state":"active","ping":45},{"user_id":756,"name":"tobias gregson","steam_id":76561198129721296,"connected_time":587000000000,"state":"active","ping":68},{"user_id":746,"name":"Nobody","steam_id":76561198085808754,"connected_time":1391000000000,"state":"active","ping":94},{"user_id":742,"name":"goth chick","steam_id":76561198258702496,"connected_time":1882000000000,"state":"active","ping":101},{"user_id":758,"name":"2Bsimp","steam_id":76561198047725954,"connected_time":524000000000,"state":"active","ping":73},{"user_id":724,"name":"Mcdiddle","steam_id":76561198025390097,"connected_time":3980000000000,"state":"active","ping":56}]},{"server_id":14,"name":"Uncletopia | New York City | 2 | All Maps","name_short":"nyc-2","host":"nyc-1.us.uncletopia.com","port":27025,"enabled":true,"region":"us-east","cc":"us","latitude":40.73061,"longitude":-73.93524,"reserved":0,"last_update":"0001-01-01T00:00:00Z","name_a2s":"Uncletopia | New York City | 2 | All Maps","protocol":17,"map":"pl_pier","folder":"tf","game":"Team Fortress","app_id":440,"player_count":0,"max_players":24,"Bots":0,"server_type":"Dedicated","server_os":"Linux","password":true,"vac":true,"version":"7961495","steam_id":85568392924469994,"keywords":["nocrits","nodmgspread","payload","uncletopia"],"game_id":440,"stv_port":27026,"stv_name":"Uncletopia | New York City | 2 | All Maps | STV","players":null},{"server_id":15,"name":"Uncletopia | New York City | 3 | Stopwatch Beta","name_short":"nyc-3","host":"nyc-1.us.uncletopia.com","port":27035,"enabled":true,"region":"us-east","cc":"us","latitude":40.73061,"longitude":-73.93524,"reserved":0,"last_update":"0001-01-01T00:00:00Z","name_a2s":"Uncletopia | New York City | 3 | Stopwatch Beta","protocol":17,"map":"workshop/koth_ramjam_rc1.ugc459778887","folder":"tf","game":"Team Fortress","app_id":440,"player_count":0,"max_players":24,"Bots":0,"server_type":"Dedicated","server_os":"Linux","password":true,"vac":true,"version":"7961495","steam_id":85568392924742820,"keywords":["cp","nocrits","nodmgspread","uncletopia"],"game_id":440,"stv_port":27036,"stv_name":"Uncletopia | New York City | 3 | Stopwatch Beta | STV","players":null},{"server_id":16,"name":"Uncletopia | New York City | 4 | Community","name_short":"nyc-4","host":"nyc-1.us.uncletopia.com","port":27045,"enabled":true,"region":"us-east","cc":"us","latitude":40.73061,"longitude":-73.93524,"reserved":0,"last_update":"0001-01-01T00:00:00Z","name_a2s":"Uncletopia | New York City | 4 | Community","protocol":17,"map":"workshop/koth_kemptown_rc1.ugc767410655","folder":"tf","game":"Team Fortress","app_id":440,"player_count":20,"max_players":24,"Bots":0,"server_type":"Dedicated","server_os":"Linux","password":true,"vac":true,"version":"7961495","steam_id":85568392924742821,"keywords":["cp","nocrits","nodmgspread","uncletopia"],"game_id":440,"stv_port":27046,"stv_name":"Uncletopia | New York City | 4 | Community | STV","players":[{"user_id":893,"name":"Ludcmorais","steam_id":76561198359217809,"connected_time":2206000000000,"state":"active","ping":163},{"user_id":904,"name":"King of Ping","steam_id":76561198278737470,"connected_time":1053000000000,"state":"active","ping":53},{"user_id":869,"name":"ThiccyBoi","steam_id":76561198836540230,"connected_time":4129000000000,"state":"active","ping":70},{"user_id":906,"name":"NoobCesar","steam_id":76561198095250755,"connected_time":913000000000,"state":"active","ping":80},{"user_id":870,"name":"Free Form Jazz","steam_id":76561198185658191,"connected_time":4072000000000,"state":"active","ping":71},{"user_id":864,"name":"Muffin","steam_id":76561198111403028,"connected_time":5170000000000,"state":"active","ping":71},{"user_id":894,"name":"rivera","steam_id":76561198051058706,"connected_time":2133000000000,"state":"active","ping":40},{"user_id":911,"name":"i am obsessed with me too","steam_id":76561198102681457,"connected_time":702000000000,"state":"active","ping":74},{"user_id":889,"name":"TaintedNao","steam_id":76561198810680698,"connected_time":2719000000000,"state":"active","ping":83},{"user_id":913,"name":"perecac154","steam_id":76561199493114399,"connected_time":78000000000,"state":"active","ping":205},{"user_id":872,"name":"Tmax","steam_id":76561198161193813,"connected_time":4013000000000,"state":"active","ping":71},{"user_id":901,"name":"seldom","steam_id":76561198166193756,"connected_time":1946000000000,"state":"active","ping":58},{"user_id":907,"name":"Bryguy","steam_id":76561198092096120,"connected_time":787000000000,"state":"active","ping":59},{"user_id":912,"name":"litroolay","steam_id":76561197995226856,"connected_time":244000000000,"state":"active","ping":105},{"user_id":876,"name":"Victor","steam_id":76561198848984975,"connected_time":3791000000000,"state":"active","ping":87},{"user_id":908,"name":"alN","steam_id":76561198329171346,"connected_time":780000000000,"state":"active","ping":62},{"user_id":909,"name":"Gay Cake","steam_id":76561198004388831,"connected_time":770000000000,"state":"active","ping":74},{"user_id":910,"name":"Holiday Fartcruise","steam_id":76561198043851584,"connected_time":764000000000,"state":"active","ping":111},{"user_id":902,"name":"â˜‚Bliffenstimmersâ˜‚","steam_id":76561198059984896,"connected_time":1924000000000,"state":"active","ping":88},{"user_id":903,"name":"Mayo Monkey","steam_id":76561198090023039,"connected_time":1921000000000,"state":"active","ping":85}]},{"server_id":142,"name":"Uncletopia | SÃ£o Paulo | 1 | All Maps","name_short":"sao-1","host":"sao-1.br.uncletopia.com","port":27015,"enabled":true,"region":"sa","cc":"br","latitude":-23.533773,"longitude":-46.62529,"reserved":0,"last_update":"0001-01-01T00:00:00Z","name_a2s":"Uncletopia | SÃ£o Paulo | 1 | All Maps","protocol":17,"map":"koth_viaduct","folder":"tf","game":"Team Fortress","app_id":440,"player_count":0,"max_players":24,"Bots":0,"server_type":"Dedicated","server_os":"Linux","password":true,"vac":true,"version":"7961495","steam_id":85568392924469996,"keywords":["cp","nocrits","nodmgspread","uncletopia"],"game_id":440,"stv_port":27016,"stv_name":"Uncletopia | SÃ£o Paulo | 1 | All Maps | STV","players":null},{"server_id":143,"name":"Uncletopia | SÃ£o Paulo | 2 | Community","name_short":"sao-2","host":"sao-2.br.uncletopia.com","port":27015,"enabled":true,"region":"sa","cc":"br","latitude":-23.533773,"longitude":-46.62529,"reserved":0,"last_update":"0001-01-01T00:00:00Z","name_a2s":"Uncletopia | SÃ£o Paulo | 2 | Community","protocol":17,"map":"workshop/rd_asteroid_redux_b1.ugc2154902912","folder":"tf","game":"Team Fortress","app_id":440,"player_count":0,"max_players":24,"Bots":0,"server_type":"Dedicated","server_os":"Linux","password":true,"vac":true,"version":"7961495","steam_id":85568392924485349,"keywords":["beta","nocrits","nodmgspread","rd","uncletopia"],"game_id":440,"stv_port":27016,"stv_name":"Uncletopia | SÃ£o Paulo | 2 | Community | STV","players":null},{"server_id":7,"name":"Uncletopia | Seattle | 1 | All Maps","name_short":"sea-1","host":"sea-1.us.uncletopia.com","port":27015,"enabled":true,"region":"us-west","cc":"us","latitude":47.608013,"longitude":-122.33517,"reserved":0,"last_update":"0001-01-01T00:00:00Z","name_a2s":"Uncletopia | Seattle | 1 | All Maps","protocol":17,"map":"pl_badwater","folder":"tf","game":"Team Fortress","app_id":440,"player_count":24,"max_players":24,"Bots":0,"server_type":"Dedicated","server_os":"Linux","password":true,"vac":true,"version":"7961495","steam_id":85568392924469997,"keywords":["nocrits","nodmgspread","payload","uncletopia"],"game_id":440,"stv_port":27016,"stv_name":"Uncletopia | Seattle | 1 | All Maps | STV","players":[{"user_id":707,"name":"Spooky","steam_id":76561198030817605,"connected_time":1916000000000,"state":"active","ping":31},{"user_id":722,"name":"gorlab","steam_id":76561198025089694,"connected_time":996000000000,"state":"active","ping":60},{"user_id":690,"name":"[COS]SonneyDonkeh","steam_id":76561198091284496,"connected_time":3453000000000,"state":"active","ping":85},{"user_id":717,"name":"Skoad","steam_id":76561198104650528,"connected_time":1506000000000,"state":"active","ping":59},{"user_id":710,"name":"Sacrificial Wormy","steam_id":76561198054539200,"connected_time":1888000000000,"state":"active","ping":45},{"user_id":639,"name":"Finkly","steam_id":76561198049828110,"connected_time":8657000000000,"state":"active","ping":42},{"user_id":724,"name":"CatThulhu","steam_id":76561198211620004,"connected_time":696000000000,"state":"active","ping":75},{"user_id":719,"name":"Feelin' M'self","steam_id":76561198016673367,"connected_time":1181000000000,"state":"active","ping":59},{"user_id":727,"name":"Obersteuermann","steam_id":76561198044468707,"connected_time":329000000000,"state":"active","ping":50},{"user_id":708,"name":"Yammie","steam_id":76561197987304489,"connected_time":1909000000000,"state":"active","ping":45},{"user_id":721,"name":"The King of Piss World","steam_id":76561198082806956,"connected_time":1111000000000,"state":"active","ping":157},{"user_id":723,"name":"Tazzzy18 YTlive","steam_id":76561198280897107,"connected_time":863000000000,"state":"active","ping":42},{"user_id":699,"name":"SilverMango","steam_id":76561198091243252,"connected_time":2755000000000,"state":"active","ping":87},{"user_id":705,"name":"Dragoninventor (He/Him)","steam_id":76561198956224948,"connected_time":2149000000000,"state":"active","ping":93},{"user_id":720,"name":"Wessle T","steam_id":76561198295353875,"connected_time":1173000000000,"state":"active","ping":135},{"user_id":653,"name":"rat gets the cheese","steam_id":76561198031234032,"connected_time":7524000000000,"state":"active","ping":91},{"user_id":642,"name":"Arsonist Goose","steam_id":76561198147441830,"connected_time":8558000000000,"state":"active","ping":74},{"user_id":662,"name":"A Cuisinart TOB-40N","steam_id":76561198039891934,"connected_time":5998000000000,"state":"active","ping":73},{"user_id":725,"name":"cowboy worm","steam_id":76561198129564488,"connected_time":502000000000,"state":"active","ping":64},{"user_id":706,"name":"Irritated Duck","steam_id":76561198247792076,"connected_time":2126000000000,"state":"active","ping":73},{"user_id":712,"name":"Sailor","steam_id":76561199081983517,"connected_time":1878000000000,"state":"active","ping":100},{"user_id":714,"name":"tomato","steam_id":76561198007867721,"connected_time":1833000000000,"state":"active","ping":75},{"user_id":728,"name":"Ashley, the nutsack slayer","steam_id":76561198286113033,"connected_time":329000000000,"state":"active","ping":120},{"user_id":729,"name":"Henchie!","steam_id":76561198047567464,"connected_time":329000000000,"state":"active","ping":99}]},{"server_id":119,"name":"Uncletopia | Seattle | 2 | All Maps","name_short":"sea-2","host":"sea-1.us.uncletopia.com","port":27025,"enabled":true,"region":"us-west","cc":"us","latitude":47.608013,"longitude":-122.33517,"reserved":0,"last_update":"0001-01-01T00:00:00Z","name_a2s":"Uncletopia | Seattle | 2 | All Maps","protocol":17,"map":"pl_snowycoast","folder":"tf","game":"Team Fortress","app_id":440,"player_count":9,"max_players":24,"Bots":0,"server_type":"Dedicated","server_os":"Linux","password":true,"vac":true,"version":"7961495","steam_id":85568392924469998,"keywords":["nocrits","nodmgspread","payload","uncletopia"],"game_id":440,"stv_port":27026,"stv_name":"Uncletopia | Seattle | 2 | All Maps | STV","players":[{"user_id":641,"name":"jooce box","steam_id":76561198162717644,"connected_time":384000000000,"state":"active","ping":65},{"user_id":566,"name":"D0VE","steam_id":76561198151618566,"connected_time":6588000000000,"state":"active","ping":54},{"user_id":637,"name":"never knows best","steam_id":76561197989933601,"connected_time":630000000000,"state":"active","ping":56},{"user_id":634,"name":"Pretzalcoatlus","steam_id":76561198424248616,"connected_time":866000000000,"state":"active","ping":92},{"user_id":625,"name":"tr","steam_id":76561198046944222,"connected_time":1435000000000,"state":"active","ping":41},{"user_id":551,"name":"Saggle","steam_id":76561198056075147,"connected_time":7598000000000,"state":"active","ping":178},{"user_id":635,"name":"SpookFist  #NEWTF2Hunt","steam_id":76561198133598777,"connected_time":818000000000,"state":"active","ping":41},{"user_id":624,"name":"dewey.","steam_id":76561198138325039,"connected_time":1482000000000,"state":"active","ping":49},{"user_id":603,"name":"Brock","steam_id":76561197998471141,"connected_time":3042000000000,"state":"active","ping":78}]},{"server_id":406,"name":"Uncletopia | Seattle | 3 | Stopwatch Beta","name_short":"sea-3","host":"sea-1.us.uncletopia.com","port":27035,"enabled":true,"region":"us-west","cc":"us","latitude":47.608013,"longitude":-122.33517,"reserved":0,"last_update":"0001-01-01T00:00:00Z","name_a2s":"Uncletopia | Seattle | 3 | Stopwatch Beta","protocol":17,"map":"workshop/koth_bagel_rc6.ugc2514036946","folder":"tf","game":"Team Fortress","app_id":440,"player_count":0,"max_players":24,"Bots":0,"server_type":"Dedicated","server_os":"Linux","password":true,"vac":true,"version":"7961495","steam_id":85568392924515217,"keywords":["cp","nocrits","nodmgspread","uncletopia"],"game_id":440,"stv_port":27036,"stv_name":"Uncletopia | Seattle | 3 | Stopwatch Beta | STV","players":null},{"server_id":17,"name":"Uncletopia | San Francisco | 1 | All Maps","name_short":"sfo-1","host":"sfo-1.us.uncletopia.com","port":27015,"enabled":true,"region":"us-west","cc":"us","latitude":37.77397,"longitude":-122.4313,"reserved":0,"last_update":"0001-01-01T00:00:00Z","name_a2s":"Uncletopia | San Francisco | 1 | All Maps","protocol":17,"map":"koth_suijin","folder":"tf","game":"Team Fortress","app_id":440,"player_count":0,"max_players":24,"Bots":0,"server_type":"Dedicated","server_os":"Linux","password":true,"vac":true,"version":"7961495","steam_id":85568392924469999,"keywords":["cp","nocrits","nodmgspread","uncletopia"],"game_id":440,"stv_port":27016,"stv_name":"Uncletopia | San Francisco | 1 | All Maps | STV","players":null},{"server_id":18,"name":"Uncletopia | San Francisco | 2 | All Maps","name_short":"sfo-2","host":"sfo-1.us.uncletopia.com","port":27025,"enabled":true,"region":"us-west","cc":"us","latitude":37.77397,"longitude":-122.4313,"reserved":0,"last_update":"0001-01-01T00:00:00Z","name_a2s":"Uncletopia | San Francisco | 2 | All Maps","protocol":17,"map":"pl_upward","folder":"tf","game":"Team Fortress","app_id":440,"player_count":23,"max_players":24,"Bots":0,"server_type":"Dedicated","server_os":"Linux","password":true,"vac":true,"version":"7961495","steam_id":85568392924470000,"keywords":["nocrits","nodmgspread","payload","uncletopia"],"game_id":440,"stv_port":27026,"stv_name":"Uncletopia | San Francisco | 2 | All Maps | STV","players":[{"user_id":371,"name":"Ddonut gamer","steam_id":76561198858852245,"connected_time":51000000000,"state":"active","ping":58},{"user_id":350,"name":"bobbymcbobington","steam_id":76561199089411172,"connected_time":2929000000000,"state":"active","ping":155},{"user_id":326,"name":"BISEXUAL BIDEN","steam_id":76561198239598834,"connected_time":4959000000000,"state":"active","ping":111},{"user_id":327,"name":"pat","steam_id":76561198040595468,"connected_time":4956000000000,"state":"active","ping":69},{"user_id":295,"name":"delight","steam_id":76561197980280272,"connected_time":8103000000000,"state":"active","ping":61},{"user_id":322,"name":"smeasly","steam_id":76561198028718812,"connected_time":5584000000000,"state":"active","ping":60},{"user_id":367,"name":"Nidus | IFN.GG","steam_id":76561198886277516,"connected_time":509000000000,"state":"active","ping":105},{"user_id":354,"name":"ed","steam_id":76561198080475712,"connected_time":2330000000000,"state":"active","ping":52},{"user_id":285,"name":"mega","steam_id":76561198089520959,"connected_time":9820000000000,"state":"active","ping":105},{"user_id":370,"name":"binka bonk","steam_id":76561198174751517,"connected_time":136000000000,"state":"active","ping":67},{"user_id":372,"name":"spurious george","steam_id":76561198043558709,"connected_time":39000000000,"state":"active","ping":70},{"user_id":373,"name":"Hatchitis","steam_id":76561198320346037,"connected_time":20000000000,"state":"spawning","ping":49},{"user_id":360,"name":"Quagsire Acquired","steam_id":76561198417169465,"connected_time":1813000000000,"state":"active","ping":103},{"user_id":368,"name":"Omenai | IFN.gg","steam_id":76561198197745617,"connected_time":501000000000,"state":"active","ping":62},{"user_id":346,"name":"RiceLover","steam_id":76561198064631164,"connected_time":3334000000000,"state":"active","ping":55},{"user_id":374,"name":"els","steam_id":76561199112000229,"connected_time":15000000000,"state":"active","ping":61},{"user_id":375,"name":"incredirocks","steam_id":76561198061079993,"connected_time":15000000000,"state":"active","ping":106},{"user_id":275,"name":"Cheezbeargur","steam_id":76561198164702899,"connected_time":10151000000000,"state":"active","ping":49},{"user_id":366,"name":"Toastered","steam_id":76561198178459042,"connected_time":807000000000,"state":"active","ping":58},{"user_id":362,"name":"NEBULA","steam_id":76561198086878595,"connected_time":1688000000000,"state":"active","ping":50},{"user_id":348,"name":"sk999","steam_id":76561198133360797,"connected_time":3269000000000,"state":"active","ping":60},{"user_id":336,"name":"||BassMan||","steam_id":76561198279865229,"connected_time":4071000000000,"state":"active","ping":76},{"user_id":349,"name":"roryisveryoutofit","steam_id":76561198065825165,"connected_time":3194000000000,"state":"active","ping":92}]},{"server_id":19,"name":"Uncletopia | San Francisco | 3 | Stopwatch Beta","name_short":"sfo-3","host":"sfo-1.us.uncletopia.com","port":27035,"enabled":true,"region":"us-west","cc":"us","latitude":37.77397,"longitude":-122.4313,"reserved":0,"last_update":"0001-01-01T00:00:00Z","name_a2s":"Uncletopia | San Francisco | 3 | Stopwatch Beta","protocol":17,"map":"koth_lakeside_final","folder":"tf","game":"Team Fortress","app_id":440,"player_count":0,"max_players":24,"Bots":0,"server_type":"Dedicated","server_os":"Linux","password":true,"vac":true,"version":"7961495","steam_id":85568392924742824,"keywords":["cp","nocrits","nodmgspread","uncletopia"],"game_id":440,"stv_port":27036,"stv_name":"Uncletopia | San Francisco | 3 | Stopwatch Beta | STV","players":null},{"server_id":20,"name":"Uncletopia | San Francisco | 4 | Community","name_short":"sfo-4","host":"sfo-1.us.uncletopia.com","port":27045,"enabled":true,"region":"us-west","cc":"us","latitude":37.77397,"longitude":-122.4313,"reserved":0,"last_update":"0001-01-01T00:00:00Z","name_a2s":"Uncletopia | San Francisco | 4 | Community","protocol":17,"map":"koth_viaduct","folder":"tf","game":"Team Fortress","app_id":440,"player_count":0,"max_players":24,"Bots":0,"server_type":"Dedicated","server_os":"Linux","password":true,"vac":true,"version":"7961495","steam_id":85568392924742826,"keywords":["cp","nocrits","nodmgspread","uncletopia"],"game_id":440,"stv_port":27046,"stv_name":"Uncletopia | San Francisco | 4 | Community | STV","players":null},{"server_id":141,"name":"Uncletopia | Sydney | 1 | All Maps","name_short":"syd-1","host":"syd-1.au.uncletopia.com","port":27015,"enabled":true,"region":"au","cc":"au","latitude":-33.865143,"longitude":151.2099,"reserved":0,"last_update":"0001-01-01T00:00:00Z","name_a2s":"Uncletopia | Sydney | 1 | All Maps","protocol":17,"map":"pl_frontier_final","folder":"tf","game":"Team Fortress","app_id":440,"player_count":24,"max_players":24,"Bots":0,"server_type":"Dedicated","server_os":"Linux","password":true,"vac":true,"version":"7961495","steam_id":85568392924470001,"keywords":["nocrits","nodmgspread","payload","uncletopia"],"game_id":440,"stv_port":27016,"stv_name":"Uncletopia | Sydney | 1 | All Maps | STV","players":[{"user_id":286,"name":"Classy Doctor","steam_id":76561198257123968,"connected_time":6692000000000,"state":"active","ping":60},{"user_id":343,"name":"Dr Barry Mundy PhD","steam_id":76561198034512686,"connected_time":2388000000000,"state":"active","ping":46},{"user_id":341,"name":"Resin","steam_id":76561198054911792,"connected_time":2604000000000,"state":"active","ping":56},{"user_id":364,"name":"Randall :)","steam_id":76561198353560245,"connected_time":1020000000000,"state":"active","ping":102},{"user_id":346,"name":"CypressFluff (She/Her)","steam_id":76561198174667818,"connected_time":2354000000000,"state":"active","ping":53},{"user_id":365,"name":"Goddo","steam_id":76561198051156176,"connected_time":925000000000,"state":"active","ping":49},{"user_id":218,"name":"sf/k","steam_id":76561198047758776,"connected_time":10785000000000,"state":"active","ping":45},{"user_id":347,"name":"ã‚¢ãƒªã‚¹","steam_id":76561198041318894,"connected_time":2295000000000,"state":"active","ping":40},{"user_id":374,"name":"BOT Gary","steam_id":76561198376950841,"connected_time":374000000000,"state":"active","ping":62},{"user_id":345,"name":"A Burnt Cheeseburger","steam_id":76561198044178223,"connected_time":2358000000000,"state":"active","ping":65},{"user_id":351,"name":"Precipire","steam_id":76561198076159518,"connected_time":2149000000000,"state":"active","ping":54},{"user_id":289,"name":"Second Lieutenant Pisser","steam_id":76561198866538028,"connected_time":6436000000000,"state":"active","ping":84},{"user_id":348,"name":"fifra","steam_id":76561199080942003,"connected_time":2265000000000,"state":"active","ping":45},{"user_id":368,"name":"Ishanu","steam_id":76561198009397092,"connected_time":803000000000,"state":"active","ping":72},{"user_id":312,"name":"TheCloraxLorax","steam_id":76561198061344330,"connected_time":4964000000000,"state":"active","ping":60},{"user_id":363,"name":"kiddy piss drinker","steam_id":76561198171302857,"connected_time":1426000000000,"state":"active","ping":50},{"user_id":367,"name":"Chum_Sock","steam_id":76561198315285049,"connected_time":907000000000,"state":"active","ping":58},{"user_id":369,"name":"brass monkey","steam_id":76561198833290341,"connected_time":752000000000,"state":"active","ping":114},{"user_id":356,"name":"Nagapus","steam_id":76561198139578717,"connected_time":2020000000000,"state":"active","ping":67},{"user_id":375,"name":"TheMonsterUnderUrBed","steam_id":76561198119143250,"connected_time":373000000000,"state":"active","ping":78},{"user_id":370,"name":"FIX","steam_id":76561197995157189,"connected_time":705000000000,"state":"active","ping":53},{"user_id":322,"name":"Mr Doctor","steam_id":76561198081415999,"connected_time":3957000000000,"state":"active","ping":70},{"user_id":371,"name":"Griffin","steam_id":76561198024926514,"connected_time":703000000000,"state":"active","ping":85},{"user_id":372,"name":"Dr. Hoppity","steam_id":76561197999715646,"connected_time":586000000000,"state":"active","ping":58}]},{"server_id":123,"name":"Uncletopia | Sydney | 2 | All Maps","name_short":"syd-2","host":"syd-1.au.uncletopia.com","port":27025,"enabled":true,"region":"au","cc":"au","latitude":-33.865143,"longitude":151.2099,"reserved":0,"last_update":"0001-01-01T00:00:00Z","name_a2s":"Uncletopia | Sydney | 2 | All Maps","protocol":17,"map":"pl_borneo","folder":"tf","game":"Team Fortress","app_id":440,"player_count":17,"max_players":24,"Bots":0,"server_type":"Dedicated","server_os":"Linux","password":true,"vac":true,"version":"7961495","steam_id":85568392924470002,"keywords":["nocrits","nodmgspread","payload","uncletopia"],"game_id":440,"stv_port":27026,"stv_name":"Uncletopia | Sydney | 2 | All Maps | STV","players":[{"user_id":299,"name":"Lincoln2603","steam_id":76561198170236666,"connected_time":573000000000,"state":"active","ping":32},{"user_id":300,"name":"Water-Proof Toaster","steam_id":76561198972095766,"connected_time":548000000000,"state":"active","ping":40},{"user_id":301,"name":"carlo","steam_id":76561198189154965,"connected_time":451000000000,"state":"active","ping":54},{"user_id":313,"name":"Donlon McGee","steam_id":76561197969800840,"connected_time":53000000000,"state":"active","ping":267},{"user_id":302,"name":"TLatham22","steam_id":76561198368199532,"connected_time":446000000000,"state":"active","ping":52},{"user_id":303,"name":"koyaa","steam_id":76561198047484772,"connected_time":440000000000,"state":"active","ping":74},{"user_id":314,"name":"Poggerz","steam_id":76561199091162271,"connected_time":4000000000,"state":"spawning","ping":148},{"user_id":293,"name":"Barry Wonderman","steam_id":76561198092291231,"connected_time":1167000000000,"state":"active","ping":61},{"user_id":306,"name":"gmr man","steam_id":76561198025056121,"connected_time":335000000000,"state":"active","ping":74},{"user_id":307,"name":"UrAvgDMG","steam_id":76561199214859141,"connected_time":332000000000,"state":"active","ping":138},{"user_id":312,"name":"Archbishop of the FISH GOD","steam_id":76561198269269799,"connected_time":184000000000,"state":"active","ping":100},{"user_id":309,"name":"Golfing with Joel","steam_id":76561199161637215,"connected_time":297000000000,"state":"active","ping":101},{"user_id":310,"name":"Jeternal","steam_id":76561198016514233,"connected_time":270000000000,"state":"active","ping":69},{"user_id":295,"name":"Zinc","steam_id":76561198363180447,"connected_time":1135000000000,"state":"active","ping":47},{"user_id":244,"name":"Iron Man Armored Adventures","steam_id":76561198202555552,"connected_time":3192000000000,"state":"active","ping":37},{"user_id":250,"name":"Benji","steam_id":76561198158187293,"connected_time":2843000000000,"state":"active","ping":72},{"user_id":283,"name":"Bubbles","steam_id":76561198071119015,"connected_time":2321000000000,"state":"active","ping":63}]},{"server_id":395,"name":"Uncletopia | Sydney | 3 | All Maps","name_short":"syd-3","host":"syd-1.au.uncletopia.com","port":27035,"enabled":true,"region":"au","cc":"au","latitude":-33.865143,"longitude":151.2099,"reserved":0,"last_update":"0001-01-01T00:00:00Z","name_a2s":"Uncletopia | Sydney | 3 | All Maps","protocol":17,"map":"pl_upward","folder":"tf","game":"Team Fortress","app_id":440,"player_count":0,"max_players":24,"Bots":0,"server_type":"Dedicated","server_os":"Linux","password":true,"vac":true,"version":"7961495","steam_id":85568392925194467,"keywords":["nocrits","nodmgspread","payload","uncletopia"],"game_id":440,"stv_port":27036,"stv_name":"Uncletopia | Sydney | 3 | All Maps | STV","players":null},{"server_id":396,"name":"Uncletopia | Sydney | 4 | All Maps","name_short":"syd-4","host":"syd-1.au.uncletopia.com","port":27045,"enabled":true,"region":"au","cc":"au","latitude":-33.865143,"longitude":151.2099,"reserved":0,"last_update":"0001-01-01T00:00:00Z","name_a2s":"Uncletopia | Sydney | 4 | All Maps","protocol":17,"map":"cp_process_final","folder":"tf","game":"Team Fortress","app_id":440,"player_count":8,"max_players":24,"Bots":0,"server_type":"Dedicated","server_os":"Linux","password":true,"vac":true,"version":"7961495","steam_id":85568392925397958,"keywords":["cp","nocrits","nodmgspread","uncletopia"],"game_id":440,"stv_port":27046,"stv_name":"Uncletopia | Sydney | 4 | All Maps | STV","players":[{"user_id":11,"name":"Squark","steam_id":76561199117672518,"connected_time":6900000000000,"state":"active","ping":54},{"user_id":12,"name":"moosemeow","steam_id":76561198849004573,"connected_time":6776000000000,"state":"active","ping":69},{"user_id":34,"name":"using a laptop","steam_id":76561199445302425,"connected_time":101000000000,"state":"active","ping":165},{"user_id":17,"name":"WikkyD","steam_id":76561198043452962,"connected_time":3110000000000,"state":"active","ping":60},{"user_id":26,"name":"Denszeal","steam_id":76561198313718095,"connected_time":2146000000000,"state":"active","ping":75},{"user_id":27,"name":"Fps","steam_id":76561198077651488,"connected_time":1840000000000,"state":"active","ping":40},{"user_id":28,"name":"Speedicle","steam_id":76561199081060553,"connected_time":1613000000000,"state":"active","ping":53},{"user_id":30,"name":"MindlessElectrons","steam_id":76561198150995080,"connected_time":1368000000000,"state":"active","ping":171}]},{"server_id":58,"name":"Uncletopia | Sydney | 5 | Stopwatch Beta","name_short":"syd-5","host":"syd-1.au.uncletopia.com","port":27055,"enabled":true,"region":"au","cc":"au","latitude":-33.865143,"longitude":151.2099,"reserved":0,"last_update":"0001-01-01T00:00:00Z","name_a2s":"Uncletopia | Sydney | 5 | Stopwatch Beta","protocol":17,"map":"workshop/pl_vigil_rc9.ugc1266210012","folder":"tf","game":"Team Fortress","app_id":440,"player_count":0,"max_players":24,"Bots":0,"server_type":"Dedicated","server_os":"Linux","password":true,"vac":true,"version":"7961495","steam_id":85568392925397959,"keywords":["nocrits","nodmgspread","payload","uncletopia"],"game_id":440,"stv_port":27056,"stv_name":"Uncletopia | Sydney | 5 | Stopwatch Beta | STV","players":null},{"server_id":59,"name":"Uncletopia | Sydney | 6 | Community","name_short":"syd-6","host":"syd-1.au.uncletopia.com","port":27065,"enabled":true,"region":"au","cc":"au","latitude":-33.865143,"longitude":151.2099,"reserved":0,"last_update":"0001-01-01T00:00:00Z","name_a2s":"Uncletopia | Sydney | 6 | Community","protocol":17,"map":"workshop/koth_product_final.ugc454272353","folder":"tf","game":"Team Fortress","app_id":440,"player_count":0,"max_players":24,"Bots":0,"server_type":"Dedicated","server_os":"Linux","password":true,"vac":true,"version":"7961495","steam_id":85568392925397960,"keywords":["cp","nocrits","nodmgspread","uncletopia"],"game_id":440,"stv_port":27066,"stv_name":"Uncletopia | Sydney | 6 | Community | STV","players":null},{"server_id":49,"name":"Uncletopia | Warsaw | 1 | All Maps","name_short":"waw-1","host":"waw-1.pl.uncletopia.com","port":27015,"enabled":true,"region":"eu","cc":"pl","latitude":52.2297,"longitude":21.017532,"reserved":0,"last_update":"0001-01-01T00:00:00Z","name_a2s":"Uncletopia | Warsaw | 1 | All Maps","protocol":17,"map":"pl_swiftwater_final1","folder":"tf","game":"Team Fortress","app_id":440,"player_count":0,"max_players":24,"Bots":0,"server_type":"Dedicated","server_os":"Linux","password":true,"vac":true,"version":"7961495","steam_id":85568392925397850,"keywords":["nocrits","nodmgspread","payload","uncletopia"],"game_id":440,"stv_port":27016,"stv_name":"Uncletopia | Warsaw | 1 | All Maps | STV","players":null},{"server_id":50,"name":"Uncletopia | Warsaw | 2 | All Maps","name_short":"waw-2","host":"waw-1.pl.uncletopia.com","port":27025,"enabled":true,"region":"eu","cc":"pl","latitude":52.2297,"longitude":21.017532,"reserved":0,"last_update":"0001-01-01T00:00:00Z","name_a2s":"Uncletopia | Warsaw | 2 | All Maps","protocol":17,"map":"cp_dustbowl","folder":"tf","game":"Team Fortress","app_id":440,"player_count":0,"max_players":24,"Bots":0,"server_type":"Dedicated","server_os":"Linux","password":true,"vac":true,"version":"7961495","steam_id":85568392925397851,"keywords":["cp","nocrits","nodmgspread","uncletopia"],"game_id":440,"stv_port":27026,"stv_name":"Uncletopia | Warsaw | 2 | All Maps | STV","players":null},{"server_id":51,"name":"Uncletopia | Warsaw | 3 | All Maps","name_short":"waw-3","host":"waw-1.pl.uncletopia.com","port":27035,"enabled":true,"region":"eu","cc":"pl","latitude":52.2297,"longitude":21.017532,"reserved":0,"last_update":"0001-01-01T00:00:00Z","name_a2s":"Uncletopia | Warsaw | 3 | All Maps","protocol":17,"map":"pl_frontier_final","folder":"tf","game":"Team Fortress","app_id":440,"player_count":0,"max_players":24,"Bots":0,"server_type":"Dedicated","server_os":"Linux","password":true,"vac":true,"version":"7961495","steam_id":85568392925397852,"keywords":["nocrits","nodmgspread","payload","uncletopia"],"game_id":440,"stv_port":27036,"stv_name":"Uncletopia | Warsaw | 3 | All Maps | STV","players":null},{"server_id":52,"name":"Uncletopia | Warsaw | 4 | All Maps","name_short":"waw-4","host":"waw-1.pl.uncletopia.com","port":27045,"enabled":true,"region":"eu","cc":"pl","latitude":52.2297,"longitude":21.017532,"reserved":0,"last_update":"0001-01-01T00:00:00Z","name_a2s":"Uncletopia | Warsaw | 4 | All Maps","protocol":17,"map":"koth_viaduct","folder":"tf","game":"Team Fortress","app_id":440,"player_count":0,"max_players":24,"Bots":0,"server_type":"Dedicated","server_os":"Linux","password":true,"vac":true,"version":"7961495","steam_id":85568392925397853,"keywords":["cp","nocrits","nodmgspread","uncletopia"],"game_id":440,"stv_port":27046,"stv_name":"Uncletopia | Warsaw | 4 | All Maps | STV","players":null},{"server_id":53,"name":"Uncletopia | Warsaw | 5 | Stopwatch Beta","name_short":"waw-5","host":"waw-1.pl.uncletopia.com","port":27055,"enabled":true,"region":"eu","cc":"pl","latitude":52.2297,"longitude":21.017532,"reserved":0,"last_update":"0001-01-01T00:00:00Z","name_a2s":"Uncletopia | Warsaw | 5 | Stopwatch Beta","protocol":17,"map":"workshop/koth_bagel_rc6.ugc2514036946","folder":"tf","game":"Team Fortress","app_id":440,"player_count":0,"max_players":24,"Bots":0,"server_type":"Dedicated","server_os":"Linux","password":true,"vac":true,"version":"7961495","steam_id":85568392925397854,"keywords":["cp","nocrits","nodmgspread","uncletopia"],"game_id":440,"stv_port":27056,"stv_name":"Uncletopia | Warsaw | 5 | Stopwatch Beta | STV","players":null},{"server_id":54,"name":"Uncletopia | Warsaw | 6 | Community","name_short":"waw-6","host":"waw-1.pl.uncletopia.com","port":27065,"enabled":true,"region":"eu","cc":"pl","latitude":52.2297,"longitude":21.017532,"reserved":0,"last_update":"0001-01-01T00:00:00Z","name_a2s":"Uncletopia | Warsaw | 6 | Community","protocol":17,"map":"cp_mountainlab","folder":"tf","game":"Team Fortress","app_id":440,"player_count":0,"max_players":24,"Bots":0,"server_type":"Dedicated","server_os":"Linux","password":true,"vac":true,"version":"7961495","steam_id":85568392925397856,"keywords":["cp","nocrits","nodmgspread","uncletopia"],"game_id":440,"stv_port":27066,"stv_name":"Uncletopia | Warsaw | 6 | Community | STV","players":null}]}