{"status":true,"message":"","result":[{"server_id":9,"name":"Uncletopia | Atlanta | 1 | All Maps","name_short":"atl-1","host":"atl-1.us.uncletopia.com","port":27015,"enabled":true,"region":"us-east","cc":"us","latitude":33.753746,"longitude":-84.38633,"reserved":0,"last_update":"0001-01-01T00:00:00Z","name_a2s":"Uncletopia | Atlanta | 1 | All Maps","protocol":17,"map":"pl_borneo","folder":"tf","game":"Team Fortress","app_id":440,"player_count":24,"max_players":24,"Bots":0,"server_type":"Dedicated","server_os":"Linux","password":true,"vac":true,"version":"7742253","steam_id":85568392924469982,"keywords":["nocrits","nodmgspread","payload","uncletopia"],"game_id":440,"stv_port":27016,"stv_name":"Uncletopia | Atlanta | 1 | All Maps | STV","players":[{"user_id":687,"name":"Jamendithas","steam_id":76561198119537716,"connected_time":1534000000000,"state":"active","ping":79},{"user_id":698,"name":"Towns","steam_id":76561198984662863,"connected_time":766000000000,"state":"active","ping":77},{"user_id":682,"name":"stolen loot","steam_id":76561198069954956,"connected_time":1892000000000,"state":"active","ping":44},{"user_id":623,"name":"Uung","steam_id":76561198183956731,"connected_time":5134000000000,"state":"active","ping":69},{"user_id":691,"name":"Intro Bonito","steam_id":76561198119478838,"connected_time":1468000000000,"state":"active","ping":56},{"user_id":701,"name":"Female Gamer","steam_id":76561199366482682,"connected_time":480000000000,"state":"active","ping":112},{"user_id":699,"name":"hyeon @68Hz (overclocked)","steam_id":76561198246700372,"connected_time":757000000000,"state":"active","ping":60},{"user_id":660,"name":"Mr.Mug (Festive)","steam_id":76561199282207802,"connected_time":3202000000000,"state":"active","ping":93},{"user_id":694,"name":"Havok","steam_id":76561198063455003,"connected_time":1277000000000,"state":"active","ping":62},{"user_id":685,"name":"LUKS :3","steam_id":76561199178556785,"connected_time":1565000000000,"state":"active","ping":91},{"user_id":583,"name":"VidzCMC","steam_id":76561198848142973,"connected_time":7775000000000,"state":"active","ping":75},{"user_id":678,"name":"HARRY","steam_id":76561198842067238,"connected_time":2120000000000,"state":"active","ping":67},{"user_id":693,"name":"Farseer Ulwithy","steam_id":76561197965179245,"connected_time":1415000000000,"state":"active","ping":118},{"user_id":703,"name":"64ify","steam_id":76561199126185038,"connected_time":305000000000,"state":"active","ping":76},{"user_id":702,"name":"jandajanda","steam_id":76561198235722476,"connected_time":314000000000,"state":"active","ping":51},{"user_id":679,"name":"Im High","steam_id":76561198049954886,"connected_time":2038000000000,"state":"active","ping":74},{"user_id":640,"name":"Pixeled","steam_id":76561198088917077,"connected_time":3967000000000,"state":"active","ping":60},{"user_id":695,"name":"floofy","steam_id":76561198389769098,"connected_time":1190000000000,"state":"active","ping":80},{"user_id":704,"name":"ECCO","steam_id":76561198002821513,"connected_time":273000000000,"state":"active","ping":65},{"user_id":576,"name":"festive pork trooper","steam_id":76561198150327877,"connected_time":8567000000000,"state":"active","ping":45},{"user_id":686,"name":"EnderActually","steam_id":76561199227287180,"connected_time":1542000000000,"state":"active","ping":81},{"user_id":633,"name":"Tiktaalik","steam_id":76561198856050653,"connected_time":4526000000000,"state":"active","ping":74},{"user_id":697,"name":"Chemist","steam_id":76561198175623743,"connected_time":790000000000,"state":"active","ping":56},{"user_id":664,"name":"Mega Madness","steam_id":76561198204862037,"connected_time":3079000000000,"state":"active","ping":79}]},{"server_id":400,"name":"Uncletopia | Atlanta | 3 | Stopwatch Beta","name_short":"atl-3","host":"atl-1.us.uncletopia.com","port":27035,"enabled":true,"region":"us-east","cc":"us","latitude":33.753746,"longitude":-84.38633,"reserved":0,"last_update":"0001-01-01T00:00:00Z","name_a2s":"Uncletopia | Atlanta | 3 | Stopwatch Beta","protocol":17,"map":"workshop/koth_product_final.ugc454272353","folder":"tf","game":"Team Fortress","app_id":440,"player_count":0,"max_players":24,"Bots":0,"server_type":"Dedicated","server_os":"Linux","password":true,"vac":true,"version":"7742253","steam_id":85568392924515187,"keywords":["cp","nocrits","nodmgspread","uncletopia"],"game_id":440,"stv_port":27036,"stv_name":"Uncletopia | Atlanta | 3 | Stopwatch Beta | STV","players":null},{"server_id":401,"name":"Uncletopia | Atlanta | 4 | No Payload","name_short":"atl-4","host":"atl-1.us.uncletopia.com","port":27045,"enabled":true,"region":"us-east","cc":"us","latitude":33.753746,"longitude":-84.38633,"reserved":0,"last_update":"0001-01-01T00:00:00Z","name_a2s":"Uncletopia | Atlanta | 4 | No Payload","protocol":17,"map":"pl_pier","folder":"tf","game":"Team Fortress","app_id":440,"player_count":0,"max_players":24,"Bots":0,"server_type":"Dedicated","server_os":"Linux","password":true,"vac":true,"version":"7723704","steam_id":85568392924515188,"keywords":["nocrits","nodmgspread","payload","uncletopia"],"game_id":440,"stv_port":27046,"stv_name":"Uncletopia | Atlanta | 4 | No Payload | STV","players":null},{"server_id":2,"name":"Uncletopia | Chicago | 1 | All Maps","name_short":"chi-1","host":"chi-1.us.uncletopia.com","port":27015,"enabled":true,"region":"us-central","cc":"us","latitude":41.881832,"longitude":-87.62318,"reserved":0,"last_update":"0001-01-01T00:00:00Z","name_a2s":"Uncletopia | Chicago | 1 | All Maps","protocol":17,"map":"pl_barnblitz","folder":"tf","game":"Team Fortress","app_id":440,"player_count":24,"max_players":24,"Bots":0,"server_type":"Dedicated","server_os":"Linux","password":true,"vac":true,"version":"7742253","steam_id":85568392924469984,"keywords":["nocrits","nodmgspread","payload","uncletopia"],"game_id":440,"stv_port":27016,"stv_name":"Uncletopia | Chicago | 1 | All Maps | STV","players":[{"user_id":726,"name":"you are loved","steam_id":76561198108524571,"connected_time":3018000000000,"state":"active","ping":74},{"user_id":710,"name":"kairOs.fk","steam_id":76561197972421260,"connected_time":3912000000000,"state":"active","ping":60},{"user_id":748,"name":"_Tachyon_","steam_id":76561198088807283,"connected_time":399000000000,"state":"active","ping":69},{"user_id":758,"name":"Phillip Jeffries","steam_id":76561198064052174,"connected_time":257000000000,"state":"active","ping":59},{"user_id":750,"name":"That Dude","steam_id":76561198980486227,"connected_time":378000000000,"state":"active","ping":186},{"user_id":734,"name":"Human Person","steam_id":76561198283855440,"connected_time":2191000000000,"state":"active","ping":91},{"user_id":722,"name":"MIKESAVAGE","steam_id":76561198996777622,"connected_time":3638000000000,"state":"active","ping":91},{"user_id":702,"name":"Anononomous Dumbo Octopus","steam_id":76561198252522394,"connected_time":5142000000000,"state":"active","ping":62},{"user_id":740,"name":"Tyco","steam_id":76561197978414167,"connected_time":1039000000000,"state":"active","ping":74},{"user_id":735,"name":"ribs","steam_id":76561197981617014,"connected_time":2149000000000,"state":"active","ping":63},{"user_id":724,"name":"CoconutRice","steam_id":76561198114909164,"connected_time":3430000000000,"state":"active","ping":54},{"user_id":698,"name":"TheAceDefiant","steam_id":76561198133264734,"connected_time":5358000000000,"state":"active","ping":60},{"user_id":759,"name":"fuzze","steam_id":76561198214461775,"connected_time":241000000000,"state":"active","ping":80},{"user_id":760,"name":"supcupman","steam_id":76561198051513866,"connected_time":235000000000,"state":"active","ping":106},{"user_id":753,"name":"F@","steam_id":76561198019735105,"connected_time":363000000000,"state":"active","ping":64},{"user_id":755,"name":"festivestuntman","steam_id":76561198056911537,"connected_time":359000000000,"state":"active","ping":60},{"user_id":745,"name":"swivelfest","steam_id":76561198845349737,"connected_time":464000000000,"state":"active","ping":95},{"user_id":761,"name":"quacks","steam_id":76561198077934343,"connected_time":230000000000,"state":"active","ping":74},{"user_id":721,"name":"i love nature","steam_id":76561198248636560,"connected_time":3684000000000,"state":"active","ping":60},{"user_id":707,"name":"arashsmash","steam_id":76561198277649058,"connected_time":4336000000000,"state":"active","ping":64},{"user_id":746,"name":"*boom*","steam_id":76561199409264244,"connected_time":462000000000,"state":"active","ping":72},{"user_id":754,"name":"n8thegr83008","steam_id":76561198214814260,"connected_time":363000000000,"state":"active","ping":76},{"user_id":730,"name":"triangleman","steam_id":76561198972733542,"connected_time":2251000000000,"state":"active","ping":61},{"user_id":732,"name":"Merchants of Misery","steam_id":76561199188142396,"connected_time":2231000000000,"state":"active","ping":80}]},{"server_id":106,"name":"Uncletopia | Chicago | 2 | All Maps","name_short":"chi-2","host":"chi-1.us.uncletopia.com","port":27025,"enabled":true,"region":"us-central","cc":"us","latitude":41.881832,"longitude":-87.62318,"reserved":0,"last_update":"0001-01-01T00:00:00Z","name_a2s":"Uncletopia | Chicago | 2 | All Maps","protocol":17,"map":"pl_badwater","folder":"tf","game":"Team Fortress","app_id":440,"player_count":23,"max_players":24,"Bots":0,"server_type":"Dedicated","server_os":"Linux","password":true,"vac":true,"version":"7742253","steam_id":85568392924469985,"keywords":["nocrits","nodmgspread","payload","uncletopia"],"game_id":440,"stv_port":27026,"stv_name":"Uncletopia | Chicago | 2 | All Maps | STV","players":[{"user_id":945,"name":"pon","steam_id":76561198004663867,"connected_time":3312000000000,"state":"active","ping":55},{"user_id":964,"name":"comet sooicidy","steam_id":76561198025173479,"connected_time":1646000000000,"state":"active","ping":85},{"user_id":976,"name":"Freezing0K","steam_id":76561198142170847,"connected_time":369000000000,"state":"active","ping":83},{"user_id":980,"name":"miki","steam_id":76561198331374895,"connected_time":112000000000,"state":"active","ping":73},{"user_id":958,"name":"viagra addict","steam_id":76561198017705248,"connected_time":2038000000000,"state":"active","ping":46},{"user_id":972,"name":"ADHDking","steam_id":76561198116099017,"connected_time":1103000000000,"state":"active","ping":59},{"user_id":981,"name":"Crazy❀","steam_id":76561198160590966,"connected_time":82000000000,"state":"active","ping":71},{"user_id":959,"name":"epic.science.kid.2019","steam_id":76561198075510786,"connected_time":2000000000000,"state":"active","ping":72},{"user_id":982,"name":"BowlOfRice","steam_id":76561199239165015,"connected_time":64000000000,"state":"active","ping":74},{"user_id":983,"name":"strike a pose with my kinfolk","steam_id":76561198156336213,"connected_time":56000000000,"state":"active","ping":77},{"user_id":936,"name":"Killroy NQP ❤","steam_id":76561198006983771,"connected_time":3418000000000,"state":"active","ping":76},{"user_id":942,"name":"\u003c`)))))\u003c fish","steam_id":76561198410078962,"connected_time":3323000000000,"state":"active","ping":102},{"user_id":984,"name":"righty","steam_id":76561198045260412,"connected_time":45000000000,"state":"active","ping":98},{"user_id":985,"name":"autumn","steam_id":76561199000378486,"connected_time":21000000000,"state":"active","ping":91},{"user_id":960,"name":"Miramar","steam_id":76561198022057653,"connected_time":1992000000000,"state":"active","ping":67},{"user_id":968,"name":"goober","steam_id":76561198943598378,"connected_time":1228000000000,"state":"active","ping":56},{"user_id":978,"name":"CFDv20","steam_id":76561198450073779,"connected_time":142000000000,"state":"active","ping":104},{"user_id":905,"name":"Red Fox","steam_id":76561198049729379,"connected_time":5648000000000,"state":"active","ping":77},{"user_id":979,"name":"chucknut","steam_id":76561199329553584,"connected_time":137000000000,"state":"active","ping":149},{"user_id":953,"name":"Santa","steam_id":76561198044130442,"connected_time":2795000000000,"state":"active","ping":67},{"user_id":962,"name":"Santa Claus","steam_id":76561199012771039,"connected_time":1963000000000,"state":"active","ping":90},{"user_id":841,"name":"mos lft","steam_id":76561198146126212,"connected_time":6475000000000,"state":"active","ping":59},{"user_id":944,"name":"Otto von Hogslam","steam_id":76561198017429199,"connected_time":3313000000000,"state":"active","ping":97}]},{"server_id":402,"name":"Uncletopia | Chicago | 3 | All Maps","name_short":"chi-3","host":"chi-1.us.uncletopia.com","port":27035,"enabled":true,"region":"us-central","cc":"us","latitude":41.881832,"longitude":-87.62318,"reserved":0,"last_update":"0001-01-01T00:00:00Z","name_a2s":"Uncletopia | Chicago | 3 | All Maps","protocol":17,"map":"pl_swiftwater_final1","folder":"tf","game":"Team Fortress","app_id":440,"player_count":23,"max_players":24,"Bots":0,"server_type":"Dedicated","server_os":"Linux","password":true,"vac":true,"version":"7742253","steam_id":85568392924515191,"keywords":["nocrits","nodmgspread","payload","uncletopia"],"game_id":440,"stv_port":27036,"stv_name":"Uncletopia | Chicago | 3 | All Maps | STV","players":[{"user_id":650,"name":"Big ol' Willy Gaming","steam_id":76561198048545731,"connected_time":1332000000000,"state":"active","ping":82},{"user_id":677,"name":"goopgrabber","steam_id":76561199029951083,"connected_time":416000000000,"state":"active","ping":77},{"user_id":653,"name":"IxMic88","steam_id":76561198018552479,"connected_time":1255000000000,"state":"active","ping":75},{"user_id":655,"name":"TheBiggerIron","steam_id":76561198257043605,"connected_time":1238000000000,"state":"active","ping":99},{"user_id":595,"name":"M249 | Spectre","steam_id":76561198118334485,"connected_time":6300000000000,"state":"active","ping":73},{"user_id":658,"name":"E1M1","steam_id":76561198165542681,"connected_time":1208000000000,"state":"active","ping":52},{"user_id":676,"name":"joelthetroll","steam_id":76561198026605788,"connected_time":508000000000,"state":"active","ping":74},{"user_id":662,"name":"jerma enthusiast","steam_id":76561198359466264,"connected_time":1142000000000,"state":"active","ping":70},{"user_id":661,"name":"Sove67","steam_id":76561198069919807,"connected_time":1165000000000,"state":"active","ping":88},{"user_id":671,"name":"SouperBad","steam_id":76561198116690686,"connected_time":822000000000,"state":"active","ping":50},{"user_id":649,"name":"Aunty Frazzle","steam_id":76561198145596626,"connected_time":1349000000000,"state":"active","ping":109},{"user_id":637,"name":"Tetra","steam_id":76561198012329955,"connected_time":2826000000000,"state":"active","ping":95},{"user_id":664,"name":"Nodin","steam_id":76561198135757376,"connected_time":1115000000000,"state":"active","ping":61},{"user_id":666,"name":"lag","steam_id":76561197963872739,"connected_time":1062000000000,"state":"active","ping":90},{"user_id":667,"name":"SwaggerMcJagger","steam_id":76561198366694430,"connected_time":1053000000000,"state":"active","ping":82},{"user_id":668,"name":"Glass Joe","steam_id":76561198317365741,"connected_time":1030000000000,"state":"active","ping":61},{"user_id":674,"name":"miles","steam_id":76561199029019040,"connected_time":596000000000,"state":"active","ping":78},{"user_id":670,"name":"Frijolero","steam_id":76561198043770685,"connected_time":961000000000,"state":"active","ping":97},{"user_id":629,"name":"SomeCozyKid","steam_id":76561198086113234,"connected_time":3592000000000,"state":"active","ping":77},{"user_id":616,"name":"Steeb","steam_id":76561198008058593,"connected_time":4636000000000,"state":"active","ping":55},{"user_id":672,"name":"The Dashing Hooligan","steam_id":76561197997263153,"connected_time":814000000000,"state":"active","ping":138},{"user_id":639,"name":"Nuen","steam_id":76561198936096111,"connected_time":2606000000000,"state":"active","ping":50},{"user_id":673,"name":"I am playing on a controller","steam_id":76561198176454023,"connected_time":788000000000,"state":"active","ping":90}]},{"server_id":403,"name":"Uncletopia | Chicago | 4 | All Maps","name_short":"chi-4","host":"chi-1.us.uncletopia.com","port":27045,"enabled":true,"region":"us-central","cc":"us","latitude":41.881832,"longitude":-87.62318,"reserved":0,"last_update":"0001-01-01T00:00:00Z","name_a2s":"Uncletopia | Chicago | 4 | All Maps","protocol":17,"map":"pl_borneo","folder":"tf","game":"Team Fortress","app_id":440,"player_count":24,"max_players":24,"Bots":0,"server_type":"Dedicated","server_os":"Linux","password":true,"vac":true,"version":"7742253","steam_id":85568392924515193,"keywords":["nocrits","nodmgspread","payload","uncletopia"],"game_id":440,"stv_port":27046,"stv_name":"Uncletopia | Chicago | 4 | All Maps | STV","players":[{"user_id":365,"name":"Grave Shifter15","steam_id":76561198036381323,"connected_time":274000000000,"state":"active","ping":59},{"user_id":366,"name":"Milk","steam_id":76561198175903221,"connected_time":257000000000,"state":"active","ping":80},{"user_id":344,"name":"❤Breadshot (She)❤","steam_id":76561199005756738,"connected_time":2297000000000,"state":"active","ping":56},{"user_id":339,"name":"Chase","steam_id":76561199069608408,"connected_time":3444000000000,"state":"active","ping":55},{"user_id":362,"name":"LKrun","steam_id":76561197978887380,"connected_time":544000000000,"state":"active","ping":75},{"user_id":359,"name":"C papi","steam_id":76561198027779564,"connected_time":1162000000000,"state":"active","ping":56},{"user_id":321,"name":"KFC☭","steam_id":76561199206815320,"connected_time":4138000000000,"state":"active","ping":93},{"user_id":361,"name":"nebby","steam_id":76561197990815274,"connected_time":1135000000000,"state":"active","ping":45},{"user_id":367,"name":"Tok Hakaay","steam_id":76561199311828303,"connected_time":251000000000,"state":"active","ping":81},{"user_id":368,"name":"Koloco","steam_id":76561199022194660,"connected_time":188000000000,"state":"active","ping":79},{"user_id":369,"name":"Elizabeth truss","steam_id":76561198058250979,"connected_time":187000000000,"state":"active","ping":67},{"user_id":370,"name":"Roz257","steam_id":76561198842844532,"connected_time":174000000000,"state":"active","ping":71},{"user_id":371,"name":"jennydude","steam_id":76561198119132813,"connected_time":167000000000,"state":"active","ping":78},{"user_id":363,"name":"Jeremy","steam_id":76561198286240347,"connected_time":306000000000,"state":"active","ping":59},{"user_id":373,"name":"pew pew user","steam_id":76561198307845869,"connected_time":158000000000,"state":"active","ping":68},{"user_id":353,"name":"ArnoldGaming","steam_id":76561198040140247,"connected_time":2072000000000,"state":"active","ping":86},{"user_id":354,"name":"wepry","steam_id":76561198114091417,"connected_time":2042000000000,"state":"active","ping":78},{"user_id":349,"name":"TheToastingToaster","steam_id":76561198439391966,"connected_time":2238000000000,"state":"active","ping":62},{"user_id":347,"name":"Javaris Jamar Javarison-Lamar","steam_id":76561198146951387,"connected_time":2274000000000,"state":"active","ping":74},{"user_id":355,"name":"merry trapmas","steam_id":76561198402801140,"connected_time":1734000000000,"state":"active","ping":62},{"user_id":328,"name":"daemon","steam_id":76561198001541433,"connected_time":3988000000000,"state":"active","ping":60},{"user_id":374,"name":"colorfulg70","steam_id":76561199010363371,"connected_time":148000000000,"state":"active","ping":112},{"user_id":338,"name":"Vladikr1","steam_id":76561198401495362,"connected_time":3662000000000,"state":"active","ping":56},{"user_id":356,"name":"-flagellum","steam_id":76561198006297974,"connected_time":1702000000000,"state":"active","ping":57}]},{"server_id":36,"name":"Uncletopia | Chicago | 5 | All Maps","name_short":"chi-5","host":"chi-2.us.uncletopia.com","port":27015,"enabled":true,"region":"us-central","cc":"us","latitude":41.881832,"longitude":-87.62318,"reserved":0,"last_update":"0001-01-01T00:00:00Z","name_a2s":"Uncletopia | Chicago | 5 | All Maps","protocol":17,"map":"pl_snowycoast","folder":"tf","game":"Team Fortress","app_id":440,"player_count":23,"max_players":24,"Bots":0,"server_type":"Dedicated","server_os":"Linux","password":true,"vac":true,"version":"7742253","steam_id":85568392924866362,"keywords":["nocrits","nodmgspread","payload","uncletopia"],"game_id":440,"stv_port":27016,"stv_name":"Uncletopia | Chicago | 5 | All Maps | STV","players":[{"user_id":463,"name":"Dirachi","steam_id":76561198148186898,"connected_time":1017000000000,"state":"active","ping":65},{"user_id":442,"name":"MuffinMan","steam_id":76561198272111654,"connected_time":2102000000000,"state":"active","ping":82},{"user_id":377,"name":"jayy.t","steam_id":76561198059575962,"connected_time":8148000000000,"state":"active","ping":59},{"user_id":456,"name":"Luigi","steam_id":76561198891626233,"connected_time":1137000000000,"state":"active","ping":73},{"user_id":458,"name":"Nightfall","steam_id":76561198169718867,"connected_time":1101000000000,"state":"active","ping":106},{"user_id":454,"name":"[GUT] tipups","steam_id":76561197972342705,"connected_time":1392000000000,"state":"active","ping":65},{"user_id":390,"name":"TheGhostThatWas","steam_id":76561198055836483,"connected_time":6824000000000,"state":"active","ping":64},{"user_id":459,"name":"josh","steam_id":76561198111565081,"connected_time":1097000000000,"state":"active","ping":109},{"user_id":460,"name":"Big Cock Brock","steam_id":76561198093244204,"connected_time":1086000000000,"state":"active","ping":79},{"user_id":376,"name":"maze","steam_id":76561198068443860,"connected_time":8473000000000,"state":"active","ping":58},{"user_id":457,"name":"armed slobbery. enguzzlement.","steam_id":76561198237292756,"connected_time":1133000000000,"state":"active","ping":66},{"user_id":469,"name":"bad spy player","steam_id":76561198873699671,"connected_time":210000000000,"state":"active","ping":101},{"user_id":465,"name":"Sarbanes-Oxley","steam_id":76561197975898479,"connected_time":902000000000,"state":"active","ping":79},{"user_id":461,"name":"ElectronX","steam_id":76561198116034988,"connected_time":1067000000000,"state":"active","ping":126},{"user_id":419,"name":"averted","steam_id":76561198067784310,"connected_time":4240000000000,"state":"active","ping":74},{"user_id":452,"name":"mhp","steam_id":76561198219815228,"connected_time":1682000000000,"state":"active","ping":65},{"user_id":369,"name":"weeb_whacker #Jenius","steam_id":76561198187098041,"connected_time":8993000000000,"state":"active","ping":55},{"user_id":455,"name":"[GUT] 13","steam_id":76561197985209820,"connected_time":1238000000000,"state":"active","ping":67},{"user_id":470,"name":"Riske","steam_id":76561198115840568,"connected_time":193000000000,"state":"active","ping":75},{"user_id":467,"name":"Alt","steam_id":76561197992591984,"connected_time":384000000000,"state":"active","ping":67},{"user_id":464,"name":"[GUT] RiDiK®","steam_id":76561197969756446,"connected_time":938000000000,"state":"active","ping":51},{"user_id":451,"name":"lazybones","steam_id":76561199191149784,"connected_time":1799000000000,"state":"active","ping":105},{"user_id":453,"name":"TriggerHappyPacifist","steam_id":76561197963455267,"connected_time":1676000000000,"state":"active","ping":105}]},{"server_id":37,"name":"Uncletopia | Chicago | 6 | All Maps","name_short":"chi-6","host":"chi-2.us.uncletopia.com","port":27025,"enabled":true,"region":"us-central","cc":"us","latitude":41.881832,"longitude":-87.62318,"reserved":0,"last_update":"0001-01-01T00:00:00Z","name_a2s":"Uncletopia | Chicago | 6 | All Maps","protocol":17,"map":"pl_swiftwater_final1","folder":"tf","game":"Team Fortress","app_id":440,"player_count":22,"max_players":24,"Bots":0,"server_type":"Dedicated","server_os":"Linux","password":true,"vac":true,"version":"7742253","steam_id":85568392924866363,"keywords":["nocrits","nodmgspread","payload","uncletopia"],"game_id":440,"stv_port":27026,"stv_name":"Uncletopia | Chicago | 6 | All Maps | STV","players":[{"user_id":401,"name":"meme machine [HM]","steam_id":76561198067881785,"connected_time":789000000000,"state":"active","ping":87},{"user_id":411,"name":"suters05","steam_id":76561198076932174,"connected_time":223000000000,"state":"active","ping":73},{"user_id":398,"name":"McGangBang","steam_id":76561198862379865,"connected_time":1602000000000,"state":"active","ping":51},{"user_id":403,"name":"c0wb0y","steam_id":76561199076182855,"connected_time":659000000000,"state":"active","ping":109},{"user_id":400,"name":"WitheringLeo","steam_id":76561198046722918,"connected_time":1118000000000,"state":"active","ping":70},{"user_id":404,"name":"AverageRundownJoe.ttv","steam_id":76561198059359620,"connected_time":652000000000,"state":"active","ping":67},{"user_id":384,"name":"a Karamel her/she","steam_id":76561198076467775,"connected_time":2673000000000,"state":"active","ping":62},{"user_id":405,"name":"Revis","steam_id":76561198881184141,"connected_time":641000000000,"state":"active","ping":130},{"user_id":375,"name":"Servitz","steam_id":76561198194446835,"connected_time":3306000000000,"state":"active","ping":58},{"user_id":412,"name":"charles mingus","steam_id":76561198232617936,"connected_time":17000000000,"state":"active","ping":51},{"user_id":371,"name":"viscodolante","steam_id":76561198013650292,"connected_time":3566000000000,"state":"active","ping":116},{"user_id":413,"name":"substance","steam_id":76561198050103868,"connected_time":0,"state":"spawning","ping":0},{"user_id":410,"name":"Fermenting Kiwi","steam_id":76561198253303497,"connected_time":397000000000,"state":"active","ping":78},{"user_id":391,"name":"ToastEatinBread","steam_id":76561199154323267,"connected_time":2120000000000,"state":"active","ping":73},{"user_id":378,"name":"Terraformer9x","steam_id":76561198018465835,"connected_time":3056000000000,"state":"active","ping":85},{"user_id":397,"name":"YourDom","steam_id":76561198451730653,"connected_time":1653000000000,"state":"active","ping":61},{"user_id":399,"name":"KingTinkerer","steam_id":76561198226856548,"connected_time":1274000000000,"state":"active","ping":77},{"user_id":394,"name":"theconceptoflove","steam_id":76561199096810067,"connected_time":1947000000000,"state":"active","ping":103},{"user_id":372,"name":"ravioli","steam_id":76561199013708786,"connected_time":3555000000000,"state":"active","ping":60},{"user_id":387,"name":"Mister36","steam_id":76561198019132100,"connected_time":2319000000000,"state":"active","ping":69},{"user_id":382,"name":"Nassu","steam_id":76561198147367577,"connected_time":2980000000000,"state":"active","ping":69},{"user_id":300,"name":"SHADOW (he/him)","steam_id":76561198207768148,"connected_time":8118000000000,"state":"active","ping":110}]},{"server_id":38,"name":"Uncletopia | Chicago | 7 | Stopwatch Beta","name_short":"chi-7","host":"chi-2.us.uncletopia.com","port":27035,"enabled":true,"region":"us-central","cc":"us","latitude":41.881832,"longitude":-87.62318,"reserved":0,"last_update":"0001-01-01T00:00:00Z","name_a2s":"Uncletopia | Chicago | 7 | Stopwatch Beta","protocol":17,"map":"workshop/koth_product_final.ugc454272353","folder":"tf","game":"Team Fortress","app_id":440,"player_count":18,"max_players":24,"Bots":0,"server_type":"Dedicated","server_os":"Linux","password":true,"vac":true,"version":"7742253","steam_id":85568392924866364,"keywords":["cp","nocrits","nodmgspread","uncletopia"],"game_id":440,"stv_port":27036,"stv_name":"Uncletopia | Chicago | 7 | Stopwatch Beta | STV","players":[{"user_id":30,"name":"you must think im a sucker","steam_id":76561198152818418,"connected_time":5147000000000,"state":"active","ping":79},{"user_id":20,"name":"scrapmetal.crafter.2009","steam_id":76561198138221795,"connected_time":5335000000000,"state":"active","ping":69},{"user_id":21,"name":"Garbo","steam_id":76561198192120869,"connected_time":5330000000000,"state":"active","ping":57},{"user_id":22,"name":"Gazelle","steam_id":76561198336397088,"connected_time":5329000000000,"state":"active","ping":99},{"user_id":23,"name":"Thinks he is a sucker","steam_id":76561198202254225,"connected_time":5326000000000,"state":"active","ping":101},{"user_id":24,"name":"TreesRUs","steam_id":76561198305740611,"connected_time":5325000000000,"state":"active","ping":71},{"user_id":25,"name":"the abysmal eye","steam_id":76561198087200115,"connected_time":5323000000000,"state":"active","ping":111},{"user_id":26,"name":"Cinderace:)","steam_id":76561198132899671,"connected_time":5321000000000,"state":"active","ping":60},{"user_id":91,"name":"Jarryl97","steam_id":76561198055451373,"connected_time":47000000000,"state":"active","ping":89},{"user_id":28,"name":"A used self heating flesh-light","steam_id":76561198069918221,"connected_time":5299000000000,"state":"active","ping":63},{"user_id":82,"name":"fish","steam_id":76561198274534190,"connected_time":1301000000000,"state":"active","ping":46},{"user_id":85,"name":"Goofball","steam_id":76561198061211537,"connected_time":1258000000000,"state":"active","ping":76},{"user_id":37,"name":"pazylurple","steam_id":76561199100612353,"connected_time":5025000000000,"state":"active","ping":50},{"user_id":86,"name":"pipepeepi","steam_id":76561198845905873,"connected_time":1257000000000,"state":"active","ping":52},{"user_id":88,"name":"SrJuliusIV","steam_id":76561198341803148,"connected_time":471000000000,"state":"active","ping":141},{"user_id":75,"name":"Zoombini16","steam_id":76561198324428992,"connected_time":1634000000000,"state":"active","ping":80},{"user_id":72,"name":"drugsmoker117289","steam_id":76561198079009899,"connected_time":1831000000000,"state":"active","ping":75},{"user_id":81,"name":"Chuck Finley","steam_id":76561198027411284,"connected_time":1494000000000,"state":"active","ping":69}]},{"server_id":39,"name":"Uncletopia | Chicago | 8 | Community","name_short":"chi-8","host":"chi-2.us.uncletopia.com","port":27045,"enabled":true,"region":"us-central","cc":"us","latitude":41.881832,"longitude":-87.62318,"reserved":0,"last_update":"0001-01-01T00:00:00Z","name_a2s":"Uncletopia | Chicago | 8 | Community","protocol":17,"map":"workshop/koth_synthetic_rc6a.ugc1549817316","folder":"tf","game":"Team Fortress","app_id":440,"player_count":5,"max_players":24,"Bots":0,"server_type":"Dedicated","server_os":"Linux","password":true,"vac":true,"version":"7742253","steam_id":85568392924866365,"keywords":["cp","nocrits","nodmgspread","uncletopia"],"game_id":440,"stv_port":27046,"stv_name":"Uncletopia | Chicago | 8 | Community | STV","players":[{"user_id":13,"name":"CLG TaRiK","steam_id":76561198839880487,"connected_time":3278000000000,"state":"active","ping":52},{"user_id":14,"name":"yahboided1","steam_id":76561199359449181,"connected_time":3274000000000,"state":"active","ping":64},{"user_id":15,"name":"Jang-Lang-","steam_id":76561199016578959,"connected_time":2769000000000,"state":"active","ping":68},{"user_id":16,"name":"{Sly Fox}","steam_id":76561199069954162,"connected_time":2763000000000,"state":"active","ping":66},{"user_id":32,"name":":P","steam_id":76561199439880565,"connected_time":1457000000000,"state":"active","ping":66}]},{"server_id":8,"name":"Uncletopia | Dallas | 1 | All Maps","name_short":"dal-1","host":"dal-1.us.uncletopia.com","port":27015,"enabled":true,"region":"us-central","cc":"us","latitude":32.779167,"longitude":-96.80889,"reserved":0,"last_update":"0001-01-01T00:00:00Z","name_a2s":"Uncletopia | Dallas | 1 | All Maps","protocol":17,"map":"pl_barnblitz","folder":"tf","game":"Team Fortress","app_id":440,"player_count":24,"max_players":24,"Bots":0,"server_type":"Dedicated","server_os":"Linux","password":true,"vac":true,"version":"7742253","steam_id":85568392924469986,"keywords":["nocrits","nodmgspread","payload","uncletopia"],"game_id":440,"stv_port":27016,"stv_name":"Uncletopia | Dallas | 1 | All Maps | STV","players":[{"user_id":304,"name":"Parpa","steam_id":76561198066252787,"connected_time":2803000000000,"state":"active","ping":91},{"user_id":306,"name":"CHIEF","steam_id":76561198011209422,"connected_time":2534000000000,"state":"active","ping":38},{"user_id":315,"name":"The Krinkler","steam_id":76561198020308956,"connected_time":1810000000000,"state":"active","ping":61},{"user_id":318,"name":"SliFox115","steam_id":76561198006657143,"connected_time":1694000000000,"state":"active","ping":63},{"user_id":285,"name":"Fisherman","steam_id":76561198071026825,"connected_time":3761000000000,"state":"active","ping":71},{"user_id":286,"name":"Your Pal, Vegeta","steam_id":76561198064916816,"connected_time":3754000000000,"state":"active","ping":84},{"user_id":282,"name":"Scoron","steam_id":76561198062099305,"connected_time":3823000000000,"state":"active","ping":90},{"user_id":311,"name":"ROGUE-PLANET","steam_id":76561198116023052,"connected_time":1883000000000,"state":"active","ping":60},{"user_id":322,"name":"Bob the Builder","steam_id":76561199069029812,"connected_time":1287000000000,"state":"active","ping":87},{"user_id":290,"name":"I'm using tilt controls","steam_id":76561199014681829,"connected_time":3612000000000,"state":"active","ping":60},{"user_id":216,"name":"mola","steam_id":76561198036283992,"connected_time":10118000000000,"state":"active","ping":78},{"user_id":331,"name":"Σολαρ","steam_id":76561198046964942,"connected_time":626000000000,"state":"active","ping":61},{"user_id":305,"name":"BLACKout","steam_id":76561198002194086,"connected_time":2622000000000,"state":"active","ping":78},{"user_id":309,"name":"HotLatinoMale","steam_id":76561198272335425,"connected_time":2412000000000,"state":"active","ping":78},{"user_id":271,"name":"Bubbles","steam_id":76561198812361950,"connected_time":5177000000000,"state":"active","ping":96},{"user_id":275,"name":"in the balls (kick)","steam_id":76561199277633460,"connected_time":4697000000000,"state":"active","ping":60},{"user_id":310,"name":"Hangul","steam_id":76561197991887988,"connected_time":2412000000000,"state":"active","ping":100},{"user_id":251,"name":"DocDankDandy","steam_id":76561197999440195,"connected_time":7673000000000,"state":"active","ping":67},{"user_id":330,"name":"Dinger","steam_id":76561198030119710,"connected_time":704000000000,"state":"active","ping":83},{"user_id":325,"name":"jimmybean","steam_id":76561197985070900,"connected_time":1053000000000,"state":"active","ping":52},{"user_id":328,"name":"COYOTE","steam_id":76561198988066988,"connected_time":814000000000,"state":"active","ping":98},{"user_id":314,"name":"Christmas with Weezer (2008)","steam_id":76561198132803810,"connected_time":1858000000000,"state":"active","ping":59},{"user_id":297,"name":"SlimPorkchops","steam_id":76561198958586069,"connected_time":2991000000000,"state":"active","ping":49},{"user_id":302,"name":"Exalted Finalist","steam_id":76561198192021295,"connected_time":2937000000000,"state":"active","ping":175}]},{"server_id":108,"name":"Uncletopia | Dallas | 2 | All Maps","name_short":"dal-2","host":"dal-1.us.uncletopia.com","port":27025,"enabled":true,"region":"us-central","cc":"us","latitude":32.779167,"longitude":-96.80889,"reserved":0,"last_update":"0001-01-01T00:00:00Z","name_a2s":"Uncletopia | Dallas | 2 | All Maps","protocol":17,"map":"koth_highpass","folder":"tf","game":"Team Fortress","app_id":440,"player_count":24,"max_players":24,"Bots":0,"server_type":"Dedicated","server_os":"Linux","password":true,"vac":true,"version":"7742253","steam_id":85568392924469988,"keywords":["cp","nocrits","nodmgspread","uncletopia"],"game_id":440,"stv_port":27026,"stv_name":"Uncletopia | Dallas | 2 | All Maps | STV","players":[{"user_id":461,"name":"Lingus Loopus","steam_id":76561198041426868,"connected_time":837000000000,"state":"active","ping":46},{"user_id":450,"name":"G. Howard Dee","steam_id":76561198058382812,"connected_time":1734000000000,"state":"active","ping":62},{"user_id":479,"name":"leopardo123atl","steam_id":76561198872648238,"connected_time":19000000000,"state":"spawning","ping":89},{"user_id":478,"name":"THIRDPIERCE","steam_id":76561198405366314,"connected_time":134000000000,"state":"active","ping":62},{"user_id":472,"name":"GROOVYROOM","steam_id":76561199153684166,"connected_time":549000000000,"state":"active","ping":78},{"user_id":463,"name":"ryqset","steam_id":76561198349299874,"connected_time":797000000000,"state":"active","ping":112},{"user_id":456,"name":"BlueCrue","steam_id":76561198066698869,"connected_time":1284000000000,"state":"active","ping":61},{"user_id":430,"name":"totally not a pile of beans","steam_id":76561198119851931,"connected_time":2991000000000,"state":"active","ping":96},{"user_id":464,"name":"genset90","steam_id":76561199025671520,"connected_time":784000000000,"state":"active","ping":106},{"user_id":475,"name":"[S]Mr. X [No Monitor]","steam_id":76561197963746035,"connected_time":168000000000,"state":"active","ping":120},{"user_id":425,"name":"iluvtoust","steam_id":76561198869269207,"connected_time":3250000000000,"state":"active","ping":54},{"user_id":476,"name":"I hate weebs","steam_id":76561199140840754,"connected_time":161000000000,"state":"active","ping":127},{"user_id":412,"name":"The Ultimate Coomer","steam_id":76561199128833757,"connected_time":3460000000000,"state":"active","ping":44},{"user_id":441,"name":"Rin \"Hindwing\" Redtail","steam_id":76561199074865638,"connected_time":2384000000000,"state":"active","ping":47},{"user_id":458,"name":"zogs","steam_id":76561198323491654,"connected_time":1220000000000,"state":"active","ping":44},{"user_id":434,"name":"damiankiller1243","steam_id":76561198868885090,"connected_time":2919000000000,"state":"active","ping":55},{"user_id":460,"name":"Krow","steam_id":76561198010392099,"connected_time":1019000000000,"state":"active","ping":55},{"user_id":418,"name":"Mike Bean Burritos","steam_id":76561198173430607,"connected_time":3409000000000,"state":"active","ping":107},{"user_id":454,"name":"MERCHANT","steam_id":76561198210010549,"connected_time":1705000000000,"state":"active","ping":83},{"user_id":465,"name":"carrion goat","steam_id":76561198262064871,"connected_time":775000000000,"state":"active","ping":81},{"user_id":477,"name":"Magnet Dood","steam_id":76561198364178746,"connected_time":142000000000,"state":"active","ping":75},{"user_id":467,"name":"GooniOoni","steam_id":76561198102154561,"connected_time":763000000000,"state":"active","ping":77},{"user_id":474,"name":"The Rizzler","steam_id":76561198142699958,"connected_time":278000000000,"state":"active","ping":89},{"user_id":468,"name":"lost in spaaaaace","steam_id":76561199085974120,"connected_time":758000000000,"state":"active","ping":82}]},{"server_id":5,"name":"Uncletopia | Frankfurt | 1 | All Maps","name_short":"frk-1","host":"frk-1.de.uncletopia.com","port":27015,"enabled":true,"region":"eu","cc":"de","latitude":50.110924,"longitude":8.682127,"reserved":0,"last_update":"0001-01-01T00:00:00Z","name_a2s":"Uncletopia | Frankfurt | 1 | All Maps","protocol":17,"map":"pl_barnblitz","folder":"tf","game":"Team Fortress","app_id":440,"player_count":0,"max_players":24,"Bots":0,"server_type":"Dedicated","server_os":"Linux","password":true,"vac":true,"version":"7742253","steam_id":85568392924469989,"keywords":["nocrits","nodmgspread","payload","uncletopia"],"game_id":440,"stv_port":27016,"stv_name":"Uncletopia | Frankfurt | 1 | All Maps | STV","players":null},{"server_id":110,"name":"Uncletopia | Frankfurt | 2 | All Maps","name_short":"frk-2","host":"frk-1.de.uncletopia.com","port":27025,"enabled":true,"region":"eu","cc":"de","latitude":50.110924,"longitude":8.682127,"reserved":0,"last_update":"0001-01-01T00:00:00Z","name_a2s":"Uncletopia | Frankfurt | 2 | All Maps","protocol":17,"map":"pl_upward","folder":"tf","game":"Team Fortress","app_id":440,"player_count":0,"max_players":24,"Bots":0,"server_type":"Dedicated","server_os":"Linux","password":true,"vac":true,"version":"7742253","steam_id":85568392924469990,"keywords":["nocrits","nodmgspread","payload","uncletopia"],"game_id":440,"stv_port":27026,"stv_name":"Uncletopia | Frankfurt | 2 | All Maps | STV","players":null},{"server_id":308,"name":"Uncletopia | Frankfurt | 3 | All Maps","name_short":"frk-3","host":"frk-1.de.uncletopia.com","port":27035,"enabled":true,"region":"eu","cc":"de","latitude":50.110924,"longitude":8.682127,"reserved":0,"last_update":"0001-01-01T00:00:00Z","name_a2s":"Uncletopia | Frankfurt | 3 | All Maps","protocol":17,"map":"koth_viaduct","folder":"tf","game":"Team Fortress","app_id":440,"player_count":0,"max_players":24,"Bots":0,"server_type":"Dedicated","server_os":"Linux","password":true,"vac":true,"version":"7742253","steam_id":85568392924504274,"keywords":["cp","nocrits","nodmgspread","uncletopia"],"game_id":440,"stv_port":27036,"stv_name":"Uncletopia | Frankfurt | 3 | All Maps | STV","players":null},{"server_id":309,"name":"Uncletopia | Frankfurt | 4 | All Maps","name_short":"frk-4","host":"frk-1.de.uncletopia.com","port":27045,"enabled":true,"region":"eu","cc":"de","latitude":50.110924,"longitude":8.682127,"reserved":0,"last_update":"0001-01-01T00:00:00Z","name_a2s":"Uncletopia | Frankfurt | 4 | All Maps","protocol":17,"map":"pl_frontier_final","folder":"tf","game":"Team Fortress","app_id":440,"player_count":0,"max_players":24,"Bots":0,"server_type":"Dedicated","server_os":"Linux","password":true,"vac":true,"version":"7742253","steam_id":85568392924504275,"keywords":["nocrits","nodmgspread","payload","uncletopia"],"game_id":440,"stv_port":27046,"stv_name":"Uncletopia | Frankfurt | 4 | All Maps | STV","players":null},{"server_id":310,"name":"Uncletopia | Frankfurt | 5 | All Maps","name_short":"frk-5","host":"frk-1.de.uncletopia.com","port":27055,"enabled":true,"region":"eu","cc":"de","latitude":50.110924,"longitude":8.682127,"reserved":0,"last_update":"0001-01-01T00:00:00Z","name_a2s":"Uncletopia | Frankfurt | 5 | All Maps","protocol":17,"map":"cp_sunshine","folder":"tf","game":"Team Fortress","app_id":440,"player_count":0,"max_players":24,"Bots":0,"server_type":"Dedicated","server_os":"Linux","password":true,"vac":true,"version":"7742253","steam_id":85568392924504277,"keywords":["cp","nocrits","nodmgspread","uncletopia"],"game_id":440,"stv_port":27056,"stv_name":"Uncletopia | Frankfurt | 5 | All Maps | STV","players":null},{"server_id":311,"name":"Uncletopia | Frankfurt | 6 | All Maps","name_short":"frk-6","host":"frk-1.de.uncletopia.com","port":27065,"enabled":true,"region":"eu","cc":"de","latitude":50.110924,"longitude":8.682127,"reserved":0,"last_update":"0001-01-01T00:00:00Z","name_a2s":"Uncletopia | Frankfurt | 6 | All Maps","protocol":17,"map":"pl_frontier_final","folder":"tf","game":"Team Fortress","app_id":440,"player_count":2,"max_players":24,"Bots":0,"server_type":"Dedicated","server_os":"Linux","password":true,"vac":true,"version":"7742253","steam_id":85568392924504278,"keywords":["nocrits","nodmgspread","payload","uncletopia"],"game_id":440,"stv_port":27066,"stv_name":"Uncletopia | Frankfurt | 6 | All Maps | STV","players":[{"user_id":3,"name":"MikaStriker907","steam_id":76561198350766182,"connected_time":707000000000,"state":"active","ping":205},{"user_id":4,"name":"Vernumas","steam_id":76561198827100576,"connected_time":701000000000,"state":"active","ping":200}]},{"server_id":23,"name":"Uncletopia | Frankfurt | 7 | Stopwatch Beta","name_short":"frk-7","host":"frk-1.de.uncletopia.com","port":27075,"enabled":true,"region":"eu","cc":"de","latitude":50.110924,"longitude":8.682127,"reserved":0,"last_update":"0001-01-01T00:00:00Z","name_a2s":"Uncletopia | Frankfurt | 7 | Stopwatch Beta","protocol":17,"map":"koth_lakeside_final","folder":"tf","game":"Team Fortress","app_id":440,"player_count":0,"max_players":24,"Bots":0,"server_type":"Dedicated","server_os":"Linux","password":true,"vac":true,"version":"7742253","steam_id":85568392924742827,"keywords":["cp","nocrits","nodmgspread","uncletopia"],"game_id":440,"stv_port":27076,"stv_name":"Uncletopia | Frankfurt | 7 | Stopwatch Beta | STV","players":null},{"server_id":24,"name":"Uncletopia | Frankfurt | 8 | Community","name_short":"frk-8","host":"frk-1.de.uncletopia.com","port":27085,"enabled":true,"region":"eu","cc":"de","latitude":50.110924,"longitude":8.682127,"reserved":0,"last_update":"0001-01-01T00:00:00Z","name_a2s":"Uncletopia | Frankfurt | 8 | Community","protocol":17,"map":"pl_pier","folder":"tf","game":"Team Fortress","app_id":440,"player_count":0,"max_players":24,"Bots":0,"server_type":"Dedicated","server_os":"Linux","password":true,"vac":true,"version":"7742253","steam_id":85568392924742828,"keywords":["nocrits","nodmgspread","payload","uncletopia"],"game_id":440,"stv_port":27086,"stv_name":"Uncletopia | Frankfurt | 8 | Community | STV","players":null},{"server_id":202,"name":"Uncletopia | Hong Kong | 1 | All Maps","name_short":"hgk-1","host":"hgk-1.hk.uncletopia.com","port":27015,"enabled":true,"region":"asia","cc":"hk","latitude":22.302711,"longitude":114.177216,"reserved":0,"last_update":"0001-01-01T00:00:00Z","name_a2s":"Uncletopia | Hong Kong | 1 | All Maps","protocol":17,"map":"pl_frontier_final","folder":"tf","game":"Team Fortress","app_id":440,"player_count":24,"max_players":24,"Bots":0,"server_type":"Dedicated","server_os":"Linux","password":true,"vac":true,"version":"7742253","steam_id":85568392924494504,"keywords":["nocrits","nodmgspread","payload","uncletopia"],"game_id":440,"stv_port":27016,"stv_name":"Uncletopia | Hong Kong | 1 | All Maps | STV","players":[{"user_id":132,"name":"A very thankful Merc.","steam_id":76561198896046677,"connected_time":2461000000000,"state":"active","ping":68},{"user_id":159,"name":"TonXD","steam_id":76561199024372559,"connected_time":110000000000,"state":"active","ping":104},{"user_id":138,"name":"mosqito","steam_id":76561198195487041,"connected_time":2156000000000,"state":"active","ping":78},{"user_id":149,"name":"Saggle","steam_id":76561198056075147,"connected_time":829000000000,"state":"active","ping":123},{"user_id":145,"name":"I am BOX","steam_id":76561198845309411,"connected_time":1523000000000,"state":"active","ping":96},{"user_id":146,"name":"crusader king","steam_id":76561198110843506,"connected_time":1369000000000,"state":"active","ping":66},{"user_id":148,"name":"Telekhine","steam_id":76561198387120618,"connected_time":1236000000000,"state":"active","ping":54},{"user_id":161,"name":"OwlOfHighMoist","steam_id":76561198231299276,"connected_time":66000000000,"state":"active","ping":98},{"user_id":150,"name":"FAQ","steam_id":76561198068689092,"connected_time":807000000000,"state":"active","ping":89},{"user_id":131,"name":"P","steam_id":76561198304514505,"connected_time":2482000000000,"state":"active","ping":76},{"user_id":143,"name":"Neko-Chan","steam_id":76561198046277969,"connected_time":1634000000000,"state":"active","ping":46},{"user_id":160,"name":"Dits","steam_id":76561198283833960,"connected_time":100000000000,"state":"active","ping":43},{"user_id":151,"name":"turd'","steam_id":76561199006212966,"connected_time":754000000000,"state":"active","ping":90},{"user_id":115,"name":"Medi","steam_id":76561198447470800,"connected_time":3722000000000,"state":"active","ping":68},{"user_id":154,"name":"Corn_Archer","steam_id":76561199185044554,"connected_time":590000000000,"state":"active","ping":60},{"user_id":162,"name":":D","steam_id":76561198009692495,"connected_time":14000000000,"state":"active","ping":68},{"user_id":135,"name":"lilla laxum","steam_id":76561198230213828,"connected_time":2405000000000,"state":"active","ping":72},{"user_id":80,"name":"p1st0n","steam_id":76561198992723983,"connected_time":6908000000000,"state":"active","ping":111},{"user_id":139,"name":"monkeyman536","steam_id":76561197997717737,"connected_time":2097000000000,"state":"active","ping":134},{"user_id":141,"name":"Prussian","steam_id":76561198974248745,"connected_time":1932000000000,"state":"active","ping":68},{"user_id":158,"name":":)","steam_id":76561198437941450,"connected_time":191000000000,"state":"active","ping":79},{"user_id":119,"name":"gonebeef","steam_id":76561199083203270,"connected_time":3475000000000,"state":"active","ping":93},{"user_id":125,"name":"qballs","steam_id":76561198412329672,"connected_time":3193000000000,"state":"active","ping":86},{"user_id":111,"name":"it chrmis time","steam_id":76561198055553140,"connected_time":4070000000000,"state":"active","ping":77}]},{"server_id":1,"name":"Uncletopia | Los Angeles | 1 | All Maps","name_short":"lax-1","host":"lax-1.us.uncletopia.com","port":27015,"enabled":true,"region":"us-west","cc":"us","latitude":33.94279,"longitude":-118.41004,"reserved":0,"last_update":"0001-01-01T00:00:00Z","name_a2s":"Uncletopia | Los Angeles | 1 | All Maps","protocol":17,"map":"pl_borneo","folder":"tf","game":"Team Fortress","app_id":440,"player_count":24,"max_players":24,"Bots":0,"server_type":"Dedicated","server_os":"Linux","password":true,"vac":true,"version":"7742253","steam_id":85568392924469991,"keywords":["nocrits","nodmgspread","payload","uncletopia"],"game_id":440,"stv_port":27016,"stv_name":"Uncletopia | Los Angeles | 1 | All Maps | STV","players":[{"user_id":229,"name":"MarshallMellows","steam_id":76561198231561020,"connected_time":2742000000000,"state":"active","ping":60},{"user_id":239,"name":"faxxy","steam_id":76561198079621240,"connected_time":1238000000000,"state":"active","ping":104},{"user_id":237,"name":"S p a f f y","steam_id":76561198047892151,"connected_time":1276000000000,"state":"active","ping":49},{"user_id":232,"name":"Nibotshooter","steam_id":76561199284825579,"connected_time":2469000000000,"state":"active","ping":71},{"user_id":220,"name":"Sivinus","steam_id":76561198025589541,"connected_time":3165000000000,"state":"active","ping":58},{"user_id":240,"name":"axel","steam_id":76561198844924677,"connected_time":1220000000000,"state":"active","ping":57},{"user_id":224,"name":"Jax O'Gaytor","steam_id":76561198288922168,"connected_time":3069000000000,"state":"active","ping":63},{"user_id":221,"name":"Goonther","steam_id":76561198170128009,"connected_time":3138000000000,"state":"active","ping":58},{"user_id":241,"name":"Skeptical","steam_id":76561198038261789,"connected_time":1216000000000,"state":"active","ping":75},{"user_id":234,"name":"Pacbub","steam_id":76561198165198874,"connected_time":1417000000000,"state":"active","ping":50},{"user_id":242,"name":"sora","steam_id":76561198094256973,"connected_time":1157000000000,"state":"active","ping":58},{"user_id":247,"name":"squinzi","steam_id":76561198086520846,"connected_time":685000000000,"state":"active","ping":64},{"user_id":249,"name":"Dreamzapp","steam_id":76561199084936632,"connected_time":465000000000,"state":"active","ping":60},{"user_id":230,"name":"turnip","steam_id":76561197999375941,"connected_time":2705000000000,"state":"active","ping":86},{"user_id":238,"name":"Noxus","steam_id":76561199009820852,"connected_time":1276000000000,"state":"active","ping":79},{"user_id":235,"name":"TheBrocklobster","steam_id":76561198039682984,"connected_time":1289000000000,"state":"active","ping":61},{"user_id":245,"name":"toki","steam_id":76561199196943730,"connected_time":892000000000,"state":"active","ping":61},{"user_id":147,"name":"kebo","steam_id":76561198237159430,"connected_time":8190000000000,"state":"active","ping":82},{"user_id":246,"name":"The Assistant Regional Manager","steam_id":76561199221484936,"connected_time":888000000000,"state":"active","ping":52},{"user_id":243,"name":"KnightlyLad","steam_id":76561199053958203,"connected_time":1153000000000,"state":"active","ping":80},{"user_id":198,"name":"LazyDoll","steam_id":76561198053186338,"connected_time":5089000000000,"state":"active","ping":58},{"user_id":244,"name":"Anime Removal Squad","steam_id":76561198201237587,"connected_time":1143000000000,"state":"active","ping":59},{"user_id":205,"name":"dandy","steam_id":76561197967362217,"connected_time":4743000000000,"state":"active","ping":54},{"user_id":169,"name":"Sleuth","steam_id":76561198418288939,"connected_time":6731000000000,"state":"active","ping":76}]},{"server_id":112,"name":"Uncletopia | Los Angeles | 2 | All Maps","name_short":"lax-2","host":"lax-1.us.uncletopia.com","port":27025,"enabled":true,"region":"us-west","cc":"us","latitude":33.94279,"longitude":-118.41004,"reserved":0,"last_update":"0001-01-01T00:00:00Z","name_a2s":"Uncletopia | Los Angeles | 2 | All Maps","protocol":17,"map":"cp_sunshine","folder":"tf","game":"Team Fortress","app_id":440,"player_count":0,"max_players":24,"Bots":0,"server_type":"Dedicated","server_os":"Linux","password":true,"vac":true,"version":"7742253","steam_id":85568392924469992,"keywords":["cp","nocrits","nodmgspread","uncletopia"],"game_id":440,"stv_port":27026,"stv_name":"Uncletopia | Los Angeles | 2 | All Maps | STV","players":null},{"server_id":324,"name":"Uncletopia | Los Angeles | 3 | All Maps","name_short":"lax-3","host":"lax-1.us.uncletopia.com","port":27035,"enabled":true,"region":"us-west","cc":"us","latitude":33.94279,"longitude":-118.41004,"reserved":0,"last_update":"0001-01-01T00:00:00Z","name_a2s":"Uncletopia | Los Angeles | 3 | All Maps","protocol":17,"map":"koth_lakeside_final","folder":"tf","game":"Team Fortress","app_id":440,"player_count":0,"max_players":24,"Bots":0,"server_type":"Dedicated","server_os":"Linux","password":true,"vac":true,"version":"7742253","steam_id":85568392924510198,"keywords":["cp","nocrits","nodmgspread","uncletopia"],"game_id":440,"stv_port":27036,"stv_name":"Uncletopia | Los Angeles | 3 | All Maps | STV","players":null},{"server_id":25,"name":"Uncletopia | Los Angeles | 4 | Stopwatch Beta","name_short":"lax-4","host":"lax-1.us.uncletopia.com","port":27045,"enabled":true,"region":"us-west","cc":"us","latitude":33.94279,"longitude":-118.41004,"reserved":0,"last_update":"0001-01-01T00:00:00Z","name_a2s":"Uncletopia | Los Angeles | 4 | Stopwatch Beta","protocol":17,"map":"cp_process_final","folder":"tf","game":"Team Fortress","app_id":440,"player_count":0,"max_players":24,"Bots":0,"server_type":"Dedicated","server_os":"Linux","password":true,"vac":true,"version":"7742253","steam_id":85568392924510199,"keywords":["cp","nocrits","nodmgspread","uncletopia"],"game_id":440,"stv_port":27046,"stv_name":"Uncletopia | Los Angeles | 4 | Stopwatch Beta | STV","players":null},{"server_id":11,"name":"Uncletopia | London | 1 | All Maps","name_short":"lon-1","host":"lon-1.uk.uncletopia.com","port":27015,"enabled":true,"region":"eu","cc":"gb","latitude":51.509865,"longitude":-0.118092,"reserved":0,"last_update":"0001-01-01T00:00:00Z","name_a2s":"Uncletopia | London | 1 | All Maps","protocol":17,"map":"koth_lakeside_final","folder":"tf","game":"Team Fortress","app_id":440,"player_count":0,"max_players":24,"Bots":0,"server_type":"Dedicated","server_os":"Linux","password":true,"vac":true,"version":"7742253","steam_id":85568392924367362,"keywords":["cp","nocrits","nodmgspread","uncletopia"],"game_id":440,"stv_port":27016,"stv_name":"Uncletopia | London | 1 | All Maps | STV","players":null},{"server_id":114,"name":"Uncletopia | London | 2 | All Maps","name_short":"lon-2","host":"lon-1.uk.uncletopia.com","port":27025,"enabled":true,"region":"eu","cc":"gb","latitude":51.509865,"longitude":-0.118092,"reserved":0,"last_update":"0001-01-01T00:00:00Z","name_a2s":"Uncletopia | London | 2 | All Maps","protocol":17,"map":"cp_altitude","folder":"tf","game":"Team Fortress","app_id":440,"player_count":0,"max_players":24,"Bots":0,"server_type":"Dedicated","server_os":"Linux","password":true,"vac":true,"version":"7742253","steam_id":85568392924470941,"keywords":["cp","nocrits","nodmgspread","uncletopia"],"game_id":440,"stv_port":27026,"stv_name":"Uncletopia | London | 2 | All Maps | STV","players":null},{"server_id":320,"name":"Uncletopia | London | 3 | All Maps","name_short":"lon-3","host":"lon-1.uk.uncletopia.com","port":27035,"enabled":true,"region":"eu","cc":"gb","latitude":51.509865,"longitude":-0.118092,"reserved":0,"last_update":"0001-01-01T00:00:00Z","name_a2s":"Uncletopia | London | 3 | All Maps","protocol":17,"map":"pl_swiftwater_final1","folder":"tf","game":"Team Fortress","app_id":440,"player_count":0,"max_players":24,"Bots":0,"server_type":"Dedicated","server_os":"Linux","password":true,"vac":true,"version":"7742253","steam_id":85568392924510192,"keywords":["nocrits","nodmgspread","payload","uncletopia"],"game_id":440,"stv_port":27036,"stv_name":"Uncletopia | London | 3 | All Maps | STV","players":null},{"server_id":321,"name":"Uncletopia | London | 4 | All Maps","name_short":"lon-4","host":"lon-1.uk.uncletopia.com","port":27045,"enabled":true,"region":"eu","cc":"gb","latitude":51.509865,"longitude":-0.118092,"reserved":0,"last_update":"0001-01-01T00:00:00Z","name_a2s":"Uncletopia | London | 4 | All Maps","protocol":17,"map":"pl_snowycoast","folder":"tf","game":"Team Fortress","app_id":440,"player_count":0,"max_players":24,"Bots":0,"server_type":"Dedicated","server_os":"Linux","password":true,"vac":true,"version":"7742253","steam_id":85568392924510193,"keywords":["nocrits","nodmgspread","payload","uncletopia"],"game_id":440,"stv_port":27046,"stv_name":"Uncletopia | London | 4 | All Maps | STV","players":null},{"server_id":21,"name":"Uncletopia | London | 5 | All Maps","name_short":"lon-5","host":"lon-1.uk.uncletopia.com","port":27055,"enabled":true,"region":"eu","cc":"gb","latitude":51.509865,"longitude":-0.118092,"reserved":0,"last_update":"0001-01-01T00:00:00Z","name_a2s":"Uncletopia | London | 5 | All Maps","protocol":17,"map":"pl_frontier_final","folder":"tf","game":"Team Fortress","app_id":440,"player_count":0,"max_players":24,"Bots":0,"server_type":"Dedicated","server_os":"Linux","password":true,"vac":true,"version":"7742253","steam_id":85568392924742829,"keywords":["nocrits","nodmgspread","payload","uncletopia"],"game_id":440,"stv_port":27056,"stv_name":"Uncletopia | London | 5 | All Maps | STV","players":null},{"server_id":22,"name":"Uncletopia | London | 6 | All Maps","name_short":"lon-6","host":"lon-1.uk.uncletopia.com","port":27065,"enabled":true,"region":"eu","cc":"gb","latitude":51.509865,"longitude":-0.118092,"reserved":0,"last_update":"0001-01-01T00:00:00Z","name_a2s":"Uncletopia | London | 6 | All Maps","protocol":17,"map":"koth_cascade","folder":"tf","game":"Team Fortress","app_id":440,"player_count":0,"max_players":24,"Bots":0,"server_type":"Dedicated","server_os":"Linux","password":true,"vac":true,"version":"7742253","steam_id":85568392924742830,"keywords":["cp","nocrits","nodmgspread","uncletopia"],"game_id":440,"stv_port":27066,"stv_name":"Uncletopia | London | 6 | All Maps | STV","players":null},{"server_id":40,"name":"Uncletopia | London | 7 | No Payload","name_short":"lon-7","host":"lon-1.uk.uncletopia.com","port":27075,"enabled":true,"region":"eu","cc":"gb","latitude":51.509865,"longitude":-0.118092,"reserved":0,"last_update":"0001-01-01T00:00:00Z","name_a2s":"Uncletopia | London | 7 | No Payload","protocol":17,"map":"koth_viaduct","folder":"tf","game":"Team Fortress","app_id":440,"player_count":0,"max_players":24,"Bots":0,"server_type":"Dedicated","server_os":"Linux","password":true,"vac":true,"version":"7742253","steam_id":85568392924964314,"keywords":["cp","nocrits","nodmgspread","uncletopia"],"game_id":440,"stv_port":27076,"stv_name":"Uncletopia | London | 7 | No Payload | STV","players":null},{"server_id":41,"name":"Uncletopia | London | 8 | Community","name_short":"lon-8","host":"lon-1.uk.uncletopia.com","port":27085,"enabled":true,"region":"eu","cc":"gb","latitude":51.509865,"longitude":-0.118092,"reserved":0,"last_update":"0001-01-01T00:00:00Z","name_a2s":"Uncletopia | London | 8 | Community","protocol":17,"map":"workshop/cp_villa_b19.ugc2113052569","folder":"tf","game":"Team Fortress","app_id":440,"player_count":0,"max_players":24,"Bots":0,"server_type":"Dedicated","server_os":"Linux","password":true,"vac":true,"version":"7742253","steam_id":85568392924964315,"keywords":["cp","nocrits","nodmgspread","uncletopia"],"game_id":440,"stv_port":27086,"stv_name":"Uncletopia | London | 8 | Community | STV","players":null},{"server_id":300,"name":"Uncletopia | Montréal | 1 | All Maps","name_short":"mtl-1","host":"mtl-1.ca.uncletopia.com","port":27015,"enabled":true,"region":"us-east","cc":"ca","latitude":45.50889,"longitude":-73.56167,"reserved":0,"last_update":"0001-01-01T00:00:00Z","name_a2s":"Uncletopia | Montréal | 1 | All Maps","protocol":17,"map":"koth_lakeside_final","folder":"tf","game":"Team Fortress","app_id":440,"player_count":0,"max_players":24,"Bots":0,"server_type":"Dedicated","server_os":"Linux","password":true,"vac":true,"version":"7742253","steam_id":85568392924500087,"keywords":["cp","nocrits","nodmgspread","uncletopia"],"game_id":440,"stv_port":27016,"stv_name":"Uncletopia | Montréal | 1 | All Maps | STV","players":null},{"server_id":301,"name":"Uncletopia | Montréal | 2 | All Maps","name_short":"mtl-2","host":"mtl-1.ca.uncletopia.com","port":27025,"enabled":true,"region":"us-east","cc":"ca","latitude":45.50889,"longitude":-73.56167,"reserved":0,"last_update":"0001-01-01T00:00:00Z","name_a2s":"Uncletopia | Montréal | 2 | All Maps","protocol":17,"map":"koth_lakeside_final","folder":"tf","game":"Team Fortress","app_id":440,"player_count":0,"max_players":24,"Bots":0,"server_type":"Dedicated","server_os":"Linux","password":true,"vac":true,"version":"7742253","steam_id":85568392924500088,"keywords":["cp","nocrits","nodmgspread","uncletopia"],"game_id":440,"stv_port":27026,"stv_name":"Uncletopia | Montréal | 2 | All Maps | STV","players":null},{"server_id":302,"name":"Uncletopia | Montréal | 3 | All Maps","name_short":"mtl-3","host":"mtl-1.ca.uncletopia.com","port":27035,"enabled":true,"region":"us-east","cc":"ca","latitude":45.50889,"longitude":-73.56167,"reserved":0,"last_update":"0001-01-01T00:00:00Z","name_a2s":"Uncletopia | Montréal | 3 | All Maps","protocol":17,"map":"cp_altitude","folder":"tf","game":"Team Fortress","app_id":440,"player_count":0,"max_players":24,"Bots":0,"server_type":"Dedicated","server_os":"Linux","password":true,"vac":true,"version":"7742253","steam_id":85568392924500089,"keywords":["cp","nocrits","nodmgspread","uncletopia"],"game_id":440,"stv_port":27036,"stv_name":"Uncletopia | Montréal | 3 | All Maps | STV","players":null},{"server_id":303,"name":"Uncletopia | Montréal | 4 | No Payload","name_short":"mtl-4","host":"mtl-1.ca.uncletopia.com","port":27045,"enabled":true,"region":"us-east","cc":"ca","latitude":45.50889,"longitude":-73.56167,"reserved":0,"last_update":"0001-01-01T00:00:00Z","name_a2s":"Uncletopia | Montréal | 4 | No Payload","protocol":17,"map":"koth_highpass","folder":"tf","game":"Team Fortress","app_id":440,"player_count":0,"max_players":24,"Bots":0,"server_type":"Dedicated","server_os":"Linux","password":true,"vac":true,"version":"7742253","steam_id":85568392924500090,"keywords":["cp","nocrits","nodmgspread","uncletopia"],"game_id":440,"stv_port":27046,"stv_name":"Uncletopia | Montréal | 4 | No Payload | STV","players":null},{"server_id":13,"name":"Uncletopia | New York City | 1 | All Maps","name_short":"nyc-1","host":"nyc-1.us.uncletopia.com","port":27015,"enabled":true,"region":"us-east","cc":"us","latitude":40.73061,"longitude":-73.93524,"reserved":0,"last_update":"0001-01-01T00:00:00Z","name_a2s":"Uncletopia | New York City | 1 | All Maps","protocol":17,"map":"pl_swiftwater_final1","folder":"tf","game":"Team Fortress","app_id":440,"player_count":17,"max_players":24,"Bots":0,"server_type":"Dedicated","server_os":"Linux","password":true,"vac":true,"version":"7742253","steam_id":85568392924469993,"keywords":["nocrits","nodmgspread","payload","uncletopia"],"game_id":440,"stv_port":27016,"stv_name":"Uncletopia | New York City | 1 | All Maps | STV","players":[{"user_id":664,"name":"Master Of Whales","steam_id":76561198349104889,"connected_time":166000000000,"state":"active","ping":102},{"user_id":666,"name":"silly billy","steam_id":76561199038072811,"connected_time":39000000000,"state":"active","ping":82},{"user_id":665,"name":"Vaude","steam_id":76561198369187511,"connected_time":138000000000,"state":"active","ping":50},{"user_id":659,"name":"Kite","steam_id":76561199060915563,"connected_time":469000000000,"state":"active","ping":115},{"user_id":634,"name":"Noodle","steam_id":76561197997208006,"connected_time":1670000000000,"state":"active","ping":126},{"user_id":624,"name":"「Saint」","steam_id":76561198241943070,"connected_time":2243000000000,"state":"active","ping":82},{"user_id":657,"name":"MitcheyHD","steam_id":76561198066489645,"connected_time":868000000000,"state":"active","ping":56},{"user_id":663,"name":"tatis","steam_id":76561198317697314,"connected_time":262000000000,"state":"active","ping":127},{"user_id":646,"name":"BoomieMcBoomPants","steam_id":76561198144516828,"connected_time":1290000000000,"state":"active","ping":120},{"user_id":597,"name":"McNamJam","steam_id":76561198028128686,"connected_time":4574000000000,"state":"active","ping":120},{"user_id":660,"name":"Godfinger","steam_id":76561198426346549,"connected_time":406000000000,"state":"active","ping":89},{"user_id":667,"name":"johnman gooberguy","steam_id":76561199014859764,"connected_time":24000000000,"state":"active","ping":146},{"user_id":668,"name":"PAC-MATH","steam_id":76561198327729748,"connected_time":12000000000,"state":"active","ping":82},{"user_id":661,"name":"Geel","steam_id":76561197996869097,"connected_time":392000000000,"state":"active","ping":69},{"user_id":647,"name":"Neco-arc Astolfo","steam_id":76561198989682540,"connected_time":1248000000000,"state":"active","ping":130},{"user_id":651,"name":"Santa (real)","steam_id":76561199016285746,"connected_time":1131000000000,"state":"active","ping":92},{"user_id":609,"name":"Ekstra","steam_id":76561199031147010,"connected_time":3079000000000,"state":"active","ping":143}]},{"server_id":14,"name":"Uncletopia | New York City | 2 | All Maps","name_short":"nyc-2","host":"nyc-1.us.uncletopia.com","port":27025,"enabled":true,"region":"us-east","cc":"us","latitude":40.73061,"longitude":-73.93524,"reserved":0,"last_update":"0001-01-01T00:00:00Z","name_a2s":"Uncletopia | New York City | 2 | All Maps","protocol":17,"map":"pl_swiftwater_final1","folder":"tf","game":"Team Fortress","app_id":440,"player_count":23,"max_players":24,"Bots":0,"server_type":"Dedicated","server_os":"Linux","password":true,"vac":true,"version":"7742253","steam_id":85568392924469994,"keywords":["nocrits","nodmgspread","payload","uncletopia"],"game_id":440,"stv_port":27026,"stv_name":"Uncletopia | New York City | 2 | All Maps | STV","players":[{"user_id":503,"name":"PizzaPasta","steam_id":76561199125109082,"connected_time":15051000000000,"state":"active","ping":69},{"user_id":770,"name":"Pirateer","steam_id":76561198017114970,"connected_time":1840000000000,"state":"active","ping":125},{"user_id":791,"name":"Rein","steam_id":76561198300340427,"connected_time":355000000000,"state":"active","ping":68},{"user_id":767,"name":"Csquared","steam_id":76561198169038599,"connected_time":2426000000000,"state":"active","ping":128},{"user_id":785,"name":"Monolate","steam_id":76561199081379410,"connected_time":845000000000,"state":"active","ping":53},{"user_id":772,"name":"e|Normos","steam_id":76561199048057457,"connected_time":1794000000000,"state":"active","ping":72},{"user_id":773,"name":"[SKVR] Holo♥","steam_id":76561198064464060,"connected_time":1777000000000,"state":"active","ping":57},{"user_id":800,"name":"Bimpson","steam_id":76561198041138088,"connected_time":154000000000,"state":"active","ping":244},{"user_id":728,"name":"Sploingo!","steam_id":76561198799365742,"connected_time":5680000000000,"state":"active","ping":74},{"user_id":726,"name":"No_Point","steam_id":76561198374907851,"connected_time":5814000000000,"state":"active","ping":73},{"user_id":743,"name":"CRAZY engineer","steam_id":76561198887937902,"connected_time":4751000000000,"state":"active","ping":46},{"user_id":803,"name":"chilis baby back ribs","steam_id":76561198813516435,"connected_time":62000000000,"state":"active","ping":105},{"user_id":798,"name":"Billy McWilly","steam_id":76561198002882318,"connected_time":201000000000,"state":"active","ping":85},{"user_id":792,"name":"Nim","steam_id":76561198041236943,"connected_time":319000000000,"state":"active","ping":73},{"user_id":793,"name":"Anyar","steam_id":76561198160174097,"connected_time":307000000000,"state":"active","ping":89},{"user_id":756,"name":"Cynd","steam_id":76561198263327674,"connected_time":3187000000000,"state":"active","ping":62},{"user_id":778,"name":"Nicoarn121","steam_id":76561198156297440,"connected_time":1725000000000,"state":"active","ping":39},{"user_id":781,"name":"curbulence264","steam_id":76561199353333952,"connected_time":1603000000000,"state":"active","ping":63},{"user_id":801,"name":"(1)Bimpson","steam_id":76561198254074866,"connected_time":145000000000,"state":"active","ping":79},{"user_id":802,"name":"(2)Bimpson","steam_id":76561198044059329,"connected_time":141000000000,"state":"active","ping":62},{"user_id":799,"name":"GiveSomeSHrimp","steam_id":76561197963154816,"connected_time":200000000000,"state":"active","ping":83},{"user_id":746,"name":"Crimsonmask270","steam_id":76561198866479715,"connected_time":4352000000000,"state":"active","ping":125},{"user_id":733,"name":"Laelaps","steam_id":76561198100061416,"connected_time":5265000000000,"state":"active","ping":56}]},{"server_id":15,"name":"Uncletopia | New York City | 3 | Stopwatch Beta","name_short":"nyc-3","host":"nyc-1.us.uncletopia.com","port":27035,"enabled":true,"region":"us-east","cc":"us","latitude":40.73061,"longitude":-73.93524,"reserved":0,"last_update":"0001-01-01T00:00:00Z","name_a2s":"Uncletopia | New York City | 3 | Stopwatch Beta","protocol":17,"map":"koth_lakeside_final","folder":"tf","game":"Team Fortress","app_id":440,"player_count":0,"max_players":24,"Bots":0,"server_type":"Dedicated","server_os":"Linux","password":true,"vac":true,"version":"7742253","steam_id":85568392924742820,"keywords":["cp","nocrits","nodmgspread","uncletopia"],"game_id":440,"stv_port":27036,"stv_name":"Uncletopia | New York City | 3 | Stopwatch Beta | STV","players":null},{"server_id":16,"name":"Uncletopia | New York City | 4 | Community","name_short":"nyc-4","host":"nyc-1.us.uncletopia.com","port":27045,"enabled":true,"region":"us-east","cc":"us","latitude":40.73061,"longitude":-73.93524,"reserved":0,"last_update":"0001-01-01T00:00:00Z","name_a2s":"Uncletopia | New York City | 4 | Community","protocol":17,"map":"workshop/koth_product_final.ugc454272353","folder":"tf","game":"Team Fortress","app_id":440,"player_count":4,"max_players":24,"Bots":0,"server_type":"Dedicated","server_os":"Linux","password":true,"vac":true,"version":"7742253","steam_id":85568392924742821,"keywords":["cp","nocrits","nodmgspread","uncletopia"],"game_id":440,"stv_port":27046,"stv_name":"Uncletopia | New York City | 4 | Community | STV","players":[{"user_id":21,"name":"sweet n spicy","steam_id":76561198165660732,"connected_time":959000000000,"state":"active","ping":46},{"user_id":22,"name":"NyansuPantsu","steam_id":76561198128008770,"connected_time":929000000000,"state":"active","ping":41},{"user_id":23,"name":"Insayne","steam_id":76561199237951955,"connected_time":899000000000,"state":"active","ping":56},{"user_id":24,"name":"Abbreviated","steam_id":76561198088423054,"connected_time":36000000000,"state":"active","ping":77}]},{"server_id":142,"name":"Uncletopia | São Paulo | 1 | All Maps","name_short":"sao-1","host":"sao-1.br.uncletopia.com","port":27015,"enabled":true,"region":"sa","cc":"br","latitude":-23.533773,"longitude":-46.62529,"reserved":0,"last_update":"0001-01-01T00:00:00Z","name_a2s":"Uncletopia | São Paulo | 1 | All Maps","protocol":17,"map":"pl_borneo","folder":"tf","game":"Team Fortress","app_id":440,"player_count":0,"max_players":24,"Bots":0,"server_type":"Dedicated","server_os":"Linux","password":true,"vac":true,"version":"7742253","steam_id":85568392924469996,"keywords":["nocrits","nodmgspread","payload","uncletopia"],"game_id":440,"stv_port":27016,"stv_name":"Uncletopia | São Paulo | 1 | All Maps | STV","players":null},{"server_id":143,"name":"Uncletopia | São Paulo | 2 | All Maps","name_short":"sao-2","host":"sao-2.br.uncletopia.com","port":27015,"enabled":true,"region":"sa","cc":"br","latitude":-23.533773,"longitude":-46.62529,"reserved":0,"last_update":"0001-01-01T00:00:00Z","name_a2s":"Uncletopia | São Paulo | 2 | All Maps","protocol":17,"map":"pl_badwater","folder":"tf","game":"Team Fortress","app_id":440,"player_count":0,"max_players":24,"Bots":0,"server_type":"Dedicated","server_os":"Linux","password":true,"vac":true,"version":"7742253","steam_id":85568392924485349,"keywords":["nocrits","nodmgspread","payload","uncletopia"],"game_id":440,"stv_port":27016,"stv_name":"Uncletopia | São Paulo | 2 | All Maps | STV","players":null},{"server_id":7,"name":"Uncletopia | Seattle | 1 | All Maps","name_short":"sea-1","host":"sea-1.us.uncletopia.com","port":27015,"enabled":true,"region":"us-west","cc":"us","latitude":47.608013,"longitude":-122.33517,"reserved":0,"last_update":"0001-01-01T00:00:00Z","name_a2s":"Uncletopia | Seattle | 1 | All Maps","protocol":17,"map":"koth_harvest_final","folder":"tf","game":"Team Fortress","app_id":440,"player_count":23,"max_players":24,"Bots":0,"server_type":"Dedicated","server_os":"Linux","password":true,"vac":true,"version":"7742253","steam_id":85568392924469997,"keywords":["cp","nocrits","nodmgspread","uncletopia"],"game_id":440,"stv_port":27016,"stv_name":"Uncletopia | Seattle | 1 | All Maps | STV","players":[{"user_id":481,"name":"kirbothebrony","steam_id":76561198971911330,"connected_time":2988000000000,"state":"active","ping":115},{"user_id":499,"name":"VerociousVee","steam_id":76561198289106015,"connected_time":1576000000000,"state":"active","ping":47},{"user_id":452,"name":"Ayayahuasca","steam_id":76561199002906056,"connected_time":6364000000000,"state":"active","ping":45},{"user_id":480,"name":"Tom Skirrett","steam_id":76561198014600788,"connected_time":3051000000000,"state":"active","ping":68},{"user_id":490,"name":"blinkerton city","steam_id":76561198054270410,"connected_time":2249000000000,"state":"active","ping":57},{"user_id":502,"name":"spenca","steam_id":76561198025371154,"connected_time":1525000000000,"state":"active","ping":77},{"user_id":460,"name":"William P. Ennis","steam_id":76561198073464877,"connected_time":5304000000000,"state":"active","ping":90},{"user_id":438,"name":"[TrC] Nosy","steam_id":76561197978859310,"connected_time":7548000000000,"state":"active","ping":56},{"user_id":469,"name":"rat gets the cheese","steam_id":76561198031234032,"connected_time":3559000000000,"state":"active","ping":105},{"user_id":513,"name":"sero","steam_id":76561198069317611,"connected_time":295000000000,"state":"active","ping":89},{"user_id":461,"name":"DiggyDwarf","steam_id":76561198368905980,"connected_time":5264000000000,"state":"active","ping":119},{"user_id":510,"name":"Dr. SEX |HAM MAFIA|","steam_id":76561199167811848,"connected_time":518000000000,"state":"active","ping":87},{"user_id":471,"name":"soup","steam_id":76561198043209046,"connected_time":3430000000000,"state":"active","ping":73},{"user_id":459,"name":"Mr.Thirteen","steam_id":76561198047468836,"connected_time":5309000000000,"state":"active","ping":68},{"user_id":487,"name":"Mignyanne :3","steam_id":76561198048754056,"connected_time":2266000000000,"state":"active","ping":66},{"user_id":483,"name":"Reagan Grey","steam_id":76561199244000976,"connected_time":2731000000000,"state":"active","ping":74},{"user_id":512,"name":"J U K I E","steam_id":76561197962841151,"connected_time":327000000000,"state":"active","ping":58},{"user_id":472,"name":"PorgyPork","steam_id":76561198824399078,"connected_time":3427000000000,"state":"active","ping":45},{"user_id":488,"name":"TROY","steam_id":76561197983852176,"connected_time":2265000000000,"state":"active","ping":75},{"user_id":437,"name":"[TrC] Dackstrus","steam_id":76561197973518509,"connected_time":7777000000000,"state":"active","ping":58},{"user_id":511,"name":"......","steam_id":76561198067612741,"connected_time":473000000000,"state":"active","ping":46},{"user_id":501,"name":"Miss PeaceTea","steam_id":76561198279236985,"connected_time":1549000000000,"state":"active","ping":90},{"user_id":473,"name":"Sir Nope (TSS)","steam_id":76561198035935649,"connected_time":3427000000000,"state":"active","ping":88}]},{"server_id":119,"name":"Uncletopia | Seattle | 2 | All Maps","name_short":"sea-2","host":"sea-1.us.uncletopia.com","port":27025,"enabled":true,"region":"us-west","cc":"us","latitude":47.608013,"longitude":-122.33517,"reserved":0,"last_update":"0001-01-01T00:00:00Z","name_a2s":"Uncletopia | Seattle | 2 | All Maps","protocol":17,"map":"cp_sunshine","folder":"tf","game":"Team Fortress","app_id":440,"player_count":22,"max_players":24,"Bots":0,"server_type":"Dedicated","server_os":"Linux","password":true,"vac":true,"version":"7742253","steam_id":85568392924469998,"keywords":["cp","nocrits","nodmgspread","uncletopia"],"game_id":440,"stv_port":27026,"stv_name":"Uncletopia | Seattle | 2 | All Maps | STV","players":[{"user_id":454,"name":"Crazy Hungarian","steam_id":76561198025498172,"connected_time":451000000000,"state":"active","ping":46},{"user_id":448,"name":"steak","steam_id":76561198016941612,"connected_time":854000000000,"state":"active","ping":50},{"user_id":451,"name":"bbbbb","steam_id":76561198095480838,"connected_time":516000000000,"state":"active","ping":46},{"user_id":453,"name":"Danger Noodle","steam_id":76561198130841014,"connected_time":462000000000,"state":"active","ping":49},{"user_id":272,"name":"Frongussy","steam_id":76561197979056451,"connected_time":13388000000000,"state":"active","ping":48},{"user_id":438,"name":"Sol","steam_id":76561198803824764,"connected_time":1529000000000,"state":"active","ping":67},{"user_id":458,"name":"Sweets","steam_id":76561198998446307,"connected_time":45000000000,"state":"active","ping":63},{"user_id":433,"name":"Octobella Enthusiast","steam_id":76561198199266047,"connected_time":1707000000000,"state":"active","ping":114},{"user_id":457,"name":"cleaveland brown","steam_id":76561199045901994,"connected_time":105000000000,"state":"active","ping":82},{"user_id":446,"name":"the","steam_id":76561198079418310,"connected_time":951000000000,"state":"active","ping":51},{"user_id":412,"name":"Luca","steam_id":76561198125087140,"connected_time":3218000000000,"state":"active","ping":159},{"user_id":459,"name":"Yachter","steam_id":76561198129749194,"connected_time":20000000000,"state":"spawning","ping":109},{"user_id":318,"name":"self sufficient kitten","steam_id":76561197960592612,"connected_time":9449000000000,"state":"active","ping":45},{"user_id":460,"name":"Claaws","steam_id":76561198159589471,"connected_time":14000000000,"state":"spawning","ping":44},{"user_id":449,"name":"VerSaKa","steam_id":76561198052392540,"connected_time":728000000000,"state":"active","ping":124},{"user_id":386,"name":"pcplace","steam_id":76561198097987387,"connected_time":4928000000000,"state":"active","ping":50},{"user_id":450,"name":"Howster002","steam_id":76561198323965902,"connected_time":610000000000,"state":"active","ping":46},{"user_id":403,"name":"butt3r_","steam_id":76561198156374792,"connected_time":4056000000000,"state":"active","ping":45},{"user_id":441,"name":"Elias","steam_id":76561198031295139,"connected_time":1516000000000,"state":"active","ping":54},{"user_id":447,"name":"shane","steam_id":76561198060491451,"connected_time":899000000000,"state":"active","ping":93},{"user_id":456,"name":"macky","steam_id":76561198187945523,"connected_time":313000000000,"state":"active","ping":95},{"user_id":409,"name":"SQbuilder","steam_id":76561198076473375,"connected_time":3855000000000,"state":"active","ping":80}]},{"server_id":406,"name":"Uncletopia | Seattle | 3 | Stopwatch Beta","name_short":"sea-3","host":"sea-1.us.uncletopia.com","port":27035,"enabled":true,"region":"us-west","cc":"us","latitude":47.608013,"longitude":-122.33517,"reserved":0,"last_update":"0001-01-01T00:00:00Z","name_a2s":"Uncletopia | Seattle | 3 | Stopwatch Beta","protocol":17,"map":"pl_upward","folder":"tf","game":"Team Fortress","app_id":440,"player_count":2,"max_players":24,"Bots":0,"server_type":"Dedicated","server_os":"Linux","password":true,"vac":false,"version":"7742253","steam_id":0,"keywords":["nocrits","nodmgspread","payload","uncletopia"],"game_id":440,"stv_port":27036,"stv_name":"Uncletopia | Seattle | 3 | Stopwatch Beta | STV","players":[{"user_id":8,"name":"Luke","steam_id":76561198335956790,"connected_time":394000000000,"state":"active","ping":125},{"user_id":9,"name":"Morse","steam_id":76561198039944542,"connected_time":220000000000,"state":"active","ping":45}]},{"server_id":17,"name":"Uncletopia | San Francisco | 1 | All Maps","name_short":"sfo-1","host":"sfo-1.us.uncletopia.com","port":27015,"enabled":true,"region":"us-west","cc":"us","latitude":37.77397,"longitude":-122.4313,"reserved":0,"last_update":"0001-01-01T00:00:00Z","name_a2s":"Uncletopia | San Francisco | 1 | All Maps","protocol":17,"map":"koth_cascade","folder":"tf","game":"Team Fortress","app_id":440,"player_count":0,"max_players":24,"Bots":0,"server_type":"Dedicated","server_os":"Linux","password":true,"vac":true,"version":"7742253","steam_id":85568392924469999,"keywords":["cp","nocrits","nodmgspread","uncletopia"],"game_id":440,"stv_port":27016,"stv_name":"Uncletopia | San Francisco | 1 | All Maps | STV","players":null},{"server_id":18,"name":"Uncletopia | San Francisco | 2 | All Maps","name_short":"sfo-2","host":"sfo-1.us.uncletopia.com","port":27025,"enabled":true,"region":"us-west","cc":"us","latitude":37.77397,"longitude":-122.4313,"reserved":0,"last_update":"0001-01-01T00:00:00Z","name_a2s":"Uncletopia | San Francisco | 2 | All Maps","protocol":17,"map":"koth_highpass","folder":"tf","game":"Team Fortress","app_id":440,"player_count":0,"max_players":24,"Bots":0,"server_type":"Dedicated","server_os":"Linux","password":true,"vac":true,"version":"7742253","steam_id":85568392924470000,"keywords":["cp","nocrits","nodmgspread","uncletopia"],"game_id":440,"stv_port":27026,"stv_name":"Uncletopia | San Francisco | 2 | All Maps | STV","players":null},{"server_id":19,"name":"Uncletopia | San Francisco | 3 | Stopwatch Beta","name_short":"sfo-3","host":"sfo-1.us.uncletopia.com","port":27035,"enabled":true,"region":"us-west","cc":"us","latitude":37.77397,"longitude":-122.4313,"reserved":0,"last_update":"0001-01-01T00:00:00Z","name_a2s":"Uncletopia | San Francisco | 3 | Stopwatch Beta","protocol":17,"map":"cp_snakewater_final1","folder":"tf","game":"Team Fortress","app_id":440,"player_count":0,"max_players":24,"Bots":0,"server_type":"Dedicated","server_os":"Linux","password":true,"vac":true,"version":"7742253","steam_id":85568392924742824,"keywords":["cp","nocrits","nodmgspread","uncletopia"],"game_id":440,"stv_port":27036,"stv_name":"Uncletopia | San Francisco | 3 | Stopwatch Beta | STV","players":null},{"server_id":20,"name":"Uncletopia | San Francisco | 4 | Community","name_short":"sfo-4","host":"sfo-1.us.uncletopia.com","port":27045,"enabled":true,"region":"us-west","cc":"us","latitude":37.77397,"longitude":-122.4313,"reserved":0,"last_update":"0001-01-01T00:00:00Z","name_a2s":"Uncletopia | San Francisco | 4 | Community","protocol":17,"map":"workshop/koth_bagel_rc5.ugc2514036946","folder":"tf","game":"Team Fortress","app_id":440,"player_count":0,"max_players":24,"Bots":0,"server_type":"Dedicated","server_os":"Linux","password":true,"vac":true,"version":"7742253","steam_id":85568392924742826,"keywords":["cp","nocrits","nodmgspread","uncletopia"],"game_id":440,"stv_port":27046,"stv_name":"Uncletopia | San Francisco | 4 | Community | STV","players":null},{"server_id":141,"name":"Uncletopia | Sydney | 1 | All Maps","name_short":"syd-1","host":"syd-1.au.uncletopia.com","port":27015,"enabled":true,"region":"au","cc":"au","latitude":-33.865143,"longitude":151.2099,"reserved":0,"last_update":"0001-01-01T00:00:00Z","name_a2s":"Uncletopia | Sydney | 1 | All Maps","protocol":17,"map":"koth_lakeside_final","folder":"tf","game":"Team Fortress","app_id":440,"player_count":10,"max_players":24,"Bots":0,"server_type":"Dedicated","server_os":"Linux","password":true,"vac":true,"version":"7742253","steam_id":85568392924470001,"keywords":["cp","nocrits","nodmgspread","uncletopia"],"game_id":440,"stv_port":27016,"stv_name":"Uncletopia | Sydney | 1 | All Maps | STV","players":[{"user_id":277,"name":"Rouva Lautan","steam_id":76561198948183007,"connected_time":181000000000,"state":"active","ping":48},{"user_id":179,"name":"Gamma","steam_id":76561198281131757,"connected_time":6710000000000,"state":"active","ping":51},{"user_id":278,"name":"Expresso","steam_id":76561198848523318,"connected_time":172000000000,"state":"active","ping":60},{"user_id":279,"name":"Lv 9 Reborn Nubblet","steam_id":76561198069483103,"connected_time":66000000000,"state":"active","ping":89},{"user_id":264,"name":"✿hydatid✿","steam_id":76561198796773396,"connected_time":1209000000000,"state":"active","ping":49},{"user_id":267,"name":"Editor_Billy","steam_id":76561199165608946,"connected_time":1057000000000,"state":"active","ping":57},{"user_id":266,"name":"idahs","steam_id":76561198073097952,"connected_time":1076000000000,"state":"active","ping":78},{"user_id":280,"name":"Top Ramen","steam_id":76561198028969833,"connected_time":39000000000,"state":"active","ping":45},{"user_id":273,"name":"floop flub","steam_id":76561198418968979,"connected_time":625000000000,"state":"active","ping":57},{"user_id":276,"name":"callistoAshley","steam_id":76561198178116375,"connected_time":269000000000,"state":"active","ping":53}]},{"server_id":123,"name":"Uncletopia | Sydney | 2 | All Maps","name_short":"syd-2","host":"syd-1.au.uncletopia.com","port":27025,"enabled":true,"region":"au","cc":"au","latitude":-33.865143,"longitude":151.2099,"reserved":0,"last_update":"0001-01-01T00:00:00Z","name_a2s":"Uncletopia | Sydney | 2 | All Maps","protocol":17,"map":"pl_badwater","folder":"tf","game":"Team Fortress","app_id":440,"player_count":0,"max_players":24,"Bots":0,"server_type":"Dedicated","server_os":"Linux","password":true,"vac":true,"version":"7742253","steam_id":85568392924470002,"keywords":["nocrits","nodmgspread","payload","uncletopia"],"game_id":440,"stv_port":27026,"stv_name":"Uncletopia | Sydney | 2 | All Maps | STV","players":null},{"server_id":395,"name":"Uncletopia | Sydney | 3 | All Maps","name_short":"syd-3","host":"syd-1.au.uncletopia.com","port":27035,"enabled":true,"region":"au","cc":"au","latitude":-33.865143,"longitude":151.2099,"reserved":0,"last_update":"0001-01-01T00:00:00Z","name_a2s":"Uncletopia | Sydney | 3 | All Maps","protocol":17,"map":"cp_dustbowl","folder":"tf","game":"Team Fortress","app_id":440,"player_count":0,"max_players":24,"Bots":0,"server_type":"Dedicated","server_os":"Linux","password":true,"vac":true,"version":"7742253","steam_id":85568392925194467,"keywords":["cp","nocrits","nodmgspread","uncletopia"],"game_id":440,"stv_port":27036,"stv_name":"Uncletopia | Sydney | 3 | All Maps | STV","players":null},{"server_id":396,"name":"Uncletopia | Sydney | 4 | All Maps","name_short":"syd-4","host":"syd-1.au.uncletopia.com","port":27045,"enabled":true,"region":"au","cc":"au","latitude":-33.865143,"longitude":151.2099,"reserved":0,"last_update":"0001-01-01T00:00:00Z","name_a2s":"Uncletopia | Sydney | 4 | All Maps","protocol":17,"map":"pl_borneo","folder":"tf","game":"Team Fortress","app_id":440,"player_count":0,"max_players":24,"Bots":0,"server_type":"Dedicated","server_os":"Linux","password":true,"vac":true,"version":"7742253","steam_id":85568392925397958,"keywords":["nocrits","nodmgspread","payload","uncletopia"],"game_id":440,"stv_port":27046,"stv_name":"Uncletopia | Sydney | 4 | All Maps | STV","players":null},{"server_id":58,"name":"Uncletopia | Sydney | 5 | Stopwatch Beta","name_short":"syd-5","host":"syd-1.au.uncletopia.com","port":27055,"enabled":true,"region":"au","cc":"au","latitude":-33.865143,"longitude":151.2099,"reserved":0,"last_update":"0001-01-01T00:00:00Z","name_a2s":"Uncletopia | Sydney | 5 | Stopwatch Beta","protocol":17,"map":"workshop/koth_ashville_final.ugc2130459942","folder":"tf","game":"Team Fortress","app_id":440,"player_count":0,"max_players":24,"Bots":0,"server_type":"Dedicated","server_os":"Linux","password":true,"vac":true,"version":"7742253","steam_id":85568392925397959,"keywords":["cp","nocrits","nodmgspread","uncletopia"],"game_id":440,"stv_port":27056,"stv_name":"Uncletopia | Sydney | 5 | Stopwatch Beta | STV","players":null},{"server_id":59,"name":"Uncletopia | Sydney | 6 | Community","name_short":"syd-6","host":"syd-1.au.uncletopia.com","port":27065,"enabled":true,"region":"au","cc":"au","latitude":-33.865143,"longitude":151.2099,"reserved":0,"last_update":"0001-01-01T00:00:00Z","name_a2s":"Uncletopia | Sydney | 6 | Community","protocol":17,"map":"workshop/pl_fifthcurve_rc1.ugc648227046","folder":"tf","game":"Team Fortress","app_id":440,"player_count":0,"max_players":24,"Bots":0,"server_type":"Dedicated","server_os":"Linux","password":true,"vac":true,"version":"7742253","steam_id":85568392925397960,"keywords":["nocrits","nodmgspread","payload","uncletopia"],"game_id":440,"stv_port":27066,"stv_name":"Uncletopia | Sydney | 6 | Community | STV","players":null},{"server_id":49,"name":"Uncletopia | Warsaw | 1 | All Maps","name_short":"waw-1","host":"waw-1.pl.uncletopia.com","port":27015,"enabled":true,"region":"eu","cc":"pl","latitude":52.2297,"longitude":21.017532,"reserved":0,"last_update":"0001-01-01T00:00:00Z","name_a2s":"Uncletopia | Warsaw | 1 | All Maps","protocol":17,"map":"koth_lakeside_final","folder":"tf","game":"Team Fortress","app_id":440,"player_count":0,"max_players":24,"Bots":0,"server_type":"Dedicated","server_os":"Linux","password":true,"vac":true,"version":"7723704","steam_id":85568392925397850,"keywords":["cp","nocrits","nodmgspread","uncletopia"],"game_id":440,"stv_port":27016,"stv_name":"Uncletopia | Warsaw | 1 | All Maps | STV","players":null},{"server_id":50,"name":"Uncletopia | Warsaw | 2 | All Maps","name_short":"waw-2","host":"waw-1.pl.uncletopia.com","port":27025,"enabled":true,"region":"eu","cc":"pl","latitude":52.2297,"longitude":21.017532,"reserved":0,"last_update":"0001-01-01T00:00:00Z","name_a2s":"Uncletopia | Warsaw | 2 | All Maps","protocol":17,"map":"pl_frontier_final","folder":"tf","game":"Team Fortress","app_id":440,"player_count":0,"max_players":24,"Bots":0,"server_type":"Dedicated","server_os":"Linux","password":true,"vac":true,"version":"7742253","steam_id":85568392925397851,"keywords":["nocrits","nodmgspread","payload","uncletopia"],"game_id":440,"stv_port":27026,"stv_name":"Uncletopia | Warsaw | 2 | All Maps | STV","players":null},{"server_id":51,"name":"Uncletopia | Warsaw | 3 | All Maps","name_short":"waw-3","host":"waw-1.pl.uncletopia.com","port":27035,"enabled":true,"region":"eu","cc":"pl","latitude":52.2297,"longitude":21.017532,"reserved":0,"last_update":"0001-01-01T00:00:00Z","name_a2s":"Uncletopia | Warsaw | 3 | All Maps","protocol":17,"map":"pl_frontier_final","folder":"tf","game":"Team Fortress","app_id":440,"player_count":0,"max_players":24,"Bots":0,"server_type":"Dedicated","server_os":"Linux","password":true,"vac":true,"version":"7742253","steam_id":85568392925397852,"keywords":["nocrits","nodmgspread","payload","uncletopia"],"game_id":440,"stv_port":27036,"stv_name":"Uncletopia | Warsaw | 3 | All Maps | STV","players":null},{"server_id":52,"name":"Uncletopia | Warsaw | 4 | All Maps","name_short":"waw-4","host":"waw-1.pl.uncletopia.com","port":27045,"enabled":true,"region":"eu","cc":"pl","latitude":52.2297,"longitude":21.017532,"reserved":0,"last_update":"0001-01-01T00:00:00Z","name_a2s":"Uncletopia | Warsaw | 4 | All Maps","protocol":17,"map":"pl_swiftwater_final1","folder":"tf","game":"Team Fortress","app_id":440,"player_count":0,"max_players":24,"Bots":0,"server_type":"Dedicated","server_os":"Linux","password":true,"vac":true,"version":"7742253","steam_id":85568392925397853,"keywords":["nocrits","nodmgspread","payload","uncletopia"],"game_id":440,"stv_port":27046,"stv_name":"Uncletopia | Warsaw | 4 | All Maps | STV","players":null},{"server_id":53,"name":"Uncletopia | Warsaw | 5 | Stopwatch Beta","name_short":"waw-5","host":"waw-1.pl.uncletopia.com","port":27055,"enabled":true,"region":"eu","cc":"pl","latitude":52.2297,"longitude":21.017532,"reserved":0,"last_update":"0001-01-01T00:00:00Z","name_a2s":"Uncletopia | Warsaw | 5 | Stopwatch Beta","protocol":17,"map":"pl_pier","folder":"tf","game":"Team Fortress","app_id":440,"player_count":0,"max_players":24,"Bots":0,"server_type":"Dedicated","server_os":"Linux","password":true,"vac":true,"version":"7742253","steam_id":85568392925397854,"keywords":["nocrits","nodmgspread","payload","uncletopia"],"game_id":440,"stv_port":27056,"stv_name":"Uncletopia | Warsaw | 5 | Stopwatch Beta | STV","players":null},{"server_id":54,"name":"Uncletopia | Warsaw | 6 | Community","name_short":"waw-6","host":"waw-1.pl.uncletopia.com","port":27065,"enabled":true,"region":"eu","cc":"pl","latitude":52.2297,"longitude":21.017532,"reserved":0,"last_update":"0001-01-01T00:00:00Z","name_a2s":"Uncletopia | Warsaw | 6 | Community","protocol":17,"map":"cp_sunshine","folder":"tf","game":"Team Fortress","app_id":440,"player_count":0,"max_players":24,"Bots":0,"server_type":"Dedicated","server_os":"Linux","password":true,"vac":true,"version":"7742253","steam_id":85568392925397856,"keywords":["cp","nocrits","nodmgspread","uncletopia"],"game_id":440,"stv_port":27066,"stv_name":"Uncletopia | Warsaw | 6 | Community | STV","players":null}]}