{"status":true,"message":"","result":[{"server_id":9,"name":"Uncletopia | Atlanta | 1 | All Maps","name_short":"atl-1","host":"atl-1.us.uncletopia.com","port":27015,"enabled":true,"region":"us-east","cc":"us","latitude":33.753746,"longitude":-84.38633,"reserved":0,"last_update":"0001-01-01T00:00:00Z","name_a2s":"Uncletopia | Atlanta | 1 | All Maps","protocol":17,"map":"pl_badwater","folder":"tf","game":"Team Fortress","app_id":440,"player_count":0,"max_players":24,"Bots":0,"server_type":"Dedicated","server_os":"Linux","password":true,"vac":true,"version":"7742253","steam_id":85568392924469982,"keywords":["nocrits","nodmgspread","payload","uncletopia"],"game_id":440,"stv_port":27016,"stv_name":"Uncletopia | Atlanta | 1 | All Maps | STV","players":null},{"server_id":400,"name":"Uncletopia | Atlanta | 3 | Stopwatch Beta","name_short":"atl-3","host":"atl-1.us.uncletopia.com","port":27035,"enabled":true,"region":"us-east","cc":"us","latitude":33.753746,"longitude":-84.38633,"reserved":0,"last_update":"0001-01-01T00:00:00Z","name_a2s":"Uncletopia | Atlanta | 3 | Stopwatch Beta","protocol":17,"map":"pl_upward","folder":"tf","game":"Team Fortress","app_id":440,"player_count":0,"max_players":24,"Bots":0,"server_type":"Dedicated","server_os":"Linux","password":true,"vac":true,"version":"7742253","steam_id":85568392924515187,"keywords":["nocrits","nodmgspread","payload","uncletopia"],"game_id":440,"stv_port":27036,"stv_name":"Uncletopia | Atlanta | 3 | Stopwatch Beta | STV","players":null},{"server_id":401,"name":"Uncletopia | Atlanta | 4 | No Payload","name_short":"atl-4","host":"atl-1.us.uncletopia.com","port":27045,"enabled":true,"region":"us-east","cc":"us","latitude":33.753746,"longitude":-84.38633,"reserved":0,"last_update":"0001-01-01T00:00:00Z","name_a2s":"Uncletopia | Atlanta | 4 | No Payload","protocol":17,"map":"pl_pier","folder":"tf","game":"Team Fortress","app_id":440,"player_count":0,"max_players":24,"Bots":0,"server_type":"Dedicated","server_os":"Linux","password":true,"vac":true,"version":"7723704","steam_id":85568392924515188,"keywords":["nocrits","nodmgspread","payload","uncletopia"],"game_id":440,"stv_port":27046,"stv_name":"Uncletopia | Atlanta | 4 | No Payload | STV","players":null},{"server_id":2,"name":"Uncletopia | Chicago | 1 | All Maps","name_short":"chi-1","host":"chi-1.us.uncletopia.com","port":27015,"enabled":true,"region":"us-central","cc":"us","latitude":41.881832,"longitude":-87.62318,"reserved":0,"last_update":"0001-01-01T00:00:00Z","name_a2s":"Uncletopia | Chicago | 1 | All Maps","protocol":17,"map":"cp_altitude","folder":"tf","game":"Team Fortress","app_id":440,"player_count":2,"max_players":24,"Bots":0,"server_type":"Dedicated","server_os":"Linux","password":true,"vac":true,"version":"7742253","steam_id":85568392924469984,"keywords":["cp","nocrits","nodmgspread","uncletopia"],"game_id":440,"stv_port":27016,"stv_name":"Uncletopia | Chicago | 1 | All Maps | STV","players":[{"user_id":10,"name":"AmirKhaan","steam_id":76561198992403254,"connected_time":68000000000,"state":"active","ping":59},{"user_id":11,"name":"ButterScotch","steam_id":76561199389314894,"connected_time":54000000000,"state":"active","ping":68}]},{"server_id":106,"name":"Uncletopia | Chicago | 2 | All Maps","name_short":"chi-2","host":"chi-1.us.uncletopia.com","port":27025,"enabled":true,"region":"us-central","cc":"us","latitude":41.881832,"longitude":-87.62318,"reserved":0,"last_update":"0001-01-01T00:00:00Z","name_a2s":"Uncletopia | Chicago | 2 | All Maps","protocol":17,"map":"cp_altitude","folder":"tf","game":"Team Fortress","app_id":440,"player_count":0,"max_players":24,"Bots":0,"server_type":"Dedicated","server_os":"Linux","password":true,"vac":true,"version":"7742253","steam_id":85568392924469985,"keywords":["cp","nocrits","nodmgspread","uncletopia"],"game_id":440,"stv_port":27026,"stv_name":"Uncletopia | Chicago | 2 | All Maps | STV","players":null},{"server_id":402,"name":"Uncletopia | Chicago | 3 | All Maps","name_short":"chi-3","host":"chi-1.us.uncletopia.com","port":27035,"enabled":true,"region":"us-central","cc":"us","latitude":41.881832,"longitude":-87.62318,"reserved":0,"last_update":"0001-01-01T00:00:00Z","name_a2s":"Uncletopia | Chicago | 3 | All Maps","protocol":17,"map":"cp_process_final","folder":"tf","game":"Team Fortress","app_id":440,"player_count":24,"max_players":24,"Bots":0,"server_type":"Dedicated","server_os":"Linux","password":true,"vac":true,"version":"7742253","steam_id":85568392924515191,"keywords":["cp","nocrits","nodmgspread","uncletopia"],"game_id":440,"stv_port":27036,"stv_name":"Uncletopia | Chicago | 3 | All Maps | STV","players":[{"user_id":129,"name":"FunGi","steam_id":76561198881418662,"connected_time":1574000000000,"state":"active","ping":77},{"user_id":132,"name":"RAMPAGE","steam_id":76561199183495620,"connected_time":1060000000000,"state":"active","ping":68},{"user_id":87,"name":"xXx_The_REAL_Marge_Simpson_xXx","steam_id":76561199116846851,"connected_time":5554000000000,"state":"active","ping":58},{"user_id":138,"name":"minesneakeyes","steam_id":76561198171211725,"connected_time":836000000000,"state":"active","ping":60},{"user_id":114,"name":"rlty","steam_id":76561198009395055,"connected_time":2903000000000,"state":"active","ping":68},{"user_id":130,"name":"kosova numer 1","steam_id":76561198114713240,"connected_time":1250000000000,"state":"active","ping":53},{"user_id":107,"name":"ShinyOrion (She/Her)","steam_id":76561198408378321,"connected_time":3542000000000,"state":"active","ping":76},{"user_id":99,"name":"SuperJagops","steam_id":76561198034689716,"connected_time":4620000000000,"state":"active","ping":60},{"user_id":136,"name":"Haunting","steam_id":76561198088529360,"connected_time":931000000000,"state":"active","ping":71},{"user_id":14,"name":"burial","steam_id":76561198069431694,"connected_time":11255000000000,"state":"active","ping":76},{"user_id":135,"name":"Argon","steam_id":76561198091133177,"connected_time":980000000000,"state":"active","ping":50},{"user_id":111,"name":"Drachma","steam_id":76561198007310514,"connected_time":2953000000000,"state":"active","ping":56},{"user_id":125,"name":"The Animated Gamer","steam_id":76561198120639995,"connected_time":1993000000000,"state":"active","ping":93},{"user_id":98,"name":"Ultra-X","steam_id":76561199201770653,"connected_time":4672000000000,"state":"active","ping":62},{"user_id":123,"name":"dansci","steam_id":76561198269530717,"connected_time":2248000000000,"state":"active","ping":74},{"user_id":105,"name":"average gibbon call enjoyer","steam_id":76561198103376881,"connected_time":3609000000000,"state":"active","ping":65},{"user_id":119,"name":"Rocco__","steam_id":76561197992824074,"connected_time":2452000000000,"state":"active","ping":70},{"user_id":137,"name":"whoa...","steam_id":76561198143132686,"connected_time":930000000000,"state":"active","ping":84},{"user_id":140,"name":"ItsRoy","steam_id":76561198119525485,"connected_time":598000000000,"state":"active","ping":59},{"user_id":82,"name":"kermitcreeper(ZAZA)","steam_id":76561199222829972,"connected_time":5847000000000,"state":"active","ping":55},{"user_id":106,"name":"LukeLeal","steam_id":76561198049822995,"connected_time":3609000000000,"state":"active","ping":170},{"user_id":122,"name":"roln","steam_id":76561198041066271,"connected_time":2275000000000,"state":"active","ping":75},{"user_id":126,"name":"VLADIMIR LENIN'S CAT","steam_id":76561198182999551,"connected_time":1993000000000,"state":"active","ping":95},{"user_id":128,"name":"Fitts1099","steam_id":76561198044986906,"connected_time":1701000000000,"state":"active","ping":47}]},{"server_id":403,"name":"Uncletopia | Chicago | 4 | All Maps","name_short":"chi-4","host":"chi-1.us.uncletopia.com","port":27045,"enabled":true,"region":"us-central","cc":"us","latitude":41.881832,"longitude":-87.62318,"reserved":0,"last_update":"0001-01-01T00:00:00Z","name_a2s":"Uncletopia | Chicago | 4 | All Maps","protocol":17,"map":"koth_lakeside_final","folder":"tf","game":"Team Fortress","app_id":440,"player_count":0,"max_players":24,"Bots":0,"server_type":"Dedicated","server_os":"Linux","password":true,"vac":true,"version":"7742253","steam_id":85568392924515193,"keywords":["cp","nocrits","nodmgspread","uncletopia"],"game_id":440,"stv_port":27046,"stv_name":"Uncletopia | Chicago | 4 | All Maps | STV","players":null},{"server_id":36,"name":"Uncletopia | Chicago | 5 | All Maps","name_short":"chi-5","host":"chi-2.us.uncletopia.com","port":27015,"enabled":true,"region":"us-central","cc":"us","latitude":41.881832,"longitude":-87.62318,"reserved":0,"last_update":"0001-01-01T00:00:00Z","name_a2s":"Uncletopia | Chicago | 5 | All Maps","protocol":17,"map":"koth_highpass","folder":"tf","game":"Team Fortress","app_id":440,"player_count":0,"max_players":24,"Bots":0,"server_type":"Dedicated","server_os":"Linux","password":true,"vac":true,"version":"7742253","steam_id":85568392924866362,"keywords":["cp","nocrits","nodmgspread","uncletopia"],"game_id":440,"stv_port":27016,"stv_name":"Uncletopia | Chicago | 5 | All Maps | STV","players":null},{"server_id":37,"name":"Uncletopia | Chicago | 6 | All Maps","name_short":"chi-6","host":"chi-2.us.uncletopia.com","port":27025,"enabled":true,"region":"us-central","cc":"us","latitude":41.881832,"longitude":-87.62318,"reserved":0,"last_update":"0001-01-01T00:00:00Z","name_a2s":"Uncletopia | Chicago | 6 | All Maps","protocol":17,"map":"pl_frontier_final","folder":"tf","game":"Team Fortress","app_id":440,"player_count":0,"max_players":24,"Bots":0,"server_type":"Dedicated","server_os":"Linux","password":true,"vac":true,"version":"7742253","steam_id":85568392924866363,"keywords":["nocrits","nodmgspread","payload","uncletopia"],"game_id":440,"stv_port":27026,"stv_name":"Uncletopia | Chicago | 6 | All Maps | STV","players":null},{"server_id":38,"name":"Uncletopia | Chicago | 7 | Stopwatch Beta","name_short":"chi-7","host":"chi-2.us.uncletopia.com","port":27035,"enabled":true,"region":"us-central","cc":"us","latitude":41.881832,"longitude":-87.62318,"reserved":0,"last_update":"0001-01-01T00:00:00Z","name_a2s":"Uncletopia | Chicago | 7 | Stopwatch Beta","protocol":17,"map":"cp_altitude","folder":"tf","game":"Team Fortress","app_id":440,"player_count":0,"max_players":24,"Bots":0,"server_type":"Dedicated","server_os":"Linux","password":true,"vac":true,"version":"7742253","steam_id":85568392924866364,"keywords":["cp","nocrits","nodmgspread","uncletopia"],"game_id":440,"stv_port":27036,"stv_name":"Uncletopia | Chicago | 7 | Stopwatch Beta | STV","players":null},{"server_id":39,"name":"Uncletopia | Chicago | 8 | Community","name_short":"chi-8","host":"chi-2.us.uncletopia.com","port":27045,"enabled":true,"region":"us-central","cc":"us","latitude":41.881832,"longitude":-87.62318,"reserved":0,"last_update":"0001-01-01T00:00:00Z","name_a2s":"Uncletopia | Chicago | 8 | Community","protocol":17,"map":"koth_cascade","folder":"tf","game":"Team Fortress","app_id":440,"player_count":0,"max_players":24,"Bots":0,"server_type":"Dedicated","server_os":"Linux","password":true,"vac":true,"version":"7742253","steam_id":85568392924866365,"keywords":["cp","nocrits","nodmgspread","uncletopia"],"game_id":440,"stv_port":27046,"stv_name":"Uncletopia | Chicago | 8 | Community | STV","players":null},{"server_id":8,"name":"Uncletopia | Dallas | 1 | All Maps","name_short":"dal-1","host":"dal-1.us.uncletopia.com","port":27015,"enabled":true,"region":"us-central","cc":"us","latitude":32.779167,"longitude":-96.80889,"reserved":0,"last_update":"0001-01-01T00:00:00Z","name_a2s":"Uncletopia | Dallas | 1 | All Maps","protocol":17,"map":"koth_viaduct","folder":"tf","game":"Team Fortress","app_id":440,"player_count":0,"max_players":24,"Bots":0,"server_type":"Dedicated","server_os":"Linux","password":true,"vac":true,"version":"7742253","steam_id":85568392924469986,"keywords":["cp","nocrits","nodmgspread","uncletopia"],"game_id":440,"stv_port":27016,"stv_name":"Uncletopia | Dallas | 1 | All Maps | STV","players":null},{"server_id":108,"name":"Uncletopia | Dallas | 2 | All Maps","name_short":"dal-2","host":"dal-1.us.uncletopia.com","port":27025,"enabled":true,"region":"us-central","cc":"us","latitude":32.779167,"longitude":-96.80889,"reserved":0,"last_update":"0001-01-01T00:00:00Z","name_a2s":"Uncletopia | Dallas | 2 | All Maps","protocol":17,"map":"pl_barnblitz","folder":"tf","game":"Team Fortress","app_id":440,"player_count":0,"max_players":24,"Bots":0,"server_type":"Dedicated","server_os":"Linux","password":true,"vac":true,"version":"7742253","steam_id":85568392924469988,"keywords":["nocrits","nodmgspread","payload","uncletopia"],"game_id":440,"stv_port":27026,"stv_name":"Uncletopia | Dallas | 2 | All Maps | STV","players":null},{"server_id":5,"name":"Uncletopia | Frankfurt | 1 | All Maps","name_short":"frk-1","host":"frk-1.de.uncletopia.com","port":27015,"enabled":true,"region":"eu","cc":"de","latitude":50.110924,"longitude":8.682127,"reserved":0,"last_update":"0001-01-01T00:00:00Z","name_a2s":"Uncletopia | Frankfurt | 1 | All Maps","protocol":17,"map":"pl_goldrush","folder":"tf","game":"Team Fortress","app_id":440,"player_count":24,"max_players":24,"Bots":0,"server_type":"Dedicated","server_os":"Linux","password":true,"vac":true,"version":"7742253","steam_id":85568392924469989,"keywords":["nocrits","nodmgspread","payload","uncletopia"],"game_id":440,"stv_port":27016,"stv_name":"Uncletopia | Frankfurt | 1 | All Maps | STV","players":[{"user_id":398,"name":"Oceanic | tuesday maybe","steam_id":76561197979741827,"connected_time":3680000000000,"state":"active","ping":59},{"user_id":461,"name":"lŒπ—Ç—Çle —ï–ΩŒπ—Ç","steam_id":76561198120668070,"connected_time":121000000000,"state":"active","ping":60},{"user_id":431,"name":"root","steam_id":76561198082551051,"connected_time":1293000000000,"state":"active","ping":81},{"user_id":434,"name":"serOrionN","steam_id":76561198170372966,"connected_time":1269000000000,"state":"active","ping":113},{"user_id":455,"name":"McMaggot","steam_id":76561199097750260,"connected_time":338000000000,"state":"active","ping":137},{"user_id":438,"name":"gaming for jesus","steam_id":76561199236428794,"connected_time":964000000000,"state":"active","ping":84},{"user_id":439,"name":"Marty‚Ñ¢","steam_id":76561198060073673,"connected_time":946000000000,"state":"active","ping":60},{"user_id":450,"name":"eeeeee","steam_id":76561198017786875,"connected_time":591000000000,"state":"active","ping":49},{"user_id":435,"name":"Luxor","steam_id":76561198026630887,"connected_time":1260000000000,"state":"active","ping":53},{"user_id":441,"name":"PLUTO","steam_id":76561198312436128,"connected_time":938000000000,"state":"active","ping":128},{"user_id":451,"name":"zasvicuful","steam_id":76561198186803294,"connected_time":587000000000,"state":"active","ping":78},{"user_id":453,"name":"Burgoo_King","steam_id":76561198133572225,"connected_time":429000000000,"state":"active","ping":67},{"user_id":452,"name":"Carrotcracker","steam_id":76561198034862396,"connected_time":585000000000,"state":"active","ping":59},{"user_id":456,"name":"Christmas Doombringer","steam_id":76561198170420173,"connected_time":334000000000,"state":"active","ping":85},{"user_id":424,"name":"bANji","steam_id":76561198108898161,"connected_time":1683000000000,"state":"active","ping":42},{"user_id":443,"name":"6onions","steam_id":76561198039313199,"connected_time":898000000000,"state":"active","ping":58},{"user_id":445,"name":"KITE MAN!  HELL YEAH!","steam_id":76561198079386295,"connected_time":870000000000,"state":"active","ping":66},{"user_id":409,"name":"MAKENTAKEN","steam_id":76561199127359587,"connected_time":2842000000000,"state":"active","ping":95},{"user_id":427,"name":"Pecka","steam_id":76561199121981645,"connected_time":1570000000000,"state":"active","ping":94},{"user_id":460,"name":"Platoforma","steam_id":76561198426576720,"connected_time":217000000000,"state":"active","ping":57},{"user_id":428,"name":"r06u3","steam_id":76561198254099253,"connected_time":1510000000000,"state":"active","ping":183},{"user_id":413,"name":"call me a sketchek wannabe","steam_id":76561198324357479,"connected_time":2798000000000,"state":"active","ping":68},{"user_id":446,"name":"Nyarley","steam_id":76561197961152751,"connected_time":859000000000,"state":"active","ping":49},{"user_id":458,"name":"bekagaltam","steam_id":76561198046777197,"connected_time":284000000000,"state":"active","ping":78}]},{"server_id":110,"name":"Uncletopia | Frankfurt | 2 | All Maps","name_short":"frk-2","host":"frk-1.de.uncletopia.com","port":27025,"enabled":true,"region":"eu","cc":"de","latitude":50.110924,"longitude":8.682127,"reserved":0,"last_update":"0001-01-01T00:00:00Z","name_a2s":"Uncletopia | Frankfurt | 2 | All Maps","protocol":17,"map":"pl_pier","folder":"tf","game":"Team Fortress","app_id":440,"player_count":24,"max_players":24,"Bots":0,"server_type":"Dedicated","server_os":"Linux","password":true,"vac":true,"version":"7742253","steam_id":85568392924469990,"keywords":["nocrits","nodmgspread","payload","uncletopia"],"game_id":440,"stv_port":27026,"stv_name":"Uncletopia | Frankfurt | 2 | All Maps | STV","players":[{"user_id":234,"name":"masutaaa","steam_id":76561198072233046,"connected_time":812000000000,"state":"active","ping":86},{"user_id":225,"name":"Dominus.","steam_id":76561199065917088,"connected_time":1001000000000,"state":"active","ping":62},{"user_id":217,"name":"leminsc8","steam_id":76561198825084995,"connected_time":1702000000000,"state":"active","ping":44},{"user_id":226,"name":"Gebagemid","steam_id":76561198003684717,"connected_time":948000000000,"state":"active","ping":66},{"user_id":229,"name":"the ghost of 2fort past","steam_id":76561198074706076,"connected_time":870000000000,"state":"active","ping":69},{"user_id":243,"name":"Mr.Dies a lot","steam_id":76561199061602946,"connected_time":304000000000,"state":"active","ping":93},{"user_id":181,"name":"fector","steam_id":76561199204249586,"connected_time":4266000000000,"state":"active","ping":127},{"user_id":232,"name":"Teleporter Bread","steam_id":76561198272199749,"connected_time":823000000000,"state":"active","ping":119},{"user_id":138,"name":"Big Noot","steam_id":76561198057707263,"connected_time":7025000000000,"state":"active","ping":59},{"user_id":205,"name":"filo","steam_id":76561198103633797,"connected_time":2045000000000,"state":"active","ping":81},{"user_id":233,"name":"*cough*","steam_id":76561198179908677,"connected_time":820000000000,"state":"active","ping":182},{"user_id":199,"name":"Minigrim0","steam_id":76561198087819466,"connected_time":2589000000000,"state":"active","ping":82},{"user_id":235,"name":"Dr Doe Gaming","steam_id":76561199104748293,"connected_time":787000000000,"state":"active","ping":82},{"user_id":236,"name":"KazooBard","steam_id":76561198273124726,"connected_time":749000000000,"state":"active","ping":67},{"user_id":237,"name":"Benzo Fury","steam_id":76561198025259336,"connected_time":735000000000,"state":"active","ping":57},{"user_id":220,"name":"Eren","steam_id":76561198180623345,"connected_time":1512000000000,"state":"active","ping":84},{"user_id":215,"name":"Luke SpyWalker","steam_id":76561198008643276,"connected_time":1736000000000,"state":"active","ping":60},{"user_id":238,"name":"what is a existance","steam_id":76561198958820422,"connected_time":710000000000,"state":"active","ping":66},{"user_id":239,"name":"coldvain","steam_id":76561198863811794,"connected_time":668000000000,"state":"active","ping":60},{"user_id":221,"name":"Sƒ∞Kƒ∞≈ûMAKƒ∞NESƒ∞","steam_id":76561198254610075,"connected_time":1504000000000,"state":"active","ping":94},{"user_id":207,"name":"Alice can't hit pipes","steam_id":76561198052410860,"connected_time":2025000000000,"state":"active","ping":153},{"user_id":240,"name":"weed fairy","steam_id":76561197998843096,"connected_time":629000000000,"state":"active","ping":75},{"user_id":241,"name":"Rug","steam_id":76561198083438049,"connected_time":620000000000,"state":"active","ping":166},{"user_id":242,"name":"lukethepumpkin","steam_id":76561198204158335,"connected_time":573000000000,"state":"active","ping":145}]},{"server_id":308,"name":"Uncletopia | Frankfurt | 3 | All Maps","name_short":"frk-3","host":"frk-1.de.uncletopia.com","port":27035,"enabled":true,"region":"eu","cc":"de","latitude":50.110924,"longitude":8.682127,"reserved":0,"last_update":"0001-01-01T00:00:00Z","name_a2s":"Uncletopia | Frankfurt | 3 | All Maps","protocol":17,"map":"cp_dustbowl","folder":"tf","game":"Team Fortress","app_id":440,"player_count":0,"max_players":24,"Bots":0,"server_type":"Dedicated","server_os":"Linux","password":true,"vac":true,"version":"7742253","steam_id":85568392924504274,"keywords":["cp","nocrits","nodmgspread","uncletopia"],"game_id":440,"stv_port":27036,"stv_name":"Uncletopia | Frankfurt | 3 | All Maps | STV","players":null},{"server_id":309,"name":"Uncletopia | Frankfurt | 4 | All Maps","name_short":"frk-4","host":"frk-1.de.uncletopia.com","port":27045,"enabled":true,"region":"eu","cc":"de","latitude":50.110924,"longitude":8.682127,"reserved":0,"last_update":"0001-01-01T00:00:00Z","name_a2s":"Uncletopia | Frankfurt | 4 | All Maps","protocol":17,"map":"koth_viaduct","folder":"tf","game":"Team Fortress","app_id":440,"player_count":0,"max_players":24,"Bots":0,"server_type":"Dedicated","server_os":"Linux","password":true,"vac":true,"version":"7742253","steam_id":85568392924504275,"keywords":["cp","nocrits","nodmgspread","uncletopia"],"game_id":440,"stv_port":27046,"stv_name":"Uncletopia | Frankfurt | 4 | All Maps | STV","players":null},{"server_id":310,"name":"Uncletopia | Frankfurt | 5 | All Maps","name_short":"frk-5","host":"frk-1.de.uncletopia.com","port":27055,"enabled":true,"region":"eu","cc":"de","latitude":50.110924,"longitude":8.682127,"reserved":0,"last_update":"0001-01-01T00:00:00Z","name_a2s":"Uncletopia | Frankfurt | 5 | All Maps","protocol":17,"map":"pl_upward","folder":"tf","game":"Team Fortress","app_id":440,"player_count":24,"max_players":24,"Bots":0,"server_type":"Dedicated","server_os":"Linux","password":true,"vac":true,"version":"7742253","steam_id":85568392924504277,"keywords":["nocrits","nodmgspread","payload","uncletopia"],"game_id":440,"stv_port":27056,"stv_name":"Uncletopia | Frankfurt | 5 | All Maps | STV","players":[{"user_id":281,"name":"AforeKingDwarf","steam_id":76561198043562926,"connected_time":537000000000,"state":"active","ping":51},{"user_id":284,"name":"Ginger","steam_id":76561198427885745,"connected_time":362000000000,"state":"active","ping":98},{"user_id":288,"name":"yd","steam_id":76561198214336561,"connected_time":14000000000,"state":"active","ping":52},{"user_id":165,"name":"Û†Å≥‚Åß‚ÅßMark","steam_id":76561198117226733,"connected_time":3488000000000,"state":"active","ping":68},{"user_id":283,"name":"Lan","steam_id":76561198930362783,"connected_time":459000000000,"state":"active","ping":69},{"user_id":277,"name":"lolimsogreat21","steam_id":76561199052033788,"connected_time":760000000000,"state":"active","ping":68},{"user_id":132,"name":"Rezkey","steam_id":76561198206079048,"connected_time":5853000000000,"state":"active","ping":58},{"user_id":278,"name":"Green Eggs And Jam","steam_id":76561198819412473,"connected_time":672000000000,"state":"active","ping":68},{"user_id":267,"name":"Blink","steam_id":76561198144033005,"connected_time":1341000000000,"state":"active","ping":61},{"user_id":217,"name":"Chips","steam_id":76561199103136634,"connected_time":2625000000000,"state":"active","ping":56},{"user_id":135,"name":"Execon","steam_id":76561198073608009,"connected_time":5709000000000,"state":"active","ping":59},{"user_id":228,"name":"Dr. Mario","steam_id":76561199125182282,"connected_time":2344000000000,"state":"active","ping":50},{"user_id":287,"name":"k","steam_id":76561198281932740,"connected_time":280000000000,"state":"active","ping":73},{"user_id":282,"name":"Sto√Øcisme","steam_id":76561198127441800,"connected_time":518000000000,"state":"active","ping":70},{"user_id":285,"name":"Vince","steam_id":76561199103000131,"connected_time":353000000000,"state":"active","ping":60},{"user_id":286,"name":"Hornyboy","steam_id":76561198815268030,"connected_time":352000000000,"state":"active","ping":69},{"user_id":274,"name":"freemantel30","steam_id":76561198065669800,"connected_time":1093000000000,"state":"active","ping":49},{"user_id":142,"name":"Zz_Counter","steam_id":76561198153618515,"connected_time":5272000000000,"state":"active","ping":74},{"user_id":180,"name":"genius","steam_id":76561198373270492,"connected_time":3250000000000,"state":"active","ping":59},{"user_id":229,"name":"garbage mikuknight","steam_id":76561198361819054,"connected_time":2332000000000,"state":"active","ping":127},{"user_id":279,"name":"jt7","steam_id":76561198073655162,"connected_time":663000000000,"state":"active","ping":95},{"user_id":276,"name":"Pingu","steam_id":76561198074477219,"connected_time":978000000000,"state":"active","ping":61},{"user_id":272,"name":"TheoW1300","steam_id":76561198814297234,"connected_time":1249000000000,"state":"active","ping":76},{"user_id":121,"name":"[Insert Oneshot refrence]","steam_id":76561198951206047,"connected_time":6332000000000,"state":"active","ping":82}]},{"server_id":311,"name":"Uncletopia | Frankfurt | 6 | All Maps","name_short":"frk-6","host":"frk-1.de.uncletopia.com","port":27065,"enabled":true,"region":"eu","cc":"de","latitude":50.110924,"longitude":8.682127,"reserved":0,"last_update":"0001-01-01T00:00:00Z","name_a2s":"Uncletopia | Frankfurt | 6 | All Maps","protocol":17,"map":"koth_highpass","folder":"tf","game":"Team Fortress","app_id":440,"player_count":0,"max_players":24,"Bots":0,"server_type":"Dedicated","server_os":"Linux","password":true,"vac":true,"version":"7742253","steam_id":85568392924504278,"keywords":["cp","nocrits","nodmgspread","uncletopia"],"game_id":440,"stv_port":27066,"stv_name":"Uncletopia | Frankfurt | 6 | All Maps | STV","players":null},{"server_id":23,"name":"Uncletopia | Frankfurt | 7 | Stopwatch Beta","name_short":"frk-7","host":"frk-1.de.uncletopia.com","port":27075,"enabled":true,"region":"eu","cc":"de","latitude":50.110924,"longitude":8.682127,"reserved":0,"last_update":"0001-01-01T00:00:00Z","name_a2s":"Uncletopia | Frankfurt | 7 | Stopwatch Beta","protocol":17,"map":"pl_upward","folder":"tf","game":"Team Fortress","app_id":440,"player_count":3,"max_players":24,"Bots":0,"server_type":"Dedicated","server_os":"Linux","password":true,"vac":true,"version":"7742253","steam_id":85568392924742827,"keywords":["nocrits","nodmgspread","payload","uncletopia"],"game_id":440,"stv_port":27076,"stv_name":"Uncletopia | Frankfurt | 7 | Stopwatch Beta | STV","players":[{"user_id":26,"name":"luigifan","steam_id":76561199428693962,"connected_time":624000000000,"state":"active","ping":201},{"user_id":27,"name":"Adam","steam_id":76561199103777436,"connected_time":528000000000,"state":"active","ping":69},{"user_id":28,"name":"Malik794","steam_id":76561198967164437,"connected_time":133000000000,"state":"active","ping":105}]},{"server_id":24,"name":"Uncletopia | Frankfurt | 8 | Community","name_short":"frk-8","host":"frk-1.de.uncletopia.com","port":27085,"enabled":true,"region":"eu","cc":"de","latitude":50.110924,"longitude":8.682127,"reserved":0,"last_update":"0001-01-01T00:00:00Z","name_a2s":"Uncletopia | Frankfurt | 8 | Community","protocol":17,"map":"workshop/pl_fifthcurve_rc1.ugc648227046","folder":"tf","game":"Team Fortress","app_id":440,"player_count":0,"max_players":24,"Bots":0,"server_type":"Dedicated","server_os":"Linux","password":true,"vac":true,"version":"7742253","steam_id":85568392924742828,"keywords":["nocrits","nodmgspread","payload","uncletopia"],"game_id":440,"stv_port":27086,"stv_name":"Uncletopia | Frankfurt | 8 | Community | STV","players":null},{"server_id":202,"name":"Uncletopia | Hong Kong | 1 | All Maps","name_short":"hgk-1","host":"hgk-1.hk.uncletopia.com","port":27015,"enabled":true,"region":"asia","cc":"hk","latitude":22.302711,"longitude":114.177216,"reserved":0,"last_update":"0001-01-01T00:00:00Z","name_a2s":"Uncletopia | Hong Kong | 1 | All Maps","protocol":17,"map":"cp_steel","folder":"tf","game":"Team Fortress","app_id":440,"player_count":24,"max_players":24,"Bots":0,"server_type":"Dedicated","server_os":"Linux","password":true,"vac":true,"version":"7742253","steam_id":85568392924494504,"keywords":["cp","nocrits","nodmgspread","uncletopia"],"game_id":440,"stv_port":27016,"stv_name":"Uncletopia | Hong Kong | 1 | All Maps | STV","players":[{"user_id":521,"name":"Violezine","steam_id":76561199000502615,"connected_time":4557000000000,"state":"active","ping":77},{"user_id":501,"name":"ConHosh1","steam_id":76561199387718733,"connected_time":6163000000000,"state":"active","ping":82},{"user_id":557,"name":"Vladimir Spencer Pootis","steam_id":76561198144686119,"connected_time":1305000000000,"state":"active","ping":64},{"user_id":529,"name":"Talkk More","steam_id":76561198305424433,"connected_time":4118000000000,"state":"active","ping":97},{"user_id":567,"name":"I am BOX","steam_id":76561198845309411,"connected_time":296000000000,"state":"active","ping":108},{"user_id":444,"name":"Bertengkar","steam_id":76561198213031155,"connected_time":12300000000000,"state":"active","ping":98},{"user_id":527,"name":"Bear","steam_id":76561199445694770,"connected_time":4265000000000,"state":"active","ping":90},{"user_id":546,"name":"Kurtie","steam_id":76561198144737876,"connected_time":2824000000000,"state":"active","ping":78},{"user_id":569,"name":"Christmas Tree","steam_id":76561198353760830,"connected_time":61000000000,"state":"active","ping":75},{"user_id":565,"name":"yw","steam_id":76561199382726488,"connected_time":321000000000,"state":"active","ping":76},{"user_id":500,"name":"oppai „Åä„Å£„Å±„ÅÑ protons","steam_id":76561198008307645,"connected_time":6220000000000,"state":"active","ping":82},{"user_id":537,"name":"AmaiToxic","steam_id":76561199122491157,"connected_time":3305000000000,"state":"active","ping":60},{"user_id":561,"name":"greeny","steam_id":76561198024666371,"connected_time":982000000000,"state":"active","ping":90},{"user_id":551,"name":"Mystery cheese üßÄ","steam_id":76561198304002409,"connected_time":2403000000000,"state":"active","ping":75},{"user_id":555,"name":"troll juice","steam_id":76561199146847474,"connected_time":1905000000000,"state":"active","ping":59},{"user_id":466,"name":"P","steam_id":76561198304514505,"connected_time":9683000000000,"state":"active","ping":75},{"user_id":556,"name":"uptriste","steam_id":76561198158666692,"connected_time":1508000000000,"state":"active","ping":45},{"user_id":499,"name":"u/Me(ow)LEx3D","steam_id":76561199227871384,"connected_time":6266000000000,"state":"active","ping":58},{"user_id":549,"name":"Gotta be Mad","steam_id":76561198013546584,"connected_time":2657000000000,"state":"active","ping":61},{"user_id":564,"name":"aisha","steam_id":76561198132172320,"connected_time":325000000000,"state":"active","ping":88},{"user_id":441,"name":"'","steam_id":76561198413116920,"connected_time":12743000000000,"state":"active","ping":85},{"user_id":571,"name":"KHMaster","steam_id":76561199198453345,"connected_time":43000000000,"state":"active","ping":60},{"user_id":548,"name":"noyoiu","steam_id":76561199000019412,"connected_time":2816000000000,"state":"active","ping":94},{"user_id":560,"name":"rudolph","steam_id":76561199012678702,"connected_time":1098000000000,"state":"active","ping":69}]},{"server_id":1,"name":"Uncletopia | Los Angeles | 1 | All Maps","name_short":"lax-1","host":"lax-1.us.uncletopia.com","port":27015,"enabled":true,"region":"us-west","cc":"us","latitude":33.94279,"longitude":-118.41004,"reserved":0,"last_update":"0001-01-01T00:00:00Z","name_a2s":"Uncletopia | Los Angeles | 1 | All Maps","protocol":17,"map":"pl_borneo","folder":"tf","game":"Team Fortress","app_id":440,"player_count":0,"max_players":24,"Bots":0,"server_type":"Dedicated","server_os":"Linux","password":true,"vac":true,"version":"7742253","steam_id":85568392924469991,"keywords":["nocrits","nodmgspread","payload","uncletopia"],"game_id":440,"stv_port":27016,"stv_name":"Uncletopia | Los Angeles | 1 | All Maps | STV","players":null},{"server_id":112,"name":"Uncletopia | Los Angeles | 2 | All Maps","name_short":"lax-2","host":"lax-1.us.uncletopia.com","port":27025,"enabled":true,"region":"us-west","cc":"us","latitude":33.94279,"longitude":-118.41004,"reserved":0,"last_update":"0001-01-01T00:00:00Z","name_a2s":"Uncletopia | Los Angeles | 2 | All Maps","protocol":17,"map":"pl_upward","folder":"tf","game":"Team Fortress","app_id":440,"player_count":0,"max_players":24,"Bots":0,"server_type":"Dedicated","server_os":"Linux","password":true,"vac":true,"version":"7742253","steam_id":85568392924469992,"keywords":["nocrits","nodmgspread","payload","uncletopia"],"game_id":440,"stv_port":27026,"stv_name":"Uncletopia | Los Angeles | 2 | All Maps | STV","players":null},{"server_id":324,"name":"Uncletopia | Los Angeles | 3 | All Maps","name_short":"lax-3","host":"lax-1.us.uncletopia.com","port":27035,"enabled":true,"region":"us-west","cc":"us","latitude":33.94279,"longitude":-118.41004,"reserved":0,"last_update":"0001-01-01T00:00:00Z","name_a2s":"Uncletopia | Los Angeles | 3 | All Maps","protocol":17,"map":"pl_borneo","folder":"tf","game":"Team Fortress","app_id":440,"player_count":0,"max_players":24,"Bots":0,"server_type":"Dedicated","server_os":"Linux","password":true,"vac":true,"version":"7742253","steam_id":85568392924510198,"keywords":["nocrits","nodmgspread","payload","uncletopia"],"game_id":440,"stv_port":27036,"stv_name":"Uncletopia | Los Angeles | 3 | All Maps | STV","players":null},{"server_id":25,"name":"Uncletopia | Los Angeles | 4 | Stopwatch Beta","name_short":"lax-4","host":"lax-1.us.uncletopia.com","port":27045,"enabled":true,"region":"us-west","cc":"us","latitude":33.94279,"longitude":-118.41004,"reserved":0,"last_update":"0001-01-01T00:00:00Z","name_a2s":"Uncletopia | Los Angeles | 4 | Stopwatch Beta","protocol":17,"map":"cp_process_final","folder":"tf","game":"Team Fortress","app_id":440,"player_count":0,"max_players":24,"Bots":0,"server_type":"Dedicated","server_os":"Linux","password":true,"vac":true,"version":"7742253","steam_id":85568392924510199,"keywords":["cp","nocrits","nodmgspread","uncletopia"],"game_id":440,"stv_port":27046,"stv_name":"Uncletopia | Los Angeles | 4 | Stopwatch Beta | STV","players":null},{"server_id":11,"name":"Uncletopia | London | 1 | All Maps","name_short":"lon-1","host":"lon-1.uk.uncletopia.com","port":27015,"enabled":true,"region":"eu","cc":"gb","latitude":51.509865,"longitude":-0.118092,"reserved":0,"last_update":"0001-01-01T00:00:00Z","name_a2s":"Uncletopia | London | 1 | All Maps","protocol":17,"map":"pl_thundermountain","folder":"tf","game":"Team Fortress","app_id":440,"player_count":24,"max_players":24,"Bots":0,"server_type":"Dedicated","server_os":"Linux","password":true,"vac":true,"version":"7742253","steam_id":85568392924367362,"keywords":["nocrits","nodmgspread","payload","uncletopia"],"game_id":440,"stv_port":27016,"stv_name":"Uncletopia | London | 1 | All Maps | STV","players":[{"user_id":318,"name":"dafydd","steam_id":76561198052200325,"connected_time":907000000000,"state":"active","ping":90},{"user_id":291,"name":"Prajiturel13","steam_id":76561198139674826,"connected_time":2630000000000,"state":"active","ping":57},{"user_id":255,"name":"Shymtzack","steam_id":76561198160369616,"connected_time":5026000000000,"state":"active","ping":96},{"user_id":312,"name":"Slex_","steam_id":76561198118483396,"connected_time":1985000000000,"state":"active","ping":57},{"user_id":311,"name":"ryce","steam_id":76561198256262286,"connected_time":2027000000000,"state":"active","ping":56},{"user_id":319,"name":"AFerociousTeddyBearSlayer","steam_id":76561198247447256,"connected_time":845000000000,"state":"active","ping":53},{"user_id":325,"name":"krispybakon1","steam_id":76561198418766302,"connected_time":412000000000,"state":"active","ping":301},{"user_id":209,"name":"Iducks","steam_id":76561199100633985,"connected_time":7111000000000,"state":"active","ping":54},{"user_id":324,"name":"xX_GamingGilf_Xx","steam_id":76561199118876157,"connected_time":735000000000,"state":"active","ping":60},{"user_id":285,"name":"Axter","steam_id":76561198118747192,"connected_time":3096000000000,"state":"active","ping":92},{"user_id":326,"name":"When Life gives you Lemons","steam_id":76561198318290663,"connected_time":412000000000,"state":"active","ping":60},{"user_id":287,"name":"Chalky \"Calculated\" Blue","steam_id":76561199053378029,"connected_time":2997000000000,"state":"active","ping":35},{"user_id":309,"name":"CaptainDinez","steam_id":76561198391766996,"connected_time":2165000000000,"state":"active","ping":91},{"user_id":327,"name":"Blue Cube","steam_id":76561198132134056,"connected_time":380000000000,"state":"active","ping":64},{"user_id":328,"name":"Bones","steam_id":76561198065081225,"connected_time":375000000000,"state":"active","ping":34},{"user_id":314,"name":"Obi","steam_id":76561198323360754,"connected_time":1857000000000,"state":"active","ping":61},{"user_id":310,"name":"Jayco","steam_id":76561198122497262,"connected_time":2073000000000,"state":"active","ping":55},{"user_id":267,"name":"TMC","steam_id":76561198077956157,"connected_time":4298000000000,"state":"active","ping":43},{"user_id":313,"name":"F0xy9","steam_id":76561198118105723,"connected_time":1928000000000,"state":"active","ping":58},{"user_id":317,"name":"JoJo","steam_id":76561198296920548,"connected_time":1029000000000,"state":"active","ping":104},{"user_id":323,"name":"hipster_doofus","steam_id":76561197970902697,"connected_time":757000000000,"state":"active","ping":49},{"user_id":303,"name":"Marssie","steam_id":76561198071368131,"connected_time":2532000000000,"state":"active","ping":84},{"user_id":315,"name":"Milk","steam_id":76561198125876588,"connected_time":1146000000000,"state":"active","ping":45},{"user_id":274,"name":"Binky","steam_id":76561198116681081,"connected_time":3798000000000,"state":"active","ping":108}]},{"server_id":114,"name":"Uncletopia | London | 2 | All Maps","name_short":"lon-2","host":"lon-1.uk.uncletopia.com","port":27025,"enabled":true,"region":"eu","cc":"gb","latitude":51.509865,"longitude":-0.118092,"reserved":0,"last_update":"0001-01-01T00:00:00Z","name_a2s":"Uncletopia | London | 2 | All Maps","protocol":17,"map":"cp_altitude","folder":"tf","game":"Team Fortress","app_id":440,"player_count":24,"max_players":24,"Bots":0,"server_type":"Dedicated","server_os":"Linux","password":true,"vac":true,"version":"7742253","steam_id":85568392924470941,"keywords":["cp","nocrits","nodmgspread","uncletopia"],"game_id":440,"stv_port":27026,"stv_name":"Uncletopia | London | 2 | All Maps | STV","players":[{"user_id":265,"name":"Miton","steam_id":76561197970323209,"connected_time":2794000000000,"state":"active","ping":83},{"user_id":300,"name":"LasagnaLarry22","steam_id":76561198089478290,"connected_time":367000000000,"state":"active","ping":45},{"user_id":303,"name":"gnome","steam_id":76561198262275475,"connected_time":333000000000,"state":"active","ping":140},{"user_id":302,"name":"MAJAX","steam_id":76561198254828632,"connected_time":353000000000,"state":"active","ping":62},{"user_id":192,"name":"RinzL","steam_id":76561198149165007,"connected_time":6878000000000,"state":"active","ping":57},{"user_id":294,"name":"JA","steam_id":76561198308183330,"connected_time":436000000000,"state":"active","ping":106},{"user_id":306,"name":"AGrouGroux","steam_id":76561199390436144,"connected_time":266000000000,"state":"active","ping":61},{"user_id":256,"name":"d u k k i","steam_id":76561198071807437,"connected_time":3336000000000,"state":"active","ping":95},{"user_id":305,"name":"Signor_UpB","steam_id":76561199145637231,"connected_time":271000000000,"state":"active","ping":110},{"user_id":301,"name":"Typical","steam_id":76561199009805172,"connected_time":367000000000,"state":"active","ping":49},{"user_id":277,"name":"sergiazo","steam_id":76561199081954697,"connected_time":2014000000000,"state":"active","ping":69},{"user_id":278,"name":"Sipsu","steam_id":76561198059424107,"connected_time":1982000000000,"state":"active","ping":82},{"user_id":290,"name":"Asoivel","steam_id":76561198172052699,"connected_time":655000000000,"state":"active","ping":53},{"user_id":296,"name":"Toast","steam_id":76561198407515733,"connected_time":427000000000,"state":"active","ping":47},{"user_id":297,"name":"Lyell","steam_id":76561198350329389,"connected_time":422000000000,"state":"active","ping":78},{"user_id":298,"name":"—É–±–∏–π—Ü–∞_–≥–æ–º–∏–∫–æ–≤256","steam_id":76561198129314304,"connected_time":397000000000,"state":"active","ping":144},{"user_id":287,"name":"Kahvi","steam_id":76561198723244199,"connected_time":1584000000000,"state":"active","ping":76},{"user_id":292,"name":"Beef","steam_id":76561198185375315,"connected_time":644000000000,"state":"active","ping":105},{"user_id":307,"name":"steve","steam_id":76561198170409402,"connected_time":265000000000,"state":"active","ping":71},{"user_id":299,"name":"Soviet Baked Beans","steam_id":76561198254192418,"connected_time":386000000000,"state":"active","ping":130},{"user_id":308,"name":"average f2p","steam_id":76561199136308055,"connected_time":242000000000,"state":"active","ping":46},{"user_id":269,"name":"bigmama412","steam_id":76561198300870712,"connected_time":2448000000000,"state":"active","ping":101},{"user_id":275,"name":"Kate Bush burner phone","steam_id":76561198977948250,"connected_time":2087000000000,"state":"active","ping":73},{"user_id":279,"name":"heavy sings (real)","steam_id":76561199023804405,"connected_time":1969000000000,"state":"active","ping":88}]},{"server_id":320,"name":"Uncletopia | London | 3 | All Maps","name_short":"lon-3","host":"lon-1.uk.uncletopia.com","port":27035,"enabled":true,"region":"eu","cc":"gb","latitude":51.509865,"longitude":-0.118092,"reserved":0,"last_update":"0001-01-01T00:00:00Z","name_a2s":"Uncletopia | London | 3 | All Maps","protocol":17,"map":"pl_wutville_event","folder":"tf","game":"Team Fortress","app_id":440,"player_count":24,"max_players":24,"Bots":0,"server_type":"Dedicated","server_os":"Linux","password":true,"vac":true,"version":"7742253","steam_id":85568392924510192,"keywords":["nocrits","nodmgspread","payload","uncletopia"],"game_id":440,"stv_port":27036,"stv_name":"Uncletopia | London | 3 | All Maps | STV","players":[{"user_id":78,"name":"Gordon Freemason.","steam_id":76561199249733628,"connected_time":119000000000,"state":"active","ping":148},{"user_id":27,"name":"Cosmetic brain","steam_id":76561198055936410,"connected_time":2678000000000,"state":"active","ping":79},{"user_id":79,"name":"nice","steam_id":76561198128337963,"connected_time":118000000000,"state":"active","ping":43},{"user_id":68,"name":"electric chair","steam_id":76561198865283728,"connected_time":1353000000000,"state":"active","ping":52},{"user_id":80,"name":"ZeeRoll","steam_id":76561198131129970,"connected_time":111000000000,"state":"active","ping":74},{"user_id":82,"name":"most sane mentalist","steam_id":76561198310095220,"connected_time":104000000000,"state":"active","ping":41},{"user_id":85,"name":"thussu","steam_id":76561198890409949,"connected_time":54000000000,"state":"active","ping":108},{"user_id":56,"name":"YaperPaper","steam_id":76561199122396110,"connected_time":1523000000000,"state":"active","ping":107},{"user_id":39,"name":"Whatever","steam_id":76561198003946394,"connected_time":1937000000000,"state":"active","ping":76},{"user_id":40,"name":"Sodium bicarbonate","steam_id":76561198093629957,"connected_time":1863000000000,"state":"active","ping":146},{"user_id":83,"name":"Healing Weapons Guy","steam_id":76561198005608047,"connected_time":85000000000,"state":"active","ping":161},{"user_id":45,"name":"youtube:Hl2_Tpal","steam_id":76561198972038742,"connected_time":1688000000000,"state":"active","ping":70},{"user_id":63,"name":"Troodon","steam_id":76561198223648788,"connected_time":1461000000000,"state":"active","ping":106},{"user_id":84,"name":"Serial designation N","steam_id":76561199116413509,"connected_time":76000000000,"state":"active","ping":69},{"user_id":74,"name":"maakgis","steam_id":76561198851703804,"connected_time":1185000000000,"state":"active","ping":121},{"user_id":86,"name":"gooper","steam_id":76561198218699321,"connected_time":23000000000,"state":"active","ping":116},{"user_id":66,"name":"install gentoo","steam_id":76561198185257982,"connected_time":1452000000000,"state":"active","ping":75},{"user_id":77,"name":"Cheese","steam_id":76561198146419076,"connected_time":226000000000,"state":"active","ping":74},{"user_id":59,"name":"Dirty Harry","steam_id":76561198813079990,"connected_time":1487000000000,"state":"active","ping":64},{"user_id":75,"name":"Lessoz","steam_id":76561199211572036,"connected_time":909000000000,"state":"active","ping":91},{"user_id":61,"name":"Number 1 Wutville enjoyer","steam_id":76561198037361321,"connected_time":1484000000000,"state":"active","ping":66},{"user_id":87,"name":"Corn58","steam_id":76561198061680279,"connected_time":15000000000,"state":"active","ping":172},{"user_id":88,"name":"RyuFia","steam_id":76561198147961304,"connected_time":5000000000,"state":"spawning","ping":71},{"user_id":70,"name":"Supercle26","steam_id":76561199027147631,"connected_time":1333000000000,"state":"active","ping":42}]},{"server_id":321,"name":"Uncletopia | London | 4 | All Maps","name_short":"lon-4","host":"lon-1.uk.uncletopia.com","port":27045,"enabled":true,"region":"eu","cc":"gb","latitude":51.509865,"longitude":-0.118092,"reserved":0,"last_update":"0001-01-01T00:00:00Z","name_a2s":"Uncletopia | London | 4 | All Maps","protocol":17,"map":"pl_barnblitz","folder":"tf","game":"Team Fortress","app_id":440,"player_count":24,"max_players":24,"Bots":0,"server_type":"Dedicated","server_os":"Linux","password":true,"vac":true,"version":"7742253","steam_id":85568392924510193,"keywords":["nocrits","nodmgspread","payload","uncletopia"],"game_id":440,"stv_port":27046,"stv_name":"Uncletopia | London | 4 | All Maps | STV","players":[{"user_id":312,"name":"Vel0city","steam_id":76561198049687798,"connected_time":4303000000000,"state":"active","ping":50},{"user_id":338,"name":"Dont Uber Me | #SAVETF2","steam_id":76561198038579548,"connected_time":1759000000000,"state":"active","ping":53},{"user_id":339,"name":"Bits\u0026Peices","steam_id":76561199225453607,"connected_time":1470000000000,"state":"active","ping":111},{"user_id":310,"name":"penetrating peter","steam_id":76561198076219289,"connected_time":4370000000000,"state":"active","ping":57},{"user_id":317,"name":"Joseph Stalin LFT","steam_id":76561198033199746,"connected_time":4099000000000,"state":"active","ping":50},{"user_id":334,"name":"Ben UFO","steam_id":76561198001648348,"connected_time":2048000000000,"state":"active","ping":50},{"user_id":340,"name":"Dithmarschen","steam_id":76561198068917140,"connected_time":1325000000000,"state":"active","ping":101},{"user_id":306,"name":"inserting iain","steam_id":76561198046873337,"connected_time":4927000000000,"state":"active","ping":62},{"user_id":345,"name":"Olberon","steam_id":76561199061453462,"connected_time":678000000000,"state":"active","ping":70},{"user_id":335,"name":"I want my dog back","steam_id":76561198318748304,"connected_time":2032000000000,"state":"active","ping":128},{"user_id":350,"name":"my uncle is in the nonce's wing","steam_id":76561198855709000,"connected_time":141000000000,"state":"active","ping":61},{"user_id":348,"name":"SHPEE","steam_id":76561199195985387,"connected_time":232000000000,"state":"active","ping":94},{"user_id":333,"name":"Koli","steam_id":76561197992428783,"connected_time":2056000000000,"state":"active","ping":60},{"user_id":332,"name":"Wardruna96","steam_id":76561199057083828,"connected_time":2329000000000,"state":"active","ping":79},{"user_id":349,"name":"Mor'du","steam_id":76561198274105878,"connected_time":230000000000,"state":"active","ping":82},{"user_id":326,"name":"green drink","steam_id":76561199260739414,"connected_time":3155000000000,"state":"active","ping":148},{"user_id":343,"name":"nachtraaf","steam_id":76561197960473205,"connected_time":1115000000000,"state":"active","ping":56},{"user_id":307,"name":"soar","steam_id":76561198010662796,"connected_time":4920000000000,"state":"active","ping":46},{"user_id":327,"name":"G/3","steam_id":76561198234844188,"connected_time":3151000000000,"state":"active","ping":58},{"user_id":352,"name":"miko polo","steam_id":76561198430649064,"connected_time":47000000000,"state":"active","ping":69},{"user_id":351,"name":"stun","steam_id":76561198276681691,"connected_time":64000000000,"state":"active","ping":46},{"user_id":235,"name":"British Disapproval","steam_id":76561198001375260,"connected_time":9380000000000,"state":"active","ping":53},{"user_id":309,"name":"cslevi","steam_id":76561198142858923,"connected_time":4497000000000,"state":"active","ping":81},{"user_id":330,"name":"Lyra","steam_id":76561198043601838,"connected_time":2702000000000,"state":"active","ping":62}]},{"server_id":21,"name":"Uncletopia | London | 5 | All Maps","name_short":"lon-5","host":"lon-1.uk.uncletopia.com","port":27055,"enabled":true,"region":"eu","cc":"gb","latitude":51.509865,"longitude":-0.118092,"reserved":0,"last_update":"0001-01-01T00:00:00Z","name_a2s":"Uncletopia | London | 5 | All Maps","protocol":17,"map":"koth_highpass","folder":"tf","game":"Team Fortress","app_id":440,"player_count":0,"max_players":24,"Bots":0,"server_type":"Dedicated","server_os":"Linux","password":true,"vac":true,"version":"7742253","steam_id":85568392924742829,"keywords":["cp","nocrits","nodmgspread","uncletopia"],"game_id":440,"stv_port":27056,"stv_name":"Uncletopia | London | 5 | All Maps | STV","players":null},{"server_id":22,"name":"Uncletopia | London | 6 | All Maps","name_short":"lon-6","host":"lon-1.uk.uncletopia.com","port":27065,"enabled":true,"region":"eu","cc":"gb","latitude":51.509865,"longitude":-0.118092,"reserved":0,"last_update":"0001-01-01T00:00:00Z","name_a2s":"Uncletopia | London | 6 | All Maps","protocol":17,"map":"cp_dustbowl","folder":"tf","game":"Team Fortress","app_id":440,"player_count":15,"max_players":24,"Bots":0,"server_type":"Dedicated","server_os":"Linux","password":true,"vac":true,"version":"7742253","steam_id":85568392924742830,"keywords":["cp","nocrits","nodmgspread","uncletopia"],"game_id":440,"stv_port":27066,"stv_name":"Uncletopia | London | 6 | All Maps | STV","players":[{"user_id":383,"name":"real human bean","steam_id":76561198059535856,"connected_time":117000000000,"state":"active","ping":174},{"user_id":376,"name":"Japanese businessman","steam_id":76561198382064472,"connected_time":254000000000,"state":"active","ping":75},{"user_id":387,"name":"Sverhrazym","steam_id":76561198868708664,"connected_time":12000000000,"state":"spawning","ping":103},{"user_id":366,"name":"PartyGoer (The Pyro Observer)","steam_id":76561199239927385,"connected_time":553000000000,"state":"active","ping":148},{"user_id":348,"name":"Generallee 23","steam_id":76561198133597860,"connected_time":1588000000000,"state":"active","ping":93},{"user_id":374,"name":"Corrupted","steam_id":76561198066165991,"connected_time":320000000000,"state":"active","ping":68},{"user_id":375,"name":"invertO","steam_id":76561198142244174,"connected_time":291000000000,"state":"active","ping":56},{"user_id":378,"name":"ashley","steam_id":76561198448551449,"connected_time":220000000000,"state":"active","ping":52},{"user_id":384,"name":"severussnape1122","steam_id":76561198105028151,"connected_time":110000000000,"state":"active","ping":59},{"user_id":341,"name":"Hoho","steam_id":76561198819835663,"connected_time":2180000000000,"state":"active","ping":50},{"user_id":379,"name":"Mediplier","steam_id":76561199070207122,"connected_time":188000000000,"state":"active","ping":111},{"user_id":382,"name":"nyst","steam_id":76561198400998400,"connected_time":158000000000,"state":"active","ping":81},{"user_id":385,"name":"Lods of Emone","steam_id":76561198188642265,"connected_time":92000000000,"state":"active","ping":48},{"user_id":344,"name":"Rocadinis","steam_id":76561198095910616,"connected_time":2097000000000,"state":"active","ping":96},{"user_id":345,"name":"I'm playing with Bluetooth head","steam_id":76561198848650365,"connected_time":2089000000000,"state":"active","ping":110}]},{"server_id":40,"name":"Uncletopia | London | 7 | No Payload","name_short":"lon-7","host":"lon-1.uk.uncletopia.com","port":27075,"enabled":true,"region":"eu","cc":"gb","latitude":51.509865,"longitude":-0.118092,"reserved":0,"last_update":"0001-01-01T00:00:00Z","name_a2s":"Uncletopia | London | 7 | No Payload","protocol":17,"map":"cp_badlands","folder":"tf","game":"Team Fortress","app_id":440,"player_count":0,"max_players":24,"Bots":0,"server_type":"Dedicated","server_os":"Linux","password":true,"vac":true,"version":"7742253","steam_id":85568392924964314,"keywords":["cp","nocrits","nodmgspread","uncletopia"],"game_id":440,"stv_port":27076,"stv_name":"Uncletopia | London | 7 | No Payload | STV","players":null},{"server_id":41,"name":"Uncletopia | London | 8 | Community","name_short":"lon-8","host":"lon-1.uk.uncletopia.com","port":27085,"enabled":true,"region":"eu","cc":"gb","latitude":51.509865,"longitude":-0.118092,"reserved":0,"last_update":"0001-01-01T00:00:00Z","name_a2s":"Uncletopia | London | 8 | Community","protocol":17,"map":"workshop/cp_logjam_rc12.ugc454812035","folder":"tf","game":"Team Fortress","app_id":440,"player_count":0,"max_players":24,"Bots":0,"server_type":"Dedicated","server_os":"Linux","password":true,"vac":true,"version":"7742253","steam_id":85568392924964315,"keywords":["cp","nocrits","nodmgspread","uncletopia"],"game_id":440,"stv_port":27086,"stv_name":"Uncletopia | London | 8 | Community | STV","players":null},{"server_id":300,"name":"Uncletopia | Montr√©al | 1 | All Maps","name_short":"mtl-1","host":"mtl-1.ca.uncletopia.com","port":27015,"enabled":true,"region":"us-east","cc":"ca","latitude":45.50889,"longitude":-73.56167,"reserved":0,"last_update":"0001-01-01T00:00:00Z","name_a2s":"Uncletopia | Montr√©al | 1 | All Maps","protocol":17,"map":"koth_lakeside_final","folder":"tf","game":"Team Fortress","app_id":440,"player_count":0,"max_players":24,"Bots":0,"server_type":"Dedicated","server_os":"Linux","password":true,"vac":true,"version":"7742253","steam_id":85568392924500087,"keywords":["cp","nocrits","nodmgspread","uncletopia"],"game_id":440,"stv_port":27016,"stv_name":"Uncletopia | Montr√©al | 1 | All Maps | STV","players":null},{"server_id":301,"name":"Uncletopia | Montr√©al | 2 | All Maps","name_short":"mtl-2","host":"mtl-1.ca.uncletopia.com","port":27025,"enabled":true,"region":"us-east","cc":"ca","latitude":45.50889,"longitude":-73.56167,"reserved":0,"last_update":"0001-01-01T00:00:00Z","name_a2s":"Uncletopia | Montr√©al | 2 | All Maps","protocol":17,"map":"koth_lakeside_final","folder":"tf","game":"Team Fortress","app_id":440,"player_count":0,"max_players":24,"Bots":0,"server_type":"Dedicated","server_os":"Linux","password":true,"vac":true,"version":"7742253","steam_id":85568392924500088,"keywords":["cp","nocrits","nodmgspread","uncletopia"],"game_id":440,"stv_port":27026,"stv_name":"Uncletopia | Montr√©al | 2 | All Maps | STV","players":null},{"server_id":302,"name":"Uncletopia | Montr√©al | 3 | All Maps","name_short":"mtl-3","host":"mtl-1.ca.uncletopia.com","port":27035,"enabled":true,"region":"us-east","cc":"ca","latitude":45.50889,"longitude":-73.56167,"reserved":0,"last_update":"0001-01-01T00:00:00Z","name_a2s":"Uncletopia | Montr√©al | 3 | All Maps","protocol":17,"map":"pl_badwater","folder":"tf","game":"Team Fortress","app_id":440,"player_count":0,"max_players":24,"Bots":0,"server_type":"Dedicated","server_os":"Linux","password":true,"vac":true,"version":"7742253","steam_id":85568392924500089,"keywords":["nocrits","nodmgspread","payload","uncletopia"],"game_id":440,"stv_port":27036,"stv_name":"Uncletopia | Montr√©al | 3 | All Maps | STV","players":null},{"server_id":303,"name":"Uncletopia | Montr√©al | 4 | No Payload","name_short":"mtl-4","host":"mtl-1.ca.uncletopia.com","port":27045,"enabled":true,"region":"us-east","cc":"ca","latitude":45.50889,"longitude":-73.56167,"reserved":0,"last_update":"0001-01-01T00:00:00Z","name_a2s":"Uncletopia | Montr√©al | 4 | No Payload","protocol":17,"map":"koth_highpass","folder":"tf","game":"Team Fortress","app_id":440,"player_count":0,"max_players":24,"Bots":0,"server_type":"Dedicated","server_os":"Linux","password":true,"vac":true,"version":"7742253","steam_id":85568392924500090,"keywords":["cp","nocrits","nodmgspread","uncletopia"],"game_id":440,"stv_port":27046,"stv_name":"Uncletopia | Montr√©al | 4 | No Payload | STV","players":null},{"server_id":13,"name":"Uncletopia | New York City | 1 | All Maps","name_short":"nyc-1","host":"nyc-1.us.uncletopia.com","port":27015,"enabled":true,"region":"us-east","cc":"us","latitude":40.73061,"longitude":-73.93524,"reserved":0,"last_update":"0001-01-01T00:00:00Z","name_a2s":"Uncletopia | New York City | 1 | All Maps","protocol":17,"map":"cp_mossrock","folder":"tf","game":"Team Fortress","app_id":440,"player_count":24,"max_players":24,"Bots":0,"server_type":"Dedicated","server_os":"Linux","password":true,"vac":true,"version":"7742253","steam_id":85568392924469993,"keywords":["cp","nocrits","nodmgspread","uncletopia"],"game_id":440,"stv_port":27016,"stv_name":"Uncletopia | New York City | 1 | All Maps | STV","players":[{"user_id":34,"name":"BlitzStrike_","steam_id":76561199143825445,"connected_time":801000000000,"state":"spawning","ping":52},{"user_id":38,"name":"Endy","steam_id":76561199031301177,"connected_time":550000000000,"state":"spawning","ping":57},{"user_id":5,"name":"Nico","steam_id":76561198125701869,"connected_time":2839000000000,"state":"spawning","ping":38},{"user_id":29,"name":"Nogkii","steam_id":76561198971994536,"connected_time":1015000000000,"state":"spawning","ping":47},{"user_id":9,"name":"tacofever","steam_id":76561198010966507,"connected_time":2189000000000,"state":"spawning","ping":116},{"user_id":8,"name":"Santa (real)","steam_id":76561199016285746,"connected_time":2635000000000,"state":"spawning","ping":94},{"user_id":10,"name":"Dr. Enforcicle (real)","steam_id":76561198964471859,"connected_time":1847000000000,"state":"spawning","ping":52},{"user_id":11,"name":"pinkissocool {f2p}","steam_id":76561198989599828,"connected_time":1740000000000,"state":"spawning","ping":43},{"user_id":20,"name":"sheep","steam_id":76561198172943006,"connected_time":1246000000000,"state":"spawning","ping":61},{"user_id":13,"name":"Wookie","steam_id":76561198019780053,"connected_time":1476000000000,"state":"spawning","ping":49},{"user_id":14,"name":"acxeu","steam_id":76561198394435000,"connected_time":1402000000000,"state":"spawning","ping":49},{"user_id":21,"name":"MasterAqua","steam_id":76561198044807380,"connected_time":1159000000000,"state":"spawning","ping":69},{"user_id":17,"name":"ZodiacThundaga","steam_id":76561199025117814,"connected_time":1298000000000,"state":"spawning","ping":83},{"user_id":18,"name":"sioti","steam_id":76561198128796649,"connected_time":1261000000000,"state":"spawning","ping":48},{"user_id":19,"name":"Blowingtrees","steam_id":76561197996836241,"connected_time":1252000000000,"state":"spawning","ping":75},{"user_id":22,"name":"Amogus The Sussy Baka ‡∂û","steam_id":76561198008577961,"connected_time":1143000000000,"state":"spawning","ping":71},{"user_id":41,"name":"Cloudtrotter","steam_id":76561198141975528,"connected_time":33000000000,"state":"spawning","ping":80},{"user_id":25,"name":"Eitior","steam_id":76561198082189916,"connected_time":1131000000000,"state":"spawning","ping":64},{"user_id":26,"name":"ChilliBean Avenger","steam_id":76561197986896464,"connected_time":1103000000000,"state":"spawning","ping":78},{"user_id":27,"name":"oopsboom24","steam_id":76561199105248648,"connected_time":1093000000000,"state":"spawning","ping":88},{"user_id":32,"name":"E","steam_id":76561198108550445,"connected_time":915000000000,"state":"spawning","ping":60},{"user_id":33,"name":"gaboomonsteralexander","steam_id":76561199004659792,"connected_time":881000000000,"state":"spawning","ping":52},{"user_id":35,"name":"a 1930s robber","steam_id":76561198125237406,"connected_time":796000000000,"state":"spawning","ping":67},{"user_id":40,"name":"PizzaPasta","steam_id":76561199125109082,"connected_time":378000000000,"state":"spawning","ping":46}]},{"server_id":14,"name":"Uncletopia | New York City | 2 | All Maps","name_short":"nyc-2","host":"nyc-1.us.uncletopia.com","port":27025,"enabled":true,"region":"us-east","cc":"us","latitude":40.73061,"longitude":-73.93524,"reserved":0,"last_update":"0001-01-01T00:00:00Z","name_a2s":"Uncletopia | New York City | 2 | All Maps","protocol":17,"map":"pl_borneo","folder":"tf","game":"Team Fortress","app_id":440,"player_count":2,"max_players":24,"Bots":0,"server_type":"Dedicated","server_os":"Linux","password":true,"vac":true,"version":"7742253","steam_id":85568392924469994,"keywords":["nocrits","nodmgspread","payload","uncletopia"],"game_id":440,"stv_port":27026,"stv_name":"Uncletopia | New York City | 2 | All Maps | STV","players":[{"user_id":8,"name":"Rer3m","steam_id":76561199175728658,"connected_time":18000000000,"state":"active","ping":118},{"user_id":5,"name":"piflle","steam_id":76561199283873577,"connected_time":868000000000,"state":"active","ping":63}]},{"server_id":15,"name":"Uncletopia | New York City | 3 | Stopwatch Beta","name_short":"nyc-3","host":"nyc-1.us.uncletopia.com","port":27035,"enabled":true,"region":"us-east","cc":"us","latitude":40.73061,"longitude":-73.93524,"reserved":0,"last_update":"0001-01-01T00:00:00Z","name_a2s":"Uncletopia | New York City | 3 | Stopwatch Beta","protocol":17,"map":"cp_altitude","folder":"tf","game":"Team Fortress","app_id":440,"player_count":0,"max_players":24,"Bots":0,"server_type":"Dedicated","server_os":"Linux","password":true,"vac":true,"version":"7742253","steam_id":85568392924742820,"keywords":["cp","nocrits","nodmgspread","uncletopia"],"game_id":440,"stv_port":27036,"stv_name":"Uncletopia | New York City | 3 | Stopwatch Beta | STV","players":null},{"server_id":16,"name":"Uncletopia | New York City | 4 | Community","name_short":"nyc-4","host":"nyc-1.us.uncletopia.com","port":27045,"enabled":true,"region":"us-east","cc":"us","latitude":40.73061,"longitude":-73.93524,"reserved":0,"last_update":"0001-01-01T00:00:00Z","name_a2s":"Uncletopia | New York City | 4 | Community","protocol":17,"map":"pl_barnblitz","folder":"tf","game":"Team Fortress","app_id":440,"player_count":0,"max_players":24,"Bots":0,"server_type":"Dedicated","server_os":"Linux","password":true,"vac":true,"version":"7742253","steam_id":85568392924742821,"keywords":["nocrits","nodmgspread","payload","uncletopia"],"game_id":440,"stv_port":27046,"stv_name":"Uncletopia | New York City | 4 | Community | STV","players":null},{"server_id":142,"name":"Uncletopia | S√£o Paulo | 1 | All Maps","name_short":"sao-1","host":"sao-1.br.uncletopia.com","port":27015,"enabled":true,"region":"sa","cc":"br","latitude":-23.533773,"longitude":-46.62529,"reserved":0,"last_update":"0001-01-01T00:00:00Z","name_a2s":"Uncletopia | S√£o Paulo | 1 | All Maps","protocol":17,"map":"koth_cascade","folder":"tf","game":"Team Fortress","app_id":440,"player_count":1,"max_players":24,"Bots":0,"server_type":"Dedicated","server_os":"Linux","password":true,"vac":true,"version":"7742253","steam_id":85568392924469996,"keywords":["cp","nocrits","nodmgspread","uncletopia"],"game_id":440,"stv_port":27016,"stv_name":"Uncletopia | S√£o Paulo | 1 | All Maps | STV","players":[{"user_id":8,"name":"Cabeleira","steam_id":76561198323253534,"connected_time":215000000000,"state":"active","ping":31}]},{"server_id":143,"name":"Uncletopia | S√£o Paulo | 2 | All Maps","name_short":"sao-2","host":"sao-2.br.uncletopia.com","port":27015,"enabled":true,"region":"sa","cc":"br","latitude":-23.533773,"longitude":-46.62529,"reserved":0,"last_update":"0001-01-01T00:00:00Z","name_a2s":"Uncletopia | S√£o Paulo | 2 | All Maps","protocol":17,"map":"koth_cascade","folder":"tf","game":"Team Fortress","app_id":440,"player_count":0,"max_players":24,"Bots":0,"server_type":"Dedicated","server_os":"Linux","password":true,"vac":true,"version":"7742253","steam_id":85568392924485349,"keywords":["cp","nocrits","nodmgspread","uncletopia"],"game_id":440,"stv_port":27016,"stv_name":"Uncletopia | S√£o Paulo | 2 | All Maps | STV","players":null},{"server_id":7,"name":"Uncletopia | Seattle | 1 | All Maps","name_short":"sea-1","host":"sea-1.us.uncletopia.com","port":27015,"enabled":true,"region":"us-west","cc":"us","latitude":47.608013,"longitude":-122.33517,"reserved":0,"last_update":"0001-01-01T00:00:00Z","name_a2s":"Uncletopia | Seattle | 1 | All Maps","protocol":17,"map":"cp_dustbowl","folder":"tf","game":"Team Fortress","app_id":440,"player_count":24,"max_players":24,"Bots":0,"server_type":"Dedicated","server_os":"Linux","password":true,"vac":true,"version":"7742253","steam_id":85568392924469997,"keywords":["cp","nocrits","nodmgspread","uncletopia"],"game_id":440,"stv_port":27016,"stv_name":"Uncletopia | Seattle | 1 | All Maps | STV","players":[{"user_id":81,"name":"T-jizzle","steam_id":76561198040332264,"connected_time":2049000000000,"state":"active","ping":120},{"user_id":38,"name":"AceSea","steam_id":76561198851176490,"connected_time":4286000000000,"state":"active","ping":47},{"user_id":104,"name":"I-die-often","steam_id":76561197996780327,"connected_time":124000000000,"state":"active","ping":92},{"user_id":87,"name":"Phoenix","steam_id":76561197971265992,"connected_time":1200000000000,"state":"active","ping":45},{"user_id":93,"name":"The Collective","steam_id":76561198170423483,"connected_time":738000000000,"state":"active","ping":122},{"user_id":86,"name":"Fluffy","steam_id":76561198115952540,"connected_time":1318000000000,"state":"active","ping":42},{"user_id":18,"name":"Sad Sapling","steam_id":76561198075612150,"connected_time":4969000000000,"state":"active","ping":94},{"user_id":49,"name":"Huge","steam_id":76561199030987614,"connected_time":3885000000000,"state":"active","ping":166},{"user_id":107,"name":"Posh","steam_id":76561199119249332,"connected_time":6000000000,"state":"spawning","ping":87},{"user_id":94,"name":"voot","steam_id":76561198041936377,"connected_time":564000000000,"state":"active","ping":153},{"user_id":77,"name":"Marauding Morty","steam_id":76561198013159528,"connected_time":2434000000000,"state":"active","ping":110},{"user_id":62,"name":"Jesus Loves You57","steam_id":76561199058833769,"connected_time":2948000000000,"state":"active","ping":67},{"user_id":15,"name":"Little Linguine","steam_id":76561198816986370,"connected_time":5111000000000,"state":"active","ping":94},{"user_id":106,"name":"Lemon Luke","steam_id":76561199141696546,"connected_time":25000000000,"state":"active","ping":120},{"user_id":95,"name":"Sex Luthor \u0026 the Legion of Poon","steam_id":76561198043246437,"connected_time":548000000000,"state":"active","ping":120},{"user_id":25,"name":"Super Noob","steam_id":76561199179611350,"connected_time":4721000000000,"state":"active","ping":115},{"user_id":100,"name":"geeboo gaboo","steam_id":76561199185046348,"connected_time":397000000000,"state":"active","ping":83},{"user_id":90,"name":"rickrolled","steam_id":76561199401509126,"connected_time":855000000000,"state":"active","ping":117},{"user_id":64,"name":"NathanSpades","steam_id":76561198870850297,"connected_time":2875000000000,"state":"active","ping":75},{"user_id":102,"name":"‚õß‚∏∏‚õß‚∏∏‚õß‚∏∏","steam_id":76561198007051179,"connected_time":303000000000,"state":"active","ping":78},{"user_id":69,"name":"Sir Galahad","steam_id":76561198195999859,"connected_time":2695000000000,"state":"active","ping":52},{"user_id":103,"name":"Soap","steam_id":76561197994893383,"connected_time":270000000000,"state":"active","ping":78},{"user_id":79,"name":"kirby7","steam_id":76561199167006749,"connected_time":2192000000000,"state":"active","ping":95},{"user_id":80,"name":"rat eater","steam_id":76561198955453886,"connected_time":2192000000000,"state":"active","ping":369}]},{"server_id":119,"name":"Uncletopia | Seattle | 2 | All Maps","name_short":"sea-2","host":"sea-1.us.uncletopia.com","port":27025,"enabled":true,"region":"us-west","cc":"us","latitude":47.608013,"longitude":-122.33517,"reserved":0,"last_update":"0001-01-01T00:00:00Z","name_a2s":"Uncletopia | Seattle | 2 | All Maps","protocol":17,"map":"pl_swiftwater_final1","folder":"tf","game":"Team Fortress","app_id":440,"player_count":0,"max_players":24,"Bots":0,"server_type":"Dedicated","server_os":"Linux","password":true,"vac":true,"version":"7742253","steam_id":85568392924469998,"keywords":["nocrits","nodmgspread","payload","uncletopia"],"game_id":440,"stv_port":27026,"stv_name":"Uncletopia | Seattle | 2 | All Maps | STV","players":null},{"server_id":406,"name":"Uncletopia | Seattle | 3 | Stopwatch Beta","name_short":"sea-3","host":"sea-1.us.uncletopia.com","port":27035,"enabled":true,"region":"us-west","cc":"us","latitude":47.608013,"longitude":-122.33517,"reserved":0,"last_update":"0001-01-01T00:00:00Z","name_a2s":"Uncletopia | Seattle | 3 | Stopwatch Beta","protocol":17,"map":"pl_upward","folder":"tf","game":"Team Fortress","app_id":440,"player_count":0,"max_players":24,"Bots":0,"server_type":"Dedicated","server_os":"Linux","password":true,"vac":false,"version":"7742253","steam_id":0,"keywords":["nocrits","nodmgspread","payload","uncletopia"],"game_id":440,"stv_port":27036,"stv_name":"Uncletopia | Seattle | 3 | Stopwatch Beta | STV","players":null},{"server_id":17,"name":"Uncletopia | San Francisco | 1 | All Maps","name_short":"sfo-1","host":"sfo-1.us.uncletopia.com","port":27015,"enabled":true,"region":"us-west","cc":"us","latitude":37.77397,"longitude":-122.4313,"reserved":0,"last_update":"0001-01-01T00:00:00Z","name_a2s":"Uncletopia | San Francisco | 1 | All Maps","protocol":17,"map":"koth_cascade","folder":"tf","game":"Team Fortress","app_id":440,"player_count":0,"max_players":24,"Bots":0,"server_type":"Dedicated","server_os":"Linux","password":true,"vac":true,"version":"7742253","steam_id":85568392924469999,"keywords":["cp","nocrits","nodmgspread","uncletopia"],"game_id":440,"stv_port":27016,"stv_name":"Uncletopia | San Francisco | 1 | All Maps | STV","players":null},{"server_id":18,"name":"Uncletopia | San Francisco | 2 | All Maps","name_short":"sfo-2","host":"sfo-1.us.uncletopia.com","port":27025,"enabled":true,"region":"us-west","cc":"us","latitude":37.77397,"longitude":-122.4313,"reserved":0,"last_update":"0001-01-01T00:00:00Z","name_a2s":"Uncletopia | San Francisco | 2 | All Maps","protocol":17,"map":"cp_process_final","folder":"tf","game":"Team Fortress","app_id":440,"player_count":0,"max_players":24,"Bots":0,"server_type":"Dedicated","server_os":"Linux","password":true,"vac":true,"version":"7742253","steam_id":85568392924470000,"keywords":["cp","nocrits","nodmgspread","uncletopia"],"game_id":440,"stv_port":27026,"stv_name":"Uncletopia | San Francisco | 2 | All Maps | STV","players":null},{"server_id":19,"name":"Uncletopia | San Francisco | 3 | Stopwatch Beta","name_short":"sfo-3","host":"sfo-1.us.uncletopia.com","port":27035,"enabled":true,"region":"us-west","cc":"us","latitude":37.77397,"longitude":-122.4313,"reserved":0,"last_update":"0001-01-01T00:00:00Z","name_a2s":"Uncletopia | San Francisco | 3 | Stopwatch Beta","protocol":17,"map":"cp_snakewater_final1","folder":"tf","game":"Team Fortress","app_id":440,"player_count":0,"max_players":24,"Bots":0,"server_type":"Dedicated","server_os":"Linux","password":true,"vac":true,"version":"7742253","steam_id":85568392924742824,"keywords":["cp","nocrits","nodmgspread","uncletopia"],"game_id":440,"stv_port":27036,"stv_name":"Uncletopia | San Francisco | 3 | Stopwatch Beta | STV","players":null},{"server_id":20,"name":"Uncletopia | San Francisco | 4 | Community","name_short":"sfo-4","host":"sfo-1.us.uncletopia.com","port":27045,"enabled":true,"region":"us-west","cc":"us","latitude":37.77397,"longitude":-122.4313,"reserved":0,"last_update":"0001-01-01T00:00:00Z","name_a2s":"Uncletopia | San Francisco | 4 | Community","protocol":17,"map":"cp_altitude","folder":"tf","game":"Team Fortress","app_id":440,"player_count":0,"max_players":24,"Bots":0,"server_type":"Dedicated","server_os":"Linux","password":true,"vac":true,"version":"7742253","steam_id":85568392924742826,"keywords":["cp","nocrits","nodmgspread","uncletopia"],"game_id":440,"stv_port":27046,"stv_name":"Uncletopia | San Francisco | 4 | Community | STV","players":null},{"server_id":141,"name":"Uncletopia | Sydney | 1 | All Maps","name_short":"syd-1","host":"syd-1.au.uncletopia.com","port":27015,"enabled":true,"region":"au","cc":"au","latitude":-33.865143,"longitude":151.2099,"reserved":0,"last_update":"0001-01-01T00:00:00Z","name_a2s":"Uncletopia | Sydney | 1 | All Maps","protocol":17,"map":"pl_swiftwater_final1","folder":"tf","game":"Team Fortress","app_id":440,"player_count":0,"max_players":24,"Bots":0,"server_type":"Dedicated","server_os":"Linux","password":true,"vac":true,"version":"7742253","steam_id":85568392924470001,"keywords":["nocrits","nodmgspread","payload","uncletopia"],"game_id":440,"stv_port":27016,"stv_name":"Uncletopia | Sydney | 1 | All Maps | STV","players":null},{"server_id":123,"name":"Uncletopia | Sydney | 2 | All Maps","name_short":"syd-2","host":"syd-1.au.uncletopia.com","port":27025,"enabled":true,"region":"au","cc":"au","latitude":-33.865143,"longitude":151.2099,"reserved":0,"last_update":"0001-01-01T00:00:00Z","name_a2s":"Uncletopia | Sydney | 2 | All Maps","protocol":17,"map":"cp_snakewater_final1","folder":"tf","game":"Team Fortress","app_id":440,"player_count":0,"max_players":24,"Bots":0,"server_type":"Dedicated","server_os":"Linux","password":true,"vac":true,"version":"7742253","steam_id":85568392924470002,"keywords":["cp","nocrits","nodmgspread","uncletopia"],"game_id":440,"stv_port":27026,"stv_name":"Uncletopia | Sydney | 2 | All Maps | STV","players":null},{"server_id":395,"name":"Uncletopia | Sydney | 3 | All Maps","name_short":"syd-3","host":"syd-1.au.uncletopia.com","port":27035,"enabled":true,"region":"au","cc":"au","latitude":-33.865143,"longitude":151.2099,"reserved":0,"last_update":"0001-01-01T00:00:00Z","name_a2s":"Uncletopia | Sydney | 3 | All Maps","protocol":17,"map":"koth_lakeside_final","folder":"tf","game":"Team Fortress","app_id":440,"player_count":0,"max_players":24,"Bots":0,"server_type":"Dedicated","server_os":"Linux","password":true,"vac":true,"version":"7742253","steam_id":85568392925194467,"keywords":["cp","nocrits","nodmgspread","uncletopia"],"game_id":440,"stv_port":27036,"stv_name":"Uncletopia | Sydney | 3 | All Maps | STV","players":null},{"server_id":396,"name":"Uncletopia | Sydney | 4 | All Maps","name_short":"syd-4","host":"syd-1.au.uncletopia.com","port":27045,"enabled":true,"region":"au","cc":"au","latitude":-33.865143,"longitude":151.2099,"reserved":0,"last_update":"0001-01-01T00:00:00Z","name_a2s":"Uncletopia | Sydney | 4 | All Maps","protocol":17,"map":"pl_borneo","folder":"tf","game":"Team Fortress","app_id":440,"player_count":0,"max_players":24,"Bots":0,"server_type":"Dedicated","server_os":"Linux","password":true,"vac":true,"version":"7742253","steam_id":85568392925397958,"keywords":["nocrits","nodmgspread","payload","uncletopia"],"game_id":440,"stv_port":27046,"stv_name":"Uncletopia | Sydney | 4 | All Maps | STV","players":null},{"server_id":58,"name":"Uncletopia | Sydney | 5 | Stopwatch Beta","name_short":"syd-5","host":"syd-1.au.uncletopia.com","port":27055,"enabled":true,"region":"au","cc":"au","latitude":-33.865143,"longitude":151.2099,"reserved":0,"last_update":"0001-01-01T00:00:00Z","name_a2s":"Uncletopia | Sydney | 5 | Stopwatch Beta","protocol":17,"map":"workshop/koth_ashville_final.ugc2130459942","folder":"tf","game":"Team Fortress","app_id":440,"player_count":0,"max_players":24,"Bots":0,"server_type":"Dedicated","server_os":"Linux","password":true,"vac":true,"version":"7742253","steam_id":85568392925397959,"keywords":["cp","nocrits","nodmgspread","uncletopia"],"game_id":440,"stv_port":27056,"stv_name":"Uncletopia | Sydney | 5 | Stopwatch Beta | STV","players":null},{"server_id":59,"name":"Uncletopia | Sydney | 6 | Community","name_short":"syd-6","host":"syd-1.au.uncletopia.com","port":27065,"enabled":true,"region":"au","cc":"au","latitude":-33.865143,"longitude":151.2099,"reserved":0,"last_update":"0001-01-01T00:00:00Z","name_a2s":"Uncletopia | Sydney | 6 | Community","protocol":17,"map":"workshop/pl_fifthcurve_rc1.ugc648227046","folder":"tf","game":"Team Fortress","app_id":440,"player_count":0,"max_players":24,"Bots":0,"server_type":"Dedicated","server_os":"Linux","password":true,"vac":true,"version":"7742253","steam_id":85568392925397960,"keywords":["nocrits","nodmgspread","payload","uncletopia"],"game_id":440,"stv_port":27066,"stv_name":"Uncletopia | Sydney | 6 | Community | STV","players":null},{"server_id":49,"name":"Uncletopia | Warsaw | 1 | All Maps","name_short":"waw-1","host":"waw-1.pl.uncletopia.com","port":27015,"enabled":true,"region":"eu","cc":"pl","latitude":52.2297,"longitude":21.017532,"reserved":0,"last_update":"0001-01-01T00:00:00Z","name_a2s":"Uncletopia | Warsaw | 1 | All Maps","protocol":17,"map":"koth_lakeside_final","folder":"tf","game":"Team Fortress","app_id":440,"player_count":0,"max_players":24,"Bots":0,"server_type":"Dedicated","server_os":"Linux","password":true,"vac":true,"version":"7723704","steam_id":85568392925397850,"keywords":["cp","nocrits","nodmgspread","uncletopia"],"game_id":440,"stv_port":27016,"stv_name":"Uncletopia | Warsaw | 1 | All Maps | STV","players":null},{"server_id":50,"name":"Uncletopia | Warsaw | 2 | All Maps","name_short":"waw-2","host":"waw-1.pl.uncletopia.com","port":27025,"enabled":true,"region":"eu","cc":"pl","latitude":52.2297,"longitude":21.017532,"reserved":0,"last_update":"0001-01-01T00:00:00Z","name_a2s":"Uncletopia | Warsaw | 2 | All Maps","protocol":17,"map":"cp_mountainlab","folder":"tf","game":"Team Fortress","app_id":440,"player_count":0,"max_players":24,"Bots":0,"server_type":"Dedicated","server_os":"Linux","password":true,"vac":true,"version":"7742253","steam_id":85568392925397851,"keywords":["cp","nocrits","nodmgspread","uncletopia"],"game_id":440,"stv_port":27026,"stv_name":"Uncletopia | Warsaw | 2 | All Maps | STV","players":null},{"server_id":51,"name":"Uncletopia | Warsaw | 3 | All Maps","name_short":"waw-3","host":"waw-1.pl.uncletopia.com","port":27035,"enabled":true,"region":"eu","cc":"pl","latitude":52.2297,"longitude":21.017532,"reserved":0,"last_update":"0001-01-01T00:00:00Z","name_a2s":"Uncletopia | Warsaw | 3 | All Maps","protocol":17,"map":"pl_frontier_final","folder":"tf","game":"Team Fortress","app_id":440,"player_count":1,"max_players":24,"Bots":0,"server_type":"Dedicated","server_os":"Linux","password":true,"vac":true,"version":"7742253","steam_id":85568392925397852,"keywords":["nocrits","nodmgspread","payload","uncletopia"],"game_id":440,"stv_port":27036,"stv_name":"Uncletopia | Warsaw | 3 | All Maps | STV","players":[{"user_id":5,"name":"Realist 40","steam_id":76561198052476979,"connected_time":80000000000,"state":"active","ping":44}]},{"server_id":52,"name":"Uncletopia | Warsaw | 4 | All Maps","name_short":"waw-4","host":"waw-1.pl.uncletopia.com","port":27045,"enabled":true,"region":"eu","cc":"pl","latitude":52.2297,"longitude":21.017532,"reserved":0,"last_update":"0001-01-01T00:00:00Z","name_a2s":"Uncletopia | Warsaw | 4 | All Maps","protocol":17,"map":"cp_mountainlab","folder":"tf","game":"Team Fortress","app_id":440,"player_count":0,"max_players":24,"Bots":0,"server_type":"Dedicated","server_os":"Linux","password":true,"vac":true,"version":"7742253","steam_id":85568392925397853,"keywords":["cp","nocrits","nodmgspread","uncletopia"],"game_id":440,"stv_port":27046,"stv_name":"Uncletopia | Warsaw | 4 | All Maps | STV","players":null},{"server_id":53,"name":"Uncletopia | Warsaw | 5 | Stopwatch Beta","name_short":"waw-5","host":"waw-1.pl.uncletopia.com","port":27055,"enabled":true,"region":"eu","cc":"pl","latitude":52.2297,"longitude":21.017532,"reserved":0,"last_update":"0001-01-01T00:00:00Z","name_a2s":"Uncletopia | Warsaw | 5 | Stopwatch Beta","protocol":17,"map":"pl_pier","folder":"tf","game":"Team Fortress","app_id":440,"player_count":0,"max_players":24,"Bots":0,"server_type":"Dedicated","server_os":"Linux","password":true,"vac":true,"version":"7742253","steam_id":85568392925397854,"keywords":["nocrits","nodmgspread","payload","uncletopia"],"game_id":440,"stv_port":27056,"stv_name":"Uncletopia | Warsaw | 5 | Stopwatch Beta | STV","players":null},{"server_id":54,"name":"Uncletopia | Warsaw | 6 | Community","name_short":"waw-6","host":"waw-1.pl.uncletopia.com","port":27065,"enabled":true,"region":"eu","cc":"pl","latitude":52.2297,"longitude":21.017532,"reserved":0,"last_update":"0001-01-01T00:00:00Z","name_a2s":"Uncletopia | Warsaw | 6 | Community","protocol":17,"map":"workshop/koth_slaughter_rc1.ugc1712845210","folder":"tf","game":"Team Fortress","app_id":440,"player_count":0,"max_players":24,"Bots":0,"server_type":"Dedicated","server_os":"Linux","password":true,"vac":true,"version":"7742253","steam_id":85568392925397856,"keywords":["cp","nocrits","nodmgspread","uncletopia"],"game_id":440,"stv_port":27066,"stv_name":"Uncletopia | Warsaw | 6 | Community | STV","players":null}]}