{"status":true,"message":"","result":[{"server_id":9,"name":"Uncletopia | Atlanta | 1 | All Maps","name_short":"atl-1","host":"atl-1.us.uncletopia.com","port":27015,"enabled":true,"region":"us-east","cc":"us","latitude":33.753746,"longitude":-84.38633,"reserved":0,"last_update":"0001-01-01T00:00:00Z","name_a2s":"Uncletopia | Atlanta | 1 | All Maps","protocol":17,"map":"pl_borneo","folder":"tf","game":"Team Fortress","app_id":440,"player_count":6,"max_players":24,"Bots":0,"server_type":"Dedicated","server_os":"Linux","password":true,"vac":true,"version":"7882260","steam_id":85568392924469982,"keywords":["nocrits","nodmgspread","payload","uncletopia"],"game_id":440,"stv_port":27016,"stv_name":"Uncletopia | Atlanta | 1 | All Maps | STV","players":[{"user_id":10,"name":"chexo4","steam_id":76561198150532531,"connected_time":888000000000,"state":"active","ping":44},{"user_id":12,"name":"Abom","steam_id":76561198167974713,"connected_time":605000000000,"state":"active","ping":53},{"user_id":13,"name":"mu","steam_id":76561197997530228,"connected_time":502000000000,"state":"active","ping":105},{"user_id":15,"name":"–†–æ–º–∞—à–∫–æ–≤—ã–π —á–∞–µ–ø–∏","steam_id":76561198035038707,"connected_time":128000000000,"state":"active","ping":175},{"user_id":16,"name":"johnson exam","steam_id":76561198838784551,"connected_time":84000000000,"state":"active","ping":56},{"user_id":17,"name":"shake","steam_id":76561199064204750,"connected_time":56000000000,"state":"active","ping":77}]},{"server_id":104,"name":"Uncletopia | Atlanta | 2 | All Maps","name_short":"atl-2","host":"atl-1.us.uncletopia.com","port":27025,"enabled":true,"region":"us-east","cc":"us","latitude":33.753746,"longitude":-84.38633,"reserved":0,"last_update":"0001-01-01T00:00:00Z","name_a2s":"Uncletopia | Atlanta | 2 | All Maps","protocol":17,"map":"pl_frontier_final","folder":"tf","game":"Team Fortress","app_id":440,"player_count":0,"max_players":24,"Bots":0,"server_type":"Dedicated","server_os":"Linux","password":true,"vac":true,"version":"7882260","steam_id":85568392924469983,"keywords":["nocrits","nodmgspread","payload","uncletopia"],"game_id":440,"stv_port":27026,"stv_name":"Uncletopia | Atlanta | 2 | All Maps | STV","players":null},{"server_id":400,"name":"Uncletopia | Atlanta | 3 | Community","name_short":"atl-3","host":"atl-1.us.uncletopia.com","port":27035,"enabled":true,"region":"us-east","cc":"us","latitude":33.753746,"longitude":-84.38633,"reserved":0,"last_update":"0001-01-01T00:00:00Z","name_a2s":"Uncletopia | Atlanta | 3 | Community","protocol":17,"map":"workshop/cp_fulgur_rc2a.ugc2068252300","folder":"tf","game":"Team Fortress","app_id":440,"player_count":1,"max_players":24,"Bots":0,"server_type":"Dedicated","server_os":"Linux","password":true,"vac":true,"version":"7882260","steam_id":85568392924515187,"keywords":["cp","nocrits","nodmgspread","uncletopia"],"game_id":440,"stv_port":27036,"stv_name":"Uncletopia | Atlanta | 3 | Community | STV","players":[{"user_id":3,"name":"Pudim The Gimbus Priest","steam_id":76561199076171761,"connected_time":462000000000,"state":"active","ping":179}]},{"server_id":401,"name":"Uncletopia | Atlanta | 4 | No Payload","name_short":"atl-4","host":"atl-1.us.uncletopia.com","port":27045,"enabled":true,"region":"us-east","cc":"us","latitude":33.753746,"longitude":-84.38633,"reserved":0,"last_update":"0001-01-01T00:00:00Z","name_a2s":"","protocol":0,"map":"","folder":"","game":"","app_id":0,"player_count":0,"max_players":0,"Bots":0,"server_type":"","server_os":"","password":false,"vac":false,"version":"","steam_id":0,"keywords":null,"game_id":0,"stv_port":0,"stv_name":"","players":null},{"server_id":2,"name":"Uncletopia | Chicago | 1 | All Maps","name_short":"chi-1","host":"chi-1.us.uncletopia.com","port":27015,"enabled":true,"region":"us-central","cc":"us","latitude":41.881832,"longitude":-87.62318,"reserved":0,"last_update":"0001-01-01T00:00:00Z","name_a2s":"Uncletopia | Chicago | 1 | All Maps","protocol":17,"map":"pl_badwater","folder":"tf","game":"Team Fortress","app_id":440,"player_count":24,"max_players":24,"Bots":0,"server_type":"Dedicated","server_os":"Linux","password":true,"vac":true,"version":"7882260","steam_id":85568392924469984,"keywords":["nocrits","nodmgspread","payload","uncletopia"],"game_id":440,"stv_port":27016,"stv_name":"Uncletopia | Chicago | 1 | All Maps | STV","players":[{"user_id":11,"name":"Zelith","steam_id":76561198234980480,"connected_time":4547000000000,"state":"active","ping":50},{"user_id":66,"name":"Meat_fungus","steam_id":76561199474196933,"connected_time":985000000000,"state":"active","ping":64},{"user_id":67,"name":"Mattron1","steam_id":76561198012270524,"connected_time":963000000000,"state":"active","ping":82},{"user_id":52,"name":"D0VE","steam_id":76561198151618566,"connected_time":2311000000000,"state":"active","ping":105},{"user_id":49,"name":"DualiTea","steam_id":76561198081733870,"connected_time":2331000000000,"state":"active","ping":52},{"user_id":63,"name":"Clover Incorporated","steam_id":76561198111267821,"connected_time":1182000000000,"state":"active","ping":46},{"user_id":68,"name":"Shiro","steam_id":76561197979915878,"connected_time":953000000000,"state":"active","ping":135},{"user_id":61,"name":"The Fiend","steam_id":76561199229771413,"connected_time":1498000000000,"state":"active","ping":84},{"user_id":15,"name":"killername","steam_id":76561199105156791,"connected_time":4294000000000,"state":"active","ping":53},{"user_id":18,"name":"MOB101","steam_id":76561198360491038,"connected_time":3800000000000,"state":"active","ping":78},{"user_id":69,"name":"richard clock","steam_id":76561198048455671,"connected_time":945000000000,"state":"active","ping":54},{"user_id":70,"name":"Goddess Natalia","steam_id":76561198149739384,"connected_time":941000000000,"state":"active","ping":61},{"user_id":71,"name":"Larkaldi","steam_id":76561198029668456,"connected_time":925000000000,"state":"active","ping":44},{"user_id":65,"name":"Guitauren Hero","steam_id":76561198000191752,"connected_time":1154000000000,"state":"active","ping":126},{"user_id":24,"name":"feryae","steam_id":76561198072646165,"connected_time":3667000000000,"state":"active","ping":99},{"user_id":81,"name":"comet","steam_id":76561198077022846,"connected_time":623000000000,"state":"active","ping":75},{"user_id":76,"name":"SoundslikeJustice","steam_id":76561198963640645,"connected_time":763000000000,"state":"active","ping":73},{"user_id":51,"name":"Doc{MDW}","steam_id":76561198075049640,"connected_time":2326000000000,"state":"active","ping":97},{"user_id":29,"name":"1-800-GHOST-DANCE","steam_id":76561198835430429,"connected_time":3558000000000,"state":"active","ping":75},{"user_id":55,"name":"yarn","steam_id":76561197999666480,"connected_time":2107000000000,"state":"active","ping":105},{"user_id":79,"name":"prospective sugar baby","steam_id":76561198081220016,"connected_time":726000000000,"state":"active","ping":54},{"user_id":77,"name":"„ÅÇ„Åæ„Åø„ÇÑ „Çå„Çì","steam_id":76561198165569261,"connected_time":759000000000,"state":"active","ping":48},{"user_id":82,"name":"miko","steam_id":76561198123558279,"connected_time":600000000000,"state":"active","ping":70},{"user_id":47,"name":"MaybeMars","steam_id":76561198084736804,"connected_time":2357000000000,"state":"active","ping":78}]},{"server_id":106,"name":"Uncletopia | Chicago | 2 | All Maps","name_short":"chi-2","host":"chi-1.us.uncletopia.com","port":27025,"enabled":true,"region":"us-central","cc":"us","latitude":41.881832,"longitude":-87.62318,"reserved":0,"last_update":"0001-01-01T00:00:00Z","name_a2s":"Uncletopia | Chicago | 2 | All Maps","protocol":17,"map":"pl_frontier_final","folder":"tf","game":"Team Fortress","app_id":440,"player_count":0,"max_players":24,"Bots":0,"server_type":"Dedicated","server_os":"Linux","password":true,"vac":true,"version":"7882260","steam_id":85568392924469985,"keywords":["nocrits","nodmgspread","payload","uncletopia"],"game_id":440,"stv_port":27026,"stv_name":"Uncletopia | Chicago | 2 | All Maps | STV","players":null},{"server_id":402,"name":"Uncletopia | Chicago | 3 | All Maps","name_short":"chi-3","host":"chi-1.us.uncletopia.com","port":27035,"enabled":true,"region":"us-central","cc":"us","latitude":41.881832,"longitude":-87.62318,"reserved":0,"last_update":"0001-01-01T00:00:00Z","name_a2s":"Uncletopia | Chicago | 3 | All Maps","protocol":17,"map":"pl_snowycoast","folder":"tf","game":"Team Fortress","app_id":440,"player_count":0,"max_players":24,"Bots":0,"server_type":"Dedicated","server_os":"Linux","password":true,"vac":true,"version":"7882260","steam_id":85568392924515191,"keywords":["nocrits","nodmgspread","payload","uncletopia"],"game_id":440,"stv_port":27036,"stv_name":"Uncletopia | Chicago | 3 | All Maps | STV","players":null},{"server_id":403,"name":"Uncletopia | Chicago | 4 | All Maps","name_short":"chi-4","host":"chi-1.us.uncletopia.com","port":27045,"enabled":true,"region":"us-central","cc":"us","latitude":41.881832,"longitude":-87.62318,"reserved":0,"last_update":"0001-01-01T00:00:00Z","name_a2s":"Uncletopia | Chicago | 4 | All Maps","protocol":17,"map":"koth_cascade","folder":"tf","game":"Team Fortress","app_id":440,"player_count":0,"max_players":24,"Bots":0,"server_type":"Dedicated","server_os":"Linux","password":true,"vac":true,"version":"7882260","steam_id":85568392924515193,"keywords":["cp","nocrits","nodmgspread","uncletopia"],"game_id":440,"stv_port":27046,"stv_name":"Uncletopia | Chicago | 4 | All Maps | STV","players":null},{"server_id":36,"name":"Uncletopia | Chicago | 5 | All Maps","name_short":"chi-5","host":"chi-2.us.uncletopia.com","port":27015,"enabled":true,"region":"us-central","cc":"us","latitude":41.881832,"longitude":-87.62318,"reserved":0,"last_update":"0001-01-01T00:00:00Z","name_a2s":"Uncletopia | Chicago | 5 | All Maps","protocol":17,"map":"pl_barnblitz","folder":"tf","game":"Team Fortress","app_id":440,"player_count":24,"max_players":24,"Bots":0,"server_type":"Dedicated","server_os":"Linux","password":true,"vac":true,"version":"7882260","steam_id":85568392924866362,"keywords":["nocrits","nodmgspread","payload","uncletopia"],"game_id":440,"stv_port":27016,"stv_name":"Uncletopia | Chicago | 5 | All Maps | STV","players":[{"user_id":40,"name":"Squilliam Fancyson","steam_id":76561198211062267,"connected_time":3342000000000,"state":"active","ping":67},{"user_id":47,"name":"ThatOneGuy831","steam_id":76561198000422558,"connected_time":2799000000000,"state":"active","ping":70},{"user_id":63,"name":"UnderKnight","steam_id":76561198020262960,"connected_time":1726000000000,"state":"active","ping":60},{"user_id":66,"name":"blobb","steam_id":76561198950448488,"connected_time":1486000000000,"state":"active","ping":47},{"user_id":70,"name":"gun spy","steam_id":76561198236166288,"connected_time":1163000000000,"state":"active","ping":74},{"user_id":31,"name":"ŒµœÄŒπŒªŒ≠Œ≥œâ","steam_id":76561198076639682,"connected_time":4382000000000,"state":"active","ping":75},{"user_id":9,"name":"Zetelica","steam_id":76561199005527389,"connected_time":4893000000000,"state":"active","ping":103},{"user_id":59,"name":"Racoon.zip","steam_id":76561199023759321,"connected_time":1979000000000,"state":"active","ping":71},{"user_id":56,"name":"Koyota","steam_id":76561198069878114,"connected_time":2068000000000,"state":"active","ping":103},{"user_id":77,"name":"air arbitrator","steam_id":76561198838282369,"connected_time":200000000000,"state":"active","ping":74},{"user_id":76,"name":"Tyler\u0026Fingers","steam_id":76561198085154485,"connected_time":265000000000,"state":"active","ping":88},{"user_id":14,"name":"ATL1 | yumyum","steam_id":76561198150567198,"connected_time":4847000000000,"state":"active","ping":64},{"user_id":50,"name":"St. Baddie d'Arc","steam_id":76561198206752128,"connected_time":2719000000000,"state":"active","ping":196},{"user_id":75,"name":"Cookie Dough | tf2pugs.com","steam_id":76561198882007496,"connected_time":459000000000,"state":"active","ping":67},{"user_id":52,"name":"firstlastmcgee","steam_id":76561198170187989,"connected_time":2683000000000,"state":"active","ping":70},{"user_id":32,"name":"effete","steam_id":76561197994376499,"connected_time":4293000000000,"state":"active","ping":118},{"user_id":72,"name":"HammerHead","steam_id":76561197975668646,"connected_time":1132000000000,"state":"active","ping":76},{"user_id":21,"name":"serious","steam_id":76561198089649422,"connected_time":4787000000000,"state":"active","ping":99},{"user_id":69,"name":"nRE","steam_id":76561199103418149,"connected_time":1255000000000,"state":"active","ping":53},{"user_id":73,"name":"shadow6","steam_id":76561197979807910,"connected_time":1108000000000,"state":"active","ping":84},{"user_id":39,"name":"saib","steam_id":76561198966980576,"connected_time":3375000000000,"state":"active","ping":61},{"user_id":68,"name":"0akmask","steam_id":76561198239584280,"connected_time":1274000000000,"state":"active","ping":111},{"user_id":79,"name":"Idiot Prince (They/Them)","steam_id":76561198048205270,"connected_time":160000000000,"state":"active","ping":89},{"user_id":36,"name":"yomommasabitch","steam_id":76561198323217150,"connected_time":3772000000000,"state":"active","ping":61}]},{"server_id":37,"name":"Uncletopia | Chicago | 6 | All Maps","name_short":"chi-6","host":"chi-2.us.uncletopia.com","port":27025,"enabled":true,"region":"us-central","cc":"us","latitude":41.881832,"longitude":-87.62318,"reserved":0,"last_update":"0001-01-01T00:00:00Z","name_a2s":"Uncletopia | Chicago | 6 | All Maps","protocol":17,"map":"koth_cascade","folder":"tf","game":"Team Fortress","app_id":440,"player_count":1,"max_players":24,"Bots":0,"server_type":"Dedicated","server_os":"Linux","password":true,"vac":true,"version":"7882260","steam_id":85568392924866363,"keywords":["cp","nocrits","nodmgspread","uncletopia"],"game_id":440,"stv_port":27026,"stv_name":"Uncletopia | Chicago | 6 | All Maps | STV","players":[{"user_id":4,"name":"ShadowSpartan","steam_id":76561198139800274,"connected_time":97000000000,"state":"active","ping":111}]},{"server_id":38,"name":"Uncletopia | Chicago | 7 | Stopwatch Beta","name_short":"chi-7","host":"chi-2.us.uncletopia.com","port":27035,"enabled":true,"region":"us-central","cc":"us","latitude":41.881832,"longitude":-87.62318,"reserved":0,"last_update":"0001-01-01T00:00:00Z","name_a2s":"Uncletopia | Chicago | 7 | Stopwatch Beta","protocol":17,"map":"pl_borneo","folder":"tf","game":"Team Fortress","app_id":440,"player_count":0,"max_players":24,"Bots":0,"server_type":"Dedicated","server_os":"Linux","password":true,"vac":true,"version":"7882260","steam_id":85568392924866364,"keywords":["nocrits","nodmgspread","payload","uncletopia"],"game_id":440,"stv_port":27036,"stv_name":"Uncletopia | Chicago | 7 | Stopwatch Beta | STV","players":null},{"server_id":39,"name":"Uncletopia | Chicago | 8 | Community","name_short":"chi-8","host":"chi-2.us.uncletopia.com","port":27045,"enabled":true,"region":"us-central","cc":"us","latitude":41.881832,"longitude":-87.62318,"reserved":0,"last_update":"0001-01-01T00:00:00Z","name_a2s":"Uncletopia | Chicago | 8 | Community","protocol":17,"map":"workshop/cp_mannbase_rc2a.ugc1900737467","folder":"tf","game":"Team Fortress","app_id":440,"player_count":0,"max_players":24,"Bots":0,"server_type":"Dedicated","server_os":"Linux","password":true,"vac":true,"version":"7882260","steam_id":85568392924866365,"keywords":["cp","nocrits","nodmgspread","uncletopia"],"game_id":440,"stv_port":27046,"stv_name":"Uncletopia | Chicago | 8 | Community | STV","players":null},{"server_id":8,"name":"Uncletopia | Dallas | 1 | All Maps","name_short":"dal-1","host":"dal-1.us.uncletopia.com","port":27015,"enabled":true,"region":"us-central","cc":"us","latitude":32.779167,"longitude":-96.80889,"reserved":0,"last_update":"0001-01-01T00:00:00Z","name_a2s":"Uncletopia | Dallas | 1 | All Maps","protocol":17,"map":"cp_dustbowl","folder":"tf","game":"Team Fortress","app_id":440,"player_count":19,"max_players":24,"Bots":0,"server_type":"Dedicated","server_os":"Linux","password":true,"vac":true,"version":"7882260","steam_id":85568392924469986,"keywords":["cp","nocrits","nodmgspread","uncletopia"],"game_id":440,"stv_port":27016,"stv_name":"Uncletopia | Dallas | 1 | All Maps | STV","players":[{"user_id":41,"name":"TJGSASQUATCH","steam_id":76561198077806921,"connected_time":1552000000000,"state":"active","ping":92},{"user_id":54,"name":"bad","steam_id":76561199106343854,"connected_time":341000000000,"state":"active","ping":55},{"user_id":5,"name":"BENIS  BOI","steam_id":76561198813112341,"connected_time":4882000000000,"state":"active","ping":45},{"user_id":8,"name":"MapleSyrup","steam_id":76561199222442855,"connected_time":4565000000000,"state":"active","ping":86},{"user_id":56,"name":"Kedata","steam_id":76561198047750050,"connected_time":15000000000,"state":"active","ping":58},{"user_id":15,"name":"Peketo","steam_id":76561199104376294,"connected_time":2570000000000,"state":"active","ping":87},{"user_id":50,"name":"Brown_Dream","steam_id":76561198975766145,"connected_time":597000000000,"state":"active","ping":101},{"user_id":52,"name":"Kromo Chris","steam_id":76561198103273606,"connected_time":365000000000,"state":"active","ping":160},{"user_id":55,"name":"connie kins","steam_id":76561198074701151,"connected_time":44000000000,"state":"active","ping":104},{"user_id":24,"name":"Jimmy","steam_id":76561198857959855,"connected_time":2173000000000,"state":"active","ping":77},{"user_id":25,"name":"doinkenspoinken","steam_id":76561198170088426,"connected_time":2148000000000,"state":"active","ping":102},{"user_id":31,"name":"Teddi","steam_id":76561198000764012,"connected_time":1881000000000,"state":"active","ping":98},{"user_id":28,"name":"Ice Tray","steam_id":76561198156184504,"connected_time":2030000000000,"state":"active","ping":80},{"user_id":44,"name":"Nansral26","steam_id":76561198886650496,"connected_time":1492000000000,"state":"active","ping":84},{"user_id":32,"name":"dopadream","steam_id":76561198068383694,"connected_time":1840000000000,"state":"active","ping":52},{"user_id":34,"name":"...","steam_id":76561198974327741,"connected_time":1805000000000,"state":"active","ping":78},{"user_id":46,"name":"boy","steam_id":76561198308838005,"connected_time":1468000000000,"state":"active","ping":103},{"user_id":38,"name":"AxelTax","steam_id":76561198855647835,"connected_time":1679000000000,"state":"active","ping":66},{"user_id":39,"name":"The Chosen One","steam_id":76561199046984627,"connected_time":1657000000000,"state":"active","ping":77}]},{"server_id":108,"name":"Uncletopia | Dallas | 2 | All Maps","name_short":"dal-2","host":"dal-1.us.uncletopia.com","port":27025,"enabled":true,"region":"us-central","cc":"us","latitude":32.779167,"longitude":-96.80889,"reserved":0,"last_update":"0001-01-01T00:00:00Z","name_a2s":"Uncletopia | Dallas | 2 | All Maps","protocol":17,"map":"pl_barnblitz","folder":"tf","game":"Team Fortress","app_id":440,"player_count":0,"max_players":24,"Bots":0,"server_type":"Dedicated","server_os":"Linux","password":true,"vac":true,"version":"7882260","steam_id":85568392924469988,"keywords":["nocrits","nodmgspread","payload","uncletopia"],"game_id":440,"stv_port":27026,"stv_name":"Uncletopia | Dallas | 2 | All Maps | STV","players":null},{"server_id":5,"name":"Uncletopia | Frankfurt | 1 | All Maps","name_short":"frk-1","host":"frk-1.de.uncletopia.com","port":27015,"enabled":true,"region":"eu","cc":"de","latitude":50.110924,"longitude":8.682127,"reserved":0,"last_update":"0001-01-01T00:00:00Z","name_a2s":"Uncletopia | Frankfurt | 1 | All Maps","protocol":17,"map":"pl_upward","folder":"tf","game":"Team Fortress","app_id":440,"player_count":24,"max_players":24,"Bots":0,"server_type":"Dedicated","server_os":"Linux","password":true,"vac":true,"version":"7882260","steam_id":85568392924469989,"keywords":["nocrits","nodmgspread","payload","uncletopia"],"game_id":440,"stv_port":27016,"stv_name":"Uncletopia | Frankfurt | 1 | All Maps | STV","players":[{"user_id":103,"name":"The Wolf Leader","steam_id":76561198038007462,"connected_time":1532000000000,"state":"active","ping":67},{"user_id":80,"name":"Vectillion","steam_id":76561198074292454,"connected_time":2613000000000,"state":"active","ping":73},{"user_id":110,"name":"Master Of Noob","steam_id":76561198217926783,"connected_time":921000000000,"state":"active","ping":73},{"user_id":82,"name":"Ghost","steam_id":76561198255430536,"connected_time":2496000000000,"state":"active","ping":69},{"user_id":119,"name":"Gordon","steam_id":76561198303652059,"connected_time":66000000000,"state":"active","ping":91},{"user_id":66,"name":"Lua","steam_id":76561198107052571,"connected_time":3403000000000,"state":"active","ping":42},{"user_id":108,"name":"degu","steam_id":76561198180823942,"connected_time":1198000000000,"state":"active","ping":45},{"user_id":67,"name":"the Goblin","steam_id":76561198354960567,"connected_time":3383000000000,"state":"active","ping":47},{"user_id":58,"name":"Average Sniper Enjoyer","steam_id":76561197965556042,"connected_time":3688000000000,"state":"active","ping":89},{"user_id":104,"name":"‚™¢Play Like Leo‚™°","steam_id":76561198358471569,"connected_time":1298000000000,"state":"active","ping":61},{"user_id":111,"name":"Venenakki","steam_id":76561198311526482,"connected_time":883000000000,"state":"active","ping":65},{"user_id":98,"name":"Rautakaupanmyyj√§33","steam_id":76561198101753162,"connected_time":1825000000000,"state":"active","ping":90},{"user_id":73,"name":"MixailSend","steam_id":76561198992531145,"connected_time":3078000000000,"state":"active","ping":91},{"user_id":109,"name":"Dr.Livesey","steam_id":76561198423099559,"connected_time":1032000000000,"state":"active","ping":75},{"user_id":101,"name":"Borazilla","steam_id":76561198083626821,"connected_time":1790000000000,"state":"active","ping":99},{"user_id":112,"name":"AWP Bodyshot :) ‚ù§","steam_id":76561198029928533,"connected_time":854000000000,"state":"active","ping":44},{"user_id":102,"name":"Ennard777","steam_id":76561198965409493,"connected_time":1787000000000,"state":"active","ping":106},{"user_id":118,"name":"Little Satan","steam_id":76561198083614760,"connected_time":84000000000,"state":"active","ping":75},{"user_id":76,"name":"MrKampfCookie","steam_id":76561198085490175,"connected_time":2946000000000,"state":"active","ping":45},{"user_id":114,"name":"Stuid","steam_id":76561199427506542,"connected_time":630000000000,"state":"active","ping":70},{"user_id":116,"name":"no idea","steam_id":76561198242482338,"connected_time":373000000000,"state":"active","ping":70},{"user_id":97,"name":"Kanakeittomies","steam_id":76561198237283956,"connected_time":1841000000000,"state":"active","ping":75},{"user_id":120,"name":"Idk","steam_id":76561198971629959,"connected_time":53000000000,"state":"active","ping":222},{"user_id":88,"name":"kursim","steam_id":76561198107767058,"connected_time":2372000000000,"state":"active","ping":89}]},{"server_id":110,"name":"Uncletopia | Frankfurt | 2 | All Maps","name_short":"frk-2","host":"frk-1.de.uncletopia.com","port":27025,"enabled":true,"region":"eu","cc":"de","latitude":50.110924,"longitude":8.682127,"reserved":0,"last_update":"0001-01-01T00:00:00Z","name_a2s":"Uncletopia | Frankfurt | 2 | All Maps","protocol":17,"map":"pl_snowycoast","folder":"tf","game":"Team Fortress","app_id":440,"player_count":24,"max_players":24,"Bots":0,"server_type":"Dedicated","server_os":"Linux","password":true,"vac":true,"version":"7882260","steam_id":85568392924469990,"keywords":["nocrits","nodmgspread","payload","uncletopia"],"game_id":440,"stv_port":27026,"stv_name":"Uncletopia | Frankfurt | 2 | All Maps | STV","players":[{"user_id":233,"name":"szmen","steam_id":76561198072569764,"connected_time":150000000000,"state":"active","ping":71},{"user_id":201,"name":"Rat, the ungodly rat #SaveTF2","steam_id":76561199126577423,"connected_time":2471000000000,"state":"active","ping":66},{"user_id":227,"name":"C11H15NO2","steam_id":76561198066146016,"connected_time":626000000000,"state":"active","ping":70},{"user_id":223,"name":"Quiet Kid","steam_id":76561199134800446,"connected_time":733000000000,"state":"active","ping":113},{"user_id":229,"name":"shadow","steam_id":76561198194231953,"connected_time":552000000000,"state":"active","ping":84},{"user_id":234,"name":"TJ1212","steam_id":76561199013575313,"connected_time":147000000000,"state":"active","ping":63},{"user_id":179,"name":"SomeWeeabooTrash","steam_id":76561198199092050,"connected_time":3822000000000,"state":"active","ping":70},{"user_id":180,"name":"MiOn","steam_id":76561198220226331,"connected_time":3816000000000,"state":"active","ping":119},{"user_id":235,"name":"mixxxa_french","steam_id":76561198085098243,"connected_time":147000000000,"state":"active","ping":115},{"user_id":217,"name":"Zombie LeChuck","steam_id":76561198263049079,"connected_time":1234000000000,"state":"active","ping":50},{"user_id":226,"name":"gangster","steam_id":76561198033524151,"connected_time":664000000000,"state":"active","ping":54},{"user_id":209,"name":"viddos","steam_id":76561198987190264,"connected_time":1700000000000,"state":"active","ping":102},{"user_id":171,"name":"Azorex","steam_id":76561198046042249,"connected_time":4096000000000,"state":"active","ping":77},{"user_id":215,"name":"‚òÖpoyo‚òÖ","steam_id":76561198150078959,"connected_time":1388000000000,"state":"active","ping":83},{"user_id":236,"name":"ARCANE","steam_id":76561198141294779,"connected_time":113000000000,"state":"active","ping":101},{"user_id":237,"name":"Doriian","steam_id":76561198071438810,"connected_time":90000000000,"state":"active","ping":75},{"user_id":167,"name":"Ketich","steam_id":76561198021772703,"connected_time":4455000000000,"state":"active","ping":72},{"user_id":232,"name":"Gio'sMonkey","steam_id":76561198892432223,"connected_time":207000000000,"state":"active","ping":72},{"user_id":231,"name":"painting4","steam_id":76561198067554256,"connected_time":317000000000,"state":"active","ping":66},{"user_id":153,"name":"mp1mp2mp3","steam_id":76561198088967665,"connected_time":5391000000000,"state":"active","ping":66},{"user_id":184,"name":"Jiipeeze","steam_id":76561198316154333,"connected_time":3764000000000,"state":"active","ping":83},{"user_id":221,"name":"Zero (Orbital Gear Mastermind)","steam_id":76561198017416816,"connected_time":960000000000,"state":"active","ping":60},{"user_id":166,"name":"Rin-Nakaret","steam_id":76561197971051188,"connected_time":4599000000000,"state":"active","ping":60},{"user_id":206,"name":"Paul B√§umer","steam_id":76561198308302932,"connected_time":2261000000000,"state":"active","ping":91}]},{"server_id":308,"name":"Uncletopia | Frankfurt | 3 | All Maps","name_short":"frk-3","host":"frk-1.de.uncletopia.com","port":27035,"enabled":true,"region":"eu","cc":"de","latitude":50.110924,"longitude":8.682127,"reserved":0,"last_update":"0001-01-01T00:00:00Z","name_a2s":"Uncletopia | Frankfurt | 3 | All Maps","protocol":17,"map":"pl_barnblitz","folder":"tf","game":"Team Fortress","app_id":440,"player_count":24,"max_players":24,"Bots":0,"server_type":"Dedicated","server_os":"Linux","password":true,"vac":true,"version":"7882260","steam_id":85568392924504274,"keywords":["nocrits","nodmgspread","payload","uncletopia"],"game_id":440,"stv_port":27036,"stv_name":"Uncletopia | Frankfurt | 3 | All Maps | STV","players":[{"user_id":196,"name":"Wir suchen dich!","steam_id":76561198307613521,"connected_time":282000000000,"state":"active","ping":47},{"user_id":173,"name":"Bepperman","steam_id":76561198397517828,"connected_time":2312000000000,"state":"active","ping":68},{"user_id":197,"name":"Chief Chris üëå","steam_id":76561198042430852,"connected_time":274000000000,"state":"active","ping":70},{"user_id":176,"name":"bigboi_potato","steam_id":76561199136341471,"connected_time":2128000000000,"state":"active","ping":69},{"user_id":177,"name":"Brezak","steam_id":76561198967550414,"connected_time":2081000000000,"state":"active","ping":60},{"user_id":186,"name":"fifrok","steam_id":76561198799267621,"connected_time":850000000000,"state":"active","ping":74},{"user_id":169,"name":"gagalak","steam_id":76561198089979108,"connected_time":2600000000000,"state":"active","ping":90},{"user_id":171,"name":"elsuedi","steam_id":76561198074722832,"connected_time":2552000000000,"state":"active","ping":52},{"user_id":206,"name":"≈Ωgr√¶√êek113","steam_id":76561198306883632,"connected_time":90000000000,"state":"spawning","ping":99},{"user_id":190,"name":"Fales","steam_id":76561198126124929,"connected_time":599000000000,"state":"active","ping":77},{"user_id":198,"name":"I no longer have a headache!","steam_id":76561198243275046,"connected_time":272000000000,"state":"active","ping":58},{"user_id":167,"name":"Grim the lemon","steam_id":76561199083433988,"connected_time":2706000000000,"state":"active","ping":62},{"user_id":102,"name":"gfjhsdf","steam_id":76561198136736426,"connected_time":6121000000000,"state":"active","ping":59},{"user_id":199,"name":"Obama gaming","steam_id":76561199219718194,"connected_time":255000000000,"state":"active","ping":88},{"user_id":149,"name":"mushroom","steam_id":76561198817034571,"connected_time":3996000000000,"state":"active","ping":87},{"user_id":204,"name":"Lobster Overlord","steam_id":76561198144692530,"connected_time":198000000000,"state":"active","ping":51},{"user_id":201,"name":"nevim","steam_id":76561199120843402,"connected_time":227000000000,"state":"active","ping":57},{"user_id":194,"name":"kuspsa","steam_id":76561198183767407,"connected_time":313000000000,"state":"active","ping":54},{"user_id":187,"name":"Canis[Magnus]Pectus","steam_id":76561198363775072,"connected_time":741000000000,"state":"active","ping":121},{"user_id":192,"name":"Viperstrike","steam_id":76561198005806646,"connected_time":343000000000,"state":"active","ping":64},{"user_id":160,"name":"Sneaky","steam_id":76561198069417496,"connected_time":3013000000000,"state":"active","ping":89},{"user_id":205,"name":"no1","steam_id":76561198067524060,"connected_time":198000000000,"state":"active","ping":75},{"user_id":193,"name":"Kili","steam_id":76561198138456346,"connected_time":330000000000,"state":"active","ping":61},{"user_id":189,"name":"Lups","steam_id":76561198019146522,"connected_time":698000000000,"state":"active","ping":60}]},{"server_id":309,"name":"Uncletopia | Frankfurt | 4 | All Maps","name_short":"frk-4","host":"frk-1.de.uncletopia.com","port":27045,"enabled":true,"region":"eu","cc":"de","latitude":50.110924,"longitude":8.682127,"reserved":0,"last_update":"0001-01-01T00:00:00Z","name_a2s":"Uncletopia | Frankfurt | 4 | All Maps","protocol":17,"map":"pl_snowycoast","folder":"tf","game":"Team Fortress","app_id":440,"player_count":0,"max_players":24,"Bots":0,"server_type":"Dedicated","server_os":"Linux","password":true,"vac":true,"version":"7882260","steam_id":85568392924504275,"keywords":["nocrits","nodmgspread","payload","uncletopia"],"game_id":440,"stv_port":27046,"stv_name":"Uncletopia | Frankfurt | 4 | All Maps | STV","players":null},{"server_id":310,"name":"Uncletopia | Frankfurt | 5 | All Maps","name_short":"frk-5","host":"frk-1.de.uncletopia.com","port":27055,"enabled":true,"region":"eu","cc":"de","latitude":50.110924,"longitude":8.682127,"reserved":0,"last_update":"0001-01-01T00:00:00Z","name_a2s":"Uncletopia | Frankfurt | 5 | All Maps","protocol":17,"map":"cp_sunshine","folder":"tf","game":"Team Fortress","app_id":440,"player_count":0,"max_players":24,"Bots":0,"server_type":"Dedicated","server_os":"Linux","password":true,"vac":true,"version":"7882260","steam_id":85568392924504277,"keywords":["cp","nocrits","nodmgspread","uncletopia"],"game_id":440,"stv_port":27056,"stv_name":"Uncletopia | Frankfurt | 5 | All Maps | STV","players":null},{"server_id":311,"name":"Uncletopia | Frankfurt | 6 | All Maps","name_short":"frk-6","host":"frk-1.de.uncletopia.com","port":27065,"enabled":true,"region":"eu","cc":"de","latitude":50.110924,"longitude":8.682127,"reserved":0,"last_update":"0001-01-01T00:00:00Z","name_a2s":"Uncletopia | Frankfurt | 6 | All Maps","protocol":17,"map":"koth_viaduct","folder":"tf","game":"Team Fortress","app_id":440,"player_count":17,"max_players":24,"Bots":0,"server_type":"Dedicated","server_os":"Linux","password":true,"vac":true,"version":"7882260","steam_id":85568392924504278,"keywords":["cp","nocrits","nodmgspread","uncletopia"],"game_id":440,"stv_port":27066,"stv_name":"Uncletopia | Frankfurt | 6 | All Maps | STV","players":[{"user_id":206,"name":"FRANK01","steam_id":76561198365213305,"connected_time":1959000000000,"state":"active","ping":67},{"user_id":149,"name":"Tea","steam_id":76561198061580505,"connected_time":6741000000000,"state":"active","ping":56},{"user_id":222,"name":"cream gravy","steam_id":76561198973069177,"connected_time":78000000000,"state":"active","ping":46},{"user_id":164,"name":"Mr_Pulse_","steam_id":76561198095001602,"connected_time":5722000000000,"state":"active","ping":90},{"user_id":169,"name":"Mario","steam_id":76561198321794277,"connected_time":5614000000000,"state":"active","ping":156},{"user_id":216,"name":"tim","steam_id":76561198143626955,"connected_time":1074000000000,"state":"active","ping":40},{"user_id":196,"name":"BELADIT","steam_id":76561198011911501,"connected_time":2279000000000,"state":"active","ping":71},{"user_id":214,"name":"nhtson","steam_id":76561199113295118,"connected_time":1231000000000,"state":"active","ping":75},{"user_id":184,"name":"Sleeper Agent Joe","steam_id":76561198872013525,"connected_time":3703000000000,"state":"active","ping":103},{"user_id":203,"name":"Rage spell","steam_id":76561198279952779,"connected_time":2117000000000,"state":"active","ping":152},{"user_id":211,"name":"cat_in_the_chat","steam_id":76561198028618742,"connected_time":1714000000000,"state":"active","ping":59},{"user_id":221,"name":"Lapisüíõ ","steam_id":76561198009198502,"connected_time":122000000000,"state":"active","ping":150},{"user_id":177,"name":"Mr. Mustard","steam_id":76561198025185606,"connected_time":4985000000000,"state":"active","ping":67},{"user_id":205,"name":"‚ôî Churaq Semi ‚ôî","steam_id":76561198952002985,"connected_time":2059000000000,"state":"active","ping":78},{"user_id":194,"name":"The Mysterious Shadow Man","steam_id":76561198349648942,"connected_time":2551000000000,"state":"active","ping":90},{"user_id":215,"name":"Miacelium","steam_id":76561198021638448,"connected_time":1111000000000,"state":"active","ping":55},{"user_id":193,"name":"CAR DOOR","steam_id":76561198055283295,"connected_time":2558000000000,"state":"active","ping":45}]},{"server_id":23,"name":"Uncletopia | Frankfurt | 7 | Stopwatch Beta","name_short":"frk-7","host":"frk-1.de.uncletopia.com","port":27075,"enabled":true,"region":"eu","cc":"de","latitude":50.110924,"longitude":8.682127,"reserved":0,"last_update":"0001-01-01T00:00:00Z","name_a2s":"Uncletopia | Frankfurt | 7 | Stopwatch Beta","protocol":17,"map":"pl_upward","folder":"tf","game":"Team Fortress","app_id":440,"player_count":0,"max_players":24,"Bots":0,"server_type":"Dedicated","server_os":"Linux","password":true,"vac":true,"version":"7882260","steam_id":85568392924742827,"keywords":["nocrits","nodmgspread","payload","uncletopia"],"game_id":440,"stv_port":27076,"stv_name":"Uncletopia | Frankfurt | 7 | Stopwatch Beta | STV","players":null},{"server_id":24,"name":"Uncletopia | Frankfurt | 8 | Community","name_short":"frk-8","host":"frk-1.de.uncletopia.com","port":27085,"enabled":true,"region":"eu","cc":"de","latitude":50.110924,"longitude":8.682127,"reserved":0,"last_update":"0001-01-01T00:00:00Z","name_a2s":"Uncletopia | Frankfurt | 8 | Community","protocol":17,"map":"workshop/koth_ramjam_rc1.ugc459778887","folder":"tf","game":"Team Fortress","app_id":440,"player_count":0,"max_players":24,"Bots":0,"server_type":"Dedicated","server_os":"Linux","password":true,"vac":true,"version":"7882260","steam_id":85568392924742828,"keywords":["cp","nocrits","nodmgspread","uncletopia"],"game_id":440,"stv_port":27086,"stv_name":"Uncletopia | Frankfurt | 8 | Community | STV","players":null},{"server_id":202,"name":"Uncletopia | Hong Kong | 1 | All Maps","name_short":"hgk-1","host":"hgk-1.hk.uncletopia.com","port":27015,"enabled":true,"region":"asia","cc":"hk","latitude":22.302711,"longitude":114.177216,"reserved":0,"last_update":"0001-01-01T00:00:00Z","name_a2s":"Uncletopia | Hong Kong | 1 | All Maps","protocol":17,"map":"pl_snowycoast","folder":"tf","game":"Team Fortress","app_id":440,"player_count":25,"max_players":24,"Bots":0,"server_type":"Dedicated","server_os":"Linux","password":true,"vac":true,"version":"7882260","steam_id":85568392924494504,"keywords":["nocrits","nodmgspread","payload","uncletopia"],"game_id":440,"stv_port":27016,"stv_name":"Uncletopia | Hong Kong | 1 | All Maps | STV","players":[{"user_id":368,"name":"Tyxant","steam_id":76561198091066056,"connected_time":2186000000000,"state":"active","ping":90},{"user_id":383,"name":"cube","steam_id":76561198132354269,"connected_time":561000000000,"state":"active","ping":165},{"user_id":353,"name":"drd","steam_id":76561198149548170,"connected_time":3186000000000,"state":"active","ping":79},{"user_id":382,"name":"ÊØç„ÅÆËÇâÂõ£Â≠ê@hao123.com","steam_id":76561198069561896,"connected_time":915000000000,"state":"active","ping":37},{"user_id":354,"name":"Prussian","steam_id":76561198974248745,"connected_time":3118000000000,"state":"active","ping":58},{"user_id":351,"name":"mutwo","steam_id":76561198077043500,"connected_time":3339000000000,"state":"active","ping":79},{"user_id":369,"name":"Crazywayne","steam_id":76561198056504010,"connected_time":2053000000000,"state":"active","ping":75},{"user_id":375,"name":"TomProPlayer","steam_id":76561199223292521,"connected_time":1471000000000,"state":"active","ping":81},{"user_id":322,"name":"no_op","steam_id":76561197967217488,"connected_time":5843000000000,"state":"active","ping":122},{"user_id":372,"name":"CPL„ÉªBEHOZUN","steam_id":76561198152362492,"connected_time":1653000000000,"state":"active","ping":91},{"user_id":334,"name":"Kairos","steam_id":76561198079927520,"connected_time":5031000000000,"state":"active","ping":35},{"user_id":301,"name":"TomCat","steam_id":76561198133744053,"connected_time":7456000000000,"state":"active","ping":118},{"user_id":380,"name":"7853","steam_id":76561199390507975,"connected_time":1202000000000,"state":"active","ping":54},{"user_id":265,"name":"tiden2000 (original)","steam_id":76561198092969425,"connected_time":11007000000000,"state":"active","ping":112},{"user_id":337,"name":"BIG BOSS","steam_id":76561198900023603,"connected_time":4966000000000,"state":"active","ping":110},{"user_id":385,"name":"Shark","steam_id":76561198205226501,"connected_time":497000000000,"state":"active","ping":150},{"user_id":384,"name":"Streety","steam_id":76561199098969003,"connected_time":556000000000,"state":"active","ping":97},{"user_id":376,"name":"NootNoot","steam_id":76561199122109977,"connected_time":1467000000000,"state":"active","ping":125},{"user_id":331,"name":"JDSFE","steam_id":76561198975490851,"connected_time":5272000000000,"state":"active","ping":110},{"user_id":381,"name":"17","steam_id":76561198241530712,"connected_time":1105000000000,"state":"active","ping":66},{"user_id":388,"name":"WhereAmai","steam_id":76561199122491157,"connected_time":210000000000,"state":"connecting","ping":0},{"user_id":367,"name":"Momoxhien","steam_id":76561198414997429,"connected_time":2410000000000,"state":"active","ping":66},{"user_id":389,"name":"Doormann","steam_id":76561199219230108,"connected_time":190000000000,"state":"active","ping":80},{"user_id":283,"name":"Spark037","steam_id":76561198804499872,"connected_time":8752000000000,"state":"active","ping":45},{"user_id":374,"name":"clori","steam_id":76561199146847474,"connected_time":1575000000000,"state":"active","ping":39}]},{"server_id":1,"name":"Uncletopia | Los Angeles | 1 | All Maps","name_short":"lax-1","host":"lax-1.us.uncletopia.com","port":27015,"enabled":true,"region":"us-west","cc":"us","latitude":33.94279,"longitude":-118.41004,"reserved":0,"last_update":"0001-01-01T00:00:00Z","name_a2s":"Uncletopia | Los Angeles | 1 | All Maps","protocol":17,"map":"koth_lakeside_final","folder":"tf","game":"Team Fortress","app_id":440,"player_count":0,"max_players":24,"Bots":0,"server_type":"Dedicated","server_os":"Linux","password":true,"vac":true,"version":"7882260","steam_id":85568392924469991,"keywords":["cp","nocrits","nodmgspread","uncletopia"],"game_id":440,"stv_port":27016,"stv_name":"Uncletopia | Los Angeles | 1 | All Maps | STV","players":null},{"server_id":112,"name":"Uncletopia | Los Angeles | 2 | All Maps","name_short":"lax-2","host":"lax-1.us.uncletopia.com","port":27025,"enabled":true,"region":"us-west","cc":"us","latitude":33.94279,"longitude":-118.41004,"reserved":0,"last_update":"0001-01-01T00:00:00Z","name_a2s":"Uncletopia | Los Angeles | 2 | All Maps","protocol":17,"map":"koth_lakeside_final","folder":"tf","game":"Team Fortress","app_id":440,"player_count":0,"max_players":24,"Bots":0,"server_type":"Dedicated","server_os":"Linux","password":true,"vac":true,"version":"7882260","steam_id":85568392924469992,"keywords":["cp","nocrits","nodmgspread","uncletopia"],"game_id":440,"stv_port":27026,"stv_name":"Uncletopia | Los Angeles | 2 | All Maps | STV","players":null},{"server_id":324,"name":"Uncletopia | Los Angeles | 3 | All Maps","name_short":"lax-3","host":"lax-1.us.uncletopia.com","port":27035,"enabled":true,"region":"us-west","cc":"us","latitude":33.94279,"longitude":-118.41004,"reserved":0,"last_update":"0001-01-01T00:00:00Z","name_a2s":"Uncletopia | Los Angeles | 3 | All Maps","protocol":17,"map":"koth_cascade","folder":"tf","game":"Team Fortress","app_id":440,"player_count":0,"max_players":24,"Bots":0,"server_type":"Dedicated","server_os":"Linux","password":true,"vac":true,"version":"7882260","steam_id":85568392924510198,"keywords":["cp","nocrits","nodmgspread","uncletopia"],"game_id":440,"stv_port":27036,"stv_name":"Uncletopia | Los Angeles | 3 | All Maps | STV","players":null},{"server_id":25,"name":"Uncletopia | Los Angeles | 4 | Stopwatch Beta","name_short":"lax-4","host":"lax-1.us.uncletopia.com","port":27045,"enabled":true,"region":"us-west","cc":"us","latitude":33.94279,"longitude":-118.41004,"reserved":0,"last_update":"0001-01-01T00:00:00Z","name_a2s":"Uncletopia | Los Angeles | 4 | Stopwatch Beta","protocol":17,"map":"workshop/koth_ramjam_rc1.ugc459778887","folder":"tf","game":"Team Fortress","app_id":440,"player_count":0,"max_players":24,"Bots":0,"server_type":"Dedicated","server_os":"Linux","password":true,"vac":true,"version":"7882260","steam_id":85568392924510199,"keywords":["cp","nocrits","nodmgspread","uncletopia"],"game_id":440,"stv_port":27046,"stv_name":"Uncletopia | Los Angeles | 4 | Stopwatch Beta | STV","players":null},{"server_id":11,"name":"Uncletopia | London | 1 | All Maps","name_short":"lon-1","host":"lon-1.uk.uncletopia.com","port":27015,"enabled":true,"region":"eu","cc":"gb","latitude":51.509865,"longitude":-0.118092,"reserved":0,"last_update":"0001-01-01T00:00:00Z","name_a2s":"Uncletopia | London | 1 | All Maps","protocol":17,"map":"pl_pier","folder":"tf","game":"Team Fortress","app_id":440,"player_count":23,"max_players":24,"Bots":0,"server_type":"Dedicated","server_os":"Linux","password":true,"vac":true,"version":"7882260","steam_id":85568392924367362,"keywords":["nocrits","nodmgspread","payload","uncletopia"],"game_id":440,"stv_port":27016,"stv_name":"Uncletopia | London | 1 | All Maps | STV","players":[{"user_id":324,"name":"apetor rip","steam_id":76561198140517762,"connected_time":2991000000000,"state":"active","ping":130},{"user_id":359,"name":"Panique","steam_id":76561197993239675,"connected_time":416000000000,"state":"active","ping":55},{"user_id":337,"name":"NLSAM","steam_id":76561199111154916,"connected_time":2088000000000,"state":"active","ping":61},{"user_id":299,"name":"Joy","steam_id":76561198155314925,"connected_time":4377000000000,"state":"active","ping":57},{"user_id":364,"name":"Udinese Dion","steam_id":76561198067931573,"connected_time":222000000000,"state":"active","ping":62},{"user_id":329,"name":"Voks_","steam_id":76561198159687785,"connected_time":2788000000000,"state":"active","ping":73},{"user_id":235,"name":"screenshot2020-25-09","steam_id":76561198255275650,"connected_time":9472000000000,"state":"active","ping":68},{"user_id":357,"name":"Mr. Brizzle","steam_id":76561199063497223,"connected_time":482000000000,"state":"active","ping":116},{"user_id":349,"name":"unconditional love","steam_id":76561199026097466,"connected_time":1285000000000,"state":"active","ping":74},{"user_id":356,"name":"jimmy bob","steam_id":76561198319583692,"connected_time":485000000000,"state":"active","ping":58},{"user_id":314,"name":"Ash regal","steam_id":76561198403093671,"connected_time":3561000000000,"state":"active","ping":53},{"user_id":341,"name":"clunk","steam_id":76561198836460767,"connected_time":2014000000000,"state":"active","ping":64},{"user_id":361,"name":"disc0rd","steam_id":76561197985965776,"connected_time":391000000000,"state":"active","ping":62},{"user_id":343,"name":"Gorogaz","steam_id":76561198207157679,"connected_time":1576000000000,"state":"active","ping":63},{"user_id":348,"name":"Umbro","steam_id":76561198087930438,"connected_time":1382000000000,"state":"active","ping":78},{"user_id":285,"name":"Scarlet","steam_id":76561198075966579,"connected_time":5358000000000,"state":"active","ping":44},{"user_id":342,"name":"Smokio","steam_id":76561198069650580,"connected_time":1812000000000,"state":"active","ping":76},{"user_id":350,"name":"ZingyBot_","steam_id":76561198284732624,"connected_time":1023000000000,"state":"active","ping":55},{"user_id":340,"name":"hipster_doofus","steam_id":76561197970902697,"connected_time":2035000000000,"state":"active","ping":55},{"user_id":347,"name":"gexfan3165","steam_id":76561199459414738,"connected_time":1407000000000,"state":"active","ping":79},{"user_id":353,"name":"MajorMartin","steam_id":76561198367989381,"connected_time":843000000000,"state":"active","ping":68},{"user_id":344,"name":"Wenolainen","steam_id":76561198334592800,"connected_time":1567000000000,"state":"active","ping":89},{"user_id":332,"name":"Niko","steam_id":76561199006295285,"connected_time":2697000000000,"state":"active","ping":79}]},{"server_id":114,"name":"Uncletopia | London | 2 | All Maps","name_short":"lon-2","host":"lon-1.uk.uncletopia.com","port":27025,"enabled":true,"region":"eu","cc":"gb","latitude":51.509865,"longitude":-0.118092,"reserved":0,"last_update":"0001-01-01T00:00:00Z","name_a2s":"Uncletopia | London | 2 | All Maps","protocol":17,"map":"pl_swiftwater_final1","folder":"tf","game":"Team Fortress","app_id":440,"player_count":24,"max_players":24,"Bots":0,"server_type":"Dedicated","server_os":"Linux","password":true,"vac":true,"version":"7882260","steam_id":85568392924470941,"keywords":["nocrits","nodmgspread","payload","uncletopia"],"game_id":440,"stv_port":27026,"stv_name":"Uncletopia | London | 2 | All Maps | STV","players":[{"user_id":187,"name":"Faraday's Law","steam_id":76561198105385977,"connected_time":1188000000000,"state":"active","ping":72},{"user_id":189,"name":"aughhh","steam_id":76561199000081676,"connected_time":684000000000,"state":"active","ping":46},{"user_id":209,"name":"Chillin","steam_id":76561199092205262,"connected_time":129000000000,"state":"active","ping":120},{"user_id":186,"name":"‚ô• Mohammed ‚ô•","steam_id":76561198043836847,"connected_time":1240000000000,"state":"active","ping":67},{"user_id":191,"name":"The Void Queen ‚òÖ","steam_id":76561198060307235,"connected_time":661000000000,"state":"active","ping":59},{"user_id":204,"name":"Saku","steam_id":76561198260592282,"connected_time":395000000000,"state":"active","ping":77},{"user_id":208,"name":"√ãmpr√´ss‚òÖC√•ky„ÉÖ","steam_id":76561198174621178,"connected_time":227000000000,"state":"active","ping":61},{"user_id":193,"name":"hbi*venomcrosshairs","steam_id":76561197996468677,"connected_time":654000000000,"state":"active","ping":60},{"user_id":188,"name":"Art","steam_id":76561198823514629,"connected_time":766000000000,"state":"active","ping":126},{"user_id":178,"name":"fshfkr","steam_id":76561198095979282,"connected_time":1857000000000,"state":"active","ping":45},{"user_id":211,"name":"\u003c blank \u003e","steam_id":76561198059375315,"connected_time":69000000000,"state":"active","ping":73},{"user_id":195,"name":"midlpsyzl47","steam_id":76561199475972637,"connected_time":634000000000,"state":"active","ping":68},{"user_id":197,"name":"local fridge pisser","steam_id":76561199123021898,"connected_time":560000000000,"state":"active","ping":89},{"user_id":184,"name":"Purps","steam_id":76561198053886680,"connected_time":1574000000000,"state":"active","ping":33},{"user_id":169,"name":"Zadira","steam_id":76561197970502828,"connected_time":2205000000000,"state":"active","ping":122},{"user_id":158,"name":"combat collin","steam_id":76561198011450253,"connected_time":2635000000000,"state":"active","ping":51},{"user_id":198,"name":"Igames","steam_id":76561198414062544,"connected_time":538000000000,"state":"active","ping":45},{"user_id":199,"name":"That One Chicken","steam_id":76561199037423029,"connected_time":529000000000,"state":"active","ping":138},{"user_id":200,"name":"ahcenetupe","steam_id":76561198916501470,"connected_time":496000000000,"state":"active","ping":54},{"user_id":201,"name":"Sorky","steam_id":76561198007502339,"connected_time":492000000000,"state":"active","ping":73},{"user_id":202,"name":"my mom","steam_id":76561199225201569,"connected_time":482000000000,"state":"active","ping":121},{"user_id":210,"name":"Gwishin","steam_id":76561198257158275,"connected_time":92000000000,"state":"active","ping":145},{"user_id":206,"name":"OxygeNxo","steam_id":76561198031632028,"connected_time":347000000000,"state":"active","ping":53},{"user_id":207,"name":"Milosz52","steam_id":76561199060940204,"connected_time":347000000000,"state":"active","ping":90}]},{"server_id":320,"name":"Uncletopia | London | 3 | All Maps","name_short":"lon-3","host":"lon-1.uk.uncletopia.com","port":27035,"enabled":true,"region":"eu","cc":"gb","latitude":51.509865,"longitude":-0.118092,"reserved":0,"last_update":"0001-01-01T00:00:00Z","name_a2s":"Uncletopia | London | 3 | All Maps","protocol":17,"map":"pl_upward","folder":"tf","game":"Team Fortress","app_id":440,"player_count":23,"max_players":24,"Bots":0,"server_type":"Dedicated","server_os":"Linux","password":true,"vac":true,"version":"7882260","steam_id":85568392924510192,"keywords":["nocrits","nodmgspread","payload","uncletopia"],"game_id":440,"stv_port":27036,"stv_name":"Uncletopia | London | 3 | All Maps | STV","players":[{"user_id":113,"name":"Dr. Mike","steam_id":76561197991205793,"connected_time":2891000000000,"state":"active","ping":78},{"user_id":161,"name":"Cleaner","steam_id":76561198090685168,"connected_time":396000000000,"state":"active","ping":72},{"user_id":84,"name":"Pingutaro","steam_id":76561198112803718,"connected_time":4217000000000,"state":"active","ping":50},{"user_id":133,"name":"Critless","steam_id":76561198133968184,"connected_time":1893000000000,"state":"active","ping":52},{"user_id":164,"name":"biden blast","steam_id":76561198059699043,"connected_time":104000000000,"state":"active","ping":77},{"user_id":155,"name":"Chill Spirit","steam_id":76561198845001725,"connected_time":509000000000,"state":"active","ping":47},{"user_id":48,"name":"Kapitan Polska","steam_id":76561197968069413,"connected_time":6368000000000,"state":"active","ping":72},{"user_id":163,"name":"monster98789energy","steam_id":76561198103899658,"connected_time":315000000000,"state":"active","ping":73},{"user_id":151,"name":"kyzzbotrue","steam_id":76561199213289839,"connected_time":642000000000,"state":"active","ping":115},{"user_id":86,"name":"Explosive_kink","steam_id":76561198998702838,"connected_time":4202000000000,"state":"active","ping":52},{"user_id":156,"name":"Pyrolander","steam_id":76561198050785450,"connected_time":489000000000,"state":"active","ping":56},{"user_id":157,"name":"MaksingTape","steam_id":76561198827103130,"connected_time":487000000000,"state":"active","ping":46},{"user_id":130,"name":"Wardruna96","steam_id":76561199057083828,"connected_time":2221000000000,"state":"active","ping":75},{"user_id":59,"name":"AW 129 Mangusta","steam_id":76561198071015904,"connected_time":5796000000000,"state":"active","ping":60},{"user_id":136,"name":"LOBZIK","steam_id":76561198114830120,"connected_time":1815000000000,"state":"active","ping":78},{"user_id":165,"name":"Toaster1337","steam_id":76561198103706881,"connected_time":53000000000,"state":"spawning","ping":111},{"user_id":114,"name":"dnljns","steam_id":76561198085091752,"connected_time":2884000000000,"state":"active","ping":91},{"user_id":158,"name":"cherry coal","steam_id":76561198822725169,"connected_time":485000000000,"state":"active","ping":45},{"user_id":144,"name":"MtnDew","steam_id":76561199100059743,"connected_time":1111000000000,"state":"active","ping":112},{"user_id":124,"name":"Pectoralis major","steam_id":76561198377533237,"connected_time":2639000000000,"state":"active","ping":80},{"user_id":162,"name":"day","steam_id":76561198260265302,"connected_time":342000000000,"state":"active","ping":42},{"user_id":137,"name":"Tywhip","steam_id":76561199207545191,"connected_time":1814000000000,"state":"active","ping":57},{"user_id":153,"name":"1914","steam_id":76561198257383813,"connected_time":584000000000,"state":"active","ping":56}]},{"server_id":321,"name":"Uncletopia | London | 4 | All Maps","name_short":"lon-4","host":"lon-1.uk.uncletopia.com","port":27045,"enabled":true,"region":"eu","cc":"gb","latitude":51.509865,"longitude":-0.118092,"reserved":0,"last_update":"0001-01-01T00:00:00Z","name_a2s":"Uncletopia | London | 4 | All Maps","protocol":17,"map":"pl_snowycoast","folder":"tf","game":"Team Fortress","app_id":440,"player_count":0,"max_players":24,"Bots":0,"server_type":"Dedicated","server_os":"Linux","password":true,"vac":true,"version":"7882260","steam_id":85568392924510193,"keywords":["nocrits","nodmgspread","payload","uncletopia"],"game_id":440,"stv_port":27046,"stv_name":"Uncletopia | London | 4 | All Maps | STV","players":null},{"server_id":21,"name":"Uncletopia | London | 5 | All Maps","name_short":"lon-5","host":"lon-1.uk.uncletopia.com","port":27055,"enabled":true,"region":"eu","cc":"gb","latitude":51.509865,"longitude":-0.118092,"reserved":0,"last_update":"0001-01-01T00:00:00Z","name_a2s":"Uncletopia | London | 5 | All Maps","protocol":17,"map":"pl_frontier_final","folder":"tf","game":"Team Fortress","app_id":440,"player_count":0,"max_players":24,"Bots":0,"server_type":"Dedicated","server_os":"Linux","password":true,"vac":true,"version":"7882260","steam_id":85568392924742829,"keywords":["nocrits","nodmgspread","payload","uncletopia"],"game_id":440,"stv_port":27056,"stv_name":"Uncletopia | London | 5 | All Maps | STV","players":null},{"server_id":22,"name":"Uncletopia | London | 6 | All Maps","name_short":"lon-6","host":"lon-1.uk.uncletopia.com","port":27065,"enabled":true,"region":"eu","cc":"gb","latitude":51.509865,"longitude":-0.118092,"reserved":0,"last_update":"0001-01-01T00:00:00Z","name_a2s":"Uncletopia | London | 6 | All Maps","protocol":17,"map":"pl_badwater","folder":"tf","game":"Team Fortress","app_id":440,"player_count":4,"max_players":24,"Bots":0,"server_type":"Dedicated","server_os":"Linux","password":true,"vac":true,"version":"7882260","steam_id":85568392924742830,"keywords":["nocrits","nodmgspread","payload","uncletopia"],"game_id":440,"stv_port":27066,"stv_name":"Uncletopia | London | 6 | All Maps | STV","players":[{"user_id":12,"name":"Road to 0 pts","steam_id":76561198399390201,"connected_time":201000000000,"state":"active","ping":100},{"user_id":9,"name":"WOW i'm dead","steam_id":76561199082267619,"connected_time":1328000000000,"state":"active","ping":87},{"user_id":13,"name":"fried","steam_id":76561198307522022,"connected_time":142000000000,"state":"active","ping":57},{"user_id":11,"name":"def get_data","steam_id":76561198975553997,"connected_time":936000000000,"state":"active","ping":96}]},{"server_id":40,"name":"Uncletopia | London | 7 | No Payload","name_short":"lon-7","host":"lon-1.uk.uncletopia.com","port":27075,"enabled":true,"region":"eu","cc":"gb","latitude":51.509865,"longitude":-0.118092,"reserved":0,"last_update":"0001-01-01T00:00:00Z","name_a2s":"Uncletopia | London | 7 | No Payload","protocol":17,"map":"cp_process_final","folder":"tf","game":"Team Fortress","app_id":440,"player_count":22,"max_players":24,"Bots":0,"server_type":"Dedicated","server_os":"Linux","password":true,"vac":true,"version":"7882260","steam_id":85568392924964314,"keywords":["cp","nocrits","nodmgspread","uncletopia"],"game_id":440,"stv_port":27076,"stv_name":"Uncletopia | London | 7 | No Payload | STV","players":[{"user_id":314,"name":"LukeLeal","steam_id":76561198049822995,"connected_time":0,"state":"connecting","ping":0},{"user_id":304,"name":"The Sex","steam_id":76561199142022395,"connected_time":437000000000,"state":"active","ping":75},{"user_id":263,"name":"M2rtRa","steam_id":76561198111036466,"connected_time":2460000000000,"state":"active","ping":75},{"user_id":295,"name":"Turtle","steam_id":76561198123494932,"connected_time":882000000000,"state":"active","ping":41},{"user_id":255,"name":"nagle","steam_id":76561198080379805,"connected_time":2664000000000,"state":"active","ping":45},{"user_id":289,"name":"Ecton","steam_id":76561198025103720,"connected_time":1201000000000,"state":"active","ping":55},{"user_id":245,"name":"El_Kommadante","steam_id":76561198079551685,"connected_time":3495000000000,"state":"active","ping":76},{"user_id":244,"name":"Sham!","steam_id":76561198050434275,"connected_time":3735000000000,"state":"active","ping":60},{"user_id":305,"name":"ncl.dxn","steam_id":76561199278919252,"connected_time":378000000000,"state":"active","ping":151},{"user_id":306,"name":"Maha","steam_id":76561198451573245,"connected_time":372000000000,"state":"active","ping":68},{"user_id":297,"name":"LFGGGGGG","steam_id":76561199062586342,"connected_time":843000000000,"state":"active","ping":64},{"user_id":307,"name":"Bozo","steam_id":76561198995009722,"connected_time":322000000000,"state":"active","ping":98},{"user_id":308,"name":"Flare","steam_id":76561198039098320,"connected_time":307000000000,"state":"active","ping":54},{"user_id":299,"name":"Jeerven","steam_id":76561198259189841,"connected_time":816000000000,"state":"active","ping":72},{"user_id":287,"name":"‚òûLaZe‚òú","steam_id":76561198202191400,"connected_time":1320000000000,"state":"active","ping":57},{"user_id":309,"name":"Buddy","steam_id":76561198050185582,"connected_time":294000000000,"state":"active","ping":56},{"user_id":311,"name":"gamer","steam_id":76561199121842872,"connected_time":198000000000,"state":"active","ping":55},{"user_id":224,"name":"hmscole09","steam_id":76561198811362788,"connected_time":4833000000000,"state":"active","ping":59},{"user_id":312,"name":"Chadapon Waffle$","steam_id":76561198280424107,"connected_time":192000000000,"state":"active","ping":124},{"user_id":313,"name":"Egor Pomidor","steam_id":76561199175688390,"connected_time":154000000000,"state":"active","ping":89},{"user_id":283,"name":"Insert Text","steam_id":76561199012348370,"connected_time":1772000000000,"state":"active","ping":114},{"user_id":291,"name":"differential 1-form","steam_id":76561198152138707,"connected_time":1145000000000,"state":"active","ping":45}]},{"server_id":41,"name":"Uncletopia | London | 8 | Community","name_short":"lon-8","host":"lon-1.uk.uncletopia.com","port":27085,"enabled":true,"region":"eu","cc":"gb","latitude":51.509865,"longitude":-0.118092,"reserved":0,"last_update":"0001-01-01T00:00:00Z","name_a2s":"Uncletopia | London | 8 | Community","protocol":17,"map":"workshop/cp_croissant_final.ugc458840209","folder":"tf","game":"Team Fortress","app_id":440,"player_count":7,"max_players":24,"Bots":0,"server_type":"Dedicated","server_os":"Linux","password":true,"vac":true,"version":"7882260","steam_id":85568392924964315,"keywords":["cp","nocrits","nodmgspread","uncletopia"],"game_id":440,"stv_port":27086,"stv_name":"Uncletopia | London | 8 | Community | STV","players":[{"user_id":26,"name":"Alarmed Felix","steam_id":76561198167208311,"connected_time":1767000000000,"state":"active","ping":51},{"user_id":59,"name":"ross","steam_id":76561198043800619,"connected_time":154000000000,"state":"active","ping":143},{"user_id":60,"name":"MrNeedzALife","steam_id":76561198834978136,"connected_time":113000000000,"state":"active","ping":137},{"user_id":28,"name":"taulak√§√§p√§","steam_id":76561198093458326,"connected_time":1731000000000,"state":"active","ping":60},{"user_id":33,"name":"Wario (Walmart Brand)","steam_id":76561198969063937,"connected_time":1652000000000,"state":"active","ping":161},{"user_id":36,"name":"WomenBeardLike","steam_id":76561198390184314,"connected_time":1525000000000,"state":"active","ping":58},{"user_id":51,"name":"Topme","steam_id":76561198091734693,"connected_time":993000000000,"state":"active","ping":60}]},{"server_id":300,"name":"Uncletopia | Montr√©al | 1 | All Maps","name_short":"mtl-1","host":"mtl-1.ca.uncletopia.com","port":27015,"enabled":true,"region":"us-east","cc":"ca","latitude":45.50889,"longitude":-73.56167,"reserved":0,"last_update":"0001-01-01T00:00:00Z","name_a2s":"Uncletopia | Montr√©al | 1 | All Maps","protocol":17,"map":"pl_snowycoast","folder":"tf","game":"Team Fortress","app_id":440,"player_count":0,"max_players":24,"Bots":0,"server_type":"Dedicated","server_os":"Linux","password":true,"vac":true,"version":"7882260","steam_id":85568392924500087,"keywords":["nocrits","nodmgspread","payload","uncletopia"],"game_id":440,"stv_port":27016,"stv_name":"Uncletopia | Montr√©al | 1 | All Maps | STV","players":null},{"server_id":301,"name":"Uncletopia | Montr√©al | 2 | All Maps","name_short":"mtl-2","host":"mtl-1.ca.uncletopia.com","port":27025,"enabled":true,"region":"us-east","cc":"ca","latitude":45.50889,"longitude":-73.56167,"reserved":0,"last_update":"0001-01-01T00:00:00Z","name_a2s":"Uncletopia | Montr√©al | 2 | All Maps","protocol":17,"map":"pl_frontier_final","folder":"tf","game":"Team Fortress","app_id":440,"player_count":0,"max_players":24,"Bots":0,"server_type":"Dedicated","server_os":"Linux","password":true,"vac":true,"version":"7882260","steam_id":85568392924500088,"keywords":["nocrits","nodmgspread","payload","uncletopia"],"game_id":440,"stv_port":27026,"stv_name":"Uncletopia | Montr√©al | 2 | All Maps | STV","players":null},{"server_id":302,"name":"Uncletopia | Montr√©al | 3 | All Maps","name_short":"mtl-3","host":"mtl-1.ca.uncletopia.com","port":27035,"enabled":true,"region":"us-east","cc":"ca","latitude":45.50889,"longitude":-73.56167,"reserved":0,"last_update":"0001-01-01T00:00:00Z","name_a2s":"Uncletopia | Montr√©al | 3 | All Maps","protocol":17,"map":"pl_borneo","folder":"tf","game":"Team Fortress","app_id":440,"player_count":0,"max_players":24,"Bots":0,"server_type":"Dedicated","server_os":"Linux","password":true,"vac":true,"version":"7882260","steam_id":85568392924500089,"keywords":["nocrits","nodmgspread","payload","uncletopia"],"game_id":440,"stv_port":27036,"stv_name":"Uncletopia | Montr√©al | 3 | All Maps | STV","players":null},{"server_id":303,"name":"Uncletopia | Montr√©al | 4 | No Payload","name_short":"mtl-4","host":"mtl-1.ca.uncletopia.com","port":27045,"enabled":true,"region":"us-east","cc":"ca","latitude":45.50889,"longitude":-73.56167,"reserved":0,"last_update":"0001-01-01T00:00:00Z","name_a2s":"Uncletopia | Montr√©al | 4 | No Payload","protocol":17,"map":"cp_altitude","folder":"tf","game":"Team Fortress","app_id":440,"player_count":0,"max_players":24,"Bots":0,"server_type":"Dedicated","server_os":"Linux","password":true,"vac":true,"version":"7882260","steam_id":85568392924500090,"keywords":["cp","nocrits","nodmgspread","uncletopia"],"game_id":440,"stv_port":27046,"stv_name":"Uncletopia | Montr√©al | 4 | No Payload | STV","players":null},{"server_id":13,"name":"Uncletopia | New York City | 1 | All Maps","name_short":"nyc-1","host":"nyc-1.us.uncletopia.com","port":27015,"enabled":true,"region":"us-east","cc":"us","latitude":40.73061,"longitude":-73.93524,"reserved":0,"last_update":"0001-01-01T00:00:00Z","name_a2s":"Uncletopia | New York City | 1 | All Maps","protocol":17,"map":"cp_altitude","folder":"tf","game":"Team Fortress","app_id":440,"player_count":0,"max_players":24,"Bots":0,"server_type":"Dedicated","server_os":"Linux","password":true,"vac":true,"version":"7882260","steam_id":85568392924469993,"keywords":["cp","nocrits","nodmgspread","uncletopia"],"game_id":440,"stv_port":27016,"stv_name":"Uncletopia | New York City | 1 | All Maps | STV","players":null},{"server_id":14,"name":"Uncletopia | New York City | 2 | All Maps","name_short":"nyc-2","host":"nyc-1.us.uncletopia.com","port":27025,"enabled":true,"region":"us-east","cc":"us","latitude":40.73061,"longitude":-73.93524,"reserved":0,"last_update":"0001-01-01T00:00:00Z","name_a2s":"Uncletopia | New York City | 2 | All Maps","protocol":17,"map":"pl_upward","folder":"tf","game":"Team Fortress","app_id":440,"player_count":0,"max_players":24,"Bots":0,"server_type":"Dedicated","server_os":"Linux","password":true,"vac":true,"version":"7882260","steam_id":85568392924469994,"keywords":["nocrits","nodmgspread","payload","uncletopia"],"game_id":440,"stv_port":27026,"stv_name":"Uncletopia | New York City | 2 | All Maps | STV","players":null},{"server_id":15,"name":"Uncletopia | New York City | 3 | Stopwatch Beta","name_short":"nyc-3","host":"nyc-1.us.uncletopia.com","port":27035,"enabled":true,"region":"us-east","cc":"us","latitude":40.73061,"longitude":-73.93524,"reserved":0,"last_update":"0001-01-01T00:00:00Z","name_a2s":"Uncletopia | New York City | 3 | Stopwatch Beta","protocol":17,"map":"koth_lakeside_final","folder":"tf","game":"Team Fortress","app_id":440,"player_count":0,"max_players":24,"Bots":0,"server_type":"Dedicated","server_os":"Linux","password":true,"vac":true,"version":"7882260","steam_id":85568392924742820,"keywords":["cp","nocrits","nodmgspread","uncletopia"],"game_id":440,"stv_port":27036,"stv_name":"Uncletopia | New York City | 3 | Stopwatch Beta | STV","players":null},{"server_id":16,"name":"Uncletopia | New York City | 4 | Community","name_short":"nyc-4","host":"nyc-1.us.uncletopia.com","port":27045,"enabled":true,"region":"us-east","cc":"us","latitude":40.73061,"longitude":-73.93524,"reserved":0,"last_update":"0001-01-01T00:00:00Z","name_a2s":"Uncletopia | New York City | 4 | Community","protocol":17,"map":"pl_badwater","folder":"tf","game":"Team Fortress","app_id":440,"player_count":0,"max_players":24,"Bots":0,"server_type":"Dedicated","server_os":"Linux","password":true,"vac":true,"version":"7882260","steam_id":85568392924742821,"keywords":["nocrits","nodmgspread","payload","uncletopia"],"game_id":440,"stv_port":27046,"stv_name":"Uncletopia | New York City | 4 | Community | STV","players":null},{"server_id":142,"name":"Uncletopia | S√£o Paulo | 1 | All Maps","name_short":"sao-1","host":"sao-1.br.uncletopia.com","port":27015,"enabled":true,"region":"sa","cc":"br","latitude":-23.533773,"longitude":-46.62529,"reserved":0,"last_update":"0001-01-01T00:00:00Z","name_a2s":"Uncletopia | S√£o Paulo | 1 | All Maps","protocol":17,"map":"cp_process_final","folder":"tf","game":"Team Fortress","app_id":440,"player_count":0,"max_players":24,"Bots":0,"server_type":"Dedicated","server_os":"Linux","password":true,"vac":true,"version":"7882260","steam_id":85568392924469996,"keywords":["cp","nocrits","nodmgspread","uncletopia"],"game_id":440,"stv_port":27016,"stv_name":"Uncletopia | S√£o Paulo | 1 | All Maps | STV","players":null},{"server_id":143,"name":"Uncletopia | S√£o Paulo | 2 | All Maps","name_short":"sao-2","host":"sao-2.br.uncletopia.com","port":27015,"enabled":true,"region":"sa","cc":"br","latitude":-23.533773,"longitude":-46.62529,"reserved":0,"last_update":"0001-01-01T00:00:00Z","name_a2s":"Uncletopia | S√£o Paulo | 2 | All Maps","protocol":17,"map":"cp_mountainlab","folder":"tf","game":"Team Fortress","app_id":440,"player_count":0,"max_players":24,"Bots":0,"server_type":"Dedicated","server_os":"Linux","password":true,"vac":true,"version":"7882260","steam_id":85568392924485349,"keywords":["cp","nocrits","nodmgspread","uncletopia"],"game_id":440,"stv_port":27016,"stv_name":"Uncletopia | S√£o Paulo | 2 | All Maps | STV","players":null},{"server_id":7,"name":"Uncletopia | Seattle | 1 | All Maps","name_short":"sea-1","host":"sea-1.us.uncletopia.com","port":27015,"enabled":true,"region":"us-west","cc":"us","latitude":47.608013,"longitude":-122.33517,"reserved":0,"last_update":"0001-01-01T00:00:00Z","name_a2s":"Uncletopia | Seattle | 1 | All Maps","protocol":17,"map":"koth_lakeside_final","folder":"tf","game":"Team Fortress","app_id":440,"player_count":24,"max_players":24,"Bots":0,"server_type":"Dedicated","server_os":"Linux","password":true,"vac":true,"version":"7882260","steam_id":85568392924469997,"keywords":["cp","nocrits","nodmgspread","uncletopia"],"game_id":440,"stv_port":27016,"stv_name":"Uncletopia | Seattle | 1 | All Maps | STV","players":[{"user_id":1025,"name":"cakey","steam_id":76561198797149077,"connected_time":432000000000,"state":"active","ping":117},{"user_id":1026,"name":"Haiti's Space Agency","steam_id":76561197997819072,"connected_time":415000000000,"state":"active","ping":92},{"user_id":1027,"name":"Jumbo Jimmy","steam_id":76561199187942700,"connected_time":412000000000,"state":"active","ping":60},{"user_id":962,"name":"endo","steam_id":76561197995204381,"connected_time":5494000000000,"state":"active","ping":90},{"user_id":977,"name":"koolamundo","steam_id":76561198101705890,"connected_time":4645000000000,"state":"active","ping":80},{"user_id":1028,"name":"The Worst Player in The World","steam_id":76561198850661159,"connected_time":405000000000,"state":"active","ping":103},{"user_id":980,"name":"Peter, what are you doing?","steam_id":76561198066452726,"connected_time":4542000000000,"state":"active","ping":73},{"user_id":1029,"name":"Capra-Cabra","steam_id":76561198298837805,"connected_time":391000000000,"state":"active","ping":101},{"user_id":972,"name":"jello_hey","steam_id":76561199176327650,"connected_time":4855000000000,"state":"active","ping":127},{"user_id":999,"name":"Rain","steam_id":76561198065612273,"connected_time":3649000000000,"state":"active","ping":46},{"user_id":1019,"name":"[TC] Lag","steam_id":76561198983494186,"connected_time":2007000000000,"state":"active","ping":121},{"user_id":1023,"name":"FRANKY!!!","steam_id":76561199211305343,"connected_time":1307000000000,"state":"active","ping":74},{"user_id":1030,"name":"beatrix","steam_id":76561199057103062,"connected_time":351000000000,"state":"active","ping":90},{"user_id":1021,"name":"posting fail","steam_id":76561198066619792,"connected_time":1679000000000,"state":"active","ping":79},{"user_id":1010,"name":"Ena","steam_id":76561198066986108,"connected_time":2774000000000,"state":"active","ping":42},{"user_id":987,"name":"Lucerne‚òÖFlower","steam_id":76561198264105406,"connected_time":4215000000000,"state":"active","ping":132},{"user_id":1034,"name":"SAD MOSCOVIA","steam_id":76561198101081520,"connected_time":160000000000,"state":"active","ping":69},{"user_id":992,"name":"dark romantic","steam_id":76561198325306660,"connected_time":3940000000000,"state":"active","ping":56},{"user_id":1015,"name":"Roguefluff","steam_id":76561198169269105,"connected_time":2377000000000,"state":"active","ping":104},{"user_id":935,"name":"rat gets the cheese","steam_id":76561198031234032,"connected_time":8981000000000,"state":"active","ping":92},{"user_id":1031,"name":"zik","steam_id":76561198122186802,"connected_time":342000000000,"state":"active","ping":113},{"user_id":997,"name":"‡∂û.BAT","steam_id":76561198049800120,"connected_time":3741000000000,"state":"active","ping":119},{"user_id":1033,"name":"Headmouth","steam_id":76561198019789855,"connected_time":235000000000,"state":"active","ping":173},{"user_id":1009,"name":"Birdman","steam_id":76561199183704008,"connected_time":3189000000000,"state":"active","ping":95}]},{"server_id":119,"name":"Uncletopia | Seattle | 2 | All Maps","name_short":"sea-2","host":"sea-1.us.uncletopia.com","port":27025,"enabled":true,"region":"us-west","cc":"us","latitude":47.608013,"longitude":-122.33517,"reserved":0,"last_update":"0001-01-01T00:00:00Z","name_a2s":"Uncletopia | Seattle | 2 | All Maps","protocol":17,"map":"koth_highpass","folder":"tf","game":"Team Fortress","app_id":440,"player_count":0,"max_players":24,"Bots":0,"server_type":"Dedicated","server_os":"Linux","password":true,"vac":true,"version":"7882260","steam_id":85568392924469998,"keywords":["cp","nocrits","nodmgspread","uncletopia"],"game_id":440,"stv_port":27026,"stv_name":"Uncletopia | Seattle | 2 | All Maps | STV","players":null},{"server_id":406,"name":"Uncletopia | Seattle | 3 | Stopwatch Beta","name_short":"sea-3","host":"sea-1.us.uncletopia.com","port":27035,"enabled":true,"region":"us-west","cc":"us","latitude":47.608013,"longitude":-122.33517,"reserved":0,"last_update":"0001-01-01T00:00:00Z","name_a2s":"Uncletopia | Seattle | 3 | Stopwatch Beta","protocol":17,"map":"workshop/cp_process_f12.ugc2302948105","folder":"tf","game":"Team Fortress","app_id":440,"player_count":0,"max_players":24,"Bots":0,"server_type":"Dedicated","server_os":"Linux","password":true,"vac":true,"version":"7882260","steam_id":85568392924515217,"keywords":["cp","nocrits","nodmgspread","uncletopia"],"game_id":440,"stv_port":27036,"stv_name":"Uncletopia | Seattle | 3 | Stopwatch Beta | STV","players":null},{"server_id":17,"name":"Uncletopia | San Francisco | 1 | All Maps","name_short":"sfo-1","host":"sfo-1.us.uncletopia.com","port":27015,"enabled":true,"region":"us-west","cc":"us","latitude":37.77397,"longitude":-122.4313,"reserved":0,"last_update":"0001-01-01T00:00:00Z","name_a2s":"Uncletopia | San Francisco | 1 | All Maps","protocol":17,"map":"cp_process_final","folder":"tf","game":"Team Fortress","app_id":440,"player_count":0,"max_players":24,"Bots":0,"server_type":"Dedicated","server_os":"Linux","password":true,"vac":true,"version":"7757534","steam_id":85568392924469999,"keywords":["cp","nocrits","nodmgspread","uncletopia"],"game_id":440,"stv_port":27016,"stv_name":"Uncletopia | San Francisco | 1 | All Maps | STV","players":null},{"server_id":18,"name":"Uncletopia | San Francisco | 2 | All Maps","name_short":"sfo-2","host":"sfo-1.us.uncletopia.com","port":27025,"enabled":true,"region":"us-west","cc":"us","latitude":37.77397,"longitude":-122.4313,"reserved":0,"last_update":"0001-01-01T00:00:00Z","name_a2s":"Uncletopia | San Francisco | 2 | All Maps","protocol":17,"map":"koth_highpass","folder":"tf","game":"Team Fortress","app_id":440,"player_count":0,"max_players":24,"Bots":0,"server_type":"Dedicated","server_os":"Linux","password":true,"vac":true,"version":"7757534","steam_id":85568392924470000,"keywords":["cp","nocrits","nodmgspread","uncletopia"],"game_id":440,"stv_port":27026,"stv_name":"Uncletopia | San Francisco | 2 | All Maps | STV","players":null},{"server_id":19,"name":"Uncletopia | San Francisco | 3 | Stopwatch Beta","name_short":"sfo-3","host":"sfo-1.us.uncletopia.com","port":27035,"enabled":true,"region":"us-west","cc":"us","latitude":37.77397,"longitude":-122.4313,"reserved":0,"last_update":"0001-01-01T00:00:00Z","name_a2s":"Uncletopia | San Francisco | 3 | Stopwatch Beta","protocol":17,"map":"koth_lakeside_final","folder":"tf","game":"Team Fortress","app_id":440,"player_count":0,"max_players":24,"Bots":0,"server_type":"Dedicated","server_os":"Linux","password":true,"vac":true,"version":"7757534","steam_id":85568392924742824,"keywords":["cp","nocrits","nodmgspread","uncletopia"],"game_id":440,"stv_port":27036,"stv_name":"Uncletopia | San Francisco | 3 | Stopwatch Beta | STV","players":null},{"server_id":20,"name":"Uncletopia | San Francisco | 4 | Community","name_short":"sfo-4","host":"sfo-1.us.uncletopia.com","port":27045,"enabled":true,"region":"us-west","cc":"us","latitude":37.77397,"longitude":-122.4313,"reserved":0,"last_update":"0001-01-01T00:00:00Z","name_a2s":"Uncletopia | San Francisco | 4 | Community","protocol":17,"map":"cp_altitude","folder":"tf","game":"Team Fortress","app_id":440,"player_count":0,"max_players":24,"Bots":0,"server_type":"Dedicated","server_os":"Linux","password":true,"vac":true,"version":"7757534","steam_id":85568392924742826,"keywords":["cp","nocrits","nodmgspread","uncletopia"],"game_id":440,"stv_port":27046,"stv_name":"Uncletopia | San Francisco | 4 | Community | STV","players":null},{"server_id":141,"name":"Uncletopia | Sydney | 1 | All Maps","name_short":"syd-1","host":"syd-1.au.uncletopia.com","port":27015,"enabled":true,"region":"au","cc":"au","latitude":-33.865143,"longitude":151.2099,"reserved":0,"last_update":"0001-01-01T00:00:00Z","name_a2s":"Uncletopia | Sydney | 1 | All Maps","protocol":17,"map":"pl_upward","folder":"tf","game":"Team Fortress","app_id":440,"player_count":16,"max_players":24,"Bots":0,"server_type":"Dedicated","server_os":"Linux","password":true,"vac":true,"version":"7882260","steam_id":85568392924470001,"keywords":["nocrits","nodmgspread","payload","uncletopia"],"game_id":440,"stv_port":27016,"stv_name":"Uncletopia | Sydney | 1 | All Maps | STV","players":[{"user_id":648,"name":"Peashooter","steam_id":76561198157250318,"connected_time":588000000000,"state":"active","ping":58},{"user_id":661,"name":"wm1","steam_id":76561198061960926,"connected_time":225000000000,"state":"active","ping":101},{"user_id":652,"name":"zingers","steam_id":76561198205666957,"connected_time":517000000000,"state":"active","ping":95},{"user_id":655,"name":"Granola (the bar)","steam_id":76561198059129270,"connected_time":375000000000,"state":"active","ping":65},{"user_id":607,"name":"...","steam_id":76561198309750355,"connected_time":3069000000000,"state":"active","ping":45},{"user_id":576,"name":"JP","steam_id":76561198026221737,"connected_time":4512000000000,"state":"active","ping":44},{"user_id":658,"name":"Soru","steam_id":76561198010844786,"connected_time":299000000000,"state":"active","ping":60},{"user_id":642,"name":"rangarok","steam_id":76561198036649348,"connected_time":901000000000,"state":"active","ping":60},{"user_id":659,"name":"waga","steam_id":76561198063269299,"connected_time":291000000000,"state":"active","ping":87},{"user_id":624,"name":"precious.","steam_id":76561198054804209,"connected_time":2202000000000,"state":"active","ping":86},{"user_id":637,"name":"Greg","steam_id":76561198133966374,"connected_time":1368000000000,"state":"active","ping":59},{"user_id":647,"name":"SCHEFF","steam_id":76561198078226216,"connected_time":593000000000,"state":"active","ping":58},{"user_id":633,"name":"Snowy","steam_id":76561198255720598,"connected_time":1654000000000,"state":"active","ping":44},{"user_id":589,"name":"Captain Canadia","steam_id":76561198167967735,"connected_time":4087000000000,"state":"active","ping":49},{"user_id":622,"name":"LilCringe","steam_id":76561198171135461,"connected_time":2234000000000,"state":"active","ping":58},{"user_id":623,"name":"mboy","steam_id":76561198136218040,"connected_time":2231000000000,"state":"active","ping":47}]},{"server_id":123,"name":"Uncletopia | Sydney | 2 | All Maps","name_short":"syd-2","host":"syd-1.au.uncletopia.com","port":27025,"enabled":true,"region":"au","cc":"au","latitude":-33.865143,"longitude":151.2099,"reserved":0,"last_update":"0001-01-01T00:00:00Z","name_a2s":"Uncletopia | Sydney | 2 | All Maps","protocol":17,"map":"pl_frontier_final","folder":"tf","game":"Team Fortress","app_id":440,"player_count":0,"max_players":24,"Bots":0,"server_type":"Dedicated","server_os":"Linux","password":true,"vac":true,"version":"7882260","steam_id":85568392924470002,"keywords":["nocrits","nodmgspread","payload","uncletopia"],"game_id":440,"stv_port":27026,"stv_name":"Uncletopia | Sydney | 2 | All Maps | STV","players":null},{"server_id":395,"name":"Uncletopia | Sydney | 3 | All Maps","name_short":"syd-3","host":"syd-1.au.uncletopia.com","port":27035,"enabled":true,"region":"au","cc":"au","latitude":-33.865143,"longitude":151.2099,"reserved":0,"last_update":"0001-01-01T00:00:00Z","name_a2s":"Uncletopia | Sydney | 3 | All Maps","protocol":17,"map":"koth_viaduct","folder":"tf","game":"Team Fortress","app_id":440,"player_count":0,"max_players":24,"Bots":0,"server_type":"Dedicated","server_os":"Linux","password":true,"vac":true,"version":"7882260","steam_id":85568392925194467,"keywords":["cp","nocrits","nodmgspread","uncletopia"],"game_id":440,"stv_port":27036,"stv_name":"Uncletopia | Sydney | 3 | All Maps | STV","players":null},{"server_id":396,"name":"Uncletopia | Sydney | 4 | All Maps","name_short":"syd-4","host":"syd-1.au.uncletopia.com","port":27045,"enabled":true,"region":"au","cc":"au","latitude":-33.865143,"longitude":151.2099,"reserved":0,"last_update":"0001-01-01T00:00:00Z","name_a2s":"Uncletopia | Sydney | 4 | All Maps","protocol":17,"map":"pl_borneo","folder":"tf","game":"Team Fortress","app_id":440,"player_count":0,"max_players":24,"Bots":0,"server_type":"Dedicated","server_os":"Linux","password":true,"vac":true,"version":"7882260","steam_id":85568392925397958,"keywords":["nocrits","nodmgspread","payload","uncletopia"],"game_id":440,"stv_port":27046,"stv_name":"Uncletopia | Sydney | 4 | All Maps | STV","players":null},{"server_id":58,"name":"Uncletopia | Sydney | 5 | Stopwatch Beta","name_short":"syd-5","host":"syd-1.au.uncletopia.com","port":27055,"enabled":true,"region":"au","cc":"au","latitude":-33.865143,"longitude":151.2099,"reserved":0,"last_update":"0001-01-01T00:00:00Z","name_a2s":"Uncletopia | Sydney | 5 | Stopwatch Beta","protocol":17,"map":"cp_snakewater_final1","folder":"tf","game":"Team Fortress","app_id":440,"player_count":0,"max_players":24,"Bots":0,"server_type":"Dedicated","server_os":"Linux","password":true,"vac":true,"version":"7882260","steam_id":85568392925397959,"keywords":["cp","nocrits","nodmgspread","uncletopia"],"game_id":440,"stv_port":27056,"stv_name":"Uncletopia | Sydney | 5 | Stopwatch Beta | STV","players":null},{"server_id":59,"name":"Uncletopia | Sydney | 6 | Community","name_short":"syd-6","host":"syd-1.au.uncletopia.com","port":27065,"enabled":true,"region":"au","cc":"au","latitude":-33.865143,"longitude":151.2099,"reserved":0,"last_update":"0001-01-01T00:00:00Z","name_a2s":"Uncletopia | Sydney | 6 | Community","protocol":17,"map":"workshop/koth_ramjam_rc1.ugc459778887","folder":"tf","game":"Team Fortress","app_id":440,"player_count":0,"max_players":24,"Bots":0,"server_type":"Dedicated","server_os":"Linux","password":true,"vac":true,"version":"7882260","steam_id":85568392925397960,"keywords":["cp","nocrits","nodmgspread","uncletopia"],"game_id":440,"stv_port":27066,"stv_name":"Uncletopia | Sydney | 6 | Community | STV","players":null},{"server_id":49,"name":"Uncletopia | Warsaw | 1 | All Maps","name_short":"waw-1","host":"waw-1.pl.uncletopia.com","port":27015,"enabled":true,"region":"eu","cc":"pl","latitude":52.2297,"longitude":21.017532,"reserved":0,"last_update":"0001-01-01T00:00:00Z","name_a2s":"","protocol":0,"map":"","folder":"","game":"","app_id":0,"player_count":0,"max_players":0,"Bots":0,"server_type":"","server_os":"","password":false,"vac":false,"version":"","steam_id":0,"keywords":null,"game_id":0,"stv_port":0,"stv_name":"","players":null},{"server_id":50,"name":"Uncletopia | Warsaw | 2 | All Maps","name_short":"waw-2","host":"waw-1.pl.uncletopia.com","port":27025,"enabled":true,"region":"eu","cc":"pl","latitude":52.2297,"longitude":21.017532,"reserved":0,"last_update":"0001-01-01T00:00:00Z","name_a2s":"Uncletopia | Warsaw | 2 | All Maps","protocol":17,"map":"pl_borneo","folder":"tf","game":"Team Fortress","app_id":440,"player_count":0,"max_players":24,"Bots":0,"server_type":"Dedicated","server_os":"Linux","password":true,"vac":true,"version":"7882260","steam_id":85568392925397851,"keywords":["nocrits","nodmgspread","payload","uncletopia"],"game_id":440,"stv_port":27026,"stv_name":"Uncletopia | Warsaw | 2 | All Maps | STV","players":null},{"server_id":51,"name":"Uncletopia | Warsaw | 3 | All Maps","name_short":"waw-3","host":"waw-1.pl.uncletopia.com","port":27035,"enabled":true,"region":"eu","cc":"pl","latitude":52.2297,"longitude":21.017532,"reserved":0,"last_update":"0001-01-01T00:00:00Z","name_a2s":"Uncletopia | Warsaw | 3 | All Maps","protocol":17,"map":"pl_pier","folder":"tf","game":"Team Fortress","app_id":440,"player_count":0,"max_players":24,"Bots":0,"server_type":"Dedicated","server_os":"Linux","password":true,"vac":true,"version":"7882260","steam_id":85568392925397852,"keywords":["nocrits","nodmgspread","payload","uncletopia"],"game_id":440,"stv_port":27036,"stv_name":"Uncletopia | Warsaw | 3 | All Maps | STV","players":null},{"server_id":52,"name":"Uncletopia | Warsaw | 4 | All Maps","name_short":"waw-4","host":"waw-1.pl.uncletopia.com","port":27045,"enabled":true,"region":"eu","cc":"pl","latitude":52.2297,"longitude":21.017532,"reserved":0,"last_update":"0001-01-01T00:00:00Z","name_a2s":"Uncletopia | Warsaw | 4 | All Maps","protocol":17,"map":"koth_highpass","folder":"tf","game":"Team Fortress","app_id":440,"player_count":0,"max_players":24,"Bots":0,"server_type":"Dedicated","server_os":"Linux","password":true,"vac":true,"version":"7882260","steam_id":85568392925397853,"keywords":["cp","nocrits","nodmgspread","uncletopia"],"game_id":440,"stv_port":27046,"stv_name":"Uncletopia | Warsaw | 4 | All Maps | STV","players":null},{"server_id":53,"name":"Uncletopia | Warsaw | 5 | Stopwatch Beta","name_short":"waw-5","host":"waw-1.pl.uncletopia.com","port":27055,"enabled":true,"region":"eu","cc":"pl","latitude":52.2297,"longitude":21.017532,"reserved":0,"last_update":"0001-01-01T00:00:00Z","name_a2s":"Uncletopia | Warsaw | 5 | Stopwatch Beta","protocol":17,"map":"cp_mountainlab","folder":"tf","game":"Team Fortress","app_id":440,"player_count":0,"max_players":24,"Bots":0,"server_type":"Dedicated","server_os":"Linux","password":true,"vac":true,"version":"7882260","steam_id":85568392925397854,"keywords":["cp","nocrits","nodmgspread","uncletopia"],"game_id":440,"stv_port":27056,"stv_name":"Uncletopia | Warsaw | 5 | Stopwatch Beta | STV","players":null},{"server_id":54,"name":"Uncletopia | Warsaw | 6 | Community","name_short":"waw-6","host":"waw-1.pl.uncletopia.com","port":27065,"enabled":true,"region":"eu","cc":"pl","latitude":52.2297,"longitude":21.017532,"reserved":0,"last_update":"0001-01-01T00:00:00Z","name_a2s":"Uncletopia | Warsaw | 6 | Community","protocol":17,"map":"koth_viaduct","folder":"tf","game":"Team Fortress","app_id":440,"player_count":0,"max_players":24,"Bots":0,"server_type":"Dedicated","server_os":"Linux","password":true,"vac":true,"version":"7882260","steam_id":85568392925397856,"keywords":["cp","nocrits","nodmgspread","uncletopia"],"game_id":440,"stv_port":27066,"stv_name":"Uncletopia | Warsaw | 6 | Community | STV","players":null}]}