{"status":true,"message":"","result":[{"server_id":9,"name":"Uncletopia | Atlanta | 1 | All Maps","name_short":"atl-1","host":"atl-1.us.uncletopia.com","port":27015,"enabled":true,"region":"us-east","cc":"us","latitude":33.753746,"longitude":-84.38633,"reserved":0,"last_update":"0001-01-01T00:00:00Z","name_a2s":"Uncletopia | Atlanta | 1 | All Maps","protocol":17,"map":"cp_sunshine","folder":"tf","game":"Team Fortress","app_id":440,"player_count":23,"max_players":24,"Bots":0,"server_type":"Dedicated","server_os":"Linux","password":true,"vac":true,"version":"7742253","steam_id":85568392924469982,"keywords":["cp","nocrits","nodmgspread","uncletopia"],"game_id":440,"stv_port":27016,"stv_name":"Uncletopia | Atlanta | 1 | All Maps | STV","players":[{"user_id":5,"name":"LUKS :3","steam_id":76561199178556785,"connected_time":1245000000000,"state":"active","ping":111},{"user_id":7,"name":"JimmySquid","steam_id":76561198254242530,"connected_time":948000000000,"state":"active","ping":98},{"user_id":8,"name":"Limbo_Darkness","steam_id":76561198127411819,"connected_time":905000000000,"state":"active","ping":64},{"user_id":11,"name":"luxin","steam_id":76561198399383047,"connected_time":719000000000,"state":"active","ping":49},{"user_id":10,"name":"ApertureCity","steam_id":76561198004153607,"connected_time":791000000000,"state":"active","ping":76},{"user_id":15,"name":"evanferrito2010","steam_id":76561199452465999,"connected_time":623000000000,"state":"active","ping":68},{"user_id":16,"name":"Cad","steam_id":76561198312145232,"connected_time":597000000000,"state":"active","ping":80},{"user_id":14,"name":"1 Interdimensional Gorilla Uncl","steam_id":76561198829607485,"connected_time":657000000000,"state":"active","ping":46},{"user_id":17,"name":"Plimki","steam_id":76561199019877748,"connected_time":590000000000,"state":"active","ping":76},{"user_id":18,"name":"Snowy","steam_id":76561198994053653,"connected_time":588000000000,"state":"active","ping":63},{"user_id":19,"name":"BenNikkin","steam_id":76561198146801256,"connected_time":580000000000,"state":"active","ping":74},{"user_id":37,"name":"RoboWarrior0410a","steam_id":76561199106531261,"connected_time":52000000000,"state":"active","ping":53},{"user_id":21,"name":"15 INCH TGIRL SCHLONG","steam_id":76561198122059018,"connected_time":575000000000,"state":"active","ping":92},{"user_id":22,"name":"100,000 monkeys in Uncletopia","steam_id":76561198130772096,"connected_time":553000000000,"state":"active","ping":71},{"user_id":23,"name":"LORD MC CHUBS","steam_id":76561199396661854,"connected_time":524000000000,"state":"active","ping":105},{"user_id":24,"name":"shotpoop1","steam_id":76561198371858406,"connected_time":492000000000,"state":"active","ping":58},{"user_id":36,"name":"mega giga payload hater!","steam_id":76561198039727616,"connected_time":95000000000,"state":"active","ping":46},{"user_id":26,"name":"Cyanwarrior","steam_id":76561199160532701,"connected_time":472000000000,"state":"active","ping":76},{"user_id":27,"name":"maze","steam_id":76561198068443860,"connected_time":457000000000,"state":"active","ping":61},{"user_id":28,"name":"Octobella Enthusiast","steam_id":76561198199266047,"connected_time":455000000000,"state":"active","ping":54},{"user_id":29,"name":"garmonbozia","steam_id":76561198287124402,"connected_time":455000000000,"state":"active","ping":62},{"user_id":35,"name":"ivan","steam_id":76561198033001607,"connected_time":233000000000,"state":"active","ping":97},{"user_id":33,"name":"A Man Named Pancho","steam_id":76561197984895522,"connected_time":323000000000,"state":"active","ping":118}]},{"server_id":400,"name":"Uncletopia | Atlanta | 3 | Stopwatch Beta","name_short":"atl-3","host":"atl-1.us.uncletopia.com","port":27035,"enabled":true,"region":"us-east","cc":"us","latitude":33.753746,"longitude":-84.38633,"reserved":0,"last_update":"0001-01-01T00:00:00Z","name_a2s":"Uncletopia | Atlanta | 3 | Stopwatch Beta","protocol":17,"map":"pl_pier","folder":"tf","game":"Team Fortress","app_id":440,"player_count":0,"max_players":24,"Bots":0,"server_type":"Dedicated","server_os":"Linux","password":true,"vac":true,"version":"7742253","steam_id":85568392924515187,"keywords":["nocrits","nodmgspread","payload","uncletopia"],"game_id":440,"stv_port":27036,"stv_name":"Uncletopia | Atlanta | 3 | Stopwatch Beta | STV","players":null},{"server_id":401,"name":"Uncletopia | Atlanta | 4 | No Payload","name_short":"atl-4","host":"atl-1.us.uncletopia.com","port":27045,"enabled":true,"region":"us-east","cc":"us","latitude":33.753746,"longitude":-84.38633,"reserved":0,"last_update":"0001-01-01T00:00:00Z","name_a2s":"Uncletopia | Atlanta | 4 | No Payload","protocol":17,"map":"pl_pier","folder":"tf","game":"Team Fortress","app_id":440,"player_count":0,"max_players":24,"Bots":0,"server_type":"Dedicated","server_os":"Linux","password":true,"vac":true,"version":"7723704","steam_id":85568392924515188,"keywords":["nocrits","nodmgspread","payload","uncletopia"],"game_id":440,"stv_port":27046,"stv_name":"Uncletopia | Atlanta | 4 | No Payload | STV","players":null},{"server_id":2,"name":"Uncletopia | Chicago | 1 | All Maps","name_short":"chi-1","host":"chi-1.us.uncletopia.com","port":27015,"enabled":true,"region":"us-central","cc":"us","latitude":41.881832,"longitude":-87.62318,"reserved":0,"last_update":"0001-01-01T00:00:00Z","name_a2s":"Uncletopia | Chicago | 1 | All Maps","protocol":17,"map":"koth_viaduct","folder":"tf","game":"Team Fortress","app_id":440,"player_count":0,"max_players":24,"Bots":0,"server_type":"Dedicated","server_os":"Linux","password":true,"vac":true,"version":"7742253","steam_id":85568392924469984,"keywords":["cp","nocrits","nodmgspread","uncletopia"],"game_id":440,"stv_port":27016,"stv_name":"Uncletopia | Chicago | 1 | All Maps | STV","players":null},{"server_id":106,"name":"Uncletopia | Chicago | 2 | All Maps","name_short":"chi-2","host":"chi-1.us.uncletopia.com","port":27025,"enabled":true,"region":"us-central","cc":"us","latitude":41.881832,"longitude":-87.62318,"reserved":0,"last_update":"0001-01-01T00:00:00Z","name_a2s":"Uncletopia | Chicago | 2 | All Maps","protocol":17,"map":"pl_snowycoast","folder":"tf","game":"Team Fortress","app_id":440,"player_count":0,"max_players":24,"Bots":0,"server_type":"Dedicated","server_os":"Linux","password":true,"vac":true,"version":"7742253","steam_id":85568392924469985,"keywords":["nocrits","nodmgspread","payload","uncletopia"],"game_id":440,"stv_port":27026,"stv_name":"Uncletopia | Chicago | 2 | All Maps | STV","players":null},{"server_id":402,"name":"Uncletopia | Chicago | 3 | All Maps","name_short":"chi-3","host":"chi-1.us.uncletopia.com","port":27035,"enabled":true,"region":"us-central","cc":"us","latitude":41.881832,"longitude":-87.62318,"reserved":0,"last_update":"0001-01-01T00:00:00Z","name_a2s":"Uncletopia | Chicago | 3 | All Maps","protocol":17,"map":"koth_viaduct","folder":"tf","game":"Team Fortress","app_id":440,"player_count":0,"max_players":24,"Bots":0,"server_type":"Dedicated","server_os":"Linux","password":true,"vac":true,"version":"7742253","steam_id":85568392924515191,"keywords":["cp","nocrits","nodmgspread","uncletopia"],"game_id":440,"stv_port":27036,"stv_name":"Uncletopia | Chicago | 3 | All Maps | STV","players":null},{"server_id":403,"name":"Uncletopia | Chicago | 4 | All Maps","name_short":"chi-4","host":"chi-1.us.uncletopia.com","port":27045,"enabled":true,"region":"us-central","cc":"us","latitude":41.881832,"longitude":-87.62318,"reserved":0,"last_update":"0001-01-01T00:00:00Z","name_a2s":"Uncletopia | Chicago | 4 | All Maps","protocol":17,"map":"koth_lakeside_final","folder":"tf","game":"Team Fortress","app_id":440,"player_count":0,"max_players":24,"Bots":0,"server_type":"Dedicated","server_os":"Linux","password":true,"vac":true,"version":"7742253","steam_id":85568392924515193,"keywords":["cp","nocrits","nodmgspread","uncletopia"],"game_id":440,"stv_port":27046,"stv_name":"Uncletopia | Chicago | 4 | All Maps | STV","players":null},{"server_id":36,"name":"Uncletopia | Chicago | 5 | All Maps","name_short":"chi-5","host":"chi-2.us.uncletopia.com","port":27015,"enabled":true,"region":"us-central","cc":"us","latitude":41.881832,"longitude":-87.62318,"reserved":0,"last_update":"0001-01-01T00:00:00Z","name_a2s":"Uncletopia | Chicago | 5 | All Maps","protocol":17,"map":"cp_sunshine","folder":"tf","game":"Team Fortress","app_id":440,"player_count":24,"max_players":24,"Bots":0,"server_type":"Dedicated","server_os":"Linux","password":true,"vac":true,"version":"7742253","steam_id":85568392924866362,"keywords":["cp","nocrits","nodmgspread","uncletopia"],"game_id":440,"stv_port":27016,"stv_name":"Uncletopia | Chicago | 5 | All Maps | STV","players":[{"user_id":217,"name":"IPlayGamez","steam_id":76561198041387508,"connected_time":1717000000000,"state":"active","ping":68},{"user_id":215,"name":"SuperFresh","steam_id":76561198200723198,"connected_time":1735000000000,"state":"active","ping":43},{"user_id":252,"name":"new super mario ball z world","steam_id":76561199064758232,"connected_time":865000000000,"state":"active","ping":81},{"user_id":256,"name":"Provocator","steam_id":76561197961830410,"connected_time":453000000000,"state":"active","ping":65},{"user_id":230,"name":"Obama F. Kennedy","steam_id":76561198282499318,"connected_time":1507000000000,"state":"active","ping":69},{"user_id":251,"name":"moodi catgirl","steam_id":76561198124028045,"connected_time":1030000000000,"state":"active","ping":68},{"user_id":120,"name":"Japanese Rabbit Enthusiast","steam_id":76561199134895220,"connected_time":4065000000000,"state":"active","ping":70},{"user_id":74,"name":"Fuegan Ra","steam_id":76561198287923849,"connected_time":7130000000000,"state":"active","ping":48},{"user_id":220,"name":"klongiking","steam_id":76561199042178118,"connected_time":1661000000000,"state":"active","ping":154},{"user_id":142,"name":"dan","steam_id":76561197984998426,"connected_time":3003000000000,"state":"active","ping":97},{"user_id":221,"name":"Argon","steam_id":76561198091133177,"connected_time":1660000000000,"state":"active","ping":59},{"user_id":255,"name":"IVV4","steam_id":76561198194356583,"connected_time":504000000000,"state":"active","ping":89},{"user_id":108,"name":"Vec","steam_id":76561198044505262,"connected_time":5419000000000,"state":"active","ping":81},{"user_id":223,"name":"Alabama Meth Dealer","steam_id":76561198798946963,"connected_time":1658000000000,"state":"active","ping":75},{"user_id":224,"name":"AlexLovesYou","steam_id":76561199163263543,"connected_time":1638000000000,"state":"active","ping":98},{"user_id":258,"name":"Dio Brando","steam_id":76561198321485249,"connected_time":420000000000,"state":"active","ping":49},{"user_id":117,"name":"lost in spaaaaace","steam_id":76561199085974120,"connected_time":4683000000000,"state":"active","ping":76},{"user_id":232,"name":"Dewgong (real)","steam_id":76561198045999391,"connected_time":1476000000000,"state":"active","ping":68},{"user_id":124,"name":"Crackhead","steam_id":76561198883918047,"connected_time":4033000000000,"state":"active","ping":59},{"user_id":226,"name":"bikerkid207","steam_id":76561198390782783,"connected_time":1596000000000,"state":"active","ping":69},{"user_id":253,"name":"caberknight tf2","steam_id":76561199273882768,"connected_time":645000000000,"state":"active","ping":65},{"user_id":189,"name":"Iron Sheik","steam_id":76561198069980923,"connected_time":2075000000000,"state":"active","ping":60},{"user_id":259,"name":"unnamed","steam_id":76561198042760761,"connected_time":408000000000,"state":"active","ping":77},{"user_id":250,"name":"EXPLOSIVE BUNNY","steam_id":76561198871897563,"connected_time":1198000000000,"state":"active","ping":69}]},{"server_id":37,"name":"Uncletopia | Chicago | 6 | All Maps","name_short":"chi-6","host":"chi-2.us.uncletopia.com","port":27025,"enabled":true,"region":"us-central","cc":"us","latitude":41.881832,"longitude":-87.62318,"reserved":0,"last_update":"0001-01-01T00:00:00Z","name_a2s":"Uncletopia | Chicago | 6 | All Maps","protocol":17,"map":"pl_barnblitz","folder":"tf","game":"Team Fortress","app_id":440,"player_count":0,"max_players":24,"Bots":0,"server_type":"Dedicated","server_os":"Linux","password":true,"vac":true,"version":"7742253","steam_id":85568392924866363,"keywords":["nocrits","nodmgspread","payload","uncletopia"],"game_id":440,"stv_port":27026,"stv_name":"Uncletopia | Chicago | 6 | All Maps | STV","players":null},{"server_id":38,"name":"Uncletopia | Chicago | 7 | Stopwatch Beta","name_short":"chi-7","host":"chi-2.us.uncletopia.com","port":27035,"enabled":true,"region":"us-central","cc":"us","latitude":41.881832,"longitude":-87.62318,"reserved":0,"last_update":"0001-01-01T00:00:00Z","name_a2s":"Uncletopia | Chicago | 7 | Stopwatch Beta","protocol":17,"map":"koth_lakeside_final","folder":"tf","game":"Team Fortress","app_id":440,"player_count":0,"max_players":24,"Bots":0,"server_type":"Dedicated","server_os":"Linux","password":true,"vac":true,"version":"7742253","steam_id":85568392924866364,"keywords":["cp","nocrits","nodmgspread","uncletopia"],"game_id":440,"stv_port":27036,"stv_name":"Uncletopia | Chicago | 7 | Stopwatch Beta | STV","players":null},{"server_id":39,"name":"Uncletopia | Chicago | 8 | Community","name_short":"chi-8","host":"chi-2.us.uncletopia.com","port":27045,"enabled":true,"region":"us-central","cc":"us","latitude":41.881832,"longitude":-87.62318,"reserved":0,"last_update":"0001-01-01T00:00:00Z","name_a2s":"Uncletopia | Chicago | 8 | Community","protocol":17,"map":"koth_lakeside_final","folder":"tf","game":"Team Fortress","app_id":440,"player_count":0,"max_players":24,"Bots":0,"server_type":"Dedicated","server_os":"Linux","password":true,"vac":true,"version":"7742253","steam_id":85568392924866365,"keywords":["cp","nocrits","nodmgspread","uncletopia"],"game_id":440,"stv_port":27046,"stv_name":"Uncletopia | Chicago | 8 | Community | STV","players":null},{"server_id":8,"name":"Uncletopia | Dallas | 1 | All Maps","name_short":"dal-1","host":"dal-1.us.uncletopia.com","port":27015,"enabled":true,"region":"us-central","cc":"us","latitude":32.779167,"longitude":-96.80889,"reserved":0,"last_update":"0001-01-01T00:00:00Z","name_a2s":"Uncletopia | Dallas | 1 | All Maps","protocol":17,"map":"pl_thundermountain","folder":"tf","game":"Team Fortress","app_id":440,"player_count":24,"max_players":24,"Bots":0,"server_type":"Dedicated","server_os":"Linux","password":true,"vac":true,"version":"7742253","steam_id":85568392924469986,"keywords":["nocrits","nodmgspread","payload","uncletopia"],"game_id":440,"stv_port":27016,"stv_name":"Uncletopia | Dallas | 1 | All Maps | STV","players":[{"user_id":170,"name":"Kora (It/Its)","steam_id":76561198128017814,"connected_time":943000000000,"state":"active","ping":82},{"user_id":159,"name":"LiquidDip","steam_id":76561198090529456,"connected_time":2558000000000,"state":"active","ping":62},{"user_id":171,"name":"♥Stephiebees♥","steam_id":76561198021529860,"connected_time":938000000000,"state":"active","ping":92},{"user_id":168,"name":"bass97","steam_id":76561198849018884,"connected_time":1303000000000,"state":"active","ping":76},{"user_id":165,"name":"carrot cake","steam_id":76561198055174915,"connected_time":2137000000000,"state":"active","ping":78},{"user_id":156,"name":"Pleple895","steam_id":76561198085556553,"connected_time":2620000000000,"state":"active","ping":87},{"user_id":166,"name":"Ahamkeira (Kara/Kara's It/It's)","steam_id":76561198066152332,"connected_time":2009000000000,"state":"active","ping":92},{"user_id":133,"name":"Fishstall","steam_id":76561198038126034,"connected_time":3016000000000,"state":"active","ping":61},{"user_id":177,"name":"Awildrock","steam_id":76561198040401086,"connected_time":398000000000,"state":"active","ping":47},{"user_id":174,"name":"Turbo Sun Geyser","steam_id":76561198013975080,"connected_time":560000000000,"state":"active","ping":87},{"user_id":154,"name":"twitch.tv/fembotomy","steam_id":76561198102681457,"connected_time":2640000000000,"state":"active","ping":75},{"user_id":176,"name":"Jawbone17","steam_id":76561198043939302,"connected_time":409000000000,"state":"active","ping":96},{"user_id":173,"name":"A Gallon of PCP","steam_id":76561198958460901,"connected_time":685000000000,"state":"active","ping":69},{"user_id":178,"name":"Ballista","steam_id":76561197983182562,"connected_time":298000000000,"state":"active","ping":58},{"user_id":179,"name":"skidzz","steam_id":76561198257068611,"connected_time":269000000000,"state":"active","ping":62},{"user_id":181,"name":"Bean0914","steam_id":76561198261906023,"connected_time":105000000000,"state":"active","ping":92},{"user_id":162,"name":"Paco","steam_id":76561198023504958,"connected_time":2482000000000,"state":"active","ping":71},{"user_id":144,"name":"Yoru","steam_id":76561198119698950,"connected_time":2932000000000,"state":"active","ping":129},{"user_id":180,"name":"Chase McCain","steam_id":76561198314538469,"connected_time":267000000000,"state":"active","ping":97},{"user_id":129,"name":"Pixler544","steam_id":76561198240575132,"connected_time":3907000000000,"state":"active","ping":74},{"user_id":155,"name":"Fermenting Kiwi","steam_id":76561198253303497,"connected_time":2639000000000,"state":"active","ping":73},{"user_id":169,"name":"Tyler\u0026Fingers","steam_id":76561198085154485,"connected_time":1240000000000,"state":"active","ping":81},{"user_id":152,"name":"Phoenix","steam_id":76561197971265992,"connected_time":2694000000000,"state":"active","ping":105},{"user_id":163,"name":"soup time","steam_id":76561197961488590,"connected_time":2450000000000,"state":"active","ping":69}]},{"server_id":108,"name":"Uncletopia | Dallas | 2 | All Maps","name_short":"dal-2","host":"dal-1.us.uncletopia.com","port":27025,"enabled":true,"region":"us-central","cc":"us","latitude":32.779167,"longitude":-96.80889,"reserved":0,"last_update":"0001-01-01T00:00:00Z","name_a2s":"Uncletopia | Dallas | 2 | All Maps","protocol":17,"map":"pl_barnblitz","folder":"tf","game":"Team Fortress","app_id":440,"player_count":0,"max_players":24,"Bots":0,"server_type":"Dedicated","server_os":"Linux","password":true,"vac":true,"version":"7742253","steam_id":85568392924469988,"keywords":["nocrits","nodmgspread","payload","uncletopia"],"game_id":440,"stv_port":27026,"stv_name":"Uncletopia | Dallas | 2 | All Maps | STV","players":null},{"server_id":5,"name":"Uncletopia | Frankfurt | 1 | All Maps","name_short":"frk-1","host":"frk-1.de.uncletopia.com","port":27015,"enabled":true,"region":"eu","cc":"de","latitude":50.110924,"longitude":8.682127,"reserved":0,"last_update":"0001-01-01T00:00:00Z","name_a2s":"Uncletopia | Frankfurt | 1 | All Maps","protocol":17,"map":"pl_frontier_final","folder":"tf","game":"Team Fortress","app_id":440,"player_count":23,"max_players":24,"Bots":0,"server_type":"Dedicated","server_os":"Linux","password":true,"vac":true,"version":"7742253","steam_id":85568392924469989,"keywords":["nocrits","nodmgspread","payload","uncletopia"],"game_id":440,"stv_port":27016,"stv_name":"Uncletopia | Frankfurt | 1 | All Maps | STV","players":[{"user_id":355,"name":"T_G_G","steam_id":76561199114568070,"connected_time":1936000000000,"state":"active","ping":73},{"user_id":362,"name":"SomeRandomPlayer","steam_id":76561199191051178,"connected_time":519000000000,"state":"active","ping":114},{"user_id":328,"name":"Left Boob","steam_id":76561199359780574,"connected_time":3945000000000,"state":"active","ping":153},{"user_id":367,"name":"Gandalf","steam_id":76561199072668363,"connected_time":374000000000,"state":"active","ping":97},{"user_id":363,"name":"SIGMA BALLS","steam_id":76561198302623594,"connected_time":512000000000,"state":"active","ping":89},{"user_id":368,"name":"Stepoface","steam_id":76561198091569863,"connected_time":368000000000,"state":"active","ping":65},{"user_id":364,"name":"❅❆unnamed❆❅","steam_id":76561198870711791,"connected_time":509000000000,"state":"active","ping":66},{"user_id":345,"name":"Okacha","steam_id":76561198341166854,"connected_time":3412000000000,"state":"active","ping":93},{"user_id":365,"name":".::[SerafeTTiN]::.","steam_id":76561198009471724,"connected_time":495000000000,"state":"active","ping":80},{"user_id":366,"name":"clems17","steam_id":76561199420685482,"connected_time":487000000000,"state":"active","ping":51},{"user_id":360,"name":"Mark Knopfler","steam_id":76561198090736766,"connected_time":548000000000,"state":"active","ping":85},{"user_id":358,"name":"Turbo Unge","steam_id":76561199067700855,"connected_time":1495000000000,"state":"active","ping":63},{"user_id":369,"name":"Galaxy Space","steam_id":76561198420727344,"connected_time":349000000000,"state":"active","ping":67},{"user_id":370,"name":"Luke SpyWalker","steam_id":76561198008643276,"connected_time":319000000000,"state":"active","ping":55},{"user_id":281,"name":"Alin","steam_id":76561198059679991,"connected_time":7049000000000,"state":"active","ping":72},{"user_id":353,"name":"Seb, Comrade","steam_id":76561198040279587,"connected_time":2042000000000,"state":"active","ping":80},{"user_id":371,"name":"Kodutah","steam_id":76561198203405574,"connected_time":264000000000,"state":"active","ping":76},{"user_id":372,"name":"gardontar","steam_id":76561198169929053,"connected_time":221000000000,"state":"active","ping":45},{"user_id":375,"name":"Jin","steam_id":76561198248878364,"connected_time":7000000000,"state":"spawning","ping":321},{"user_id":361,"name":"Toucan Phoenix","steam_id":76561198314587216,"connected_time":547000000000,"state":"active","ping":70},{"user_id":373,"name":"Blink","steam_id":76561198144033005,"connected_time":213000000000,"state":"active","ping":60},{"user_id":374,"name":":p","steam_id":76561198123211757,"connected_time":85000000000,"state":"active","ping":82},{"user_id":289,"name":"sweeterthy","steam_id":76561198356325792,"connected_time":6591000000000,"state":"active","ping":106}]},{"server_id":110,"name":"Uncletopia | Frankfurt | 2 | All Maps","name_short":"frk-2","host":"frk-1.de.uncletopia.com","port":27025,"enabled":true,"region":"eu","cc":"de","latitude":50.110924,"longitude":8.682127,"reserved":0,"last_update":"0001-01-01T00:00:00Z","name_a2s":"Uncletopia | Frankfurt | 2 | All Maps","protocol":17,"map":"pl_upward","folder":"tf","game":"Team Fortress","app_id":440,"player_count":17,"max_players":24,"Bots":0,"server_type":"Dedicated","server_os":"Linux","password":true,"vac":true,"version":"7742253","steam_id":85568392924469990,"keywords":["nocrits","nodmgspread","payload","uncletopia"],"game_id":440,"stv_port":27026,"stv_name":"Uncletopia | Frankfurt | 2 | All Maps | STV","players":[{"user_id":81,"name":"ivanmixo","steam_id":76561198160213989,"connected_time":139000000000,"state":"active","ping":65},{"user_id":75,"name":"Major Tom","steam_id":76561198117525443,"connected_time":733000000000,"state":"active","ping":49},{"user_id":84,"name":"Dragon / Blue","steam_id":76561198153453055,"connected_time":39000000000,"state":"active","ping":55},{"user_id":67,"name":"void_star","steam_id":76561198035696014,"connected_time":1324000000000,"state":"active","ping":170},{"user_id":24,"name":"real toilet (not a human)","steam_id":76561198131423661,"connected_time":3584000000000,"state":"active","ping":62},{"user_id":23,"name":"onku","steam_id":76561199230709660,"connected_time":3707000000000,"state":"active","ping":45},{"user_id":64,"name":"Aiden","steam_id":76561198056132403,"connected_time":1367000000000,"state":"active","ping":162},{"user_id":72,"name":"Muppburg","steam_id":76561198031070682,"connected_time":933000000000,"state":"active","ping":64},{"user_id":59,"name":"real bath (not a human)","steam_id":76561198799953945,"connected_time":1712000000000,"state":"active","ping":60},{"user_id":60,"name":"a wheelbarrow (real)","steam_id":76561198220124617,"connected_time":1688000000000,"state":"active","ping":56},{"user_id":78,"name":"Fat Pigeon","steam_id":76561198817940142,"connected_time":384000000000,"state":"active","ping":59},{"user_id":53,"name":"[Insert Oneshot refrence]","steam_id":76561198951206047,"connected_time":2261000000000,"state":"active","ping":84},{"user_id":82,"name":"Spazmatic","steam_id":76561198060956170,"connected_time":127000000000,"state":"active","ping":113},{"user_id":73,"name":"эмо бой 2007","steam_id":76561198243917964,"connected_time":900000000000,"state":"active","ping":90},{"user_id":44,"name":"Chilchang Billing","steam_id":76561197993300020,"connected_time":2680000000000,"state":"active","ping":61},{"user_id":83,"name":"ChariZarder","steam_id":76561199002139118,"connected_time":125000000000,"state":"active","ping":66},{"user_id":45,"name":"Coaie de porc","steam_id":76561198148154986,"connected_time":2665000000000,"state":"active","ping":62}]},{"server_id":308,"name":"Uncletopia | Frankfurt | 3 | All Maps","name_short":"frk-3","host":"frk-1.de.uncletopia.com","port":27035,"enabled":true,"region":"eu","cc":"de","latitude":50.110924,"longitude":8.682127,"reserved":0,"last_update":"0001-01-01T00:00:00Z","name_a2s":"Uncletopia | Frankfurt | 3 | All Maps","protocol":17,"map":"pl_frontier_final","folder":"tf","game":"Team Fortress","app_id":440,"player_count":0,"max_players":24,"Bots":0,"server_type":"Dedicated","server_os":"Linux","password":true,"vac":true,"version":"7742253","steam_id":85568392924504274,"keywords":["nocrits","nodmgspread","payload","uncletopia"],"game_id":440,"stv_port":27036,"stv_name":"Uncletopia | Frankfurt | 3 | All Maps | STV","players":null},{"server_id":309,"name":"Uncletopia | Frankfurt | 4 | All Maps","name_short":"frk-4","host":"frk-1.de.uncletopia.com","port":27045,"enabled":true,"region":"eu","cc":"de","latitude":50.110924,"longitude":8.682127,"reserved":0,"last_update":"0001-01-01T00:00:00Z","name_a2s":"Uncletopia | Frankfurt | 4 | All Maps","protocol":17,"map":"pl_snowycoast","folder":"tf","game":"Team Fortress","app_id":440,"player_count":24,"max_players":24,"Bots":0,"server_type":"Dedicated","server_os":"Linux","password":true,"vac":true,"version":"7742253","steam_id":85568392924504275,"keywords":["nocrits","nodmgspread","payload","uncletopia"],"game_id":440,"stv_port":27046,"stv_name":"Uncletopia | Frankfurt | 4 | All Maps | STV","players":[{"user_id":71,"name":"Yony","steam_id":76561199070569941,"connected_time":6056000000000,"state":"active","ping":60},{"user_id":109,"name":"Hugz","steam_id":76561198069572147,"connected_time":3902000000000,"state":"active","ping":88},{"user_id":116,"name":"FishNachoz","steam_id":76561198026519426,"connected_time":3264000000000,"state":"active","ping":66},{"user_id":152,"name":"Rask","steam_id":76561198052934944,"connected_time":799000000000,"state":"active","ping":94},{"user_id":151,"name":"real human bean","steam_id":76561198059535856,"connected_time":811000000000,"state":"active","ping":167},{"user_id":106,"name":"kackboon","steam_id":76561198044189114,"connected_time":3965000000000,"state":"active","ping":58},{"user_id":148,"name":"poliakov.noam","steam_id":76561199259322961,"connected_time":942000000000,"state":"active","ping":101},{"user_id":156,"name":"GodOfGobboz","steam_id":76561198154677956,"connected_time":549000000000,"state":"active","ping":65},{"user_id":143,"name":"Incoming","steam_id":76561199062581310,"connected_time":1313000000000,"state":"active","ping":161},{"user_id":149,"name":"Alfred Schroom","steam_id":76561198117990411,"connected_time":850000000000,"state":"active","ping":86},{"user_id":132,"name":",zem","steam_id":76561198864329072,"connected_time":2576000000000,"state":"active","ping":90},{"user_id":163,"name":"ml0301","steam_id":76561198017216360,"connected_time":49000000000,"state":"spawning","ping":210},{"user_id":136,"name":"NALA","steam_id":76561198039806469,"connected_time":1876000000000,"state":"active","ping":68},{"user_id":133,"name":"Daddy Donovan","steam_id":76561198140938904,"connected_time":2471000000000,"state":"active","ping":65},{"user_id":112,"name":"dude m8","steam_id":76561198155649280,"connected_time":3533000000000,"state":"active","ping":51},{"user_id":158,"name":"your_local_penguin","steam_id":76561199224954346,"connected_time":504000000000,"state":"active","ping":88},{"user_id":120,"name":"Spootnak","steam_id":76561198049052518,"connected_time":3200000000000,"state":"active","ping":77},{"user_id":154,"name":"HedgehogdudeⅢ","steam_id":76561198305290568,"connected_time":672000000000,"state":"active","ping":92},{"user_id":161,"name":"JugoTopia","steam_id":76561197996067209,"connected_time":209000000000,"state":"active","ping":123},{"user_id":138,"name":"purplecan","steam_id":76561199208283508,"connected_time":1637000000000,"state":"active","ping":56},{"user_id":147,"name":"Dominus.","steam_id":76561199065917088,"connected_time":1008000000000,"state":"active","ping":76},{"user_id":85,"name":"Super Noob","steam_id":76561199179611350,"connected_time":5050000000000,"state":"active","ping":167},{"user_id":164,"name":"bAdmon","steam_id":76561197961785793,"connected_time":47000000000,"state":"active","ping":56},{"user_id":146,"name":"Krokinet","steam_id":76561198985877252,"connected_time":1105000000000,"state":"active","ping":93}]},{"server_id":310,"name":"Uncletopia | Frankfurt | 5 | All Maps","name_short":"frk-5","host":"frk-1.de.uncletopia.com","port":27055,"enabled":true,"region":"eu","cc":"de","latitude":50.110924,"longitude":8.682127,"reserved":0,"last_update":"0001-01-01T00:00:00Z","name_a2s":"Uncletopia | Frankfurt | 5 | All Maps","protocol":17,"map":"koth_highpass","folder":"tf","game":"Team Fortress","app_id":440,"player_count":0,"max_players":24,"Bots":0,"server_type":"Dedicated","server_os":"Linux","password":true,"vac":true,"version":"7742253","steam_id":85568392924504277,"keywords":["cp","nocrits","nodmgspread","uncletopia"],"game_id":440,"stv_port":27056,"stv_name":"Uncletopia | Frankfurt | 5 | All Maps | STV","players":null},{"server_id":311,"name":"Uncletopia | Frankfurt | 6 | All Maps","name_short":"frk-6","host":"frk-1.de.uncletopia.com","port":27065,"enabled":true,"region":"eu","cc":"de","latitude":50.110924,"longitude":8.682127,"reserved":0,"last_update":"0001-01-01T00:00:00Z","name_a2s":"Uncletopia | Frankfurt | 6 | All Maps","protocol":17,"map":"pl_swiftwater_final1","folder":"tf","game":"Team Fortress","app_id":440,"player_count":21,"max_players":24,"Bots":0,"server_type":"Dedicated","server_os":"Linux","password":true,"vac":true,"version":"7742253","steam_id":85568392924504278,"keywords":["nocrits","nodmgspread","payload","uncletopia"],"game_id":440,"stv_port":27066,"stv_name":"Uncletopia | Frankfurt | 6 | All Maps | STV","players":[{"user_id":300,"name":"Yata","steam_id":76561198195284171,"connected_time":1435000000000,"state":"active","ping":126},{"user_id":311,"name":"mt","steam_id":76561197961319303,"connected_time":922000000000,"state":"active","ping":51},{"user_id":297,"name":"d00bie","steam_id":76561198025295218,"connected_time":1491000000000,"state":"active","ping":61},{"user_id":317,"name":"NotFionn","steam_id":76561198890525176,"connected_time":51000000000,"state":"active","ping":81},{"user_id":318,"name":"Infantile Pillock","steam_id":76561198283851362,"connected_time":29000000000,"state":"active","ping":61},{"user_id":301,"name":"Seargant Snagge","steam_id":76561198055227276,"connected_time":1398000000000,"state":"active","ping":83},{"user_id":279,"name":"Insomnael","steam_id":76561198010791637,"connected_time":3163000000000,"state":"active","ping":57},{"user_id":294,"name":"trite","steam_id":76561197983765323,"connected_time":1651000000000,"state":"active","ping":55},{"user_id":289,"name":"magras","steam_id":76561198972671525,"connected_time":2141000000000,"state":"active","ping":106},{"user_id":314,"name":"mushkin","steam_id":76561198272597671,"connected_time":410000000000,"state":"active","ping":60},{"user_id":247,"name":"citronous","steam_id":76561198093290934,"connected_time":5507000000000,"state":"active","ping":57},{"user_id":287,"name":"DanteFromDmc5","steam_id":76561198390314734,"connected_time":2806000000000,"state":"active","ping":62},{"user_id":285,"name":"Welder","steam_id":76561198355300561,"connected_time":2919000000000,"state":"active","ping":75},{"user_id":286,"name":"lemone","steam_id":76561198061182835,"connected_time":2866000000000,"state":"active","ping":52},{"user_id":302,"name":"Solymr ibn Wali Barad","steam_id":76561198044008976,"connected_time":1373000000000,"state":"active","ping":75},{"user_id":293,"name":"Antonio Gilipollas Caraculo","steam_id":76561198412197820,"connected_time":1847000000000,"state":"active","ping":79},{"user_id":261,"name":"Tzeentch","steam_id":76561198038862347,"connected_time":4530000000000,"state":"active","ping":74},{"user_id":296,"name":"cheezy27","steam_id":76561198071067236,"connected_time":1531000000000,"state":"active","ping":83},{"user_id":305,"name":"gorg","steam_id":76561198160285627,"connected_time":1359000000000,"state":"active","ping":56},{"user_id":277,"name":"Regular Human","steam_id":76561198083228561,"connected_time":3537000000000,"state":"active","ping":100},{"user_id":306,"name":"jge","steam_id":76561198123186387,"connected_time":1339000000000,"state":"active","ping":58}]},{"server_id":23,"name":"Uncletopia | Frankfurt | 7 | Stopwatch Beta","name_short":"frk-7","host":"frk-1.de.uncletopia.com","port":27075,"enabled":true,"region":"eu","cc":"de","latitude":50.110924,"longitude":8.682127,"reserved":0,"last_update":"0001-01-01T00:00:00Z","name_a2s":"Uncletopia | Frankfurt | 7 | Stopwatch Beta","protocol":17,"map":"pl_upward","folder":"tf","game":"Team Fortress","app_id":440,"player_count":0,"max_players":24,"Bots":0,"server_type":"Dedicated","server_os":"Linux","password":true,"vac":true,"version":"7742253","steam_id":85568392924742827,"keywords":["nocrits","nodmgspread","payload","uncletopia"],"game_id":440,"stv_port":27076,"stv_name":"Uncletopia | Frankfurt | 7 | Stopwatch Beta | STV","players":null},{"server_id":24,"name":"Uncletopia | Frankfurt | 8 | Community","name_short":"frk-8","host":"frk-1.de.uncletopia.com","port":27085,"enabled":true,"region":"eu","cc":"de","latitude":50.110924,"longitude":8.682127,"reserved":0,"last_update":"0001-01-01T00:00:00Z","name_a2s":"Uncletopia | Frankfurt | 8 | Community","protocol":17,"map":"workshop/pl_barnblitz_pro7.ugc582280235","folder":"tf","game":"Team Fortress","app_id":440,"player_count":0,"max_players":24,"Bots":0,"server_type":"Dedicated","server_os":"Linux","password":true,"vac":true,"version":"7742253","steam_id":85568392924742828,"keywords":["nocrits","nodmgspread","payload","uncletopia"],"game_id":440,"stv_port":27086,"stv_name":"Uncletopia | Frankfurt | 8 | Community | STV","players":null},{"server_id":202,"name":"Uncletopia | Hong Kong | 1 | All Maps","name_short":"hgk-1","host":"hgk-1.hk.uncletopia.com","port":27015,"enabled":true,"region":"asia","cc":"hk","latitude":22.302711,"longitude":114.177216,"reserved":0,"last_update":"0001-01-01T00:00:00Z","name_a2s":"Uncletopia | Hong Kong | 1 | All Maps","protocol":17,"map":"plr_hightower","folder":"tf","game":"Team Fortress","app_id":440,"player_count":24,"max_players":24,"Bots":0,"server_type":"Dedicated","server_os":"Linux","password":true,"vac":true,"version":"7742253","steam_id":85568392924494504,"keywords":["nocrits","nodmgspread","payload","uncletopia"],"game_id":440,"stv_port":27016,"stv_name":"Uncletopia | Hong Kong | 1 | All Maps | STV","players":[{"user_id":1240,"name":"A random gamer 2","steam_id":76561199447488468,"connected_time":3327000000000,"state":"active","ping":77},{"user_id":1276,"name":"여름","steam_id":76561198274438558,"connected_time":1828000000000,"state":"active","ping":84},{"user_id":1239,"name":"yw","steam_id":76561199382726488,"connected_time":3399000000000,"state":"active","ping":75},{"user_id":1254,"name":"ㄹㄷ","steam_id":76561199365665188,"connected_time":2488000000000,"state":"active","ping":81},{"user_id":1275,"name":"Infra","steam_id":76561198924576271,"connected_time":1852000000000,"state":"active","ping":85},{"user_id":1244,"name":"bird","steam_id":76561198384135605,"connected_time":2884000000000,"state":"active","ping":84},{"user_id":1267,"name":"u/Plencers2","steam_id":76561198311052198,"connected_time":2069000000000,"state":"active","ping":77},{"user_id":1291,"name":"yeee","steam_id":76561198411054082,"connected_time":52000000000,"state":"spawning","ping":147},{"user_id":1269,"name":"UUZ.E","steam_id":76561199225960081,"connected_time":2054000000000,"state":"active","ping":60},{"user_id":1243,"name":"0range","steam_id":76561198241996524,"connected_time":3111000000000,"state":"active","ping":88},{"user_id":1266,"name":"hpeed","steam_id":76561198808595586,"connected_time":2108000000000,"state":"active","ping":69},{"user_id":1290,"name":"Talkk More","steam_id":76561198305424433,"connected_time":215000000000,"state":"active","ping":100},{"user_id":1245,"name":"Dr. Piss Rat","steam_id":76561199074809838,"connected_time":2877000000000,"state":"active","ping":62},{"user_id":1217,"name":"brizzard","steam_id":76561198048438653,"connected_time":4480000000000,"state":"active","ping":50},{"user_id":504,"name":"Bertengkar","steam_id":76561198213031155,"connected_time":19557000000000,"state":"active","ping":107},{"user_id":1128,"name":"母の肉団子","steam_id":76561198069561896,"connected_time":5675000000000,"state":"active","ping":40},{"user_id":1273,"name":"Puddin","steam_id":76561198140052918,"connected_time":1910000000000,"state":"active","ping":91},{"user_id":1274,"name":"the circumciser","steam_id":76561199212006657,"connected_time":1863000000000,"state":"active","ping":84},{"user_id":1238,"name":"Not So poggers #savetf2","steam_id":76561199159894607,"connected_time":3591000000000,"state":"active","ping":59},{"user_id":1277,"name":"하콘이","steam_id":76561198064205575,"connected_time":1776000000000,"state":"active","ping":82},{"user_id":1287,"name":"whippyman","steam_id":76561198137069257,"connected_time":1010000000000,"state":"active","ping":104},{"user_id":1280,"name":"CyloCrypt","steam_id":76561199247129620,"connected_time":1707000000000,"state":"active","ping":155},{"user_id":1285,"name":"Nat","steam_id":76561197995044074,"connected_time":1157000000000,"state":"active","ping":118},{"user_id":1289,"name":"Batbob","steam_id":76561198999413123,"connected_time":854000000000,"state":"active","ping":78}]},{"server_id":1,"name":"Uncletopia | Los Angeles | 1 | All Maps","name_short":"lax-1","host":"lax-1.us.uncletopia.com","port":27015,"enabled":true,"region":"us-west","cc":"us","latitude":33.94279,"longitude":-118.41004,"reserved":0,"last_update":"0001-01-01T00:00:00Z","name_a2s":"Uncletopia | Los Angeles | 1 | All Maps","protocol":17,"map":"cp_dustbowl","folder":"tf","game":"Team Fortress","app_id":440,"player_count":0,"max_players":24,"Bots":0,"server_type":"Dedicated","server_os":"Linux","password":true,"vac":true,"version":"7742253","steam_id":85568392924469991,"keywords":["cp","nocrits","nodmgspread","uncletopia"],"game_id":440,"stv_port":27016,"stv_name":"Uncletopia | Los Angeles | 1 | All Maps | STV","players":null},{"server_id":112,"name":"Uncletopia | Los Angeles | 2 | All Maps","name_short":"lax-2","host":"lax-1.us.uncletopia.com","port":27025,"enabled":true,"region":"us-west","cc":"us","latitude":33.94279,"longitude":-118.41004,"reserved":0,"last_update":"0001-01-01T00:00:00Z","name_a2s":"Uncletopia | Los Angeles | 2 | All Maps","protocol":17,"map":"pl_frontier_final","folder":"tf","game":"Team Fortress","app_id":440,"player_count":0,"max_players":24,"Bots":0,"server_type":"Dedicated","server_os":"Linux","password":true,"vac":true,"version":"7742253","steam_id":85568392924469992,"keywords":["nocrits","nodmgspread","payload","uncletopia"],"game_id":440,"stv_port":27026,"stv_name":"Uncletopia | Los Angeles | 2 | All Maps | STV","players":null},{"server_id":324,"name":"Uncletopia | Los Angeles | 3 | All Maps","name_short":"lax-3","host":"lax-1.us.uncletopia.com","port":27035,"enabled":true,"region":"us-west","cc":"us","latitude":33.94279,"longitude":-118.41004,"reserved":0,"last_update":"0001-01-01T00:00:00Z","name_a2s":"Uncletopia | Los Angeles | 3 | All Maps","protocol":17,"map":"cp_snakewater_final1","folder":"tf","game":"Team Fortress","app_id":440,"player_count":0,"max_players":24,"Bots":0,"server_type":"Dedicated","server_os":"Linux","password":true,"vac":true,"version":"7742253","steam_id":85568392924510198,"keywords":["cp","nocrits","nodmgspread","uncletopia"],"game_id":440,"stv_port":27036,"stv_name":"Uncletopia | Los Angeles | 3 | All Maps | STV","players":null},{"server_id":25,"name":"Uncletopia | Los Angeles | 4 | Stopwatch Beta","name_short":"lax-4","host":"lax-1.us.uncletopia.com","port":27045,"enabled":true,"region":"us-west","cc":"us","latitude":33.94279,"longitude":-118.41004,"reserved":0,"last_update":"0001-01-01T00:00:00Z","name_a2s":"Uncletopia | Los Angeles | 4 | Stopwatch Beta","protocol":17,"map":"cp_snakewater_final1","folder":"tf","game":"Team Fortress","app_id":440,"player_count":0,"max_players":24,"Bots":0,"server_type":"Dedicated","server_os":"Linux","password":true,"vac":true,"version":"7742253","steam_id":85568392924510199,"keywords":["cp","nocrits","nodmgspread","uncletopia"],"game_id":440,"stv_port":27046,"stv_name":"Uncletopia | Los Angeles | 4 | Stopwatch Beta | STV","players":null},{"server_id":11,"name":"Uncletopia | London | 1 | All Maps","name_short":"lon-1","host":"lon-1.uk.uncletopia.com","port":27015,"enabled":true,"region":"eu","cc":"gb","latitude":51.509865,"longitude":-0.118092,"reserved":0,"last_update":"0001-01-01T00:00:00Z","name_a2s":"Uncletopia | London | 1 | All Maps","protocol":17,"map":"pl_badwater","folder":"tf","game":"Team Fortress","app_id":440,"player_count":24,"max_players":24,"Bots":0,"server_type":"Dedicated","server_os":"Linux","password":true,"vac":true,"version":"7742253","steam_id":85568392924367362,"keywords":["nocrits","nodmgspread","payload","uncletopia"],"game_id":440,"stv_port":27016,"stv_name":"Uncletopia | London | 1 | All Maps | STV","players":[{"user_id":303,"name":"pyromaniac","steam_id":76561198292781255,"connected_time":364000000000,"state":"active","ping":69},{"user_id":304,"name":"gnarly business","steam_id":76561198832688767,"connected_time":362000000000,"state":"active","ping":55},{"user_id":299,"name":"Boyarishnik","steam_id":76561198986324207,"connected_time":637000000000,"state":"active","ping":91},{"user_id":177,"name":"your dads bald spot","steam_id":76561199383437138,"connected_time":4179000000000,"state":"active","ping":117},{"user_id":205,"name":"Koli","steam_id":76561197992428783,"connected_time":2868000000000,"state":"active","ping":60},{"user_id":254,"name":"That Demo Is A Spy","steam_id":76561199013368332,"connected_time":1644000000000,"state":"active","ping":107},{"user_id":180,"name":"tugcan3021","steam_id":76561198236015392,"connected_time":3501000000000,"state":"active","ping":122},{"user_id":84,"name":"BarrackOmaha","steam_id":76561198027922724,"connected_time":13661000000000,"state":"active","ping":67},{"user_id":316,"name":"Dukuu_Topmuk","steam_id":76561198420338931,"connected_time":114000000000,"state":"active","ping":49},{"user_id":306,"name":"owl","steam_id":76561198229230864,"connected_time":344000000000,"state":"active","ping":90},{"user_id":307,"name":"Hyper","steam_id":76561198255568514,"connected_time":330000000000,"state":"active","ping":54},{"user_id":287,"name":"Tesamark","steam_id":76561198976158359,"connected_time":962000000000,"state":"active","ping":54},{"user_id":131,"name":"[Mg] Zé Péquéno","steam_id":76561198000927489,"connected_time":9375000000000,"state":"active","ping":56},{"user_id":320,"name":"djirek","steam_id":76561199012963376,"connected_time":40000000000,"state":"spawning","ping":244},{"user_id":309,"name":"Getrkod","steam_id":76561198986560793,"connected_time":324000000000,"state":"active","ping":52},{"user_id":317,"name":"Relocation Agent","steam_id":76561198026133917,"connected_time":106000000000,"state":"active","ping":101},{"user_id":208,"name":"jeff","steam_id":76561198272815746,"connected_time":2835000000000,"state":"active","ping":50},{"user_id":318,"name":"Real (Real)","steam_id":76561198323425034,"connected_time":59000000000,"state":"active","ping":81},{"user_id":301,"name":"Nyarley","steam_id":76561197961152751,"connected_time":569000000000,"state":"active","ping":62},{"user_id":214,"name":"Kotlet schabowy","steam_id":76561198048983509,"connected_time":2755000000000,"state":"active","ping":80},{"user_id":321,"name":"galad.game","steam_id":76561198336324159,"connected_time":17000000000,"state":"spawning","ping":59},{"user_id":169,"name":"Whyx","steam_id":76561198064909404,"connected_time":4946000000000,"state":"active","ping":59},{"user_id":271,"name":"dysesthesia","steam_id":76561198027159018,"connected_time":1284000000000,"state":"active","ping":156},{"user_id":275,"name":"Rain","steam_id":76561198186993269,"connected_time":1189000000000,"state":"active","ping":62}]},{"server_id":114,"name":"Uncletopia | London | 2 | All Maps","name_short":"lon-2","host":"lon-1.uk.uncletopia.com","port":27025,"enabled":true,"region":"eu","cc":"gb","latitude":51.509865,"longitude":-0.118092,"reserved":0,"last_update":"0001-01-01T00:00:00Z","name_a2s":"Uncletopia | London | 2 | All Maps","protocol":17,"map":"ctf_turbine","folder":"tf","game":"Team Fortress","app_id":440,"player_count":22,"max_players":24,"Bots":0,"server_type":"Dedicated","server_os":"Linux","password":true,"vac":true,"version":"7742253","steam_id":85568392924470941,"keywords":["ctf","nocrits","nodmgspread","uncletopia"],"game_id":440,"stv_port":27026,"stv_name":"Uncletopia | London | 2 | All Maps | STV","players":[{"user_id":150,"name":"SilloGamer","steam_id":76561198840129251,"connected_time":2870000000000,"state":"active","ping":93},{"user_id":113,"name":"Comunisation","steam_id":76561199131568273,"connected_time":4521000000000,"state":"active","ping":70},{"user_id":181,"name":"TTB","steam_id":76561198839462063,"connected_time":778000000000,"state":"active","ping":96},{"user_id":82,"name":"Flare","steam_id":76561198039098320,"connected_time":6782000000000,"state":"active","ping":53},{"user_id":160,"name":"PROFILE NAME","steam_id":76561199020903774,"connected_time":1853000000000,"state":"active","ping":62},{"user_id":159,"name":"MAJAX","steam_id":76561198254828632,"connected_time":1855000000000,"state":"active","ping":65},{"user_id":182,"name":"Alexander Maxwell Nox","steam_id":76561198936369385,"connected_time":744000000000,"state":"active","ping":54},{"user_id":175,"name":"Placek","steam_id":76561198396258285,"connected_time":1261000000000,"state":"active","ping":58},{"user_id":156,"name":"NormalMan","steam_id":76561198411005486,"connected_time":1903000000000,"state":"active","ping":80},{"user_id":132,"name":"wheelie bin","steam_id":76561198040040328,"connected_time":3431000000000,"state":"active","ping":43},{"user_id":180,"name":"Odoacre","steam_id":76561198110772276,"connected_time":857000000000,"state":"active","ping":56},{"user_id":173,"name":"InfamousAxe","steam_id":76561198099504739,"connected_time":1421000000000,"state":"active","ping":107},{"user_id":167,"name":"Falke117","steam_id":76561198101988594,"connected_time":1778000000000,"state":"active","ping":61},{"user_id":176,"name":"Echks","steam_id":76561198098441160,"connected_time":1259000000000,"state":"active","ping":126},{"user_id":96,"name":"Dark Lord","steam_id":76561198047359132,"connected_time":5643000000000,"state":"active","ping":67},{"user_id":184,"name":"MyFirstTimeeeeelel","steam_id":76561199235376543,"connected_time":75000000000,"state":"active","ping":64},{"user_id":185,"name":"barbara","steam_id":76561198072417792,"connected_time":37000000000,"state":"spawning","ping":180},{"user_id":186,"name":"UltimateAura","steam_id":76561198338361324,"connected_time":12000000000,"state":"active","ping":101},{"user_id":128,"name":"Dr. Funkenstein","steam_id":76561197977816210,"connected_time":3576000000000,"state":"active","ping":65},{"user_id":177,"name":"Perämiehenä","steam_id":76561197968945306,"connected_time":1237000000000,"state":"active","ping":85},{"user_id":89,"name":"Sneaky boi","steam_id":76561199195985387,"connected_time":6244000000000,"state":"active","ping":86},{"user_id":154,"name":"LemonLeCitron","steam_id":76561198215545267,"connected_time":2136000000000,"state":"active","ping":103}]},{"server_id":320,"name":"Uncletopia | London | 3 | All Maps","name_short":"lon-3","host":"lon-1.uk.uncletopia.com","port":27035,"enabled":true,"region":"eu","cc":"gb","latitude":51.509865,"longitude":-0.118092,"reserved":0,"last_update":"0001-01-01T00:00:00Z","name_a2s":"Uncletopia | London | 3 | All Maps","protocol":17,"map":"koth_highpass","folder":"tf","game":"Team Fortress","app_id":440,"player_count":5,"max_players":24,"Bots":0,"server_type":"Dedicated","server_os":"Linux","password":true,"vac":true,"version":"7742253","steam_id":85568392924510192,"keywords":["cp","nocrits","nodmgspread","uncletopia"],"game_id":440,"stv_port":27036,"stv_name":"Uncletopia | London | 3 | All Maps | STV","players":[{"user_id":19,"name":"про339","steam_id":76561198428111079,"connected_time":2070000000000,"state":"active","ping":86},{"user_id":28,"name":"ElreX","steam_id":76561198262445885,"connected_time":333000000000,"state":"active","ping":110},{"user_id":24,"name":"isoja mustia palloja","steam_id":76561198443632133,"connected_time":611000000000,"state":"active","ping":106},{"user_id":26,"name":"Calsim","steam_id":76561198164877219,"connected_time":432000000000,"state":"active","ping":37},{"user_id":27,"name":"snail","steam_id":76561198312155722,"connected_time":422000000000,"state":"active","ping":67}]},{"server_id":321,"name":"Uncletopia | London | 4 | All Maps","name_short":"lon-4","host":"lon-1.uk.uncletopia.com","port":27045,"enabled":true,"region":"eu","cc":"gb","latitude":51.509865,"longitude":-0.118092,"reserved":0,"last_update":"0001-01-01T00:00:00Z","name_a2s":"Uncletopia | London | 4 | All Maps","protocol":17,"map":"koth_viaduct","folder":"tf","game":"Team Fortress","app_id":440,"player_count":23,"max_players":24,"Bots":0,"server_type":"Dedicated","server_os":"Linux","password":true,"vac":true,"version":"7742253","steam_id":85568392924510193,"keywords":["cp","nocrits","nodmgspread","uncletopia"],"game_id":440,"stv_port":27046,"stv_name":"Uncletopia | London | 4 | All Maps | STV","players":[{"user_id":469,"name":"One armed fiddle enthusiast","steam_id":76561198045847051,"connected_time":2298000000000,"state":"active","ping":59},{"user_id":467,"name":"Shima","steam_id":76561199042470246,"connected_time":2393000000000,"state":"active","ping":61},{"user_id":496,"name":"waffle toaster","steam_id":76561198799089628,"connected_time":206000000000,"state":"active","ping":50},{"user_id":468,"name":"Pinroe","steam_id":76561198968160899,"connected_time":2325000000000,"state":"active","ping":83},{"user_id":495,"name":"I jazzed myself","steam_id":76561198203016603,"connected_time":537000000000,"state":"active","ping":40},{"user_id":407,"name":"Nin","steam_id":76561198227246584,"connected_time":8089000000000,"state":"active","ping":71},{"user_id":446,"name":"Miton","steam_id":76561197970323209,"connected_time":4751000000000,"state":"active","ping":86},{"user_id":471,"name":"robbob","steam_id":76561198137375391,"connected_time":2256000000000,"state":"active","ping":85},{"user_id":490,"name":"r06u3","steam_id":76561198254099253,"connected_time":1265000000000,"state":"active","ping":169},{"user_id":353,"name":"Penis Contortionist","steam_id":76561198073663784,"connected_time":10663000000000,"state":"active","ping":32},{"user_id":484,"name":"DaVitsChi","steam_id":76561199035895096,"connected_time":1741000000000,"state":"active","ping":71},{"user_id":479,"name":"Tanza -","steam_id":76561197961335217,"connected_time":2034000000000,"state":"active","ping":43},{"user_id":432,"name":"majora's boostio","steam_id":76561198392628642,"connected_time":5519000000000,"state":"active","ping":48},{"user_id":499,"name":"torn","steam_id":76561198223003236,"connected_time":179000000000,"state":"active","ping":55},{"user_id":421,"name":"ne malediction","steam_id":76561199042453638,"connected_time":6711000000000,"state":"active","ping":82},{"user_id":497,"name":"Daithí","steam_id":76561198968911021,"connected_time":206000000000,"state":"active","ping":57},{"user_id":435,"name":"glyph","steam_id":76561197980736364,"connected_time":5492000000000,"state":"active","ping":80},{"user_id":408,"name":"Fran","steam_id":76561198339019518,"connected_time":7998000000000,"state":"active","ping":72},{"user_id":491,"name":"Lag","steam_id":76561198159360376,"connected_time":1116000000000,"state":"active","ping":40},{"user_id":473,"name":"Oggy","steam_id":76561198853631817,"connected_time":2241000000000,"state":"active","ping":70},{"user_id":498,"name":"Blobbaz","steam_id":76561198031076278,"connected_time":204000000000,"state":"active","ping":47},{"user_id":481,"name":"man door hand hook car door","steam_id":76561198329640236,"connected_time":1956000000000,"state":"active","ping":45},{"user_id":386,"name":"Kurage","steam_id":76561198021221288,"connected_time":8740000000000,"state":"active","ping":69}]},{"server_id":21,"name":"Uncletopia | London | 5 | All Maps","name_short":"lon-5","host":"lon-1.uk.uncletopia.com","port":27055,"enabled":true,"region":"eu","cc":"gb","latitude":51.509865,"longitude":-0.118092,"reserved":0,"last_update":"0001-01-01T00:00:00Z","name_a2s":"Uncletopia | London | 5 | All Maps","protocol":17,"map":"pl_frontier_final","folder":"tf","game":"Team Fortress","app_id":440,"player_count":0,"max_players":24,"Bots":0,"server_type":"Dedicated","server_os":"Linux","password":true,"vac":true,"version":"7742253","steam_id":85568392924742829,"keywords":["nocrits","nodmgspread","payload","uncletopia"],"game_id":440,"stv_port":27056,"stv_name":"Uncletopia | London | 5 | All Maps | STV","players":null},{"server_id":22,"name":"Uncletopia | London | 6 | All Maps","name_short":"lon-6","host":"lon-1.uk.uncletopia.com","port":27065,"enabled":true,"region":"eu","cc":"gb","latitude":51.509865,"longitude":-0.118092,"reserved":0,"last_update":"0001-01-01T00:00:00Z","name_a2s":"Uncletopia | London | 6 | All Maps","protocol":17,"map":"pl_snowycoast","folder":"tf","game":"Team Fortress","app_id":440,"player_count":24,"max_players":24,"Bots":0,"server_type":"Dedicated","server_os":"Linux","password":true,"vac":true,"version":"7742253","steam_id":85568392924742830,"keywords":["nocrits","nodmgspread","payload","uncletopia"],"game_id":440,"stv_port":27066,"stv_name":"Uncletopia | London | 6 | All Maps | STV","players":[{"user_id":29,"name":"soar","steam_id":76561198010662796,"connected_time":5687000000000,"state":"active","ping":40},{"user_id":143,"name":"☢ Eclipse ☢","steam_id":76561198076520751,"connected_time":734000000000,"state":"active","ping":89},{"user_id":114,"name":"Rizzlegone","steam_id":76561198307655790,"connected_time":1376000000000,"state":"active","ping":150},{"user_id":136,"name":"Dr.Sees [F2P]","steam_id":76561199219233587,"connected_time":956000000000,"state":"active","ping":75},{"user_id":146,"name":"Evgeny","steam_id":76561198039453740,"connected_time":580000000000,"state":"active","ping":62},{"user_id":147,"name":"Joehncey","steam_id":76561198150384170,"connected_time":222000000000,"state":"active","ping":59},{"user_id":119,"name":"Mr Weatherman","steam_id":76561198435297875,"connected_time":1292000000000,"state":"active","ping":42},{"user_id":54,"name":"JeanCorben","steam_id":76561197965133561,"connected_time":3594000000000,"state":"active","ping":40},{"user_id":140,"name":"noob_STALIN","steam_id":76561198273030727,"connected_time":760000000000,"state":"active","ping":49},{"user_id":44,"name":"adolf rizzler","steam_id":76561198015876799,"connected_time":4742000000000,"state":"active","ping":69},{"user_id":141,"name":"htraB","steam_id":76561198043122677,"connected_time":755000000000,"state":"active","ping":70},{"user_id":148,"name":"Enda","steam_id":76561198202980164,"connected_time":124000000000,"state":"active","ping":88},{"user_id":21,"name":"TheBeardedM1G","steam_id":76561198040208946,"connected_time":5887000000000,"state":"active","ping":46},{"user_id":133,"name":"jaMie","steam_id":76561198170148783,"connected_time":1066000000000,"state":"active","ping":40},{"user_id":149,"name":"Lewee","steam_id":76561198058828018,"connected_time":67000000000,"state":"active","ping":45},{"user_id":124,"name":"Stagred","steam_id":76561198055973266,"connected_time":1200000000000,"state":"active","ping":136},{"user_id":48,"name":"Smag","steam_id":76561198153675141,"connected_time":4001000000000,"state":"active","ping":50},{"user_id":72,"name":"ッ Saikyo","steam_id":76561198068953887,"connected_time":2760000000000,"state":"active","ping":51},{"user_id":57,"name":"PhantomStriker","steam_id":76561199116689935,"connected_time":3269000000000,"state":"active","ping":74},{"user_id":145,"name":"200lb pitbull","steam_id":76561199177668753,"connected_time":647000000000,"state":"active","ping":37},{"user_id":84,"name":"Vince","steam_id":76561199103000131,"connected_time":2536000000000,"state":"active","ping":45},{"user_id":129,"name":"Zateske","steam_id":76561198047446276,"connected_time":1122000000000,"state":"active","ping":73},{"user_id":142,"name":"CrazyRandomStuff","steam_id":76561198152924135,"connected_time":749000000000,"state":"active","ping":59},{"user_id":43,"name":"breaking bow","steam_id":76561198076219289,"connected_time":4755000000000,"state":"active","ping":55}]},{"server_id":40,"name":"Uncletopia | London | 7 | No Payload","name_short":"lon-7","host":"lon-1.uk.uncletopia.com","port":27075,"enabled":true,"region":"eu","cc":"gb","latitude":51.509865,"longitude":-0.118092,"reserved":0,"last_update":"0001-01-01T00:00:00Z","name_a2s":"Uncletopia | London | 7 | No Payload","protocol":17,"map":"koth_harvest_final","folder":"tf","game":"Team Fortress","app_id":440,"player_count":14,"max_players":24,"Bots":0,"server_type":"Dedicated","server_os":"Linux","password":true,"vac":true,"version":"7742253","steam_id":85568392924964314,"keywords":["cp","nocrits","nodmgspread","uncletopia"],"game_id":440,"stv_port":27076,"stv_name":"Uncletopia | London | 7 | No Payload | STV","players":[{"user_id":17,"name":"Engi-Nearing","steam_id":76561199221172552,"connected_time":1554000000000,"state":"active","ping":57},{"user_id":6,"name":"IceFlower","steam_id":76561198207832149,"connected_time":2567000000000,"state":"active","ping":64},{"user_id":7,"name":"hmscole09","steam_id":76561198811362788,"connected_time":2531000000000,"state":"active","ping":51},{"user_id":29,"name":"apple","steam_id":76561198116932635,"connected_time":984000000000,"state":"active","ping":28},{"user_id":20,"name":"johncenx","steam_id":76561198366703672,"connected_time":1329000000000,"state":"active","ping":65},{"user_id":24,"name":"OrangeBanana","steam_id":76561199230233875,"connected_time":1017000000000,"state":"active","ping":48},{"user_id":22,"name":"install gentoo","steam_id":76561198185257982,"connected_time":1215000000000,"state":"active","ping":74},{"user_id":48,"name":"PerskuleBenener","steam_id":76561198156899375,"connected_time":568000000000,"state":"active","ping":76},{"user_id":55,"name":"azzy","steam_id":76561198061293740,"connected_time":366000000000,"state":"active","ping":75},{"user_id":38,"name":"Mészáros András","steam_id":76561198272546996,"connected_time":784000000000,"state":"active","ping":75},{"user_id":51,"name":"svepitos","steam_id":76561198287351235,"connected_time":463000000000,"state":"active","ping":58},{"user_id":40,"name":"Fred","steam_id":76561198107137362,"connected_time":762000000000,"state":"active","ping":49},{"user_id":42,"name":"Blondie","steam_id":76561198080631634,"connected_time":733000000000,"state":"active","ping":40},{"user_id":50,"name":":)","steam_id":76561198103988618,"connected_time":494000000000,"state":"active","ping":60}]},{"server_id":41,"name":"Uncletopia | London | 8 | Community","name_short":"lon-8","host":"lon-1.uk.uncletopia.com","port":27085,"enabled":true,"region":"eu","cc":"gb","latitude":51.509865,"longitude":-0.118092,"reserved":0,"last_update":"0001-01-01T00:00:00Z","name_a2s":"Uncletopia | London | 8 | Community","protocol":17,"map":"workshop/koth_ashville_final.ugc2130459942","folder":"tf","game":"Team Fortress","app_id":440,"player_count":0,"max_players":24,"Bots":0,"server_type":"Dedicated","server_os":"Linux","password":true,"vac":true,"version":"7742253","steam_id":85568392924964315,"keywords":["cp","nocrits","nodmgspread","uncletopia"],"game_id":440,"stv_port":27086,"stv_name":"Uncletopia | London | 8 | Community | STV","players":null},{"server_id":300,"name":"Uncletopia | Montréal | 1 | All Maps","name_short":"mtl-1","host":"mtl-1.ca.uncletopia.com","port":27015,"enabled":true,"region":"us-east","cc":"ca","latitude":45.50889,"longitude":-73.56167,"reserved":0,"last_update":"0001-01-01T00:00:00Z","name_a2s":"Uncletopia | Montréal | 1 | All Maps","protocol":17,"map":"cp_snakewater_final1","folder":"tf","game":"Team Fortress","app_id":440,"player_count":0,"max_players":24,"Bots":0,"server_type":"Dedicated","server_os":"Linux","password":true,"vac":true,"version":"7742253","steam_id":85568392924500087,"keywords":["cp","nocrits","nodmgspread","uncletopia"],"game_id":440,"stv_port":27016,"stv_name":"Uncletopia | Montréal | 1 | All Maps | STV","players":null},{"server_id":301,"name":"Uncletopia | Montréal | 2 | All Maps","name_short":"mtl-2","host":"mtl-1.ca.uncletopia.com","port":27025,"enabled":true,"region":"us-east","cc":"ca","latitude":45.50889,"longitude":-73.56167,"reserved":0,"last_update":"0001-01-01T00:00:00Z","name_a2s":"Uncletopia | Montréal | 2 | All Maps","protocol":17,"map":"koth_highpass","folder":"tf","game":"Team Fortress","app_id":440,"player_count":0,"max_players":24,"Bots":0,"server_type":"Dedicated","server_os":"Linux","password":true,"vac":true,"version":"7742253","steam_id":85568392924500088,"keywords":["cp","nocrits","nodmgspread","uncletopia"],"game_id":440,"stv_port":27026,"stv_name":"Uncletopia | Montréal | 2 | All Maps | STV","players":null},{"server_id":302,"name":"Uncletopia | Montréal | 3 | All Maps","name_short":"mtl-3","host":"mtl-1.ca.uncletopia.com","port":27035,"enabled":true,"region":"us-east","cc":"ca","latitude":45.50889,"longitude":-73.56167,"reserved":0,"last_update":"0001-01-01T00:00:00Z","name_a2s":"Uncletopia | Montréal | 3 | All Maps","protocol":17,"map":"cp_mountainlab","folder":"tf","game":"Team Fortress","app_id":440,"player_count":0,"max_players":24,"Bots":0,"server_type":"Dedicated","server_os":"Linux","password":true,"vac":true,"version":"7742253","steam_id":85568392924500089,"keywords":["cp","nocrits","nodmgspread","uncletopia"],"game_id":440,"stv_port":27036,"stv_name":"Uncletopia | Montréal | 3 | All Maps | STV","players":null},{"server_id":303,"name":"Uncletopia | Montréal | 4 | No Payload","name_short":"mtl-4","host":"mtl-1.ca.uncletopia.com","port":27045,"enabled":true,"region":"us-east","cc":"ca","latitude":45.50889,"longitude":-73.56167,"reserved":0,"last_update":"0001-01-01T00:00:00Z","name_a2s":"Uncletopia | Montréal | 4 | No Payload","protocol":17,"map":"cp_snakewater_final1","folder":"tf","game":"Team Fortress","app_id":440,"player_count":0,"max_players":24,"Bots":0,"server_type":"Dedicated","server_os":"Linux","password":true,"vac":true,"version":"7742253","steam_id":85568392924500090,"keywords":["cp","nocrits","nodmgspread","uncletopia"],"game_id":440,"stv_port":27046,"stv_name":"Uncletopia | Montréal | 4 | No Payload | STV","players":null},{"server_id":13,"name":"Uncletopia | New York City | 1 | All Maps","name_short":"nyc-1","host":"nyc-1.us.uncletopia.com","port":27015,"enabled":true,"region":"us-east","cc":"us","latitude":40.73061,"longitude":-73.93524,"reserved":0,"last_update":"0001-01-01T00:00:00Z","name_a2s":"Uncletopia | New York City | 1 | All Maps","protocol":17,"map":"koth_highpass","folder":"tf","game":"Team Fortress","app_id":440,"player_count":0,"max_players":24,"Bots":0,"server_type":"Dedicated","server_os":"Linux","password":true,"vac":true,"version":"7742253","steam_id":85568392924469993,"keywords":["cp","nocrits","nodmgspread","uncletopia"],"game_id":440,"stv_port":27016,"stv_name":"Uncletopia | New York City | 1 | All Maps | STV","players":null},{"server_id":14,"name":"Uncletopia | New York City | 2 | All Maps","name_short":"nyc-2","host":"nyc-1.us.uncletopia.com","port":27025,"enabled":true,"region":"us-east","cc":"us","latitude":40.73061,"longitude":-73.93524,"reserved":0,"last_update":"0001-01-01T00:00:00Z","name_a2s":"Uncletopia | New York City | 2 | All Maps","protocol":17,"map":"cp_altitude","folder":"tf","game":"Team Fortress","app_id":440,"player_count":0,"max_players":24,"Bots":0,"server_type":"Dedicated","server_os":"Linux","password":true,"vac":true,"version":"7742253","steam_id":85568392924469994,"keywords":["cp","nocrits","nodmgspread","uncletopia"],"game_id":440,"stv_port":27026,"stv_name":"Uncletopia | New York City | 2 | All Maps | STV","players":null},{"server_id":15,"name":"Uncletopia | New York City | 3 | Stopwatch Beta","name_short":"nyc-3","host":"nyc-1.us.uncletopia.com","port":27035,"enabled":true,"region":"us-east","cc":"us","latitude":40.73061,"longitude":-73.93524,"reserved":0,"last_update":"0001-01-01T00:00:00Z","name_a2s":"Uncletopia | New York City | 3 | Stopwatch Beta","protocol":17,"map":"pl_pier","folder":"tf","game":"Team Fortress","app_id":440,"player_count":0,"max_players":24,"Bots":0,"server_type":"Dedicated","server_os":"Linux","password":true,"vac":true,"version":"7742253","steam_id":85568392924742820,"keywords":["nocrits","nodmgspread","payload","uncletopia"],"game_id":440,"stv_port":27036,"stv_name":"Uncletopia | New York City | 3 | Stopwatch Beta | STV","players":null},{"server_id":16,"name":"Uncletopia | New York City | 4 | Community","name_short":"nyc-4","host":"nyc-1.us.uncletopia.com","port":27045,"enabled":true,"region":"us-east","cc":"us","latitude":40.73061,"longitude":-73.93524,"reserved":0,"last_update":"0001-01-01T00:00:00Z","name_a2s":"Uncletopia | New York City | 4 | Community","protocol":17,"map":"koth_viaduct","folder":"tf","game":"Team Fortress","app_id":440,"player_count":0,"max_players":24,"Bots":0,"server_type":"Dedicated","server_os":"Linux","password":true,"vac":true,"version":"7742253","steam_id":85568392924742821,"keywords":["cp","nocrits","nodmgspread","uncletopia"],"game_id":440,"stv_port":27046,"stv_name":"Uncletopia | New York City | 4 | Community | STV","players":null},{"server_id":142,"name":"Uncletopia | São Paulo | 1 | All Maps","name_short":"sao-1","host":"sao-1.br.uncletopia.com","port":27015,"enabled":true,"region":"sa","cc":"br","latitude":-23.533773,"longitude":-46.62529,"reserved":0,"last_update":"0001-01-01T00:00:00Z","name_a2s":"Uncletopia | São Paulo | 1 | All Maps","protocol":17,"map":"koth_viaduct","folder":"tf","game":"Team Fortress","app_id":440,"player_count":0,"max_players":24,"Bots":0,"server_type":"Dedicated","server_os":"Linux","password":true,"vac":true,"version":"7742253","steam_id":85568392924469996,"keywords":["cp","nocrits","nodmgspread","uncletopia"],"game_id":440,"stv_port":27016,"stv_name":"Uncletopia | São Paulo | 1 | All Maps | STV","players":null},{"server_id":143,"name":"Uncletopia | São Paulo | 2 | All Maps","name_short":"sao-2","host":"sao-2.br.uncletopia.com","port":27015,"enabled":true,"region":"sa","cc":"br","latitude":-23.533773,"longitude":-46.62529,"reserved":0,"last_update":"0001-01-01T00:00:00Z","name_a2s":"Uncletopia | São Paulo | 2 | All Maps","protocol":17,"map":"koth_viaduct","folder":"tf","game":"Team Fortress","app_id":440,"player_count":0,"max_players":24,"Bots":0,"server_type":"Dedicated","server_os":"Linux","password":true,"vac":true,"version":"7742253","steam_id":85568392924485349,"keywords":["cp","nocrits","nodmgspread","uncletopia"],"game_id":440,"stv_port":27016,"stv_name":"Uncletopia | São Paulo | 2 | All Maps | STV","players":null},{"server_id":7,"name":"Uncletopia | Seattle | 1 | All Maps","name_short":"sea-1","host":"sea-1.us.uncletopia.com","port":27015,"enabled":true,"region":"us-west","cc":"us","latitude":47.608013,"longitude":-122.33517,"reserved":0,"last_update":"0001-01-01T00:00:00Z","name_a2s":"Uncletopia | Seattle | 1 | All Maps","protocol":17,"map":"pl_frontier_final","folder":"tf","game":"Team Fortress","app_id":440,"player_count":0,"max_players":24,"Bots":0,"server_type":"Dedicated","server_os":"Linux","password":true,"vac":true,"version":"7742253","steam_id":85568392924469997,"keywords":["nocrits","nodmgspread","payload","uncletopia"],"game_id":440,"stv_port":27016,"stv_name":"Uncletopia | Seattle | 1 | All Maps | STV","players":null},{"server_id":119,"name":"Uncletopia | Seattle | 2 | All Maps","name_short":"sea-2","host":"sea-1.us.uncletopia.com","port":27025,"enabled":true,"region":"us-west","cc":"us","latitude":47.608013,"longitude":-122.33517,"reserved":0,"last_update":"0001-01-01T00:00:00Z","name_a2s":"Uncletopia | Seattle | 2 | All Maps","protocol":17,"map":"cp_sunshine","folder":"tf","game":"Team Fortress","app_id":440,"player_count":0,"max_players":24,"Bots":0,"server_type":"Dedicated","server_os":"Linux","password":true,"vac":true,"version":"7742253","steam_id":85568392924469998,"keywords":["cp","nocrits","nodmgspread","uncletopia"],"game_id":440,"stv_port":27026,"stv_name":"Uncletopia | Seattle | 2 | All Maps | STV","players":null},{"server_id":406,"name":"Uncletopia | Seattle | 3 | Stopwatch Beta","name_short":"sea-3","host":"sea-1.us.uncletopia.com","port":27035,"enabled":true,"region":"us-west","cc":"us","latitude":47.608013,"longitude":-122.33517,"reserved":0,"last_update":"0001-01-01T00:00:00Z","name_a2s":"Uncletopia | Seattle | 3 | Stopwatch Beta","protocol":17,"map":"cp_altitude","folder":"tf","game":"Team Fortress","app_id":440,"player_count":0,"max_players":24,"Bots":0,"server_type":"Dedicated","server_os":"Linux","password":true,"vac":true,"version":"7742253","steam_id":85568392924515217,"keywords":["cp","nocrits","nodmgspread","uncletopia"],"game_id":440,"stv_port":27036,"stv_name":"Uncletopia | Seattle | 3 | Stopwatch Beta | STV","players":null},{"server_id":17,"name":"Uncletopia | San Francisco | 1 | All Maps","name_short":"sfo-1","host":"sfo-1.us.uncletopia.com","port":27015,"enabled":true,"region":"us-west","cc":"us","latitude":37.77397,"longitude":-122.4313,"reserved":0,"last_update":"0001-01-01T00:00:00Z","name_a2s":"Uncletopia | San Francisco | 1 | All Maps","protocol":17,"map":"pl_snowycoast","folder":"tf","game":"Team Fortress","app_id":440,"player_count":0,"max_players":24,"Bots":0,"server_type":"Dedicated","server_os":"Linux","password":true,"vac":true,"version":"7742253","steam_id":85568392924469999,"keywords":["nocrits","nodmgspread","payload","uncletopia"],"game_id":440,"stv_port":27016,"stv_name":"Uncletopia | San Francisco | 1 | All Maps | STV","players":null},{"server_id":18,"name":"Uncletopia | San Francisco | 2 | All Maps","name_short":"sfo-2","host":"sfo-1.us.uncletopia.com","port":27025,"enabled":true,"region":"us-west","cc":"us","latitude":37.77397,"longitude":-122.4313,"reserved":0,"last_update":"0001-01-01T00:00:00Z","name_a2s":"Uncletopia | San Francisco | 2 | All Maps","protocol":17,"map":"cp_mountainlab","folder":"tf","game":"Team Fortress","app_id":440,"player_count":0,"max_players":24,"Bots":0,"server_type":"Dedicated","server_os":"Linux","password":true,"vac":true,"version":"7742253","steam_id":85568392924470000,"keywords":["cp","nocrits","nodmgspread","uncletopia"],"game_id":440,"stv_port":27026,"stv_name":"Uncletopia | San Francisco | 2 | All Maps | STV","players":null},{"server_id":19,"name":"Uncletopia | San Francisco | 3 | Stopwatch Beta","name_short":"sfo-3","host":"sfo-1.us.uncletopia.com","port":27035,"enabled":true,"region":"us-west","cc":"us","latitude":37.77397,"longitude":-122.4313,"reserved":0,"last_update":"0001-01-01T00:00:00Z","name_a2s":"Uncletopia | San Francisco | 3 | Stopwatch Beta","protocol":17,"map":"cp_snakewater_final1","folder":"tf","game":"Team Fortress","app_id":440,"player_count":0,"max_players":24,"Bots":0,"server_type":"Dedicated","server_os":"Linux","password":true,"vac":true,"version":"7742253","steam_id":85568392924742824,"keywords":["cp","nocrits","nodmgspread","uncletopia"],"game_id":440,"stv_port":27036,"stv_name":"Uncletopia | San Francisco | 3 | Stopwatch Beta | STV","players":null},{"server_id":20,"name":"Uncletopia | San Francisco | 4 | Community","name_short":"sfo-4","host":"sfo-1.us.uncletopia.com","port":27045,"enabled":true,"region":"us-west","cc":"us","latitude":37.77397,"longitude":-122.4313,"reserved":0,"last_update":"0001-01-01T00:00:00Z","name_a2s":"Uncletopia | San Francisco | 4 | Community","protocol":17,"map":"cp_dustbowl","folder":"tf","game":"Team Fortress","app_id":440,"player_count":0,"max_players":24,"Bots":0,"server_type":"Dedicated","server_os":"Linux","password":true,"vac":true,"version":"7742253","steam_id":85568392924742826,"keywords":["cp","nocrits","nodmgspread","uncletopia"],"game_id":440,"stv_port":27046,"stv_name":"Uncletopia | San Francisco | 4 | Community | STV","players":null},{"server_id":141,"name":"Uncletopia | Sydney | 1 | All Maps","name_short":"syd-1","host":"syd-1.au.uncletopia.com","port":27015,"enabled":true,"region":"au","cc":"au","latitude":-33.865143,"longitude":151.2099,"reserved":0,"last_update":"0001-01-01T00:00:00Z","name_a2s":"Uncletopia | Sydney | 1 | All Maps","protocol":17,"map":"pl_badwater","folder":"tf","game":"Team Fortress","app_id":440,"player_count":0,"max_players":24,"Bots":0,"server_type":"Dedicated","server_os":"Linux","password":true,"vac":true,"version":"7742253","steam_id":85568392924470001,"keywords":["nocrits","nodmgspread","payload","uncletopia"],"game_id":440,"stv_port":27016,"stv_name":"Uncletopia | Sydney | 1 | All Maps | STV","players":null},{"server_id":123,"name":"Uncletopia | Sydney | 2 | All Maps","name_short":"syd-2","host":"syd-1.au.uncletopia.com","port":27025,"enabled":true,"region":"au","cc":"au","latitude":-33.865143,"longitude":151.2099,"reserved":0,"last_update":"0001-01-01T00:00:00Z","name_a2s":"Uncletopia | Sydney | 2 | All Maps","protocol":17,"map":"cp_altitude","folder":"tf","game":"Team Fortress","app_id":440,"player_count":0,"max_players":24,"Bots":0,"server_type":"Dedicated","server_os":"Linux","password":true,"vac":true,"version":"7742253","steam_id":85568392924470002,"keywords":["cp","nocrits","nodmgspread","uncletopia"],"game_id":440,"stv_port":27026,"stv_name":"Uncletopia | Sydney | 2 | All Maps | STV","players":null},{"server_id":395,"name":"Uncletopia | Sydney | 3 | All Maps","name_short":"syd-3","host":"syd-1.au.uncletopia.com","port":27035,"enabled":true,"region":"au","cc":"au","latitude":-33.865143,"longitude":151.2099,"reserved":0,"last_update":"0001-01-01T00:00:00Z","name_a2s":"Uncletopia | Sydney | 3 | All Maps","protocol":17,"map":"cp_snakewater_final1","folder":"tf","game":"Team Fortress","app_id":440,"player_count":0,"max_players":24,"Bots":0,"server_type":"Dedicated","server_os":"Linux","password":true,"vac":true,"version":"7742253","steam_id":85568392925194467,"keywords":["cp","nocrits","nodmgspread","uncletopia"],"game_id":440,"stv_port":27036,"stv_name":"Uncletopia | Sydney | 3 | All Maps | STV","players":null},{"server_id":396,"name":"Uncletopia | Sydney | 4 | All Maps","name_short":"syd-4","host":"syd-1.au.uncletopia.com","port":27045,"enabled":true,"region":"au","cc":"au","latitude":-33.865143,"longitude":151.2099,"reserved":0,"last_update":"0001-01-01T00:00:00Z","name_a2s":"Uncletopia | Sydney | 4 | All Maps","protocol":17,"map":"ctf_2fort","folder":"tf","game":"Team Fortress","app_id":440,"player_count":0,"max_players":24,"Bots":0,"server_type":"Dedicated","server_os":"Linux","password":true,"vac":true,"version":"7742253","steam_id":85568392925397958,"keywords":["ctf","nocrits","nodmgspread","uncletopia"],"game_id":440,"stv_port":27046,"stv_name":"Uncletopia | Sydney | 4 | All Maps | STV","players":null},{"server_id":58,"name":"Uncletopia | Sydney | 5 | Stopwatch Beta","name_short":"syd-5","host":"syd-1.au.uncletopia.com","port":27055,"enabled":true,"region":"au","cc":"au","latitude":-33.865143,"longitude":151.2099,"reserved":0,"last_update":"0001-01-01T00:00:00Z","name_a2s":"Uncletopia | Sydney | 5 | Stopwatch Beta","protocol":17,"map":"workshop/koth_bagel_rc5.ugc2514036946","folder":"tf","game":"Team Fortress","app_id":440,"player_count":0,"max_players":24,"Bots":0,"server_type":"Dedicated","server_os":"Linux","password":true,"vac":true,"version":"7742253","steam_id":85568392925397959,"keywords":["cp","nocrits","nodmgspread","uncletopia"],"game_id":440,"stv_port":27056,"stv_name":"Uncletopia | Sydney | 5 | Stopwatch Beta | STV","players":null},{"server_id":59,"name":"Uncletopia | Sydney | 6 | Community","name_short":"syd-6","host":"syd-1.au.uncletopia.com","port":27065,"enabled":true,"region":"au","cc":"au","latitude":-33.865143,"longitude":151.2099,"reserved":0,"last_update":"0001-01-01T00:00:00Z","name_a2s":"Uncletopia | Sydney | 6 | Community","protocol":17,"map":"workshop/pl_cactuscanyon_redux_rc4b.ugc2579644293","folder":"tf","game":"Team Fortress","app_id":440,"player_count":0,"max_players":24,"Bots":0,"server_type":"Dedicated","server_os":"Linux","password":true,"vac":true,"version":"7742253","steam_id":85568392925397960,"keywords":["nocrits","nodmgspread","payload","uncletopia"],"game_id":440,"stv_port":27066,"stv_name":"Uncletopia | Sydney | 6 | Community | STV","players":null},{"server_id":49,"name":"Uncletopia | Warsaw | 1 | All Maps","name_short":"waw-1","host":"waw-1.pl.uncletopia.com","port":27015,"enabled":true,"region":"eu","cc":"pl","latitude":52.2297,"longitude":21.017532,"reserved":0,"last_update":"0001-01-01T00:00:00Z","name_a2s":"","protocol":0,"map":"","folder":"","game":"","app_id":0,"player_count":0,"max_players":0,"Bots":0,"server_type":"","server_os":"","password":false,"vac":false,"version":"","steam_id":0,"keywords":null,"game_id":0,"stv_port":0,"stv_name":"","players":null},{"server_id":50,"name":"Uncletopia | Warsaw | 2 | All Maps","name_short":"waw-2","host":"waw-1.pl.uncletopia.com","port":27025,"enabled":true,"region":"eu","cc":"pl","latitude":52.2297,"longitude":21.017532,"reserved":0,"last_update":"0001-01-01T00:00:00Z","name_a2s":"Uncletopia | Warsaw | 2 | All Maps","protocol":17,"map":"koth_lakeside_final","folder":"tf","game":"Team Fortress","app_id":440,"player_count":0,"max_players":24,"Bots":0,"server_type":"Dedicated","server_os":"Linux","password":true,"vac":true,"version":"7742253","steam_id":85568392925397851,"keywords":["cp","nocrits","nodmgspread","uncletopia"],"game_id":440,"stv_port":27026,"stv_name":"Uncletopia | Warsaw | 2 | All Maps | STV","players":null},{"server_id":51,"name":"Uncletopia | Warsaw | 3 | All Maps","name_short":"waw-3","host":"waw-1.pl.uncletopia.com","port":27035,"enabled":true,"region":"eu","cc":"pl","latitude":52.2297,"longitude":21.017532,"reserved":0,"last_update":"0001-01-01T00:00:00Z","name_a2s":"Uncletopia | Warsaw | 3 | All Maps","protocol":17,"map":"pl_pier","folder":"tf","game":"Team Fortress","app_id":440,"player_count":0,"max_players":24,"Bots":0,"server_type":"Dedicated","server_os":"Linux","password":true,"vac":true,"version":"7742253","steam_id":85568392925397852,"keywords":["nocrits","nodmgspread","payload","uncletopia"],"game_id":440,"stv_port":27036,"stv_name":"Uncletopia | Warsaw | 3 | All Maps | STV","players":null},{"server_id":52,"name":"Uncletopia | Warsaw | 4 | All Maps","name_short":"waw-4","host":"waw-1.pl.uncletopia.com","port":27045,"enabled":true,"region":"eu","cc":"pl","latitude":52.2297,"longitude":21.017532,"reserved":0,"last_update":"0001-01-01T00:00:00Z","name_a2s":"Uncletopia | Warsaw | 4 | All Maps","protocol":17,"map":"pl_swiftwater_final1","folder":"tf","game":"Team Fortress","app_id":440,"player_count":0,"max_players":24,"Bots":0,"server_type":"Dedicated","server_os":"Linux","password":true,"vac":true,"version":"7742253","steam_id":85568392925397853,"keywords":["nocrits","nodmgspread","payload","uncletopia"],"game_id":440,"stv_port":27046,"stv_name":"Uncletopia | Warsaw | 4 | All Maps | STV","players":null},{"server_id":53,"name":"Uncletopia | Warsaw | 5 | Stopwatch Beta","name_short":"waw-5","host":"waw-1.pl.uncletopia.com","port":27055,"enabled":true,"region":"eu","cc":"pl","latitude":52.2297,"longitude":21.017532,"reserved":0,"last_update":"0001-01-01T00:00:00Z","name_a2s":"Uncletopia | Warsaw | 5 | Stopwatch Beta","protocol":17,"map":"pl_swiftwater_final1","folder":"tf","game":"Team Fortress","app_id":440,"player_count":0,"max_players":24,"Bots":0,"server_type":"Dedicated","server_os":"Linux","password":true,"vac":true,"version":"7742253","steam_id":85568392925397854,"keywords":["nocrits","nodmgspread","payload","uncletopia"],"game_id":440,"stv_port":27056,"stv_name":"Uncletopia | Warsaw | 5 | Stopwatch Beta | STV","players":null},{"server_id":54,"name":"Uncletopia | Warsaw | 6 | Community","name_short":"waw-6","host":"waw-1.pl.uncletopia.com","port":27065,"enabled":true,"region":"eu","cc":"pl","latitude":52.2297,"longitude":21.017532,"reserved":0,"last_update":"0001-01-01T00:00:00Z","name_a2s":"Uncletopia | Warsaw | 6 | Community","protocol":17,"map":"koth_highpass","folder":"tf","game":"Team Fortress","app_id":440,"player_count":2,"max_players":24,"Bots":0,"server_type":"Dedicated","server_os":"Linux","password":true,"vac":true,"version":"7742253","steam_id":85568392925397856,"keywords":["cp","nocrits","nodmgspread","uncletopia"],"game_id":440,"stv_port":27066,"stv_name":"Uncletopia | Warsaw | 6 | Community | STV","players":[{"user_id":3,"name":"mobajmm","steam_id":76561199091999510,"connected_time":1152000000000,"state":"active","ping":84},{"user_id":4,"name":"svobodakuba01","steam_id":76561199158182683,"connected_time":1128000000000,"state":"active","ping":80}]}]}