{"status":true,"message":"","result":[{"server_id":9,"name":"Uncletopia | Atlanta | 1 | All Maps","name_short":"atl-1","host":"atl-1.us.uncletopia.com","port":27015,"enabled":true,"region":"us-east","cc":"us","latitude":33.753746,"longitude":-84.38633,"reserved":0,"last_update":"0001-01-01T00:00:00Z","name_a2s":"Uncletopia | Atlanta | 1 | All Maps","protocol":17,"map":"pl_borneo","folder":"tf","game":"Team Fortress","app_id":440,"player_count":17,"max_players":24,"Bots":0,"server_type":"Dedicated","server_os":"Linux","password":true,"vac":true,"version":"7757534","steam_id":85568392924469982,"keywords":["nocrits","nodmgspread","payload","uncletopia"],"game_id":440,"stv_port":27016,"stv_name":"Uncletopia | Atlanta | 1 | All Maps | STV","players":[{"user_id":490,"name":"stink","steam_id":76561198099318923,"connected_time":10506000000000,"state":"connecting","ping":96},{"user_id":581,"name":"Mage","steam_id":76561198285026879,"connected_time":277000000000,"state":"connecting","ping":74},{"user_id":565,"name":"FemboyNate","steam_id":76561198146636410,"connected_time":1443000000000,"state":"spawning","ping":76},{"user_id":532,"name":"♡Alyx♡","steam_id":76561198024303978,"connected_time":5681000000000,"state":"connecting","ping":77},{"user_id":566,"name":"GPLv2","steam_id":76561198113096772,"connected_time":1296000000000,"state":"connecting","ping":129},{"user_id":559,"name":"Chutter","steam_id":76561197974182385,"connected_time":2615000000000,"state":"spawning","ping":80},{"user_id":551,"name":"TheTruthOfTheCessationOfDukkha","steam_id":76561198214370515,"connected_time":3852000000000,"state":"connecting","ping":84},{"user_id":567,"name":"Doppelpunkt","steam_id":76561198102137730,"connected_time":1207000000000,"state":"spawning","ping":72},{"user_id":578,"name":"Username","steam_id":76561199033122306,"connected_time":433000000000,"state":"spawning","ping":68},{"user_id":558,"name":"Festering_","steam_id":76561199073027979,"connected_time":2668000000000,"state":"connecting","ping":80},{"user_id":574,"name":"gardener","steam_id":76561199032446839,"connected_time":632000000000,"state":"connecting","ping":94},{"user_id":571,"name":"Game Broke No Fix","steam_id":76561198028271650,"connected_time":1009000000000,"state":"spawning","ping":120},{"user_id":572,"name":"Kohbold","steam_id":76561198996480140,"connected_time":971000000000,"state":"spawning","ping":112},{"user_id":563,"name":"IceBeatle","steam_id":76561198833132781,"connected_time":1484000000000,"state":"connecting","ping":99},{"user_id":552,"name":"eish","steam_id":76561198089463603,"connected_time":3645000000000,"state":"connecting","ping":152},{"user_id":530,"name":"DFR Le4n!!!","steam_id":76561198045522596,"connected_time":5764000000000,"state":"connecting","ping":76},{"user_id":489,"name":"ATL1 | Psionic Box","steam_id":76561198151019322,"connected_time":10730000000000,"state":"connecting","ping":75}]},{"server_id":104,"name":"Uncletopia | Atlanta | 2 | All Maps","name_short":"atl-2","host":"atl-1.us.uncletopia.com","port":27025,"enabled":true,"region":"us-east","cc":"us","latitude":33.753746,"longitude":-84.38633,"reserved":0,"last_update":"0001-01-01T00:00:00Z","name_a2s":"Uncletopia | Atlanta | 2 | All Maps","protocol":17,"map":"pl_badwater","folder":"tf","game":"Team Fortress","app_id":440,"player_count":20,"max_players":24,"Bots":0,"server_type":"Dedicated","server_os":"Linux","password":true,"vac":true,"version":"7757534","steam_id":85568392924469983,"keywords":["nocrits","nodmgspread","payload","uncletopia"],"game_id":440,"stv_port":27026,"stv_name":"Uncletopia | Atlanta | 2 | All Maps | STV","players":[{"user_id":592,"name":"Lole.","steam_id":76561199061380038,"connected_time":689000000000,"state":"active","ping":45},{"user_id":555,"name":"keffers","steam_id":76561198202338796,"connected_time":2809000000000,"state":"active","ping":96},{"user_id":545,"name":"OrangeGlazer","steam_id":76561198127358240,"connected_time":3315000000000,"state":"active","ping":57},{"user_id":593,"name":"Father Jon","steam_id":76561198324730919,"connected_time":685000000000,"state":"active","ping":90},{"user_id":575,"name":"claeb :)","steam_id":76561198028761580,"connected_time":1814000000000,"state":"active","ping":61},{"user_id":562,"name":"Training Arc","steam_id":76561198038832034,"connected_time":2580000000000,"state":"active","ping":114},{"user_id":579,"name":"CreativeUsername","steam_id":76561198186045503,"connected_time":1794000000000,"state":"active","ping":61},{"user_id":596,"name":"Illuminor MC","steam_id":76561199042568830,"connected_time":626000000000,"state":"active","ping":52},{"user_id":607,"name":"Karma's Camera","steam_id":76561198059385185,"connected_time":27000000000,"state":"active","ping":59},{"user_id":599,"name":"MaybeMars","steam_id":76561198084736804,"connected_time":341000000000,"state":"active","ping":72},{"user_id":598,"name":"HOLEHUNTER","steam_id":76561198840484105,"connected_time":413000000000,"state":"active","ping":49},{"user_id":559,"name":"OceanSponge","steam_id":76561198082775416,"connected_time":2643000000000,"state":"active","ping":114},{"user_id":605,"name":"crypt","steam_id":76561198280142450,"connected_time":131000000000,"state":"active","ping":75},{"user_id":563,"name":"earthbound393","steam_id":76561199444276547,"connected_time":2556000000000,"state":"active","ping":115},{"user_id":600,"name":"brokePC","steam_id":76561198045518236,"connected_time":318000000000,"state":"active","ping":54},{"user_id":601,"name":"Patisserie","steam_id":76561198239169752,"connected_time":313000000000,"state":"active","ping":61},{"user_id":571,"name":"jori","steam_id":76561199094011458,"connected_time":2215000000000,"state":"active","ping":85},{"user_id":603,"name":"FusionChimp","steam_id":76561197988965716,"connected_time":201000000000,"state":"active","ping":45},{"user_id":604,"name":"Nicolas Cage Kisses Mace Windu","steam_id":76561198046127710,"connected_time":184000000000,"state":"active","ping":78},{"user_id":543,"name":"Deborp","steam_id":76561198118868430,"connected_time":3530000000000,"state":"active","ping":66}]},{"server_id":400,"name":"Uncletopia | Atlanta | 3 | Community","name_short":"atl-3","host":"atl-1.us.uncletopia.com","port":27035,"enabled":true,"region":"us-east","cc":"us","latitude":33.753746,"longitude":-84.38633,"reserved":0,"last_update":"0001-01-01T00:00:00Z","name_a2s":"Uncletopia | Atlanta | 3 | Community","protocol":17,"map":"workshop/cp_fulgur_rc2a.ugc2068252300","folder":"tf","game":"Team Fortress","app_id":440,"player_count":18,"max_players":24,"Bots":0,"server_type":"Dedicated","server_os":"Linux","password":true,"vac":true,"version":"7757534","steam_id":85568392924515187,"keywords":["cp","nocrits","nodmgspread","uncletopia"],"game_id":440,"stv_port":27036,"stv_name":"Uncletopia | Atlanta | 3 | Community | STV","players":[{"user_id":571,"name":"fortnite balls all in yo face","steam_id":76561198138221795,"connected_time":1341000000000,"state":"active","ping":82},{"user_id":488,"name":"n8thegr83008","steam_id":76561198214814260,"connected_time":8050000000000,"state":"active","ping":75},{"user_id":531,"name":"Quiver Cakes ._.","steam_id":76561198243155576,"connected_time":3828000000000,"state":"active","ping":63},{"user_id":550,"name":"Shy","steam_id":76561198394890836,"connected_time":2571000000000,"state":"spawning","ping":182},{"user_id":579,"name":"Dr. Strain","steam_id":76561198078476091,"connected_time":418000000000,"state":"active","ping":61},{"user_id":570,"name":"Clockwick","steam_id":76561198047292719,"connected_time":1394000000000,"state":"active","ping":59},{"user_id":559,"name":"Deadlynx5","steam_id":76561198267021472,"connected_time":2175000000000,"state":"active","ping":70},{"user_id":533,"name":"RuinHasComeToOurFamily","steam_id":76561199075273861,"connected_time":3710000000000,"state":"active","ping":62},{"user_id":573,"name":"dax","steam_id":76561198045335319,"connected_time":1241000000000,"state":"active","ping":56},{"user_id":536,"name":"Cat_Soldier","steam_id":76561198799974610,"connected_time":3393000000000,"state":"active","ping":70},{"user_id":557,"name":"a bad ass sniper","steam_id":76561198080934901,"connected_time":2239000000000,"state":"active","ping":83},{"user_id":516,"name":"SyberBunn","steam_id":76561198287851222,"connected_time":5236000000000,"state":"active","ping":66},{"user_id":580,"name":"hidden_games","steam_id":76561198149683392,"connected_time":42000000000,"state":"active","ping":54},{"user_id":540,"name":"Hey","steam_id":76561198447517893,"connected_time":3133000000000,"state":"spawning","ping":235},{"user_id":581,"name":"//cherri","steam_id":76561198370591649,"connected_time":27000000000,"state":"active","ping":86},{"user_id":556,"name":"American Dad Funny Moments #32","steam_id":76561198254874328,"connected_time":2332000000000,"state":"active","ping":117},{"user_id":564,"name":"Zho Biden","steam_id":76561198079224101,"connected_time":1922000000000,"state":"active","ping":42},{"user_id":578,"name":"Gibus Man","steam_id":76561198257241062,"connected_time":652000000000,"state":"spawning","ping":568}]},{"server_id":401,"name":"Uncletopia | Atlanta | 4 | No Payload","name_short":"atl-4","host":"atl-1.us.uncletopia.com","port":27045,"enabled":true,"region":"us-east","cc":"us","latitude":33.753746,"longitude":-84.38633,"reserved":0,"last_update":"0001-01-01T00:00:00Z","name_a2s":"","protocol":0,"map":"","folder":"","game":"","app_id":0,"player_count":0,"max_players":0,"Bots":0,"server_type":"","server_os":"","password":false,"vac":false,"version":"","steam_id":0,"keywords":null,"game_id":0,"stv_port":0,"stv_name":"","players":null},{"server_id":2,"name":"Uncletopia | Chicago | 1 | All Maps","name_short":"chi-1","host":"chi-1.us.uncletopia.com","port":27015,"enabled":true,"region":"us-central","cc":"us","latitude":41.881832,"longitude":-87.62318,"reserved":0,"last_update":"0001-01-01T00:00:00Z","name_a2s":"Uncletopia | Chicago | 1 | All Maps","protocol":17,"map":"koth_highpass","folder":"tf","game":"Team Fortress","app_id":440,"player_count":0,"max_players":24,"Bots":0,"server_type":"Dedicated","server_os":"Linux","password":true,"vac":true,"version":"7757534","steam_id":85568392924469984,"keywords":["cp","nocrits","nodmgspread","uncletopia"],"game_id":440,"stv_port":27016,"stv_name":"Uncletopia | Chicago | 1 | All Maps | STV","players":null},{"server_id":106,"name":"Uncletopia | Chicago | 2 | All Maps","name_short":"chi-2","host":"chi-1.us.uncletopia.com","port":27025,"enabled":true,"region":"us-central","cc":"us","latitude":41.881832,"longitude":-87.62318,"reserved":0,"last_update":"0001-01-01T00:00:00Z","name_a2s":"Uncletopia | Chicago | 2 | All Maps","protocol":17,"map":"pl_swiftwater_final1","folder":"tf","game":"Team Fortress","app_id":440,"player_count":12,"max_players":24,"Bots":0,"server_type":"Dedicated","server_os":"Linux","password":true,"vac":true,"version":"7757534","steam_id":85568392924469985,"keywords":["nocrits","nodmgspread","payload","uncletopia"],"game_id":440,"stv_port":27026,"stv_name":"Uncletopia | Chicago | 2 | All Maps | STV","players":[{"user_id":892,"name":"_Ati","steam_id":76561198339777801,"connected_time":2248000000000,"state":"active","ping":105},{"user_id":922,"name":"rileyzzz","steam_id":76561198112611995,"connected_time":185000000000,"state":"active","ping":80},{"user_id":913,"name":"Toilet_Cleaner_Man","steam_id":76561199017563073,"connected_time":968000000000,"state":"active","ping":70},{"user_id":914,"name":"North","steam_id":76561199173696836,"connected_time":872000000000,"state":"active","ping":84},{"user_id":915,"name":"Frodo T Baggins","steam_id":76561198048090297,"connected_time":618000000000,"state":"active","ping":52},{"user_id":921,"name":"ed","steam_id":76561198206209071,"connected_time":259000000000,"state":"active","ping":72},{"user_id":919,"name":"Crasson","steam_id":76561198034967708,"connected_time":296000000000,"state":"active","ping":72},{"user_id":880,"name":"Orca?","steam_id":76561198164341099,"connected_time":3550000000000,"state":"active","ping":81},{"user_id":870,"name":"Stormz64","steam_id":76561198239036482,"connected_time":3751000000000,"state":"active","ping":56},{"user_id":890,"name":"Goober","steam_id":76561198988863807,"connected_time":2621000000000,"state":"active","ping":74},{"user_id":881,"name":"Si1entSn1pa","steam_id":76561198170095479,"connected_time":3537000000000,"state":"active","ping":84},{"user_id":883,"name":"vergil","steam_id":76561197972605325,"connected_time":3459000000000,"state":"active","ping":180}]},{"server_id":402,"name":"Uncletopia | Chicago | 3 | All Maps","name_short":"chi-3","host":"chi-1.us.uncletopia.com","port":27035,"enabled":true,"region":"us-central","cc":"us","latitude":41.881832,"longitude":-87.62318,"reserved":0,"last_update":"0001-01-01T00:00:00Z","name_a2s":"Uncletopia | Chicago | 3 | All Maps","protocol":17,"map":"pl_borneo","folder":"tf","game":"Team Fortress","app_id":440,"player_count":17,"max_players":24,"Bots":0,"server_type":"Dedicated","server_os":"Linux","password":true,"vac":true,"version":"7757534","steam_id":85568392924515191,"keywords":["nocrits","nodmgspread","payload","uncletopia"],"game_id":440,"stv_port":27036,"stv_name":"Uncletopia | Chicago | 3 | All Maps | STV","players":[{"user_id":590,"name":"motherfucker 2.0","steam_id":76561198141189209,"connected_time":233000000000,"state":"active","ping":60},{"user_id":502,"name":"WatchWill","steam_id":76561198157237945,"connected_time":9347000000000,"state":"active","ping":77},{"user_id":547,"name":"fish (2:3)","steam_id":76561198134331073,"connected_time":4647000000000,"state":"active","ping":106},{"user_id":589,"name":"XenoTech N","steam_id":76561198120079504,"connected_time":486000000000,"state":"active","ping":55},{"user_id":591,"name":"Gumba21","steam_id":76561199167640179,"connected_time":138000000000,"state":"active","ping":77},{"user_id":593,"name":"Lore","steam_id":76561198098407538,"connected_time":103000000000,"state":"active","ping":45},{"user_id":573,"name":"ֆɨƈӄօʍօɖɛ","steam_id":76561198064668286,"connected_time":2790000000000,"state":"active","ping":68},{"user_id":567,"name":"noend","steam_id":76561198109783729,"connected_time":3182000000000,"state":"active","ping":47},{"user_id":594,"name":"Ryan Lewis truther","steam_id":76561198050505826,"connected_time":80000000000,"state":"connecting","ping":0},{"user_id":584,"name":"Takareer","steam_id":76561198001751765,"connected_time":1353000000000,"state":"active","ping":57},{"user_id":549,"name":"EJ 2 u","steam_id":76561198242738174,"connected_time":4576000000000,"state":"active","ping":51},{"user_id":574,"name":"Nesster","steam_id":76561198071688242,"connected_time":2341000000000,"state":"active","ping":69},{"user_id":578,"name":"Ta5K","steam_id":76561198939558155,"connected_time":1681000000000,"state":"active","ping":42},{"user_id":587,"name":"Speeder Mingus","steam_id":76561198106841910,"connected_time":1110000000000,"state":"active","ping":69},{"user_id":577,"name":"Rooty Tooty Point and Shooty","steam_id":76561198039074432,"connected_time":2076000000000,"state":"active","ping":86},{"user_id":588,"name":"gNarNar","steam_id":76561197994505205,"connected_time":919000000000,"state":"active","ping":59},{"user_id":570,"name":"THE MILK MAN","steam_id":76561198314720486,"connected_time":3103000000000,"state":"active","ping":98}]},{"server_id":403,"name":"Uncletopia | Chicago | 4 | All Maps","name_short":"chi-4","host":"chi-1.us.uncletopia.com","port":27045,"enabled":true,"region":"us-central","cc":"us","latitude":41.881832,"longitude":-87.62318,"reserved":0,"last_update":"0001-01-01T00:00:00Z","name_a2s":"Uncletopia | Chicago | 4 | All Maps","protocol":17,"map":"cp_dustbowl","folder":"tf","game":"Team Fortress","app_id":440,"player_count":24,"max_players":24,"Bots":0,"server_type":"Dedicated","server_os":"Linux","password":true,"vac":true,"version":"7757534","steam_id":85568392924515193,"keywords":["cp","nocrits","nodmgspread","uncletopia"],"game_id":440,"stv_port":27046,"stv_name":"Uncletopia | Chicago | 4 | All Maps | STV","players":[{"user_id":794,"name":"wokky bin laddn","steam_id":76561198265200834,"connected_time":638000000000,"state":"active","ping":70},{"user_id":755,"name":"Eden Hazard","steam_id":76561198089241053,"connected_time":4310000000000,"state":"active","ping":69},{"user_id":795,"name":"Papa Bones","steam_id":76561198212604293,"connected_time":620000000000,"state":"active","ping":98},{"user_id":780,"name":"[El Fail] MR.BadassMCLee","steam_id":76561198043787818,"connected_time":2244000000000,"state":"active","ping":112},{"user_id":785,"name":"Borp","steam_id":76561198070402855,"connected_time":1591000000000,"state":"active","ping":57},{"user_id":786,"name":"Burrito","steam_id":76561199453910560,"connected_time":1555000000000,"state":"active","ping":112},{"user_id":787,"name":"Koffy","steam_id":76561198184386039,"connected_time":1396000000000,"state":"active","ping":107},{"user_id":778,"name":"HOODEDLAWYER285","steam_id":76561198156496197,"connected_time":2389000000000,"state":"active","ping":54},{"user_id":796,"name":"skaj","steam_id":76561198082278586,"connected_time":533000000000,"state":"active","ping":61},{"user_id":797,"name":"hashbang1","steam_id":76561198025558514,"connected_time":387000000000,"state":"active","ping":89},{"user_id":788,"name":"Sirius","steam_id":76561198031295225,"connected_time":1295000000000,"state":"active","ping":46},{"user_id":784,"name":"grass","steam_id":76561199089573133,"connected_time":1749000000000,"state":"active","ping":168},{"user_id":789,"name":"HTA","steam_id":76561198043879140,"connected_time":1292000000000,"state":"active","ping":45},{"user_id":732,"name":"OpenDown","steam_id":76561198064132688,"connected_time":6357000000000,"state":"active","ping":57},{"user_id":798,"name":"Barress","steam_id":76561198011728743,"connected_time":256000000000,"state":"active","ping":95},{"user_id":783,"name":"captainskullet","steam_id":76561198314597170,"connected_time":1784000000000,"state":"active","ping":68},{"user_id":800,"name":"monke","steam_id":76561198308289194,"connected_time":172000000000,"state":"active","ping":72},{"user_id":790,"name":"SuperNovaFox","steam_id":76561198052172564,"connected_time":1250000000000,"state":"active","ping":76},{"user_id":774,"name":"Qwerty","steam_id":76561198023525894,"connected_time":2795000000000,"state":"active","ping":171},{"user_id":728,"name":"Your neighborhood Hobo","steam_id":76561198431446386,"connected_time":6474000000000,"state":"active","ping":67},{"user_id":793,"name":"Trusty","steam_id":76561198035444237,"connected_time":953000000000,"state":"active","ping":62},{"user_id":801,"name":"John","steam_id":76561197960965850,"connected_time":107000000000,"state":"active","ping":175},{"user_id":802,"name":"Not Slavoj Žižek","steam_id":76561198004619616,"connected_time":34000000000,"state":"spawning","ping":97},{"user_id":792,"name":"Bludgeon","steam_id":76561198272009412,"connected_time":1126000000000,"state":"active","ping":107}]},{"server_id":36,"name":"Uncletopia | Chicago | 5 | All Maps","name_short":"chi-5","host":"chi-2.us.uncletopia.com","port":27015,"enabled":true,"region":"us-central","cc":"us","latitude":41.881832,"longitude":-87.62318,"reserved":0,"last_update":"0001-01-01T00:00:00Z","name_a2s":"Uncletopia | Chicago | 5 | All Maps","protocol":17,"map":"cp_sunshine","folder":"tf","game":"Team Fortress","app_id":440,"player_count":22,"max_players":24,"Bots":0,"server_type":"Dedicated","server_os":"Linux","password":true,"vac":true,"version":"7757534","steam_id":85568392924866362,"keywords":["cp","nocrits","nodmgspread","uncletopia"],"game_id":440,"stv_port":27016,"stv_name":"Uncletopia | Chicago | 5 | All Maps | STV","players":[{"user_id":456,"name":"AzuriousAlex","steam_id":76561198158026405,"connected_time":1963000000000,"state":"active","ping":77},{"user_id":473,"name":"MatchMatch","steam_id":76561198048925904,"connected_time":823000000000,"state":"active","ping":111},{"user_id":412,"name":"baja blast frydbar","steam_id":76561198051423069,"connected_time":3571000000000,"state":"active","ping":58},{"user_id":440,"name":"Egghead","steam_id":76561198159723876,"connected_time":2406000000000,"state":"active","ping":77},{"user_id":479,"name":"dwnkins","steam_id":76561198856016840,"connected_time":15000000000,"state":"active","ping":98},{"user_id":448,"name":"Salad gaming (real)","steam_id":76561198298310744,"connected_time":2271000000000,"state":"active","ping":82},{"user_id":478,"name":"twinArmageddons","steam_id":76561198297961039,"connected_time":395000000000,"state":"active","ping":47},{"user_id":433,"name":"prof killstreak strange vape","steam_id":76561198872396820,"connected_time":2616000000000,"state":"active","ping":67},{"user_id":457,"name":"Stromboli","steam_id":76561197988645308,"connected_time":1943000000000,"state":"active","ping":81},{"user_id":434,"name":"StardustSpeedway(HornyScottish)","steam_id":76561198835635511,"connected_time":2608000000000,"state":"active","ping":105},{"user_id":426,"name":"Soul_Intern","steam_id":76561198310238109,"connected_time":2988000000000,"state":"active","ping":102},{"user_id":435,"name":"WokToYou","steam_id":76561198049693624,"connected_time":2579000000000,"state":"active","ping":65},{"user_id":451,"name":"Monack","steam_id":76561198126796274,"connected_time":2111000000000,"state":"active","ping":77},{"user_id":419,"name":"SMHTMFTTF","steam_id":76561199079614516,"connected_time":3313000000000,"state":"active","ping":52},{"user_id":474,"name":"honked off the bobo","steam_id":76561198123287268,"connected_time":821000000000,"state":"active","ping":48},{"user_id":476,"name":"Zeek","steam_id":76561197987204351,"connected_time":631000000000,"state":"active","ping":59},{"user_id":458,"name":"shortcut","steam_id":76561198045735851,"connected_time":1941000000000,"state":"active","ping":47},{"user_id":437,"name":"✯Bubba!✯","steam_id":76561198370388459,"connected_time":2560000000000,"state":"active","ping":126},{"user_id":452,"name":"Spare(8)Ball","steam_id":76561197982432995,"connected_time":2075000000000,"state":"active","ping":114},{"user_id":465,"name":"Fredrick","steam_id":76561197981419964,"connected_time":1282000000000,"state":"active","ping":68},{"user_id":477,"name":"BigDeac","steam_id":76561198091237274,"connected_time":617000000000,"state":"active","ping":57},{"user_id":463,"name":"Fargo","steam_id":76561198044703931,"connected_time":1609000000000,"state":"active","ping":70}]},{"server_id":37,"name":"Uncletopia | Chicago | 6 | All Maps","name_short":"chi-6","host":"chi-2.us.uncletopia.com","port":27025,"enabled":true,"region":"us-central","cc":"us","latitude":41.881832,"longitude":-87.62318,"reserved":0,"last_update":"0001-01-01T00:00:00Z","name_a2s":"Uncletopia | Chicago | 6 | All Maps","protocol":17,"map":"koth_highpass","folder":"tf","game":"Team Fortress","app_id":440,"player_count":0,"max_players":24,"Bots":0,"server_type":"Dedicated","server_os":"Linux","password":true,"vac":true,"version":"7757534","steam_id":85568392924866363,"keywords":["cp","nocrits","nodmgspread","uncletopia"],"game_id":440,"stv_port":27026,"stv_name":"Uncletopia | Chicago | 6 | All Maps | STV","players":null},{"server_id":38,"name":"Uncletopia | Chicago | 7 | Stopwatch Beta","name_short":"chi-7","host":"chi-2.us.uncletopia.com","port":27035,"enabled":true,"region":"us-central","cc":"us","latitude":41.881832,"longitude":-87.62318,"reserved":0,"last_update":"0001-01-01T00:00:00Z","name_a2s":"Uncletopia | Chicago | 7 | Stopwatch Beta","protocol":17,"map":"pl_swiftwater_final1","folder":"tf","game":"Team Fortress","app_id":440,"player_count":0,"max_players":24,"Bots":0,"server_type":"Dedicated","server_os":"Linux","password":true,"vac":true,"version":"7757534","steam_id":85568392924866364,"keywords":["nocrits","nodmgspread","payload","uncletopia"],"game_id":440,"stv_port":27036,"stv_name":"Uncletopia | Chicago | 7 | Stopwatch Beta | STV","players":null},{"server_id":39,"name":"Uncletopia | Chicago | 8 | Community","name_short":"chi-8","host":"chi-2.us.uncletopia.com","port":27045,"enabled":true,"region":"us-central","cc":"us","latitude":41.881832,"longitude":-87.62318,"reserved":0,"last_update":"0001-01-01T00:00:00Z","name_a2s":"Uncletopia | Chicago | 8 | Community","protocol":17,"map":"workshop/pl_emerge_rc2.ugc888027758","folder":"tf","game":"Team Fortress","app_id":440,"player_count":0,"max_players":24,"Bots":0,"server_type":"Dedicated","server_os":"Linux","password":true,"vac":true,"version":"7757534","steam_id":85568392924866365,"keywords":["nocrits","nodmgspread","payload","uncletopia"],"game_id":440,"stv_port":27046,"stv_name":"Uncletopia | Chicago | 8 | Community | STV","players":null},{"server_id":8,"name":"Uncletopia | Dallas | 1 | All Maps","name_short":"dal-1","host":"dal-1.us.uncletopia.com","port":27015,"enabled":true,"region":"us-central","cc":"us","latitude":32.779167,"longitude":-96.80889,"reserved":0,"last_update":"0001-01-01T00:00:00Z","name_a2s":"Uncletopia | Dallas | 1 | All Maps","protocol":17,"map":"pl_snowycoast","folder":"tf","game":"Team Fortress","app_id":440,"player_count":16,"max_players":24,"Bots":0,"server_type":"Dedicated","server_os":"Linux","password":true,"vac":true,"version":"7757534","steam_id":85568392924469986,"keywords":["nocrits","nodmgspread","payload","uncletopia"],"game_id":440,"stv_port":27016,"stv_name":"Uncletopia | Dallas | 1 | All Maps | STV","players":[{"user_id":1224,"name":"Pornelius Hubert","steam_id":76561198186128723,"connected_time":9000000000,"state":"active","ping":151},{"user_id":1218,"name":"THE WIFE","steam_id":76561198002571116,"connected_time":286000000000,"state":"active","ping":60},{"user_id":1186,"name":"great1photo","steam_id":76561198085481933,"connected_time":4395000000000,"state":"active","ping":99},{"user_id":1206,"name":"Dragonofponies","steam_id":76561199016800803,"connected_time":2493000000000,"state":"active","ping":54},{"user_id":1201,"name":"gamer_2099","steam_id":76561199058461779,"connected_time":3322000000000,"state":"active","ping":80},{"user_id":1219,"name":"DragonHeart","steam_id":76561198013245625,"connected_time":138000000000,"state":"active","ping":72},{"user_id":1217,"name":"0r161n4lj0k3","steam_id":76561198127328235,"connected_time":558000000000,"state":"active","ping":84},{"user_id":1214,"name":"Koiba","steam_id":76561198114470376,"connected_time":1711000000000,"state":"active","ping":100},{"user_id":1220,"name":"white woman","steam_id":76561199116679777,"connected_time":127000000000,"state":"active","ping":70},{"user_id":1221,"name":"SOULDOG","steam_id":76561199212057006,"connected_time":126000000000,"state":"active","ping":211},{"user_id":1222,"name":"michiuouitalipc","steam_id":76561199122734107,"connected_time":108000000000,"state":"active","ping":182},{"user_id":1215,"name":"ElTioHitMalo","steam_id":76561198284789657,"connected_time":1696000000000,"state":"active","ping":74},{"user_id":1203,"name":"Saulen","steam_id":76561198150726407,"connected_time":2942000000000,"state":"active","ping":62},{"user_id":1213,"name":"nick.hines","steam_id":76561198975207983,"connected_time":1820000000000,"state":"active","ping":41},{"user_id":1216,"name":"DargaribdusPersonOfLordlyCalibe","steam_id":76561198020876416,"connected_time":653000000000,"state":"active","ping":65},{"user_id":1200,"name":"Ivy","steam_id":76561198047758442,"connected_time":3778000000000,"state":"active","ping":107}]},{"server_id":108,"name":"Uncletopia | Dallas | 2 | All Maps","name_short":"dal-2","host":"dal-1.us.uncletopia.com","port":27025,"enabled":true,"region":"us-central","cc":"us","latitude":32.779167,"longitude":-96.80889,"reserved":0,"last_update":"0001-01-01T00:00:00Z","name_a2s":"Uncletopia | Dallas | 2 | All Maps","protocol":17,"map":"cp_process_final","folder":"tf","game":"Team Fortress","app_id":440,"player_count":23,"max_players":24,"Bots":0,"server_type":"Dedicated","server_os":"Linux","password":true,"vac":true,"version":"7757534","steam_id":85568392924469988,"keywords":["cp","nocrits","nodmgspread","uncletopia"],"game_id":440,"stv_port":27026,"stv_name":"Uncletopia | Dallas | 2 | All Maps | STV","players":[{"user_id":548,"name":"blademiss","steam_id":76561198062083019,"connected_time":295000000000,"state":"active","ping":84},{"user_id":486,"name":"bolainassr0","steam_id":76561199079078845,"connected_time":5517000000000,"state":"active","ping":102},{"user_id":520,"name":"narca","steam_id":76561198313400099,"connected_time":2286000000000,"state":"active","ping":89},{"user_id":506,"name":"This game sucks","steam_id":76561198042007578,"connected_time":4173000000000,"state":"active","ping":64},{"user_id":522,"name":"ShadowDragon0125","steam_id":76561198343849022,"connected_time":2238000000000,"state":"active","ping":73},{"user_id":517,"name":"mellowhype","steam_id":76561198040675606,"connected_time":2962000000000,"state":"active","ping":44},{"user_id":540,"name":"ScrublordtheLXXVIIIth","steam_id":76561199233244548,"connected_time":783000000000,"state":"active","ping":88},{"user_id":535,"name":"DoomoPelota","steam_id":76561198326462587,"connected_time":896000000000,"state":"active","ping":89},{"user_id":526,"name":"Danger McHazard","steam_id":76561198059451274,"connected_time":2026000000000,"state":"active","ping":75},{"user_id":549,"name":"SDL","steam_id":76561198859719985,"connected_time":288000000000,"state":"active","ping":64},{"user_id":550,"name":"Ryan Lewis truther","steam_id":76561198050505826,"connected_time":71000000000,"state":"active","ping":54},{"user_id":497,"name":"austintacious","steam_id":76561198054118061,"connected_time":4680000000000,"state":"active","ping":64},{"user_id":543,"name":"Zelumie","steam_id":76561198147335801,"connected_time":647000000000,"state":"active","ping":76},{"user_id":537,"name":"golben","steam_id":76561199388965842,"connected_time":876000000000,"state":"active","ping":91},{"user_id":515,"name":"the smiling zombie","steam_id":76561199246231090,"connected_time":3212000000000,"state":"active","ping":73},{"user_id":511,"name":"crits","steam_id":76561199044356107,"connected_time":4053000000000,"state":"active","ping":57},{"user_id":467,"name":"mtn.dewdrinker1999","steam_id":76561198021308963,"connected_time":7188000000000,"state":"active","ping":62},{"user_id":513,"name":"THEDINKY","steam_id":76561198190077399,"connected_time":3888000000000,"state":"active","ping":75},{"user_id":542,"name":"Got Oil?","steam_id":76561199238964574,"connected_time":666000000000,"state":"active","ping":75},{"user_id":539,"name":"checkswing","steam_id":76561198999816132,"connected_time":815000000000,"state":"active","ping":80},{"user_id":544,"name":"FREDO420","steam_id":76561198335632551,"connected_time":583000000000,"state":"active","ping":87},{"user_id":545,"name":"GatorAIDS","steam_id":76561198043220092,"connected_time":575000000000,"state":"active","ping":60},{"user_id":546,"name":"Rallen","steam_id":76561198088024663,"connected_time":539000000000,"state":"active","ping":65}]},{"server_id":5,"name":"Uncletopia | Frankfurt | 1 | All Maps","name_short":"frk-1","host":"frk-1.de.uncletopia.com","port":27015,"enabled":true,"region":"eu","cc":"de","latitude":50.110924,"longitude":8.682127,"reserved":0,"last_update":"0001-01-01T00:00:00Z","name_a2s":"Uncletopia | Frankfurt | 1 | All Maps","protocol":17,"map":"pl_snowycoast","folder":"tf","game":"Team Fortress","app_id":440,"player_count":0,"max_players":24,"Bots":0,"server_type":"Dedicated","server_os":"Linux","password":true,"vac":true,"version":"7757534","steam_id":85568392924469989,"keywords":["nocrits","nodmgspread","payload","uncletopia"],"game_id":440,"stv_port":27016,"stv_name":"Uncletopia | Frankfurt | 1 | All Maps | STV","players":null},{"server_id":110,"name":"Uncletopia | Frankfurt | 2 | All Maps","name_short":"frk-2","host":"frk-1.de.uncletopia.com","port":27025,"enabled":true,"region":"eu","cc":"de","latitude":50.110924,"longitude":8.682127,"reserved":0,"last_update":"0001-01-01T00:00:00Z","name_a2s":"Uncletopia | Frankfurt | 2 | All Maps","protocol":17,"map":"cp_snakewater_final1","folder":"tf","game":"Team Fortress","app_id":440,"player_count":0,"max_players":24,"Bots":0,"server_type":"Dedicated","server_os":"Linux","password":true,"vac":true,"version":"7757534","steam_id":85568392924469990,"keywords":["cp","nocrits","nodmgspread","uncletopia"],"game_id":440,"stv_port":27026,"stv_name":"Uncletopia | Frankfurt | 2 | All Maps | STV","players":null},{"server_id":308,"name":"Uncletopia | Frankfurt | 3 | All Maps","name_short":"frk-3","host":"frk-1.de.uncletopia.com","port":27035,"enabled":true,"region":"eu","cc":"de","latitude":50.110924,"longitude":8.682127,"reserved":0,"last_update":"0001-01-01T00:00:00Z","name_a2s":"Uncletopia | Frankfurt | 3 | All Maps","protocol":17,"map":"pl_swiftwater_final1","folder":"tf","game":"Team Fortress","app_id":440,"player_count":0,"max_players":24,"Bots":0,"server_type":"Dedicated","server_os":"Linux","password":true,"vac":true,"version":"7757534","steam_id":85568392924504274,"keywords":["nocrits","nodmgspread","payload","uncletopia"],"game_id":440,"stv_port":27036,"stv_name":"Uncletopia | Frankfurt | 3 | All Maps | STV","players":null},{"server_id":309,"name":"Uncletopia | Frankfurt | 4 | All Maps","name_short":"frk-4","host":"frk-1.de.uncletopia.com","port":27045,"enabled":true,"region":"eu","cc":"de","latitude":50.110924,"longitude":8.682127,"reserved":0,"last_update":"0001-01-01T00:00:00Z","name_a2s":"Uncletopia | Frankfurt | 4 | All Maps","protocol":17,"map":"koth_viaduct","folder":"tf","game":"Team Fortress","app_id":440,"player_count":0,"max_players":24,"Bots":0,"server_type":"Dedicated","server_os":"Linux","password":true,"vac":true,"version":"7757534","steam_id":85568392924504275,"keywords":["cp","nocrits","nodmgspread","uncletopia"],"game_id":440,"stv_port":27046,"stv_name":"Uncletopia | Frankfurt | 4 | All Maps | STV","players":null},{"server_id":310,"name":"Uncletopia | Frankfurt | 5 | All Maps","name_short":"frk-5","host":"frk-1.de.uncletopia.com","port":27055,"enabled":true,"region":"eu","cc":"de","latitude":50.110924,"longitude":8.682127,"reserved":0,"last_update":"0001-01-01T00:00:00Z","name_a2s":"Uncletopia | Frankfurt | 5 | All Maps","protocol":17,"map":"koth_lakeside_final","folder":"tf","game":"Team Fortress","app_id":440,"player_count":0,"max_players":24,"Bots":0,"server_type":"Dedicated","server_os":"Linux","password":true,"vac":true,"version":"7757534","steam_id":85568392924504277,"keywords":["cp","nocrits","nodmgspread","uncletopia"],"game_id":440,"stv_port":27056,"stv_name":"Uncletopia | Frankfurt | 5 | All Maps | STV","players":null},{"server_id":311,"name":"Uncletopia | Frankfurt | 6 | All Maps","name_short":"frk-6","host":"frk-1.de.uncletopia.com","port":27065,"enabled":true,"region":"eu","cc":"de","latitude":50.110924,"longitude":8.682127,"reserved":0,"last_update":"0001-01-01T00:00:00Z","name_a2s":"Uncletopia | Frankfurt | 6 | All Maps","protocol":17,"map":"pl_frontier_final","folder":"tf","game":"Team Fortress","app_id":440,"player_count":0,"max_players":24,"Bots":0,"server_type":"Dedicated","server_os":"Linux","password":true,"vac":true,"version":"7757534","steam_id":85568392924504278,"keywords":["nocrits","nodmgspread","payload","uncletopia"],"game_id":440,"stv_port":27066,"stv_name":"Uncletopia | Frankfurt | 6 | All Maps | STV","players":null},{"server_id":23,"name":"Uncletopia | Frankfurt | 7 | Stopwatch Beta","name_short":"frk-7","host":"frk-1.de.uncletopia.com","port":27075,"enabled":true,"region":"eu","cc":"de","latitude":50.110924,"longitude":8.682127,"reserved":0,"last_update":"0001-01-01T00:00:00Z","name_a2s":"Uncletopia | Frankfurt | 7 | Stopwatch Beta","protocol":17,"map":"cp_sunshine","folder":"tf","game":"Team Fortress","app_id":440,"player_count":0,"max_players":24,"Bots":0,"server_type":"Dedicated","server_os":"Linux","password":true,"vac":true,"version":"7757534","steam_id":85568392924742827,"keywords":["cp","nocrits","nodmgspread","uncletopia"],"game_id":440,"stv_port":27076,"stv_name":"Uncletopia | Frankfurt | 7 | Stopwatch Beta | STV","players":null},{"server_id":24,"name":"Uncletopia | Frankfurt | 8 | Community","name_short":"frk-8","host":"frk-1.de.uncletopia.com","port":27085,"enabled":true,"region":"eu","cc":"de","latitude":50.110924,"longitude":8.682127,"reserved":0,"last_update":"0001-01-01T00:00:00Z","name_a2s":"Uncletopia | Frankfurt | 8 | Community","protocol":17,"map":"koth_lakeside_final","folder":"tf","game":"Team Fortress","app_id":440,"player_count":0,"max_players":24,"Bots":0,"server_type":"Dedicated","server_os":"Linux","password":true,"vac":true,"version":"7757534","steam_id":85568392924742828,"keywords":["cp","nocrits","nodmgspread","uncletopia"],"game_id":440,"stv_port":27086,"stv_name":"Uncletopia | Frankfurt | 8 | Community | STV","players":null},{"server_id":202,"name":"Uncletopia | Hong Kong | 1 | All Maps","name_short":"hgk-1","host":"hgk-1.hk.uncletopia.com","port":27015,"enabled":true,"region":"asia","cc":"hk","latitude":22.302711,"longitude":114.177216,"reserved":0,"last_update":"0001-01-01T00:00:00Z","name_a2s":"Uncletopia | Hong Kong | 1 | All Maps","protocol":17,"map":"pl_snowycoast","folder":"tf","game":"Team Fortress","app_id":440,"player_count":24,"max_players":24,"Bots":0,"server_type":"Dedicated","server_os":"Linux","password":true,"vac":true,"version":"7757534","steam_id":85568392924494504,"keywords":["nocrits","nodmgspread","payload","uncletopia"],"game_id":440,"stv_port":27016,"stv_name":"Uncletopia | Hong Kong | 1 | All Maps | STV","players":[{"user_id":160,"name":"Noyour","steam_id":76561198323259830,"connected_time":3608000000000,"state":"active","ping":113},{"user_id":178,"name":"chlorine","steam_id":76561199146847474,"connected_time":1424000000000,"state":"active","ping":53},{"user_id":143,"name":"Vortex Artemisio","steam_id":76561198833527091,"connected_time":4523000000000,"state":"active","ping":86},{"user_id":74,"name":"3wfFbdrjEze5d2G","steam_id":76561198435900451,"connected_time":12511000000000,"state":"active","ping":121},{"user_id":166,"name":"Buttman","steam_id":76561198044693388,"connected_time":2416000000000,"state":"active","ping":54},{"user_id":187,"name":"swookang","steam_id":76561198234388288,"connected_time":429000000000,"state":"active","ping":81},{"user_id":159,"name":"Jaysong","steam_id":76561198828599078,"connected_time":3634000000000,"state":"active","ping":74},{"user_id":158,"name":"帕","steam_id":76561198439343999,"connected_time":3637000000000,"state":"active","ping":78},{"user_id":189,"name":"Maria ghostcap.com","steam_id":76561198237613398,"connected_time":94000000000,"state":"active","ping":162},{"user_id":172,"name":"water tastes good","steam_id":76561199375947670,"connected_time":1767000000000,"state":"active","ping":71},{"user_id":190,"name":"aeross","steam_id":76561198834445483,"connected_time":85000000000,"state":"active","ping":71},{"user_id":173,"name":"Strawberry Jam","steam_id":76561198158666692,"connected_time":1751000000000,"state":"active","ping":39},{"user_id":186,"name":"siyu","steam_id":76561198952342211,"connected_time":534000000000,"state":"active","ping":54},{"user_id":188,"name":"happyman","steam_id":76561198045585030,"connected_time":420000000000,"state":"active","ping":66},{"user_id":81,"name":"spinach (old mouse)","steam_id":76561198042539541,"connected_time":11699000000000,"state":"active","ping":76},{"user_id":174,"name":"UltraFat","steam_id":76561198253918132,"connected_time":1739000000000,"state":"active","ping":97},{"user_id":119,"name":"silverhouse7","steam_id":76561198349634906,"connected_time":7152000000000,"state":"active","ping":68},{"user_id":165,"name":"bad at everything(f2p)","steam_id":76561199378524169,"connected_time":2694000000000,"state":"active","ping":117},{"user_id":180,"name":"LEGS","steam_id":76561199111623890,"connected_time":1316000000000,"state":"active","ping":95},{"user_id":181,"name":"left my PDA at home (sorry)","steam_id":76561198981987710,"connected_time":1265000000000,"state":"active","ping":103},{"user_id":50,"name":"煙海 | Enkai","steam_id":76561198050460825,"connected_time":14382000000000,"state":"active","ping":76},{"user_id":105,"name":"vintage","steam_id":76561198230213828,"connected_time":8100000000000,"state":"active","ping":62},{"user_id":191,"name":"蠢脸骑士脸不蠢","steam_id":76561198422372840,"connected_time":50000000000,"state":"active","ping":59},{"user_id":118,"name":"17","steam_id":76561198241530712,"connected_time":7215000000000,"state":"active","ping":70}]},{"server_id":1,"name":"Uncletopia | Los Angeles | 1 | All Maps","name_short":"lax-1","host":"lax-1.us.uncletopia.com","port":27015,"enabled":true,"region":"us-west","cc":"us","latitude":33.94279,"longitude":-118.41004,"reserved":0,"last_update":"0001-01-01T00:00:00Z","name_a2s":"Uncletopia | Los Angeles | 1 | All Maps","protocol":17,"map":"koth_viaduct","folder":"tf","game":"Team Fortress","app_id":440,"player_count":23,"max_players":24,"Bots":0,"server_type":"Dedicated","server_os":"Linux","password":true,"vac":true,"version":"7757534","steam_id":85568392924469991,"keywords":["cp","nocrits","nodmgspread","uncletopia"],"game_id":440,"stv_port":27016,"stv_name":"Uncletopia | Los Angeles | 1 | All Maps | STV","players":[{"user_id":414,"name":"SneakyRocks","steam_id":76561198201694213,"connected_time":274000000000,"state":"active","ping":53},{"user_id":377,"name":"zaza2k","steam_id":76561198393760567,"connected_time":4029000000000,"state":"active","ping":50},{"user_id":408,"name":"LX-24","steam_id":76561198016168993,"connected_time":1275000000000,"state":"active","ping":84},{"user_id":410,"name":"^2Moving^1shadoW","steam_id":76561198078674411,"connected_time":1096000000000,"state":"active","ping":89},{"user_id":330,"name":"Kirbumnus","steam_id":76561197999987442,"connected_time":6758000000000,"state":"active","ping":75},{"user_id":399,"name":"sweaterfan","steam_id":76561199389567214,"connected_time":2558000000000,"state":"active","ping":94},{"user_id":398,"name":"Anax Alter","steam_id":76561198110249546,"connected_time":2710000000000,"state":"active","ping":107},{"user_id":354,"name":"Plus","steam_id":76561198403056269,"connected_time":6206000000000,"state":"active","ping":34},{"user_id":387,"name":"Chef Fetus","steam_id":76561198208712800,"connected_time":3298000000000,"state":"active","ping":69},{"user_id":415,"name":"rock gaming","steam_id":76561199402868311,"connected_time":216000000000,"state":"active","ping":58},{"user_id":401,"name":"mewtek","steam_id":76561198138599995,"connected_time":2440000000000,"state":"active","ping":58},{"user_id":376,"name":"MBK®Furryy","steam_id":76561198200785531,"connected_time":4127000000000,"state":"active","ping":40},{"user_id":395,"name":"PunishedCrab","steam_id":76561198079650017,"connected_time":2832000000000,"state":"active","ping":62},{"user_id":397,"name":"Buswolley","steam_id":76561197995205571,"connected_time":2718000000000,"state":"active","ping":54},{"user_id":361,"name":"Lux","steam_id":76561198018895404,"connected_time":5202000000000,"state":"active","ping":93},{"user_id":362,"name":"Potato","steam_id":76561198046057933,"connected_time":5195000000000,"state":"active","ping":121},{"user_id":406,"name":"Auburn","steam_id":76561198199541493,"connected_time":1463000000000,"state":"active","ping":52},{"user_id":402,"name":"Fade","steam_id":76561198119609795,"connected_time":1701000000000,"state":"active","ping":49},{"user_id":404,"name":"RiverMoot","steam_id":76561198081530179,"connected_time":1691000000000,"state":"active","ping":117},{"user_id":392,"name":"King Wiley","steam_id":76561197992058321,"connected_time":3052000000000,"state":"active","ping":79},{"user_id":231,"name":"SQbuilder","steam_id":76561198076473375,"connected_time":13842000000000,"state":"active","ping":36},{"user_id":363,"name":"Praise","steam_id":76561198053965667,"connected_time":5185000000000,"state":"active","ping":143},{"user_id":393,"name":"Casper","steam_id":76561198119654274,"connected_time":3046000000000,"state":"active","ping":87}]},{"server_id":112,"name":"Uncletopia | Los Angeles | 2 | All Maps","name_short":"lax-2","host":"lax-1.us.uncletopia.com","port":27025,"enabled":true,"region":"us-west","cc":"us","latitude":33.94279,"longitude":-118.41004,"reserved":0,"last_update":"0001-01-01T00:00:00Z","name_a2s":"Uncletopia | Los Angeles | 2 | All Maps","protocol":17,"map":"pl_upward","folder":"tf","game":"Team Fortress","app_id":440,"player_count":23,"max_players":24,"Bots":0,"server_type":"Dedicated","server_os":"Linux","password":true,"vac":true,"version":"7757534","steam_id":85568392924469992,"keywords":["nocrits","nodmgspread","payload","uncletopia"],"game_id":440,"stv_port":27026,"stv_name":"Uncletopia | Los Angeles | 2 | All Maps | STV","players":[{"user_id":815,"name":"vioxynteris","steam_id":76561198161428666,"connected_time":7669000000000,"state":"active","ping":45},{"user_id":874,"name":"KingToaster","steam_id":76561198007903802,"connected_time":783000000000,"state":"active","ping":59},{"user_id":872,"name":"Dr. B Busta","steam_id":76561198206387303,"connected_time":1781000000000,"state":"active","ping":34},{"user_id":816,"name":"StumpyWeed","steam_id":76561198051772381,"connected_time":7574000000000,"state":"active","ping":72},{"user_id":833,"name":"zeel107","steam_id":76561198063892990,"connected_time":6201000000000,"state":"active","ping":76},{"user_id":847,"name":"SirJameston","steam_id":76561198035674306,"connected_time":5204000000000,"state":"active","ping":100},{"user_id":871,"name":"Mitsuri's V-Taper","steam_id":76561198045209288,"connected_time":1817000000000,"state":"active","ping":35},{"user_id":832,"name":"Can You Feel It Mr.Krabs","steam_id":76561198128302414,"connected_time":6214000000000,"state":"active","ping":48},{"user_id":876,"name":"deadpixel","steam_id":76561198150249843,"connected_time":633000000000,"state":"active","ping":95},{"user_id":879,"name":"M4 Sherman","steam_id":76561198011096132,"connected_time":497000000000,"state":"active","ping":59},{"user_id":873,"name":"Flipari","steam_id":76561198399012971,"connected_time":840000000000,"state":"active","ping":60},{"user_id":852,"name":"i love my wife","steam_id":76561198103496593,"connected_time":4914000000000,"state":"active","ping":89},{"user_id":878,"name":"XX_NIGHTCOREWAFFEN_XX","steam_id":76561199475507686,"connected_time":609000000000,"state":"active","ping":103},{"user_id":813,"name":"Varia","steam_id":76561198047588672,"connected_time":7836000000000,"state":"active","ping":74},{"user_id":880,"name":"Rusty","steam_id":76561198055585129,"connected_time":486000000000,"state":"active","ping":75},{"user_id":881,"name":"mountain of faith","steam_id":76561198049258493,"connected_time":462000000000,"state":"active","ping":77},{"user_id":853,"name":"lovely wife","steam_id":76561198406252824,"connected_time":4908000000000,"state":"active","ping":76},{"user_id":882,"name":"PhobosAtTheGatesOfE3M1","steam_id":76561198137116276,"connected_time":460000000000,"state":"active","ping":96},{"user_id":814,"name":"VerenitEEE","steam_id":76561198064503363,"connected_time":7821000000000,"state":"active","ping":91},{"user_id":759,"name":"Dob Bole","steam_id":76561198056367220,"connected_time":11269000000000,"state":"active","ping":40},{"user_id":849,"name":"Claybrd","steam_id":76561198332695592,"connected_time":5161000000000,"state":"active","ping":93},{"user_id":870,"name":"[Colorbomb]","steam_id":76561198006316527,"connected_time":2885000000000,"state":"active","ping":69},{"user_id":858,"name":"worker","steam_id":76561198039608940,"connected_time":3783000000000,"state":"active","ping":86}]},{"server_id":324,"name":"Uncletopia | Los Angeles | 3 | All Maps","name_short":"lax-3","host":"lax-1.us.uncletopia.com","port":27035,"enabled":true,"region":"us-west","cc":"us","latitude":33.94279,"longitude":-118.41004,"reserved":0,"last_update":"0001-01-01T00:00:00Z","name_a2s":"Uncletopia | Los Angeles | 3 | All Maps","protocol":17,"map":"pl_badwater","folder":"tf","game":"Team Fortress","app_id":440,"player_count":23,"max_players":24,"Bots":0,"server_type":"Dedicated","server_os":"Linux","password":true,"vac":true,"version":"7757534","steam_id":85568392924510198,"keywords":["nocrits","nodmgspread","payload","uncletopia"],"game_id":440,"stv_port":27036,"stv_name":"Uncletopia | Los Angeles | 3 | All Maps | STV","players":[{"user_id":199,"name":"MysteryZer0","steam_id":76561198001547959,"connected_time":3266000000000,"state":"active","ping":86},{"user_id":237,"name":"DW codeN1nj4","steam_id":76561198025558856,"connected_time":637000000000,"state":"active","ping":102},{"user_id":247,"name":"Chalupa Jones","steam_id":76561198335855588,"connected_time":60000000000,"state":"active","ping":51},{"user_id":166,"name":"Fajita Master","steam_id":76561198329150962,"connected_time":7595000000000,"state":"active","ping":105},{"user_id":192,"name":"Nobody","steam_id":76561199352089107,"connected_time":5563000000000,"state":"active","ping":50},{"user_id":244,"name":"GGN","steam_id":76561198233603808,"connected_time":368000000000,"state":"active","ping":45},{"user_id":236,"name":"Hint of Sausage","steam_id":76561198098879664,"connected_time":643000000000,"state":"active","ping":93},{"user_id":234,"name":"DWSkilltonTTV","steam_id":76561197967027880,"connected_time":677000000000,"state":"active","ping":71},{"user_id":238,"name":"insane amphibian","steam_id":76561198221557344,"connected_time":622000000000,"state":"active","ping":95},{"user_id":220,"name":"Doony","steam_id":76561198073472571,"connected_time":1413000000000,"state":"active","ping":76},{"user_id":239,"name":"Iggledeebop","steam_id":76561198107095745,"connected_time":620000000000,"state":"active","ping":89},{"user_id":205,"name":"Assassin","steam_id":76561198321410235,"connected_time":2202000000000,"state":"active","ping":39},{"user_id":210,"name":"The Clown","steam_id":76561199085524751,"connected_time":2095000000000,"state":"active","ping":48},{"user_id":208,"name":"cant stop","steam_id":76561199467334502,"connected_time":2115000000000,"state":"active","ping":50},{"user_id":248,"name":"DaBeatGoOff?","steam_id":76561198106507400,"connected_time":30000000000,"state":"active","ping":53},{"user_id":221,"name":"♦♣Quadric♥♠","steam_id":76561198061003853,"connected_time":1291000000000,"state":"active","ping":110},{"user_id":241,"name":"Soozy420","steam_id":76561198809074422,"connected_time":570000000000,"state":"active","ping":61},{"user_id":242,"name":"raya","steam_id":76561198051504581,"connected_time":528000000000,"state":"active","ping":75},{"user_id":203,"name":"P.I.Staker","steam_id":76561198087096559,"connected_time":2683000000000,"state":"active","ping":76},{"user_id":243,"name":"golia","steam_id":76561198000264266,"connected_time":510000000000,"state":"active","ping":66},{"user_id":207,"name":"Lambchop","steam_id":76561198043900363,"connected_time":2181000000000,"state":"active","ping":65},{"user_id":224,"name":"Doppelgänger","steam_id":76561198036730436,"connected_time":1105000000000,"state":"active","ping":59},{"user_id":246,"name":"Kraul","steam_id":76561198043682060,"connected_time":127000000000,"state":"active","ping":104}]},{"server_id":25,"name":"Uncletopia | Los Angeles | 4 | Stopwatch Beta","name_short":"lax-4","host":"lax-1.us.uncletopia.com","port":27045,"enabled":true,"region":"us-west","cc":"us","latitude":33.94279,"longitude":-118.41004,"reserved":0,"last_update":"0001-01-01T00:00:00Z","name_a2s":"Uncletopia | Los Angeles | 4 | Stopwatch Beta","protocol":17,"map":"pl_upward","folder":"tf","game":"Team Fortress","app_id":440,"player_count":0,"max_players":24,"Bots":0,"server_type":"Dedicated","server_os":"Linux","password":true,"vac":true,"version":"7757534","steam_id":85568392924510199,"keywords":["nocrits","nodmgspread","payload","uncletopia"],"game_id":440,"stv_port":27046,"stv_name":"Uncletopia | Los Angeles | 4 | Stopwatch Beta | STV","players":null},{"server_id":11,"name":"Uncletopia | London | 1 | All Maps","name_short":"lon-1","host":"lon-1.uk.uncletopia.com","port":27015,"enabled":true,"region":"eu","cc":"gb","latitude":51.509865,"longitude":-0.118092,"reserved":0,"last_update":"0001-01-01T00:00:00Z","name_a2s":"Uncletopia | London | 1 | All Maps","protocol":17,"map":"koth_highpass","folder":"tf","game":"Team Fortress","app_id":440,"player_count":0,"max_players":24,"Bots":0,"server_type":"Dedicated","server_os":"Linux","password":true,"vac":true,"version":"7757534","steam_id":85568392924367362,"keywords":["cp","nocrits","nodmgspread","uncletopia"],"game_id":440,"stv_port":27016,"stv_name":"Uncletopia | London | 1 | All Maps | STV","players":null},{"server_id":114,"name":"Uncletopia | London | 2 | All Maps","name_short":"lon-2","host":"lon-1.uk.uncletopia.com","port":27025,"enabled":true,"region":"eu","cc":"gb","latitude":51.509865,"longitude":-0.118092,"reserved":0,"last_update":"0001-01-01T00:00:00Z","name_a2s":"Uncletopia | London | 2 | All Maps","protocol":17,"map":"koth_viaduct","folder":"tf","game":"Team Fortress","app_id":440,"player_count":0,"max_players":24,"Bots":0,"server_type":"Dedicated","server_os":"Linux","password":true,"vac":true,"version":"7757534","steam_id":85568392924470941,"keywords":["cp","nocrits","nodmgspread","uncletopia"],"game_id":440,"stv_port":27026,"stv_name":"Uncletopia | London | 2 | All Maps | STV","players":null},{"server_id":320,"name":"Uncletopia | London | 3 | All Maps","name_short":"lon-3","host":"lon-1.uk.uncletopia.com","port":27035,"enabled":true,"region":"eu","cc":"gb","latitude":51.509865,"longitude":-0.118092,"reserved":0,"last_update":"0001-01-01T00:00:00Z","name_a2s":"Uncletopia | London | 3 | All Maps","protocol":17,"map":"cp_dustbowl","folder":"tf","game":"Team Fortress","app_id":440,"player_count":0,"max_players":24,"Bots":0,"server_type":"Dedicated","server_os":"Linux","password":true,"vac":true,"version":"7757534","steam_id":85568392924510192,"keywords":["cp","nocrits","nodmgspread","uncletopia"],"game_id":440,"stv_port":27036,"stv_name":"Uncletopia | London | 3 | All Maps | STV","players":null},{"server_id":321,"name":"Uncletopia | London | 4 | All Maps","name_short":"lon-4","host":"lon-1.uk.uncletopia.com","port":27045,"enabled":true,"region":"eu","cc":"gb","latitude":51.509865,"longitude":-0.118092,"reserved":0,"last_update":"0001-01-01T00:00:00Z","name_a2s":"Uncletopia | London | 4 | All Maps","protocol":17,"map":"cp_dustbowl","folder":"tf","game":"Team Fortress","app_id":440,"player_count":0,"max_players":24,"Bots":0,"server_type":"Dedicated","server_os":"Linux","password":true,"vac":true,"version":"7757534","steam_id":85568392924510193,"keywords":["cp","nocrits","nodmgspread","uncletopia"],"game_id":440,"stv_port":27046,"stv_name":"Uncletopia | London | 4 | All Maps | STV","players":null},{"server_id":21,"name":"Uncletopia | London | 5 | All Maps","name_short":"lon-5","host":"lon-1.uk.uncletopia.com","port":27055,"enabled":true,"region":"eu","cc":"gb","latitude":51.509865,"longitude":-0.118092,"reserved":0,"last_update":"0001-01-01T00:00:00Z","name_a2s":"Uncletopia | London | 5 | All Maps","protocol":17,"map":"cp_sunshine","folder":"tf","game":"Team Fortress","app_id":440,"player_count":23,"max_players":24,"Bots":0,"server_type":"Dedicated","server_os":"Linux","password":true,"vac":true,"version":"7757534","steam_id":85568392924742829,"keywords":["cp","nocrits","nodmgspread","uncletopia"],"game_id":440,"stv_port":27056,"stv_name":"Uncletopia | London | 5 | All Maps | STV","players":[{"user_id":3,"name":"Borat","steam_id":76561198122226417,"connected_time":5285000000000,"state":"active","ping":45},{"user_id":70,"name":"peruna","steam_id":76561198000721196,"connected_time":392000000000,"state":"active","ping":75},{"user_id":48,"name":"dav","steam_id":76561198116986693,"connected_time":2073000000000,"state":"active","ping":99},{"user_id":50,"name":"сын джеффа убийц\ufffd","steam_id":76561199149307190,"connected_time":2000000000000,"state":"active","ping":89},{"user_id":74,"name":"jmp","steam_id":76561198168283286,"connected_time":234000000000,"state":"active","ping":75},{"user_id":52,"name":"Lubi Animal","steam_id":76561199041620433,"connected_time":1816000000000,"state":"active","ping":59},{"user_id":46,"name":"piss.","steam_id":76561198157176499,"connected_time":2243000000000,"state":"active","ping":72},{"user_id":72,"name":"Dzieciol","steam_id":76561198160237556,"connected_time":303000000000,"state":"active","ping":69},{"user_id":73,"name":"beardeath","steam_id":76561199064688448,"connected_time":274000000000,"state":"active","ping":86},{"user_id":75,"name":"kojitori","steam_id":76561198838072150,"connected_time":23000000000,"state":"spawning","ping":42},{"user_id":66,"name":"bliss","steam_id":76561198067459427,"connected_time":906000000000,"state":"active","ping":65},{"user_id":37,"name":"T Pot","steam_id":76561198426388444,"connected_time":2758000000000,"state":"active","ping":56},{"user_id":54,"name":"JayKey","steam_id":76561198008847925,"connected_time":1801000000000,"state":"active","ping":50},{"user_id":55,"name":"thekoolest88","steam_id":76561199022415672,"connected_time":1773000000000,"state":"active","ping":149},{"user_id":38,"name":"kornetov.vitalya","steam_id":76561199286034833,"connected_time":2653000000000,"state":"active","ping":100},{"user_id":56,"name":"BONK-TEC!","steam_id":76561198272667029,"connected_time":1681000000000,"state":"active","ping":54},{"user_id":41,"name":"Edison Trent","steam_id":76561198067133145,"connected_time":2569000000000,"state":"active","ping":62},{"user_id":63,"name":"Dovich","steam_id":76561199155718202,"connected_time":1181000000000,"state":"active","ping":92},{"user_id":45,"name":"Lewylow","steam_id":76561198005425686,"connected_time":2270000000000,"state":"active","ping":53},{"user_id":60,"name":"SynthBox3","steam_id":76561199094075745,"connected_time":1402000000000,"state":"active","ping":108},{"user_id":62,"name":"TF2 UPDATE?!?!?!?!?!","steam_id":76561198281521993,"connected_time":1230000000000,"state":"active","ping":79},{"user_id":67,"name":"FoxyTheFish","steam_id":76561199074190919,"connected_time":745000000000,"state":"active","ping":62},{"user_id":69,"name":"true","steam_id":76561198031145243,"connected_time":473000000000,"state":"active","ping":75}]},{"server_id":22,"name":"Uncletopia | London | 6 | All Maps","name_short":"lon-6","host":"lon-1.uk.uncletopia.com","port":27065,"enabled":true,"region":"eu","cc":"gb","latitude":51.509865,"longitude":-0.118092,"reserved":0,"last_update":"0001-01-01T00:00:00Z","name_a2s":"Uncletopia | London | 6 | All Maps","protocol":17,"map":"cp_mountainlab","folder":"tf","game":"Team Fortress","app_id":440,"player_count":0,"max_players":24,"Bots":0,"server_type":"Dedicated","server_os":"Linux","password":true,"vac":true,"version":"7757534","steam_id":85568392924742830,"keywords":["cp","nocrits","nodmgspread","uncletopia"],"game_id":440,"stv_port":27066,"stv_name":"Uncletopia | London | 6 | All Maps | STV","players":null},{"server_id":40,"name":"Uncletopia | London | 7 | No Payload","name_short":"lon-7","host":"lon-1.uk.uncletopia.com","port":27075,"enabled":true,"region":"eu","cc":"gb","latitude":51.509865,"longitude":-0.118092,"reserved":0,"last_update":"0001-01-01T00:00:00Z","name_a2s":"Uncletopia | London | 7 | No Payload","protocol":17,"map":"pl_badwater","folder":"tf","game":"Team Fortress","app_id":440,"player_count":0,"max_players":24,"Bots":0,"server_type":"Dedicated","server_os":"Linux","password":true,"vac":true,"version":"7757534","steam_id":85568392924964314,"keywords":["nocrits","nodmgspread","payload","uncletopia"],"game_id":440,"stv_port":27076,"stv_name":"Uncletopia | London | 7 | No Payload | STV","players":null},{"server_id":41,"name":"Uncletopia | London | 8 | Community","name_short":"lon-8","host":"lon-1.uk.uncletopia.com","port":27085,"enabled":true,"region":"eu","cc":"gb","latitude":51.509865,"longitude":-0.118092,"reserved":0,"last_update":"0001-01-01T00:00:00Z","name_a2s":"Uncletopia | London | 8 | Community","protocol":17,"map":"pl_barnblitz","folder":"tf","game":"Team Fortress","app_id":440,"player_count":0,"max_players":24,"Bots":0,"server_type":"Dedicated","server_os":"Linux","password":true,"vac":true,"version":"7757534","steam_id":85568392924964315,"keywords":["nocrits","nodmgspread","payload","uncletopia"],"game_id":440,"stv_port":27086,"stv_name":"Uncletopia | London | 8 | Community | STV","players":null},{"server_id":300,"name":"Uncletopia | Montréal | 1 | All Maps","name_short":"mtl-1","host":"mtl-1.ca.uncletopia.com","port":27015,"enabled":true,"region":"us-east","cc":"ca","latitude":45.50889,"longitude":-73.56167,"reserved":0,"last_update":"0001-01-01T00:00:00Z","name_a2s":"Uncletopia | Montréal | 1 | All Maps","protocol":17,"map":"koth_cascade","folder":"tf","game":"Team Fortress","app_id":440,"player_count":0,"max_players":24,"Bots":0,"server_type":"Dedicated","server_os":"Linux","password":true,"vac":true,"version":"7757534","steam_id":85568392924500087,"keywords":["cp","nocrits","nodmgspread","uncletopia"],"game_id":440,"stv_port":27016,"stv_name":"Uncletopia | Montréal | 1 | All Maps | STV","players":null},{"server_id":301,"name":"Uncletopia | Montréal | 2 | All Maps","name_short":"mtl-2","host":"mtl-1.ca.uncletopia.com","port":27025,"enabled":true,"region":"us-east","cc":"ca","latitude":45.50889,"longitude":-73.56167,"reserved":0,"last_update":"0001-01-01T00:00:00Z","name_a2s":"Uncletopia | Montréal | 2 | All Maps","protocol":17,"map":"pl_upward","folder":"tf","game":"Team Fortress","app_id":440,"player_count":0,"max_players":24,"Bots":0,"server_type":"Dedicated","server_os":"Linux","password":true,"vac":true,"version":"7757534","steam_id":85568392924500088,"keywords":["nocrits","nodmgspread","payload","uncletopia"],"game_id":440,"stv_port":27026,"stv_name":"Uncletopia | Montréal | 2 | All Maps | STV","players":null},{"server_id":302,"name":"Uncletopia | Montréal | 3 | All Maps","name_short":"mtl-3","host":"mtl-1.ca.uncletopia.com","port":27035,"enabled":true,"region":"us-east","cc":"ca","latitude":45.50889,"longitude":-73.56167,"reserved":0,"last_update":"0001-01-01T00:00:00Z","name_a2s":"Uncletopia | Montréal | 3 | All Maps","protocol":17,"map":"koth_lakeside_final","folder":"tf","game":"Team Fortress","app_id":440,"player_count":0,"max_players":24,"Bots":0,"server_type":"Dedicated","server_os":"Linux","password":true,"vac":true,"version":"7757534","steam_id":85568392924500089,"keywords":["cp","nocrits","nodmgspread","uncletopia"],"game_id":440,"stv_port":27036,"stv_name":"Uncletopia | Montréal | 3 | All Maps | STV","players":null},{"server_id":303,"name":"Uncletopia | Montréal | 4 | No Payload","name_short":"mtl-4","host":"mtl-1.ca.uncletopia.com","port":27045,"enabled":true,"region":"us-east","cc":"ca","latitude":45.50889,"longitude":-73.56167,"reserved":0,"last_update":"0001-01-01T00:00:00Z","name_a2s":"Uncletopia | Montréal | 4 | No Payload","protocol":17,"map":"cp_vanguard","folder":"tf","game":"Team Fortress","app_id":440,"player_count":0,"max_players":24,"Bots":0,"server_type":"Dedicated","server_os":"Linux","password":true,"vac":true,"version":"7757534","steam_id":85568392924500090,"keywords":["cp","nocrits","nodmgspread","uncletopia"],"game_id":440,"stv_port":27046,"stv_name":"Uncletopia | Montréal | 4 | No Payload | STV","players":null},{"server_id":13,"name":"Uncletopia | New York City | 1 | All Maps","name_short":"nyc-1","host":"nyc-1.us.uncletopia.com","port":27015,"enabled":true,"region":"us-east","cc":"us","latitude":40.73061,"longitude":-73.93524,"reserved":0,"last_update":"0001-01-01T00:00:00Z","name_a2s":"Uncletopia | New York City | 1 | All Maps","protocol":17,"map":"cp_snakewater_final1","folder":"tf","game":"Team Fortress","app_id":440,"player_count":0,"max_players":24,"Bots":0,"server_type":"Dedicated","server_os":"Linux","password":true,"vac":true,"version":"7757534","steam_id":85568392924469993,"keywords":["cp","nocrits","nodmgspread","uncletopia"],"game_id":440,"stv_port":27016,"stv_name":"Uncletopia | New York City | 1 | All Maps | STV","players":null},{"server_id":14,"name":"Uncletopia | New York City | 2 | All Maps","name_short":"nyc-2","host":"nyc-1.us.uncletopia.com","port":27025,"enabled":true,"region":"us-east","cc":"us","latitude":40.73061,"longitude":-73.93524,"reserved":0,"last_update":"0001-01-01T00:00:00Z","name_a2s":"Uncletopia | New York City | 2 | All Maps","protocol":17,"map":"pl_snowycoast","folder":"tf","game":"Team Fortress","app_id":440,"player_count":24,"max_players":24,"Bots":0,"server_type":"Dedicated","server_os":"Linux","password":true,"vac":true,"version":"7757534","steam_id":85568392924469994,"keywords":["nocrits","nodmgspread","payload","uncletopia"],"game_id":440,"stv_port":27026,"stv_name":"Uncletopia | New York City | 2 | All Maps | STV","players":[{"user_id":849,"name":"leumas","steam_id":76561198240408540,"connected_time":116000000000,"state":"active","ping":46},{"user_id":828,"name":"lamadre07","steam_id":76561198067337453,"connected_time":1937000000000,"state":"active","ping":112},{"user_id":797,"name":"stbb","steam_id":76561198173047169,"connected_time":5709000000000,"state":"active","ping":43},{"user_id":846,"name":"Dmitry Kerman","steam_id":76561198300020540,"connected_time":611000000000,"state":"active","ping":179},{"user_id":763,"name":"Laelaps","steam_id":76561198100061416,"connected_time":8005000000000,"state":"active","ping":43},{"user_id":835,"name":"A Puppy","steam_id":76561198828184456,"connected_time":1208000000000,"state":"active","ping":48},{"user_id":841,"name":"Lane","steam_id":76561197965828506,"connected_time":961000000000,"state":"active","ping":60},{"user_id":839,"name":"Rancid Spider Eggs","steam_id":76561198832006265,"connected_time":1007000000000,"state":"active","ping":80},{"user_id":813,"name":"Barlon","steam_id":76561198023717515,"connected_time":4217000000000,"state":"active","ping":55},{"user_id":801,"name":"Wique","steam_id":76561198071217597,"connected_time":5123000000000,"state":"active","ping":70},{"user_id":847,"name":"lytewerk","steam_id":76561198002819791,"connected_time":599000000000,"state":"active","ping":100},{"user_id":848,"name":"Dancio142","steam_id":76561198982410592,"connected_time":583000000000,"state":"active","ping":113},{"user_id":831,"name":"Aristotle Voulton","steam_id":76561198100174923,"connected_time":1840000000000,"state":"active","ping":72},{"user_id":842,"name":"e doctor","steam_id":76561198081851446,"connected_time":861000000000,"state":"active","ping":65},{"user_id":803,"name":"Glanderson booper","steam_id":76561198021223747,"connected_time":5098000000000,"state":"active","ping":122},{"user_id":814,"name":"Brunch","steam_id":76561198045933938,"connected_time":4202000000000,"state":"active","ping":45},{"user_id":823,"name":"Cola","steam_id":76561198171893399,"connected_time":3001000000000,"state":"active","ping":56},{"user_id":805,"name":"Two-Salt Tommy","steam_id":76561198058803625,"connected_time":5079000000000,"state":"active","ping":132},{"user_id":824,"name":"Dr. Adolf Sponge","steam_id":76561198072573105,"connected_time":2820000000000,"state":"active","ping":119},{"user_id":807,"name":"TacoBellFart","steam_id":76561198042112991,"connected_time":5076000000000,"state":"active","ping":119},{"user_id":812,"name":"Subway Fan","steam_id":76561198336372790,"connected_time":4472000000000,"state":"active","ping":40},{"user_id":850,"name":"Trunk Monkey™","steam_id":76561198167411287,"connected_time":17000000000,"state":"spawning","ping":77},{"user_id":780,"name":"Poopisviel Von Einzbern","steam_id":76561198259260433,"connected_time":6749000000000,"state":"active","ping":86},{"user_id":844,"name":"HeisenBurger","steam_id":76561198040632080,"connected_time":749000000000,"state":"active","ping":72}]},{"server_id":15,"name":"Uncletopia | New York City | 3 | Stopwatch Beta","name_short":"nyc-3","host":"nyc-1.us.uncletopia.com","port":27035,"enabled":true,"region":"us-east","cc":"us","latitude":40.73061,"longitude":-73.93524,"reserved":0,"last_update":"0001-01-01T00:00:00Z","name_a2s":"Uncletopia | New York City | 3 | Stopwatch Beta","protocol":17,"map":"cp_metalworks","folder":"tf","game":"Team Fortress","app_id":440,"player_count":0,"max_players":24,"Bots":0,"server_type":"Dedicated","server_os":"Linux","password":true,"vac":true,"version":"7757534","steam_id":85568392924742820,"keywords":["cp","nocrits","nodmgspread","uncletopia"],"game_id":440,"stv_port":27036,"stv_name":"Uncletopia | New York City | 3 | Stopwatch Beta | STV","players":null},{"server_id":16,"name":"Uncletopia | New York City | 4 | Community","name_short":"nyc-4","host":"nyc-1.us.uncletopia.com","port":27045,"enabled":true,"region":"us-east","cc":"us","latitude":40.73061,"longitude":-73.93524,"reserved":0,"last_update":"0001-01-01T00:00:00Z","name_a2s":"Uncletopia | New York City | 4 | Community","protocol":17,"map":"workshop/koth_ashville_final.ugc2130459942","folder":"tf","game":"Team Fortress","app_id":440,"player_count":0,"max_players":24,"Bots":0,"server_type":"Dedicated","server_os":"Linux","password":true,"vac":true,"version":"7757534","steam_id":85568392924742821,"keywords":["cp","nocrits","nodmgspread","uncletopia"],"game_id":440,"stv_port":27046,"stv_name":"Uncletopia | New York City | 4 | Community | STV","players":null},{"server_id":142,"name":"Uncletopia | São Paulo | 1 | All Maps","name_short":"sao-1","host":"sao-1.br.uncletopia.com","port":27015,"enabled":true,"region":"sa","cc":"br","latitude":-23.533773,"longitude":-46.62529,"reserved":0,"last_update":"0001-01-01T00:00:00Z","name_a2s":"Uncletopia | São Paulo | 1 | All Maps","protocol":17,"map":"pl_upward","folder":"tf","game":"Team Fortress","app_id":440,"player_count":0,"max_players":24,"Bots":0,"server_type":"Dedicated","server_os":"Linux","password":true,"vac":true,"version":"7757534","steam_id":85568392924469996,"keywords":["nocrits","nodmgspread","payload","uncletopia"],"game_id":440,"stv_port":27016,"stv_name":"Uncletopia | São Paulo | 1 | All Maps | STV","players":null},{"server_id":143,"name":"Uncletopia | São Paulo | 2 | All Maps","name_short":"sao-2","host":"sao-2.br.uncletopia.com","port":27015,"enabled":true,"region":"sa","cc":"br","latitude":-23.533773,"longitude":-46.62529,"reserved":0,"last_update":"0001-01-01T00:00:00Z","name_a2s":"Uncletopia | São Paulo | 2 | All Maps","protocol":17,"map":"pl_snowycoast","folder":"tf","game":"Team Fortress","app_id":440,"player_count":0,"max_players":24,"Bots":0,"server_type":"Dedicated","server_os":"Linux","password":true,"vac":true,"version":"7757534","steam_id":85568392924485349,"keywords":["nocrits","nodmgspread","payload","uncletopia"],"game_id":440,"stv_port":27016,"stv_name":"Uncletopia | São Paulo | 2 | All Maps | STV","players":null},{"server_id":7,"name":"Uncletopia | Seattle | 1 | All Maps","name_short":"sea-1","host":"sea-1.us.uncletopia.com","port":27015,"enabled":true,"region":"us-west","cc":"us","latitude":47.608013,"longitude":-122.33517,"reserved":0,"last_update":"0001-01-01T00:00:00Z","name_a2s":"Uncletopia | Seattle | 1 | All Maps","protocol":17,"map":"cp_sunshine","folder":"tf","game":"Team Fortress","app_id":440,"player_count":24,"max_players":24,"Bots":0,"server_type":"Dedicated","server_os":"Linux","password":true,"vac":true,"version":"7757534","steam_id":85568392924469997,"keywords":["cp","nocrits","nodmgspread","uncletopia"],"game_id":440,"stv_port":27016,"stv_name":"Uncletopia | Seattle | 1 | All Maps | STV","players":[{"user_id":890,"name":"Antzen","steam_id":76561198041343470,"connected_time":642000000000,"state":"active","ping":62},{"user_id":859,"name":"Tuba","steam_id":76561198209166329,"connected_time":2059000000000,"state":"active","ping":83},{"user_id":866,"name":"my monitor is off","steam_id":76561198074499537,"connected_time":1893000000000,"state":"active","ping":74},{"user_id":894,"name":"read this and you get two yolks","steam_id":76561198182294378,"connected_time":239000000000,"state":"active","ping":85},{"user_id":875,"name":"Crotonga","steam_id":76561198077178900,"connected_time":1307000000000,"state":"active","ping":98},{"user_id":891,"name":"NRMN","steam_id":76561198086863106,"connected_time":631000000000,"state":"active","ping":45},{"user_id":897,"name":"ChipE","steam_id":76561198137146627,"connected_time":11000000000,"state":"active","ping":79},{"user_id":871,"name":"Chrisscar","steam_id":76561198086298130,"connected_time":1583000000000,"state":"active","ping":76},{"user_id":877,"name":"goldhed","steam_id":76561198051751133,"connected_time":1248000000000,"state":"active","ping":60},{"user_id":823,"name":"Will Hunting","steam_id":76561198289590087,"connected_time":4032000000000,"state":"active","ping":130},{"user_id":794,"name":"perc 10","steam_id":76561198116471653,"connected_time":4917000000000,"state":"active","ping":71},{"user_id":836,"name":"DragonJimmy","steam_id":76561198272966565,"connected_time":2517000000000,"state":"active","ping":89},{"user_id":878,"name":"jakelavaclaw","steam_id":76561198378760594,"connected_time":1236000000000,"state":"active","ping":76},{"user_id":853,"name":"BBL Sponsor","steam_id":76561199093733603,"connected_time":2164000000000,"state":"active","ping":81},{"user_id":892,"name":"zzZZzz","steam_id":76561198346823843,"connected_time":549000000000,"state":"active","ping":104},{"user_id":776,"name":"Ayayahuasca","steam_id":76561199002906056,"connected_time":6036000000000,"state":"active","ping":48},{"user_id":895,"name":"hardfork","steam_id":76561197960958019,"connected_time":220000000000,"state":"active","ping":52},{"user_id":880,"name":"Coolshroomish","steam_id":76561199109440924,"connected_time":1200000000000,"state":"active","ping":49},{"user_id":885,"name":"Cam(era)","steam_id":76561198285054047,"connected_time":964000000000,"state":"active","ping":81},{"user_id":832,"name":"(ngv) Antwan","steam_id":76561198018017318,"connected_time":2618000000000,"state":"active","ping":52},{"user_id":882,"name":"Farseer Ulwithy","steam_id":76561197965179245,"connected_time":1176000000000,"state":"active","ping":102},{"user_id":896,"name":"synca","steam_id":76561198124752453,"connected_time":194000000000,"state":"active","ping":79},{"user_id":893,"name":"WitchoStankyAs","steam_id":76561199061730292,"connected_time":539000000000,"state":"active","ping":86},{"user_id":838,"name":"89","steam_id":76561198106308056,"connected_time":2490000000000,"state":"active","ping":85}]},{"server_id":119,"name":"Uncletopia | Seattle | 2 | All Maps","name_short":"sea-2","host":"sea-1.us.uncletopia.com","port":27025,"enabled":true,"region":"us-west","cc":"us","latitude":47.608013,"longitude":-122.33517,"reserved":0,"last_update":"0001-01-01T00:00:00Z","name_a2s":"Uncletopia | Seattle | 2 | All Maps","protocol":17,"map":"pl_pier","folder":"tf","game":"Team Fortress","app_id":440,"player_count":24,"max_players":24,"Bots":0,"server_type":"Dedicated","server_os":"Linux","password":true,"vac":true,"version":"7757534","steam_id":85568392924469998,"keywords":["nocrits","nodmgspread","payload","uncletopia"],"game_id":440,"stv_port":27026,"stv_name":"Uncletopia | Seattle | 2 | All Maps | STV","players":[{"user_id":545,"name":"S Q U I S H E  T H A T  C A T","steam_id":76561198293865429,"connected_time":1759000000000,"state":"active","ping":43},{"user_id":535,"name":"El Gato Paranoico","steam_id":76561198116567116,"connected_time":3869000000000,"state":"active","ping":112},{"user_id":561,"name":"exephur","steam_id":76561198135763234,"connected_time":647000000000,"state":"active","ping":69},{"user_id":544,"name":"SwoopShoot","steam_id":76561199024079388,"connected_time":1954000000000,"state":"active","ping":48},{"user_id":558,"name":"I. C. Wiener","steam_id":76561198062777610,"connected_time":1121000000000,"state":"active","ping":75},{"user_id":557,"name":"Gary, 40, soul sucking 9-5","steam_id":76561198073812888,"connected_time":1238000000000,"state":"active","ping":48},{"user_id":566,"name":"Doctor","steam_id":76561198245100508,"connected_time":409000000000,"state":"active","ping":75},{"user_id":537,"name":"benji","steam_id":76561198084417967,"connected_time":3830000000000,"state":"active","ping":70},{"user_id":529,"name":"Flembrane","steam_id":76561197995328898,"connected_time":4532000000000,"state":"active","ping":72},{"user_id":559,"name":"Phyre112","steam_id":76561198064367510,"connected_time":897000000000,"state":"active","ping":75},{"user_id":564,"name":"Dantastic24","steam_id":76561198294068999,"connected_time":484000000000,"state":"active","ping":91},{"user_id":518,"name":"SvicidalBug","steam_id":76561198221390504,"connected_time":5068000000000,"state":"active","ping":73},{"user_id":534,"name":"Dreamzapp","steam_id":76561199084936632,"connected_time":3895000000000,"state":"active","ping":107},{"user_id":548,"name":"Stale Bread","steam_id":76561198085618127,"connected_time":1673000000000,"state":"active","ping":82},{"user_id":550,"name":"THAT CAT","steam_id":76561198010828625,"connected_time":1638000000000,"state":"active","ping":45},{"user_id":552,"name":"Starkiller","steam_id":76561198101643120,"connected_time":1571000000000,"state":"active","ping":75},{"user_id":551,"name":"A UsedNom","steam_id":76561198402832756,"connected_time":1611000000000,"state":"active","ping":61},{"user_id":563,"name":"Kito","steam_id":76561198032401946,"connected_time":532000000000,"state":"active","ping":83},{"user_id":565,"name":"Luigah","steam_id":76561198066306424,"connected_time":438000000000,"state":"active","ping":56},{"user_id":570,"name":"user10","steam_id":76561198184814466,"connected_time":246000000000,"state":"active","ping":42},{"user_id":568,"name":"Ferry gary","steam_id":76561198184698262,"connected_time":377000000000,"state":"active","ping":51},{"user_id":569,"name":"Alf Creepypasta","steam_id":76561198841844093,"connected_time":347000000000,"state":"active","ping":79},{"user_id":524,"name":"SIGMA [BS]","steam_id":76561197962604879,"connected_time":4871000000000,"state":"active","ping":128},{"user_id":540,"name":"The King of Piss World","steam_id":76561198082806956,"connected_time":3799000000000,"state":"active","ping":139}]},{"server_id":406,"name":"Uncletopia | Seattle | 3 | Stopwatch Beta","name_short":"sea-3","host":"sea-1.us.uncletopia.com","port":27035,"enabled":true,"region":"us-west","cc":"us","latitude":47.608013,"longitude":-122.33517,"reserved":0,"last_update":"0001-01-01T00:00:00Z","name_a2s":"Uncletopia | Seattle | 3 | Stopwatch Beta","protocol":17,"map":"workshop/cp_reckoner_rc6.ugc674719999","folder":"tf","game":"Team Fortress","app_id":440,"player_count":0,"max_players":24,"Bots":0,"server_type":"Dedicated","server_os":"Linux","password":true,"vac":true,"version":"7757534","steam_id":85568392924515217,"keywords":["cp","nocrits","nodmgspread","uncletopia"],"game_id":440,"stv_port":27036,"stv_name":"Uncletopia | Seattle | 3 | Stopwatch Beta | STV","players":null},{"server_id":17,"name":"Uncletopia | San Francisco | 1 | All Maps","name_short":"sfo-1","host":"sfo-1.us.uncletopia.com","port":27015,"enabled":true,"region":"us-west","cc":"us","latitude":37.77397,"longitude":-122.4313,"reserved":0,"last_update":"0001-01-01T00:00:00Z","name_a2s":"Uncletopia | San Francisco | 1 | All Maps","protocol":17,"map":"pl_swiftwater_final1","folder":"tf","game":"Team Fortress","app_id":440,"player_count":25,"max_players":24,"Bots":0,"server_type":"Dedicated","server_os":"Linux","password":true,"vac":true,"version":"7757534","steam_id":85568392924469999,"keywords":["nocrits","nodmgspread","payload","uncletopia"],"game_id":440,"stv_port":27016,"stv_name":"Uncletopia | San Francisco | 1 | All Maps | STV","players":[{"user_id":341,"name":"StrangeMachine","steam_id":76561198046628064,"connected_time":3000000000,"state":"spawning","ping":54},{"user_id":322,"name":"s4lmon","steam_id":76561198055882807,"connected_time":454000000000,"state":"active","ping":70},{"user_id":295,"name":"Internal Screaming","steam_id":76561198272327629,"connected_time":984000000000,"state":"active","ping":52},{"user_id":290,"name":"takeshi_","steam_id":76561198148797456,"connected_time":1019000000000,"state":"active","ping":44},{"user_id":301,"name":"Wermware Tech. Standing CTO","steam_id":76561198143209841,"connected_time":931000000000,"state":"active","ping":69},{"user_id":275,"name":"Mort Strudel","steam_id":76561198041024295,"connected_time":2012000000000,"state":"active","ping":65},{"user_id":336,"name":"squats!","steam_id":76561198314221897,"connected_time":93000000000,"state":"active","ping":80},{"user_id":265,"name":"gamer","steam_id":76561198213154011,"connected_time":2428000000000,"state":"active","ping":59},{"user_id":293,"name":"jubb","steam_id":76561198186865526,"connected_time":1001000000000,"state":"active","ping":83},{"user_id":272,"name":"Cpt. Dingle","steam_id":76561198025720199,"connected_time":2070000000000,"state":"active","ping":82},{"user_id":298,"name":"✪ Y V E S","steam_id":76561198299479796,"connected_time":945000000000,"state":"active","ping":46},{"user_id":300,"name":"Eric4bz","steam_id":76561198054439606,"connected_time":936000000000,"state":"active","ping":87},{"user_id":248,"name":"landogg","steam_id":76561198049000586,"connected_time":4633000000000,"state":"active","ping":61},{"user_id":213,"name":"Cypher","steam_id":76561198418288939,"connected_time":8221000000000,"state":"active","ping":57},{"user_id":286,"name":"self sufficient kitten","steam_id":76561197960592612,"connected_time":1431000000000,"state":"active","ping":60},{"user_id":273,"name":"{ᴛʀ_ᴄᴇʀᴘ} shullers","steam_id":76561198889997809,"connected_time":2064000000000,"state":"active","ping":60},{"user_id":287,"name":"Kush","steam_id":76561198021243202,"connected_time":1398000000000,"state":"active","ping":46},{"user_id":280,"name":"JoJoBo","steam_id":76561198211505960,"connected_time":1899000000000,"state":"active","ping":62},{"user_id":288,"name":"Sunny","steam_id":76561198261667312,"connected_time":1392000000000,"state":"active","ping":68},{"user_id":299,"name":"Luv","steam_id":76561199200757524,"connected_time":943000000000,"state":"active","ping":65},{"user_id":306,"name":"drrockso20[MicS]","steam_id":76561198001003987,"connected_time":874000000000,"state":"active","ping":60},{"user_id":271,"name":"goongremlin","steam_id":76561198278196215,"connected_time":2132000000000,"state":"active","ping":49},{"user_id":331,"name":"zeltwood","steam_id":76561198982593544,"connected_time":283000000000,"state":"active","ping":91},{"user_id":285,"name":"Aztea","steam_id":76561198982089893,"connected_time":1772000000000,"state":"active","ping":92},{"user_id":333,"name":"Biggie Grug","steam_id":76561198042998887,"connected_time":230000000000,"state":"active","ping":79}]},{"server_id":18,"name":"Uncletopia | San Francisco | 2 | All Maps","name_short":"sfo-2","host":"sfo-1.us.uncletopia.com","port":27025,"enabled":true,"region":"us-west","cc":"us","latitude":37.77397,"longitude":-122.4313,"reserved":0,"last_update":"0001-01-01T00:00:00Z","name_a2s":"Uncletopia | San Francisco | 2 | All Maps","protocol":17,"map":"cp_sunshine","folder":"tf","game":"Team Fortress","app_id":440,"player_count":24,"max_players":24,"Bots":0,"server_type":"Dedicated","server_os":"Linux","password":true,"vac":true,"version":"7757534","steam_id":85568392924470000,"keywords":["cp","nocrits","nodmgspread","uncletopia"],"game_id":440,"stv_port":27026,"stv_name":"Uncletopia | San Francisco | 2 | All Maps | STV","players":[{"user_id":398,"name":"Octo","steam_id":76561198024056355,"connected_time":3707000000000,"state":"active","ping":60},{"user_id":404,"name":"O'Hare","steam_id":76561198405450810,"connected_time":2623000000000,"state":"active","ping":113},{"user_id":422,"name":"Double Stuf Roreo","steam_id":76561198005856754,"connected_time":1315000000000,"state":"active","ping":62},{"user_id":389,"name":"daniel","steam_id":76561197991289254,"connected_time":4269000000000,"state":"active","ping":74},{"user_id":428,"name":"Omega-Kiba","steam_id":76561198154594523,"connected_time":1048000000000,"state":"active","ping":64},{"user_id":423,"name":"charley","steam_id":76561198828238339,"connected_time":1175000000000,"state":"active","ping":69},{"user_id":427,"name":"Gerald The Octopus","steam_id":76561199235809898,"connected_time":1091000000000,"state":"active","ping":74},{"user_id":431,"name":"bbgurl303","steam_id":76561197994814357,"connected_time":389000000000,"state":"active","ping":59},{"user_id":425,"name":"TheMaskedChris","steam_id":76561198271980205,"connected_time":1109000000000,"state":"active","ping":74},{"user_id":433,"name":"420blzItM8","steam_id":76561198137983285,"connected_time":22000000000,"state":"active","ping":102},{"user_id":399,"name":"dodecadron","steam_id":76561198027397222,"connected_time":3700000000000,"state":"active","ping":85},{"user_id":390,"name":"The Moon","steam_id":76561198082926682,"connected_time":4242000000000,"state":"active","ping":45},{"user_id":412,"name":"Seagato","steam_id":76561197999346837,"connected_time":1816000000000,"state":"active","ping":111},{"user_id":387,"name":"Duck","steam_id":76561198129983430,"connected_time":4337000000000,"state":"active","ping":73},{"user_id":384,"name":"soy consumer","steam_id":76561198047168548,"connected_time":4396000000000,"state":"active","ping":57},{"user_id":416,"name":"TimTam","steam_id":76561198080434949,"connected_time":1447000000000,"state":"active","ping":106},{"user_id":388,"name":"00","steam_id":76561198041700636,"connected_time":4310000000000,"state":"active","ping":46},{"user_id":421,"name":"oil","steam_id":76561198099980149,"connected_time":1365000000000,"state":"active","ping":60},{"user_id":391,"name":"Jovo","steam_id":76561197993265970,"connected_time":4235000000000,"state":"active","ping":57},{"user_id":373,"name":"Pork Belly","steam_id":76561198053003142,"connected_time":4855000000000,"state":"active","ping":49},{"user_id":426,"name":"sameways","steam_id":76561198120982884,"connected_time":1105000000000,"state":"active","ping":52},{"user_id":430,"name":"lil'latina'gamer22","steam_id":76561198013871896,"connected_time":562000000000,"state":"active","ping":103},{"user_id":419,"name":"autumnal.messenger","steam_id":76561199345816635,"connected_time":1425000000000,"state":"active","ping":71},{"user_id":400,"name":"ScoutBox","steam_id":76561198111539895,"connected_time":3697000000000,"state":"active","ping":57}]},{"server_id":19,"name":"Uncletopia | San Francisco | 3 | Stopwatch Beta","name_short":"sfo-3","host":"sfo-1.us.uncletopia.com","port":27035,"enabled":true,"region":"us-west","cc":"us","latitude":37.77397,"longitude":-122.4313,"reserved":0,"last_update":"0001-01-01T00:00:00Z","name_a2s":"Uncletopia | San Francisco | 3 | Stopwatch Beta","protocol":17,"map":"workshop/cp_process_f12.ugc2302948105","folder":"tf","game":"Team Fortress","app_id":440,"player_count":0,"max_players":24,"Bots":0,"server_type":"Dedicated","server_os":"Linux","password":true,"vac":true,"version":"7757534","steam_id":85568392924742824,"keywords":["cp","nocrits","nodmgspread","uncletopia"],"game_id":440,"stv_port":27036,"stv_name":"Uncletopia | San Francisco | 3 | Stopwatch Beta | STV","players":null},{"server_id":20,"name":"Uncletopia | San Francisco | 4 | Community","name_short":"sfo-4","host":"sfo-1.us.uncletopia.com","port":27045,"enabled":true,"region":"us-west","cc":"us","latitude":37.77397,"longitude":-122.4313,"reserved":0,"last_update":"0001-01-01T00:00:00Z","name_a2s":"Uncletopia | San Francisco | 4 | Community","protocol":17,"map":"workshop/koth_synthetic_rc6a.ugc1549817316","folder":"tf","game":"Team Fortress","app_id":440,"player_count":0,"max_players":24,"Bots":0,"server_type":"Dedicated","server_os":"Linux","password":true,"vac":true,"version":"7757534","steam_id":85568392924742826,"keywords":["cp","nocrits","nodmgspread","uncletopia"],"game_id":440,"stv_port":27046,"stv_name":"Uncletopia | San Francisco | 4 | Community | STV","players":null},{"server_id":141,"name":"Uncletopia | Sydney | 1 | All Maps","name_short":"syd-1","host":"syd-1.au.uncletopia.com","port":27015,"enabled":true,"region":"au","cc":"au","latitude":-33.865143,"longitude":151.2099,"reserved":0,"last_update":"0001-01-01T00:00:00Z","name_a2s":"Uncletopia | Sydney | 1 | All Maps","protocol":17,"map":"pl_upward","folder":"tf","game":"Team Fortress","app_id":440,"player_count":24,"max_players":24,"Bots":0,"server_type":"Dedicated","server_os":"Linux","password":true,"vac":true,"version":"7757534","steam_id":85568392924470001,"keywords":["nocrits","nodmgspread","payload","uncletopia"],"game_id":440,"stv_port":27016,"stv_name":"Uncletopia | Sydney | 1 | All Maps | STV","players":[{"user_id":317,"name":"xander","steam_id":76561198063481761,"connected_time":162000000000,"state":"active","ping":45},{"user_id":309,"name":"Shadow Puppeteer","steam_id":76561198151121997,"connected_time":898000000000,"state":"active","ping":78},{"user_id":254,"name":"Zieria","steam_id":76561199261811388,"connected_time":3922000000000,"state":"active","ping":40},{"user_id":313,"name":"alqwnq","steam_id":76561198133867907,"connected_time":291000000000,"state":"active","ping":67},{"user_id":311,"name":"Marsguard","steam_id":76561198113775091,"connected_time":617000000000,"state":"active","ping":60},{"user_id":202,"name":"BaconUndies","steam_id":76561198281809824,"connected_time":6999000000000,"state":"active","ping":103},{"user_id":249,"name":"las","steam_id":76561198039162155,"connected_time":4128000000000,"state":"active","ping":56},{"user_id":303,"name":"Van","steam_id":76561198027324852,"connected_time":1140000000000,"state":"active","ping":83},{"user_id":294,"name":"Creamy Potato","steam_id":76561198132823728,"connected_time":1860000000000,"state":"active","ping":119},{"user_id":314,"name":"mukbussy","steam_id":76561198028535226,"connected_time":281000000000,"state":"active","ping":92},{"user_id":306,"name":"Mr.Deathclaw","steam_id":76561198025419320,"connected_time":1032000000000,"state":"active","ping":46},{"user_id":261,"name":"CoolJosh3k .com","steam_id":76561197997407342,"connected_time":3575000000000,"state":"active","ping":51},{"user_id":296,"name":"SubHam","steam_id":76561198071578622,"connected_time":1705000000000,"state":"active","ping":78},{"user_id":267,"name":"Mr Mahal","steam_id":76561198123234137,"connected_time":3347000000000,"state":"active","ping":72},{"user_id":297,"name":"thrax","steam_id":76561197992385270,"connected_time":1694000000000,"state":"active","ping":54},{"user_id":316,"name":"i Ken smell u","steam_id":76561198301282416,"connected_time":205000000000,"state":"active","ping":57},{"user_id":307,"name":"Lain","steam_id":76561198149217307,"connected_time":1011000000000,"state":"active","ping":95},{"user_id":299,"name":"michael","steam_id":76561198052848358,"connected_time":1467000000000,"state":"active","ping":66},{"user_id":310,"name":"Cafe","steam_id":76561198061587693,"connected_time":822000000000,"state":"active","ping":104},{"user_id":285,"name":"wombraidre","steam_id":76561199375834537,"connected_time":2371000000000,"state":"active","ping":131},{"user_id":252,"name":"sf/k","steam_id":76561198047758776,"connected_time":4067000000000,"state":"active","ping":43},{"user_id":275,"name":"LockStryder","steam_id":76561198117384113,"connected_time":2893000000000,"state":"active","ping":54},{"user_id":301,"name":"nojnosbod11","steam_id":76561199176012151,"connected_time":1427000000000,"state":"active","ping":64},{"user_id":289,"name":"Not A F2P","steam_id":76561198376756608,"connected_time":2167000000000,"state":"active","ping":65}]},{"server_id":123,"name":"Uncletopia | Sydney | 2 | All Maps","name_short":"syd-2","host":"syd-1.au.uncletopia.com","port":27025,"enabled":true,"region":"au","cc":"au","latitude":-33.865143,"longitude":151.2099,"reserved":0,"last_update":"0001-01-01T00:00:00Z","name_a2s":"Uncletopia | Sydney | 2 | All Maps","protocol":17,"map":"koth_viaduct","folder":"tf","game":"Team Fortress","app_id":440,"player_count":0,"max_players":24,"Bots":0,"server_type":"Dedicated","server_os":"Linux","password":true,"vac":true,"version":"7757534","steam_id":85568392924470002,"keywords":["cp","nocrits","nodmgspread","uncletopia"],"game_id":440,"stv_port":27026,"stv_name":"Uncletopia | Sydney | 2 | All Maps | STV","players":null},{"server_id":395,"name":"Uncletopia | Sydney | 3 | All Maps","name_short":"syd-3","host":"syd-1.au.uncletopia.com","port":27035,"enabled":true,"region":"au","cc":"au","latitude":-33.865143,"longitude":151.2099,"reserved":0,"last_update":"0001-01-01T00:00:00Z","name_a2s":"Uncletopia | Sydney | 3 | All Maps","protocol":17,"map":"cp_gravelpit","folder":"tf","game":"Team Fortress","app_id":440,"player_count":21,"max_players":24,"Bots":0,"server_type":"Dedicated","server_os":"Linux","password":true,"vac":true,"version":"7757534","steam_id":85568392925194467,"keywords":["cp","nocrits","nodmgspread","uncletopia"],"game_id":440,"stv_port":27036,"stv_name":"Uncletopia | Sydney | 3 | All Maps | STV","players":[{"user_id":326,"name":"amogus spy","steam_id":76561198435094510,"connected_time":1432000000000,"state":"active","ping":184},{"user_id":336,"name":"Emerald the Snake","steam_id":76561199013344853,"connected_time":961000000000,"state":"active","ping":157},{"user_id":347,"name":"bogan on a fence","steam_id":76561198052032702,"connected_time":299000000000,"state":"active","ping":44},{"user_id":356,"name":":o)","steam_id":76561198146610938,"connected_time":64000000000,"state":"active","ping":238},{"user_id":331,"name":"JmayTheUnknown","steam_id":76561198217463552,"connected_time":1217000000000,"state":"active","ping":72},{"user_id":357,"name":"MadmannsHat","steam_id":76561199063185304,"connected_time":31000000000,"state":"active","ping":85},{"user_id":329,"name":"Blazey 伊達 政宗","steam_id":76561197971082275,"connected_time":1347000000000,"state":"active","ping":108},{"user_id":295,"name":"whiteshaq","steam_id":76561198131988811,"connected_time":4190000000000,"state":"active","ping":86},{"user_id":354,"name":"The Big Ward","steam_id":76561198418478080,"connected_time":90000000000,"state":"active","ping":69},{"user_id":328,"name":"THE RIZZ LORD","steam_id":76561199043227163,"connected_time":1361000000000,"state":"active","ping":67},{"user_id":351,"name":"ded","steam_id":76561199044514674,"connected_time":196000000000,"state":"active","ping":68},{"user_id":216,"name":"Kremmen","steam_id":76561198051368641,"connected_time":10284000000000,"state":"active","ping":62},{"user_id":337,"name":"Grantymunk","steam_id":76561198051439179,"connected_time":879000000000,"state":"active","ping":78},{"user_id":168,"name":"SUSHIMAN","steam_id":76561199089989428,"connected_time":15403000000000,"state":"active","ping":89},{"user_id":316,"name":"beth.cubitt","steam_id":76561198454733447,"connected_time":2711000000000,"state":"active","ping":87},{"user_id":333,"name":"jrg","steam_id":76561197997362731,"connected_time":1148000000000,"state":"active","ping":46},{"user_id":355,"name":"TheDragonTurkey","steam_id":76561198097259063,"connected_time":84000000000,"state":"active","ping":69},{"user_id":304,"name":"Tiger_Tan","steam_id":76561198221733844,"connected_time":3930000000000,"state":"active","ping":61},{"user_id":344,"name":"ahhhhhhhhh","steam_id":76561198083700749,"connected_time":548000000000,"state":"active","ping":44},{"user_id":349,"name":"Y0shua3","steam_id":76561199381627916,"connected_time":242000000000,"state":"active","ping":81},{"user_id":352,"name":"slime","steam_id":76561199176020333,"connected_time":185000000000,"state":"active","ping":61}]},{"server_id":396,"name":"Uncletopia | Sydney | 4 | All Maps","name_short":"syd-4","host":"syd-1.au.uncletopia.com","port":27045,"enabled":true,"region":"au","cc":"au","latitude":-33.865143,"longitude":151.2099,"reserved":0,"last_update":"0001-01-01T00:00:00Z","name_a2s":"Uncletopia | Sydney | 4 | All Maps","protocol":17,"map":"koth_viaduct","folder":"tf","game":"Team Fortress","app_id":440,"player_count":0,"max_players":24,"Bots":0,"server_type":"Dedicated","server_os":"Linux","password":true,"vac":true,"version":"7757534","steam_id":85568392925397958,"keywords":["cp","nocrits","nodmgspread","uncletopia"],"game_id":440,"stv_port":27046,"stv_name":"Uncletopia | Sydney | 4 | All Maps | STV","players":null},{"server_id":58,"name":"Uncletopia | Sydney | 5 | Stopwatch Beta","name_short":"syd-5","host":"syd-1.au.uncletopia.com","port":27055,"enabled":true,"region":"au","cc":"au","latitude":-33.865143,"longitude":151.2099,"reserved":0,"last_update":"0001-01-01T00:00:00Z","name_a2s":"Uncletopia | Sydney | 5 | Stopwatch Beta","protocol":17,"map":"pl_borneo","folder":"tf","game":"Team Fortress","app_id":440,"player_count":0,"max_players":24,"Bots":0,"server_type":"Dedicated","server_os":"Linux","password":true,"vac":true,"version":"7757534","steam_id":85568392925397959,"keywords":["nocrits","nodmgspread","payload","uncletopia"],"game_id":440,"stv_port":27056,"stv_name":"Uncletopia | Sydney | 5 | Stopwatch Beta | STV","players":null},{"server_id":59,"name":"Uncletopia | Sydney | 6 | Community","name_short":"syd-6","host":"syd-1.au.uncletopia.com","port":27065,"enabled":true,"region":"au","cc":"au","latitude":-33.865143,"longitude":151.2099,"reserved":0,"last_update":"0001-01-01T00:00:00Z","name_a2s":"Uncletopia | Sydney | 6 | Community","protocol":17,"map":"workshop/pl_highwood_b13.ugc1769496557","folder":"tf","game":"Team Fortress","app_id":440,"player_count":0,"max_players":24,"Bots":0,"server_type":"Dedicated","server_os":"Linux","password":true,"vac":true,"version":"7757534","steam_id":85568392925397960,"keywords":["nocrits","nodmgspread","payload","uncletopia"],"game_id":440,"stv_port":27066,"stv_name":"Uncletopia | Sydney | 6 | Community | STV","players":null},{"server_id":49,"name":"Uncletopia | Warsaw | 1 | All Maps","name_short":"waw-1","host":"waw-1.pl.uncletopia.com","port":27015,"enabled":true,"region":"eu","cc":"pl","latitude":52.2297,"longitude":21.017532,"reserved":0,"last_update":"0001-01-01T00:00:00Z","name_a2s":"","protocol":0,"map":"","folder":"","game":"","app_id":0,"player_count":0,"max_players":0,"Bots":0,"server_type":"","server_os":"","password":false,"vac":false,"version":"","steam_id":0,"keywords":null,"game_id":0,"stv_port":0,"stv_name":"","players":null},{"server_id":50,"name":"Uncletopia | Warsaw | 2 | All Maps","name_short":"waw-2","host":"waw-1.pl.uncletopia.com","port":27025,"enabled":true,"region":"eu","cc":"pl","latitude":52.2297,"longitude":21.017532,"reserved":0,"last_update":"0001-01-01T00:00:00Z","name_a2s":"Uncletopia | Warsaw | 2 | All Maps","protocol":17,"map":"koth_viaduct","folder":"tf","game":"Team Fortress","app_id":440,"player_count":0,"max_players":24,"Bots":0,"server_type":"Dedicated","server_os":"Linux","password":true,"vac":true,"version":"7757534","steam_id":85568392925397851,"keywords":["cp","nocrits","nodmgspread","uncletopia"],"game_id":440,"stv_port":27026,"stv_name":"Uncletopia | Warsaw | 2 | All Maps | STV","players":null},{"server_id":51,"name":"Uncletopia | Warsaw | 3 | All Maps","name_short":"waw-3","host":"waw-1.pl.uncletopia.com","port":27035,"enabled":true,"region":"eu","cc":"pl","latitude":52.2297,"longitude":21.017532,"reserved":0,"last_update":"0001-01-01T00:00:00Z","name_a2s":"Uncletopia | Warsaw | 3 | All Maps","protocol":17,"map":"pl_badwater","folder":"tf","game":"Team Fortress","app_id":440,"player_count":0,"max_players":24,"Bots":0,"server_type":"Dedicated","server_os":"Linux","password":true,"vac":true,"version":"7757534","steam_id":85568392925397852,"keywords":["nocrits","nodmgspread","payload","uncletopia"],"game_id":440,"stv_port":27036,"stv_name":"Uncletopia | Warsaw | 3 | All Maps | STV","players":null},{"server_id":52,"name":"Uncletopia | Warsaw | 4 | All Maps","name_short":"waw-4","host":"waw-1.pl.uncletopia.com","port":27045,"enabled":true,"region":"eu","cc":"pl","latitude":52.2297,"longitude":21.017532,"reserved":0,"last_update":"0001-01-01T00:00:00Z","name_a2s":"Uncletopia | Warsaw | 4 | All Maps","protocol":17,"map":"koth_lakeside_final","folder":"tf","game":"Team Fortress","app_id":440,"player_count":0,"max_players":24,"Bots":0,"server_type":"Dedicated","server_os":"Linux","password":true,"vac":true,"version":"7757534","steam_id":85568392925397853,"keywords":["cp","nocrits","nodmgspread","uncletopia"],"game_id":440,"stv_port":27046,"stv_name":"Uncletopia | Warsaw | 4 | All Maps | STV","players":null},{"server_id":53,"name":"Uncletopia | Warsaw | 5 | Stopwatch Beta","name_short":"waw-5","host":"waw-1.pl.uncletopia.com","port":27055,"enabled":true,"region":"eu","cc":"pl","latitude":52.2297,"longitude":21.017532,"reserved":0,"last_update":"0001-01-01T00:00:00Z","name_a2s":"Uncletopia | Warsaw | 5 | Stopwatch Beta","protocol":17,"map":"pl_borneo","folder":"tf","game":"Team Fortress","app_id":440,"player_count":0,"max_players":24,"Bots":0,"server_type":"Dedicated","server_os":"Linux","password":true,"vac":true,"version":"7757534","steam_id":85568392925397854,"keywords":["nocrits","nodmgspread","payload","uncletopia"],"game_id":440,"stv_port":27056,"stv_name":"Uncletopia | Warsaw | 5 | Stopwatch Beta | STV","players":null},{"server_id":54,"name":"Uncletopia | Warsaw | 6 | Community","name_short":"waw-6","host":"waw-1.pl.uncletopia.com","port":27065,"enabled":true,"region":"eu","cc":"pl","latitude":52.2297,"longitude":21.017532,"reserved":0,"last_update":"0001-01-01T00:00:00Z","name_a2s":"Uncletopia | Warsaw | 6 | Community","protocol":17,"map":"koth_lakeside_final","folder":"tf","game":"Team Fortress","app_id":440,"player_count":0,"max_players":24,"Bots":0,"server_type":"Dedicated","server_os":"Linux","password":true,"vac":true,"version":"7757534","steam_id":85568392925397856,"keywords":["cp","nocrits","nodmgspread","uncletopia"],"game_id":440,"stv_port":27066,"stv_name":"Uncletopia | Warsaw | 6 | Community | STV","players":null}]}