{"status":true,"message":"","result":[{"server_id":9,"name":"Uncletopia | Atlanta | 1 | All Maps","name_short":"atl-1","host":"atl-1.us.uncletopia.com","port":27015,"enabled":true,"region":"us-east","cc":"us","latitude":33.753746,"longitude":-84.38633,"reserved":0,"last_update":"0001-01-01T00:00:00Z","name_a2s":"Uncletopia | Atlanta | 1 | All Maps","protocol":17,"map":"pl_borneo","folder":"tf","game":"Team Fortress","app_id":440,"player_count":24,"max_players":24,"Bots":0,"server_type":"Dedicated","server_os":"Linux","password":true,"vac":true,"version":"7742253","steam_id":85568392924469982,"keywords":["nocrits","nodmgspread","payload","uncletopia"],"game_id":440,"stv_port":27016,"stv_name":"Uncletopia | Atlanta | 1 | All Maps | STV","players":[{"user_id":84,"name":"Messy_","steam_id":76561199095580664,"connected_time":3151000000000,"state":"active","ping":120},{"user_id":83,"name":"Hobocop","steam_id":76561198076321907,"connected_time":3238000000000,"state":"active","ping":110},{"user_id":81,"name":"Summon Ketamine Ape","steam_id":76561198143132686,"connected_time":3498000000000,"state":"active","ping":105},{"user_id":106,"name":"ChubbySolution","steam_id":76561198160468964,"connected_time":1549000000000,"state":"active","ping":79},{"user_id":104,"name":"yomokha lft","steam_id":76561198063175935,"connected_time":1838000000000,"state":"active","ping":58},{"user_id":65,"name":"Lost (15)","steam_id":76561198093713427,"connected_time":5021000000000,"state":"active","ping":80},{"user_id":105,"name":"D-MROMA","steam_id":76561198837664861,"connected_time":1565000000000,"state":"active","ping":80},{"user_id":107,"name":"Singularity","steam_id":76561198000284742,"connected_time":1547000000000,"state":"active","ping":50},{"user_id":59,"name":"chad","steam_id":76561198216109017,"connected_time":5340000000000,"state":"active","ping":70},{"user_id":109,"name":"creeeeeee","steam_id":76561198392539722,"connected_time":1536000000000,"state":"active","ping":79},{"user_id":98,"name":"Gromble","steam_id":76561198148876897,"connected_time":2568000000000,"state":"active","ping":77},{"user_id":64,"name":"Caoticaos","steam_id":76561198114800227,"connected_time":5111000000000,"state":"active","ping":125},{"user_id":55,"name":"Red","steam_id":76561197998285162,"connected_time":5811000000000,"state":"active","ping":86},{"user_id":111,"name":"I don't blast air around here","steam_id":76561198039763676,"connected_time":1511000000000,"state":"active","ping":55},{"user_id":80,"name":"TRHD_Pharaxer","steam_id":76561198051236069,"connected_time":3527000000000,"state":"active","ping":151},{"user_id":88,"name":"SLOPPY BLOWJOB DEVIL","steam_id":76561198819545533,"connected_time":3038000000000,"state":"active","ping":81},{"user_id":95,"name":"Tomato","steam_id":76561197996472649,"connected_time":2722000000000,"state":"active","ping":71},{"user_id":87,"name":"DoctorHa","steam_id":76561198044026008,"connected_time":3058000000000,"state":"active","ping":117},{"user_id":31,"name":"Mirari","steam_id":76561198126889358,"connected_time":7362000000000,"state":"active","ping":77},{"user_id":100,"name":"Lex","steam_id":76561198165796487,"connected_time":2467000000000,"state":"active","ping":62},{"user_id":62,"name":"prod CHAMPION","steam_id":76561199245670274,"connected_time":5307000000000,"state":"active","ping":113},{"user_id":114,"name":"indi","steam_id":76561198045917538,"connected_time":307000000000,"state":"active","ping":67},{"user_id":113,"name":"new year new personality","steam_id":76561198016121536,"connected_time":311000000000,"state":"active","ping":67},{"user_id":50,"name":"ATL1 | Mayhem","steam_id":76561199246637881,"connected_time":6194000000000,"state":"active","ping":59}]},{"server_id":400,"name":"Uncletopia | Atlanta | 3 | Stopwatch Beta","name_short":"atl-3","host":"atl-1.us.uncletopia.com","port":27035,"enabled":true,"region":"us-east","cc":"us","latitude":33.753746,"longitude":-84.38633,"reserved":0,"last_update":"0001-01-01T00:00:00Z","name_a2s":"Uncletopia | Atlanta | 3 | Stopwatch Beta","protocol":17,"map":"pl_pier","folder":"tf","game":"Team Fortress","app_id":440,"player_count":0,"max_players":24,"Bots":0,"server_type":"Dedicated","server_os":"Linux","password":true,"vac":true,"version":"7742253","steam_id":85568392924515187,"keywords":["nocrits","nodmgspread","payload","uncletopia"],"game_id":440,"stv_port":27036,"stv_name":"Uncletopia | Atlanta | 3 | Stopwatch Beta | STV","players":null},{"server_id":401,"name":"Uncletopia | Atlanta | 4 | No Payload","name_short":"atl-4","host":"atl-1.us.uncletopia.com","port":27045,"enabled":true,"region":"us-east","cc":"us","latitude":33.753746,"longitude":-84.38633,"reserved":0,"last_update":"0001-01-01T00:00:00Z","name_a2s":"Uncletopia | Atlanta | 4 | No Payload","protocol":17,"map":"pl_pier","folder":"tf","game":"Team Fortress","app_id":440,"player_count":0,"max_players":24,"Bots":0,"server_type":"Dedicated","server_os":"Linux","password":true,"vac":true,"version":"7723704","steam_id":85568392924515188,"keywords":["nocrits","nodmgspread","payload","uncletopia"],"game_id":440,"stv_port":27046,"stv_name":"Uncletopia | Atlanta | 4 | No Payload | STV","players":null},{"server_id":2,"name":"Uncletopia | Chicago | 1 | All Maps","name_short":"chi-1","host":"chi-1.us.uncletopia.com","port":27015,"enabled":true,"region":"us-central","cc":"us","latitude":41.881832,"longitude":-87.62318,"reserved":0,"last_update":"0001-01-01T00:00:00Z","name_a2s":"Uncletopia | Chicago | 1 | All Maps","protocol":17,"map":"pl_pier","folder":"tf","game":"Team Fortress","app_id":440,"player_count":24,"max_players":24,"Bots":0,"server_type":"Dedicated","server_os":"Linux","password":true,"vac":true,"version":"7742253","steam_id":85568392924469984,"keywords":["nocrits","nodmgspread","payload","uncletopia"],"game_id":440,"stv_port":27016,"stv_name":"Uncletopia | Chicago | 1 | All Maps | STV","players":[{"user_id":230,"name":"Dude Named Bob","steam_id":76561198310448093,"connected_time":495000000000,"state":"active","ping":45},{"user_id":223,"name":"God of bread","steam_id":76561198373688035,"connected_time":794000000000,"state":"active","ping":64},{"user_id":239,"name":"boofgall319","steam_id":76561199122095813,"connected_time":13000000000,"state":"spawning","ping":60},{"user_id":221,"name":"Klaxo","steam_id":76561198119693227,"connected_time":1003000000000,"state":"active","ping":85},{"user_id":206,"name":"ThatOneKnight","steam_id":76561198388583650,"connected_time":2023000000000,"state":"active","ping":49},{"user_id":193,"name":"kermitcreeper(ZAZA)","steam_id":76561199222829972,"connected_time":3839000000000,"state":"active","ping":51},{"user_id":165,"name":"SuperJagops","steam_id":76561198034689716,"connected_time":6821000000000,"state":"active","ping":54},{"user_id":114,"name":"Holidays Enjoyer","steam_id":76561198074390546,"connected_time":10601000000000,"state":"active","ping":66},{"user_id":199,"name":"Snugboo","steam_id":76561198147970327,"connected_time":3166000000000,"state":"active","ping":48},{"user_id":214,"name":"summertime sadness","steam_id":76561198063313115,"connected_time":1688000000000,"state":"active","ping":50},{"user_id":208,"name":"Quentin","steam_id":76561198032941413,"connected_time":1979000000000,"state":"active","ping":67},{"user_id":202,"name":"god approaches","steam_id":76561198081617990,"connected_time":2913000000000,"state":"active","ping":95},{"user_id":225,"name":"extinct111","steam_id":76561199013696367,"connected_time":599000000000,"state":"active","ping":68},{"user_id":112,"name":"James Bondage","steam_id":76561198077647318,"connected_time":10821000000000,"state":"active","ping":51},{"user_id":227,"name":"‚òÜ„É¨„Ç™ÔºÅ‚òÜ","steam_id":76561198052826867,"connected_time":589000000000,"state":"active","ping":65},{"user_id":222,"name":"kametro4","steam_id":76561198835430429,"connected_time":840000000000,"state":"active","ping":77},{"user_id":233,"name":"TrashCanGaming","steam_id":76561199150746424,"connected_time":489000000000,"state":"active","ping":52},{"user_id":238,"name":"KingTinkerer","steam_id":76561198226856548,"connected_time":21000000000,"state":"active","ping":68},{"user_id":209,"name":"VLADIMIR LENIN'S CAT","steam_id":76561198182999551,"connected_time":1910000000000,"state":"active","ping":54},{"user_id":229,"name":"Terismith","steam_id":76561198196600533,"connected_time":540000000000,"state":"active","ping":77},{"user_id":235,"name":"ChickenCrusade","steam_id":76561198067004494,"connected_time":457000000000,"state":"active","ping":66},{"user_id":104,"name":"‚ùÜ Spearmint ‚ùÜ","steam_id":76561198040974097,"connected_time":11985000000000,"state":"active","ping":83},{"user_id":236,"name":"Cerabond","steam_id":76561199230915333,"connected_time":419000000000,"state":"active","ping":68},{"user_id":237,"name":"girl.","steam_id":76561198314897603,"connected_time":412000000000,"state":"active","ping":53}]},{"server_id":106,"name":"Uncletopia | Chicago | 2 | All Maps","name_short":"chi-2","host":"chi-1.us.uncletopia.com","port":27025,"enabled":true,"region":"us-central","cc":"us","latitude":41.881832,"longitude":-87.62318,"reserved":0,"last_update":"0001-01-01T00:00:00Z","name_a2s":"Uncletopia | Chicago | 2 | All Maps","protocol":17,"map":"pl_upward","folder":"tf","game":"Team Fortress","app_id":440,"player_count":24,"max_players":24,"Bots":0,"server_type":"Dedicated","server_os":"Linux","password":true,"vac":true,"version":"7742253","steam_id":85568392924469985,"keywords":["nocrits","nodmgspread","payload","uncletopia"],"game_id":440,"stv_port":27026,"stv_name":"Uncletopia | Chicago | 2 | All Maps | STV","players":[{"user_id":59,"name":"Bobato Chaps","steam_id":76561198065103552,"connected_time":6903000000000,"state":"active","ping":52},{"user_id":134,"name":"dr peppah chug!","steam_id":76561198068835693,"connected_time":38000000000,"state":"active","ping":89},{"user_id":6,"name":"CreeperCatBengal","steam_id":76561198213193221,"connected_time":10173000000000,"state":"active","ping":78},{"user_id":95,"name":"Riandox","steam_id":76561198130577326,"connected_time":3115000000000,"state":"active","ping":60},{"user_id":130,"name":"glizzy gladiator","steam_id":76561198015285052,"connected_time":127000000000,"state":"active","ping":42},{"user_id":39,"name":"HollyBlocky","steam_id":76561198030156100,"connected_time":8924000000000,"state":"active","ping":68},{"user_id":91,"name":"BetoelAff es","steam_id":76561198377842585,"connected_time":3580000000000,"state":"active","ping":119},{"user_id":127,"name":"toffeecoffee","steam_id":76561198248625526,"connected_time":377000000000,"state":"active","ping":99},{"user_id":88,"name":"Rappitor","steam_id":76561198105613110,"connected_time":4408000000000,"state":"active","ping":48},{"user_id":128,"name":"Grayo","steam_id":76561198059652623,"connected_time":307000000000,"state":"active","ping":60},{"user_id":129,"name":"Fuzzy Toast","steam_id":76561198028067781,"connected_time":154000000000,"state":"active","ping":45},{"user_id":55,"name":"Mad Cow‚Äª","steam_id":76561198132498594,"connected_time":6973000000000,"state":"active","ping":51},{"user_id":120,"name":"On The Bright Side...","steam_id":76561198168785883,"connected_time":1163000000000,"state":"active","ping":47},{"user_id":96,"name":"Dead Dude","steam_id":76561197965448444,"connected_time":3074000000000,"state":"active","ping":62},{"user_id":115,"name":"-œÄ- BakaD","steam_id":76561197960559169,"connected_time":1383000000000,"state":"active","ping":52},{"user_id":132,"name":"yk_","steam_id":76561198148059714,"connected_time":96000000000,"state":"active","ping":65},{"user_id":133,"name":"nnobi","steam_id":76561198878729277,"connected_time":90000000000,"state":"active","ping":77},{"user_id":25,"name":"Drachma","steam_id":76561198007310514,"connected_time":9503000000000,"state":"active","ping":67},{"user_id":105,"name":"Tom","steam_id":76561198070630154,"connected_time":2610000000000,"state":"active","ping":88},{"user_id":126,"name":"1yonger","steam_id":76561197994597935,"connected_time":400000000000,"state":"active","ping":91},{"user_id":106,"name":"Smig","steam_id":76561198408846602,"connected_time":2266000000000,"state":"active","ping":70},{"user_id":119,"name":"conscripted monk","steam_id":76561199029246232,"connected_time":1331000000000,"state":"active","ping":69},{"user_id":100,"name":"chalk","steam_id":76561198328109873,"connected_time":3014000000000,"state":"active","ping":78},{"user_id":110,"name":"forklift circumcised","steam_id":76561198278756087,"connected_time":2072000000000,"state":"active","ping":89}]},{"server_id":402,"name":"Uncletopia | Chicago | 3 | All Maps","name_short":"chi-3","host":"chi-1.us.uncletopia.com","port":27035,"enabled":true,"region":"us-central","cc":"us","latitude":41.881832,"longitude":-87.62318,"reserved":0,"last_update":"0001-01-01T00:00:00Z","name_a2s":"Uncletopia | Chicago | 3 | All Maps","protocol":17,"map":"koth_viaduct","folder":"tf","game":"Team Fortress","app_id":440,"player_count":24,"max_players":24,"Bots":0,"server_type":"Dedicated","server_os":"Linux","password":true,"vac":true,"version":"7742253","steam_id":85568392924515191,"keywords":["cp","nocrits","nodmgspread","uncletopia"],"game_id":440,"stv_port":27036,"stv_name":"Uncletopia | Chicago | 3 | All Maps | STV","players":[{"user_id":47,"name":"jag the sexy cactus","steam_id":76561198128227646,"connected_time":753000000000,"state":"active","ping":98},{"user_id":13,"name":"Weshmek","steam_id":76561198009950743,"connected_time":2237000000000,"state":"active","ping":57},{"user_id":14,"name":"Juni Cortez","steam_id":76561198115552623,"connected_time":2228000000000,"state":"active","ping":55},{"user_id":55,"name":"Cdesmondd","steam_id":76561198072774462,"connected_time":525000000000,"state":"active","ping":53},{"user_id":16,"name":"crippling fumo addiction","steam_id":76561198115874625,"connected_time":2171000000000,"state":"active","ping":64},{"user_id":40,"name":"Jones Brand Soda","steam_id":76561198049553885,"connected_time":902000000000,"state":"active","ping":111},{"user_id":46,"name":"dingus","steam_id":76561198190077399,"connected_time":800000000000,"state":"active","ping":63},{"user_id":19,"name":"Heroofchaos","steam_id":76561199106660090,"connected_time":2056000000000,"state":"active","ping":75},{"user_id":48,"name":"SkrubWrecker","steam_id":76561198044717015,"connected_time":752000000000,"state":"active","ping":68},{"user_id":58,"name":"Assilio","steam_id":76561198371102414,"connected_time":447000000000,"state":"active","ping":67},{"user_id":33,"name":"C0SMIC PLAGU3","steam_id":76561198051958643,"connected_time":1159000000000,"state":"active","ping":78},{"user_id":28,"name":"vroop","steam_id":76561198211781375,"connected_time":1456000000000,"state":"active","ping":83},{"user_id":32,"name":"ant√¥nio el pr√≥","steam_id":76561198185931162,"connected_time":1296000000000,"state":"active","ping":150},{"user_id":34,"name":"scruffer","steam_id":76561198044095460,"connected_time":1159000000000,"state":"active","ping":76},{"user_id":31,"name":"Monerix","steam_id":76561199047327172,"connected_time":1353000000000,"state":"active","ping":83},{"user_id":35,"name":"srv","steam_id":76561198026589960,"connected_time":1141000000000,"state":"active","ping":55},{"user_id":49,"name":"Argona","steam_id":76561197979165140,"connected_time":750000000000,"state":"active","ping":61},{"user_id":60,"name":"trasho","steam_id":76561198066867150,"connected_time":176000000000,"state":"active","ping":61},{"user_id":41,"name":"NothingMan","steam_id":76561198051284446,"connected_time":877000000000,"state":"active","ping":122},{"user_id":42,"name":"PorkTheChop","steam_id":76561198008883658,"connected_time":865000000000,"state":"active","ping":49},{"user_id":59,"name":"Unkle Genny","steam_id":76561198070674442,"connected_time":209000000000,"state":"active","ping":71},{"user_id":52,"name":"duBstep","steam_id":76561198353928965,"connected_time":686000000000,"state":"active","ping":59},{"user_id":61,"name":"nola airport bloody mary","steam_id":76561198004882625,"connected_time":111000000000,"state":"active","ping":106},{"user_id":54,"name":"Horus","steam_id":76561198166215370,"connected_time":611000000000,"state":"active","ping":103}]},{"server_id":403,"name":"Uncletopia | Chicago | 4 | All Maps","name_short":"chi-4","host":"chi-1.us.uncletopia.com","port":27045,"enabled":true,"region":"us-central","cc":"us","latitude":41.881832,"longitude":-87.62318,"reserved":0,"last_update":"0001-01-01T00:00:00Z","name_a2s":"Uncletopia | Chicago | 4 | All Maps","protocol":17,"map":"koth_lakeside_final","folder":"tf","game":"Team Fortress","app_id":440,"player_count":0,"max_players":24,"Bots":0,"server_type":"Dedicated","server_os":"Linux","password":true,"vac":true,"version":"7742253","steam_id":85568392924515193,"keywords":["cp","nocrits","nodmgspread","uncletopia"],"game_id":440,"stv_port":27046,"stv_name":"Uncletopia | Chicago | 4 | All Maps | STV","players":null},{"server_id":36,"name":"Uncletopia | Chicago | 5 | All Maps","name_short":"chi-5","host":"chi-2.us.uncletopia.com","port":27015,"enabled":true,"region":"us-central","cc":"us","latitude":41.881832,"longitude":-87.62318,"reserved":0,"last_update":"0001-01-01T00:00:00Z","name_a2s":"Uncletopia | Chicago | 5 | All Maps","protocol":17,"map":"koth_highpass","folder":"tf","game":"Team Fortress","app_id":440,"player_count":0,"max_players":24,"Bots":0,"server_type":"Dedicated","server_os":"Linux","password":true,"vac":true,"version":"7742253","steam_id":85568392924866362,"keywords":["cp","nocrits","nodmgspread","uncletopia"],"game_id":440,"stv_port":27016,"stv_name":"Uncletopia | Chicago | 5 | All Maps | STV","players":null},{"server_id":37,"name":"Uncletopia | Chicago | 6 | All Maps","name_short":"chi-6","host":"chi-2.us.uncletopia.com","port":27025,"enabled":true,"region":"us-central","cc":"us","latitude":41.881832,"longitude":-87.62318,"reserved":0,"last_update":"0001-01-01T00:00:00Z","name_a2s":"Uncletopia | Chicago | 6 | All Maps","protocol":17,"map":"pl_barnblitz","folder":"tf","game":"Team Fortress","app_id":440,"player_count":0,"max_players":24,"Bots":0,"server_type":"Dedicated","server_os":"Linux","password":true,"vac":true,"version":"7742253","steam_id":85568392924866363,"keywords":["nocrits","nodmgspread","payload","uncletopia"],"game_id":440,"stv_port":27026,"stv_name":"Uncletopia | Chicago | 6 | All Maps | STV","players":null},{"server_id":38,"name":"Uncletopia | Chicago | 7 | Stopwatch Beta","name_short":"chi-7","host":"chi-2.us.uncletopia.com","port":27035,"enabled":true,"region":"us-central","cc":"us","latitude":41.881832,"longitude":-87.62318,"reserved":0,"last_update":"0001-01-01T00:00:00Z","name_a2s":"Uncletopia | Chicago | 7 | Stopwatch Beta","protocol":17,"map":"workshop/koth_ashville_final.ugc2130459942","folder":"tf","game":"Team Fortress","app_id":440,"player_count":0,"max_players":24,"Bots":0,"server_type":"Dedicated","server_os":"Linux","password":true,"vac":true,"version":"7742253","steam_id":85568392924866364,"keywords":["cp","nocrits","nodmgspread","uncletopia"],"game_id":440,"stv_port":27036,"stv_name":"Uncletopia | Chicago | 7 | Stopwatch Beta | STV","players":null},{"server_id":39,"name":"Uncletopia | Chicago | 8 | Community","name_short":"chi-8","host":"chi-2.us.uncletopia.com","port":27045,"enabled":true,"region":"us-central","cc":"us","latitude":41.881832,"longitude":-87.62318,"reserved":0,"last_update":"0001-01-01T00:00:00Z","name_a2s":"Uncletopia | Chicago | 8 | Community","protocol":17,"map":"koth_lakeside_final","folder":"tf","game":"Team Fortress","app_id":440,"player_count":0,"max_players":24,"Bots":0,"server_type":"Dedicated","server_os":"Linux","password":true,"vac":true,"version":"7742253","steam_id":85568392924866365,"keywords":["cp","nocrits","nodmgspread","uncletopia"],"game_id":440,"stv_port":27046,"stv_name":"Uncletopia | Chicago | 8 | Community | STV","players":null},{"server_id":8,"name":"Uncletopia | Dallas | 1 | All Maps","name_short":"dal-1","host":"dal-1.us.uncletopia.com","port":27015,"enabled":true,"region":"us-central","cc":"us","latitude":32.779167,"longitude":-96.80889,"reserved":0,"last_update":"0001-01-01T00:00:00Z","name_a2s":"Uncletopia | Dallas | 1 | All Maps","protocol":17,"map":"pl_borneo","folder":"tf","game":"Team Fortress","app_id":440,"player_count":24,"max_players":24,"Bots":0,"server_type":"Dedicated","server_os":"Linux","password":true,"vac":true,"version":"7742253","steam_id":85568392924469986,"keywords":["nocrits","nodmgspread","payload","uncletopia"],"game_id":440,"stv_port":27016,"stv_name":"Uncletopia | Dallas | 1 | All Maps | STV","players":[{"user_id":50,"name":"PBS Kids","steam_id":76561198178049845,"connected_time":1168000000000,"state":"active","ping":89},{"user_id":56,"name":"BlazeHX","steam_id":76561198827408017,"connected_time":828000000000,"state":"active","ping":94},{"user_id":48,"name":"Coup de Grass","steam_id":76561198011643226,"connected_time":1331000000000,"state":"active","ping":57},{"user_id":19,"name":"dan","steam_id":76561197984998426,"connected_time":2942000000000,"state":"active","ping":94},{"user_id":61,"name":"trigarant","steam_id":76561198061118634,"connected_time":347000000000,"state":"active","ping":87},{"user_id":57,"name":"jeremiah","steam_id":76561198314490927,"connected_time":782000000000,"state":"active","ping":67},{"user_id":23,"name":"the smiling zombie","steam_id":76561199246231090,"connected_time":2379000000000,"state":"active","ping":75},{"user_id":41,"name":"Bullwinkle J. Moose","steam_id":76561198075977196,"connected_time":1734000000000,"state":"active","ping":56},{"user_id":25,"name":"vastrobotmax","steam_id":76561198417110724,"connected_time":2253000000000,"state":"active","ping":94},{"user_id":26,"name":"BeerDrinker49000000000","steam_id":76561198846515168,"connected_time":2202000000000,"state":"active","ping":87},{"user_id":52,"name":"Underscore","steam_id":76561198374209415,"connected_time":1000000000000,"state":"active","ping":58},{"user_id":29,"name":"Ver","steam_id":76561198212493080,"connected_time":2122000000000,"state":"active","ping":75},{"user_id":49,"name":"robbed","steam_id":76561198856183212,"connected_time":1180000000000,"state":"active","ping":73},{"user_id":31,"name":"pundq","steam_id":76561198123403858,"connected_time":2054000000000,"state":"active","ping":92},{"user_id":32,"name":"Avg. Santa Believer (Nice list)","steam_id":76561198040444697,"connected_time":2040000000000,"state":"active","ping":87},{"user_id":38,"name":"Dacia Sandero","steam_id":76561198106762185,"connected_time":1834000000000,"state":"active","ping":70},{"user_id":51,"name":"Mcfighter2","steam_id":76561198168073956,"connected_time":1050000000000,"state":"active","ping":70},{"user_id":58,"name":"Stillkill","steam_id":76561198065069057,"connected_time":773000000000,"state":"active","ping":35},{"user_id":53,"name":"DerpyNinja31","steam_id":76561198128976409,"connected_time":976000000000,"state":"active","ping":55},{"user_id":37,"name":"Jeffenthropus","steam_id":76561198134204248,"connected_time":1868000000000,"state":"active","ping":86},{"user_id":39,"name":"Lemonade Juice","steam_id":76561198402892608,"connected_time":1811000000000,"state":"active","ping":72},{"user_id":43,"name":"Tripp","steam_id":76561198411779080,"connected_time":1712000000000,"state":"active","ping":97},{"user_id":60,"name":"a Hippobottomus","steam_id":76561198126853441,"connected_time":480000000000,"state":"active","ping":48},{"user_id":55,"name":"Greg Boberton 2012","steam_id":76561198983566026,"connected_time":960000000000,"state":"active","ping":89}]},{"server_id":108,"name":"Uncletopia | Dallas | 2 | All Maps","name_short":"dal-2","host":"dal-1.us.uncletopia.com","port":27025,"enabled":true,"region":"us-central","cc":"us","latitude":32.779167,"longitude":-96.80889,"reserved":0,"last_update":"0001-01-01T00:00:00Z","name_a2s":"Uncletopia | Dallas | 2 | All Maps","protocol":17,"map":"cp_dustbowl","folder":"tf","game":"Team Fortress","app_id":440,"player_count":8,"max_players":24,"Bots":0,"server_type":"Dedicated","server_os":"Linux","password":true,"vac":true,"version":"7742253","steam_id":85568392924469988,"keywords":["cp","nocrits","nodmgspread","uncletopia"],"game_id":440,"stv_port":27026,"stv_name":"Uncletopia | Dallas | 2 | All Maps | STV","players":[{"user_id":6,"name":"TVmeem","steam_id":76561198384879041,"connected_time":1327000000000,"state":"active","ping":64},{"user_id":19,"name":"SneakyJayMLP","steam_id":76561198969565685,"connected_time":171000000000,"state":"active","ping":76},{"user_id":21,"name":"Frank","steam_id":76561198126681511,"connected_time":29000000000,"state":"active","ping":96},{"user_id":10,"name":"Hindmost","steam_id":76561199081837220,"connected_time":895000000000,"state":"active","ping":121},{"user_id":11,"name":"Overlooked","steam_id":76561199388942752,"connected_time":888000000000,"state":"active","ping":56},{"user_id":12,"name":"dinomikk09","steam_id":76561198337514637,"connected_time":833000000000,"state":"active","ping":79},{"user_id":18,"name":"cremeoner","steam_id":76561198372332251,"connected_time":310000000000,"state":"active","ping":68},{"user_id":16,"name":"The duck","steam_id":76561199067190933,"connected_time":427000000000,"state":"active","ping":94}]},{"server_id":5,"name":"Uncletopia | Frankfurt | 1 | All Maps","name_short":"frk-1","host":"frk-1.de.uncletopia.com","port":27015,"enabled":true,"region":"eu","cc":"de","latitude":50.110924,"longitude":8.682127,"reserved":0,"last_update":"0001-01-01T00:00:00Z","name_a2s":"Uncletopia | Frankfurt | 1 | All Maps","protocol":17,"map":"pl_pier","folder":"tf","game":"Team Fortress","app_id":440,"player_count":24,"max_players":24,"Bots":0,"server_type":"Dedicated","server_os":"Linux","password":true,"vac":true,"version":"7742253","steam_id":85568392924469989,"keywords":["nocrits","nodmgspread","payload","uncletopia"],"game_id":440,"stv_port":27016,"stv_name":"Uncletopia | Frankfurt | 1 | All Maps | STV","players":[{"user_id":413,"name":"Sadao","steam_id":76561199020066945,"connected_time":2372000000000,"state":"active","ping":84},{"user_id":439,"name":"weed fairy","steam_id":76561197998843096,"connected_time":439000000000,"state":"active","ping":72},{"user_id":281,"name":"Cippo95","steam_id":76561198255311582,"connected_time":11490000000000,"state":"active","ping":75},{"user_id":424,"name":"weSt","steam_id":76561198000913325,"connected_time":1419000000000,"state":"active","ping":63},{"user_id":430,"name":"–∏–≤–∞–Ω","steam_id":76561198072730591,"connected_time":897000000000,"state":"active","ping":75},{"user_id":425,"name":"panakid","steam_id":76561198364121077,"connected_time":1386000000000,"state":"active","ping":90},{"user_id":437,"name":"DoctorTopLeL","steam_id":76561198088533595,"connected_time":452000000000,"state":"active","ping":112},{"user_id":390,"name":"ROB","steam_id":76561198982164150,"connected_time":3702000000000,"state":"active","ping":69},{"user_id":374,"name":"Mongoose","steam_id":76561199125198593,"connected_time":5050000000000,"state":"active","ping":60},{"user_id":431,"name":"Val","steam_id":76561198039196844,"connected_time":699000000000,"state":"active","ping":66},{"user_id":438,"name":"Nuuskis","steam_id":76561198084042012,"connected_time":449000000000,"state":"active","ping":85},{"user_id":440,"name":"Artock","steam_id":76561198808599713,"connected_time":430000000000,"state":"active","ping":82},{"user_id":396,"name":"Sunkerdink","steam_id":76561197996757446,"connected_time":3425000000000,"state":"active","ping":60},{"user_id":429,"name":"Allereinan","steam_id":76561198342239906,"connected_time":962000000000,"state":"active","ping":74},{"user_id":441,"name":"sammeh","steam_id":76561198879773477,"connected_time":425000000000,"state":"active","ping":63},{"user_id":444,"name":"buAHAHHAHAHAHA","steam_id":76561198864329072,"connected_time":323000000000,"state":"active","ping":98},{"user_id":428,"name":"sasibak123@gmail.com","steam_id":76561198981533174,"connected_time":1036000000000,"state":"active","ping":75},{"user_id":436,"name":"Gencay","steam_id":76561198973232202,"connected_time":463000000000,"state":"active","ping":92},{"user_id":442,"name":"Keelan","steam_id":76561198013665543,"connected_time":424000000000,"state":"active","ping":79},{"user_id":435,"name":"Caliban","steam_id":76561197999696839,"connected_time":473000000000,"state":"active","ping":95},{"user_id":433,"name":"Cosmetic brain","steam_id":76561198055936410,"connected_time":490000000000,"state":"active","ping":84},{"user_id":361,"name":"Brick Top","steam_id":76561198035586064,"connected_time":5954000000000,"state":"active","ping":75},{"user_id":367,"name":"Big Noot","steam_id":76561198057707263,"connected_time":5203000000000,"state":"active","ping":56},{"user_id":443,"name":"Jeans Plus","steam_id":76561198052125103,"connected_time":422000000000,"state":"active","ping":62}]},{"server_id":110,"name":"Uncletopia | Frankfurt | 2 | All Maps","name_short":"frk-2","host":"frk-1.de.uncletopia.com","port":27025,"enabled":true,"region":"eu","cc":"de","latitude":50.110924,"longitude":8.682127,"reserved":0,"last_update":"0001-01-01T00:00:00Z","name_a2s":"Uncletopia | Frankfurt | 2 | All Maps","protocol":17,"map":"pl_pier","folder":"tf","game":"Team Fortress","app_id":440,"player_count":24,"max_players":24,"Bots":0,"server_type":"Dedicated","server_os":"Linux","password":true,"vac":true,"version":"7742253","steam_id":85568392924469990,"keywords":["nocrits","nodmgspread","payload","uncletopia"],"game_id":440,"stv_port":27026,"stv_name":"Uncletopia | Frankfurt | 2 | All Maps | STV","players":[{"user_id":344,"name":"Sidewall Girts","steam_id":76561198092234302,"connected_time":2675000000000,"state":"active","ping":62},{"user_id":348,"name":"frying pan (real)","steam_id":76561198875409640,"connected_time":2029000000000,"state":"active","ping":63},{"user_id":363,"name":"Anarch","steam_id":76561198168210500,"connected_time":1464000000000,"state":"active","ping":67},{"user_id":333,"name":"Contemporary_Chaos","steam_id":76561198138784538,"connected_time":3226000000000,"state":"active","ping":64},{"user_id":349,"name":"Fran","steam_id":76561199070516960,"connected_time":2028000000000,"state":"active","ping":57},{"user_id":345,"name":"Abby","steam_id":76561198170528489,"connected_time":2673000000000,"state":"active","ping":76},{"user_id":332,"name":"Green_Lil_Man","steam_id":76561198030681443,"connected_time":3251000000000,"state":"active","ping":67},{"user_id":326,"name":"d00bie","steam_id":76561198025295218,"connected_time":4208000000000,"state":"active","ping":63},{"user_id":270,"name":"walluu","steam_id":76561198121830870,"connected_time":8270000000000,"state":"active","ping":74},{"user_id":371,"name":"luma","steam_id":76561198081649669,"connected_time":157000000000,"state":"active","ping":60},{"user_id":372,"name":"snake","steam_id":76561198097712283,"connected_time":72000000000,"state":"active","ping":90},{"user_id":373,"name":"elmstJP ‚Ç™ F4.exe","steam_id":76561197997909480,"connected_time":66000000000,"state":"active","ping":77},{"user_id":374,"name":"dassasinb","steam_id":76561198128316186,"connected_time":66000000000,"state":"active","ping":65},{"user_id":347,"name":"Phil3k.","steam_id":76561198283072297,"connected_time":2213000000000,"state":"active","ping":60},{"user_id":370,"name":"Mishaswy","steam_id":76561198156848144,"connected_time":271000000000,"state":"active","ping":98},{"user_id":365,"name":"Coac","steam_id":76561198085265740,"connected_time":1315000000000,"state":"active","ping":63},{"user_id":335,"name":"Duck_The_Halls","steam_id":76561198123930515,"connected_time":3221000000000,"state":"active","ping":148},{"user_id":356,"name":"Ducky[WADZ]üê§","steam_id":76561198060341245,"connected_time":1832000000000,"state":"active","ping":47},{"user_id":377,"name":"F4.exe","steam_id":76561198278822807,"connected_time":6000000000,"state":"spawning","ping":59},{"user_id":268,"name":"XPullaHiiri","steam_id":76561198031652375,"connected_time":8400000000000,"state":"active","ping":83},{"user_id":375,"name":"MegaFox.not","steam_id":76561198036158737,"connected_time":55000000000,"state":"active","ping":58},{"user_id":328,"name":"ÍßÅ‡ºíXenon‡ºíÍßÇ","steam_id":76561198120502313,"connected_time":3720000000000,"state":"active","ping":74},{"user_id":376,"name":"Scooch","steam_id":76561198083869402,"connected_time":52000000000,"state":"active","ping":179},{"user_id":369,"name":"[Sheep] Tomco","steam_id":76561198388549261,"connected_time":615000000000,"state":"active","ping":63}]},{"server_id":308,"name":"Uncletopia | Frankfurt | 3 | All Maps","name_short":"frk-3","host":"frk-1.de.uncletopia.com","port":27035,"enabled":true,"region":"eu","cc":"de","latitude":50.110924,"longitude":8.682127,"reserved":0,"last_update":"0001-01-01T00:00:00Z","name_a2s":"Uncletopia | Frankfurt | 3 | All Maps","protocol":17,"map":"pl_snowycoast","folder":"tf","game":"Team Fortress","app_id":440,"player_count":24,"max_players":24,"Bots":0,"server_type":"Dedicated","server_os":"Linux","password":true,"vac":true,"version":"7742253","steam_id":85568392924504274,"keywords":["nocrits","nodmgspread","payload","uncletopia"],"game_id":440,"stv_port":27036,"stv_name":"Uncletopia | Frankfurt | 3 | All Maps | STV","players":[{"user_id":121,"name":"JohkupohkuXD","steam_id":76561198391108762,"connected_time":1363000000000,"state":"active","ping":78},{"user_id":109,"name":"Sreak","steam_id":76561198209131656,"connected_time":2167000000000,"state":"active","ping":47},{"user_id":107,"name":"JayesTheProFortniteGamer","steam_id":76561198100090850,"connected_time":2279000000000,"state":"active","ping":65},{"user_id":105,"name":"Daemon","steam_id":76561198007015109,"connected_time":2309000000000,"state":"active","ping":56},{"user_id":129,"name":"Schnappi Krokodil","steam_id":76561199046892970,"connected_time":977000000000,"state":"active","ping":64},{"user_id":96,"name":"Umbro","steam_id":76561198087930438,"connected_time":3199000000000,"state":"active","ping":72},{"user_id":92,"name":"MAJAX","steam_id":76561198254828632,"connected_time":3595000000000,"state":"active","ping":52},{"user_id":123,"name":"Damn fiddle!","steam_id":76561198345873608,"connected_time":1213000000000,"state":"active","ping":59},{"user_id":135,"name":"angel","steam_id":76561198121408313,"connected_time":156000000000,"state":"active","ping":94},{"user_id":77,"name":"SpaceCake","steam_id":76561198151394497,"connected_time":4864000000000,"state":"active","ping":72},{"user_id":68,"name":"Dragco","steam_id":76561198133902802,"connected_time":5114000000000,"state":"active","ping":68},{"user_id":133,"name":"Horiizunn","steam_id":76561198105572423,"connected_time":578000000000,"state":"active","ping":54},{"user_id":130,"name":"Blood assassin","steam_id":76561198082340843,"connected_time":977000000000,"state":"active","ping":67},{"user_id":134,"name":"Maze","steam_id":76561198324478233,"connected_time":368000000000,"state":"active","ping":50},{"user_id":108,"name":"polish cheese burger","steam_id":76561198097134291,"connected_time":2211000000000,"state":"active","ping":60},{"user_id":132,"name":"Ishy","steam_id":76561198139332307,"connected_time":700000000000,"state":"active","ping":63},{"user_id":127,"name":"[ALT_F4]dottor_cacabula_m8","steam_id":76561198173192267,"connected_time":1045000000000,"state":"active","ping":64},{"user_id":115,"name":"snsmac","steam_id":76561198082821185,"connected_time":1933000000000,"state":"active","ping":44},{"user_id":94,"name":"festry","steam_id":76561198873296090,"connected_time":3383000000000,"state":"active","ping":73},{"user_id":119,"name":"Heavy like a Brinks truck","steam_id":76561198197304886,"connected_time":1617000000000,"state":"active","ping":108},{"user_id":97,"name":"Dzigi2014","steam_id":76561198146147595,"connected_time":2941000000000,"state":"active","ping":58},{"user_id":113,"name":"Yony","steam_id":76561199070569941,"connected_time":1991000000000,"state":"active","ping":60},{"user_id":128,"name":"Micha≈Ç","steam_id":76561198320346362,"connected_time":1015000000000,"state":"active","ping":62},{"user_id":95,"name":"onku","steam_id":76561199230709660,"connected_time":3288000000000,"state":"active","ping":50}]},{"server_id":309,"name":"Uncletopia | Frankfurt | 4 | All Maps","name_short":"frk-4","host":"frk-1.de.uncletopia.com","port":27045,"enabled":true,"region":"eu","cc":"de","latitude":50.110924,"longitude":8.682127,"reserved":0,"last_update":"0001-01-01T00:00:00Z","name_a2s":"Uncletopia | Frankfurt | 4 | All Maps","protocol":17,"map":"pl_upward","folder":"tf","game":"Team Fortress","app_id":440,"player_count":24,"max_players":24,"Bots":0,"server_type":"Dedicated","server_os":"Linux","password":true,"vac":true,"version":"7742253","steam_id":85568392924504275,"keywords":["nocrits","nodmgspread","payload","uncletopia"],"game_id":440,"stv_port":27046,"stv_name":"Uncletopia | Frankfurt | 4 | All Maps | STV","players":[{"user_id":132,"name":"Tonne","steam_id":76561197970856766,"connected_time":3844000000000,"state":"active","ping":54},{"user_id":5,"name":"MSPaintbrush","steam_id":76561198119987705,"connected_time":13531000000000,"state":"active","ping":62},{"user_id":165,"name":"RazOverdrive","steam_id":76561198000794210,"connected_time":1535000000000,"state":"active","ping":51},{"user_id":150,"name":"Sir Sammie","steam_id":76561198329808137,"connected_time":3211000000000,"state":"active","ping":54},{"user_id":173,"name":"SunZi","steam_id":76561198139243535,"connected_time":1068000000000,"state":"active","ping":105},{"user_id":133,"name":"Wardruna96","steam_id":76561199057083828,"connected_time":3784000000000,"state":"active","ping":78},{"user_id":156,"name":"chima","steam_id":76561198827495435,"connected_time":2168000000000,"state":"active","ping":73},{"user_id":134,"name":"/HartBeet/","steam_id":76561198321785662,"connected_time":3756000000000,"state":"active","ping":78},{"user_id":160,"name":"FruityCrits","steam_id":76561198373779833,"connected_time":1761000000000,"state":"active","ping":45},{"user_id":135,"name":"DrExplosive","steam_id":76561198063678579,"connected_time":3724000000000,"state":"active","ping":58},{"user_id":187,"name":"chicanery","steam_id":76561198130794936,"connected_time":689000000000,"state":"active","ping":79},{"user_id":185,"name":"dafydd","steam_id":76561198052200325,"connected_time":767000000000,"state":"active","ping":77},{"user_id":164,"name":"LEL≈êNI MINDENKIT A WESTENDBEN","steam_id":76561198315642032,"connected_time":1551000000000,"state":"active","ping":69},{"user_id":167,"name":"Towercat","steam_id":76561198013141793,"connected_time":1416000000000,"state":"active","ping":65},{"user_id":186,"name":"SpeddyMeddy","steam_id":76561197999693825,"connected_time":730000000000,"state":"active","ping":59},{"user_id":140,"name":"Espa√±aa","steam_id":76561198879587832,"connected_time":3486000000000,"state":"active","ping":77},{"user_id":157,"name":"Reniculous","steam_id":76561199214769940,"connected_time":2127000000000,"state":"active","ping":158},{"user_id":178,"name":"moodbreaker","steam_id":76561198130996058,"connected_time":990000000000,"state":"active","ping":84},{"user_id":169,"name":"G6 sherlock","steam_id":76561198802967796,"connected_time":1260000000000,"state":"active","ping":117},{"user_id":171,"name":"Landsknecht","steam_id":76561199293036742,"connected_time":1101000000000,"state":"active","ping":45},{"user_id":192,"name":"DatBlodGud","steam_id":76561198867897841,"connected_time":197000000000,"state":"active","ping":165},{"user_id":76,"name":"El Gato Volador","steam_id":76561198021296882,"connected_time":10270000000000,"state":"active","ping":77},{"user_id":172,"name":"M1rkus","steam_id":76561198171215447,"connected_time":1095000000000,"state":"active","ping":65},{"user_id":190,"name":"yuh","steam_id":76561199005555839,"connected_time":377000000000,"state":"active","ping":73}]},{"server_id":310,"name":"Uncletopia | Frankfurt | 5 | All Maps","name_short":"frk-5","host":"frk-1.de.uncletopia.com","port":27055,"enabled":true,"region":"eu","cc":"de","latitude":50.110924,"longitude":8.682127,"reserved":0,"last_update":"0001-01-01T00:00:00Z","name_a2s":"Uncletopia | Frankfurt | 5 | All Maps","protocol":17,"map":"pl_swiftwater_final1","folder":"tf","game":"Team Fortress","app_id":440,"player_count":24,"max_players":24,"Bots":0,"server_type":"Dedicated","server_os":"Linux","password":true,"vac":true,"version":"7742253","steam_id":85568392924504277,"keywords":["nocrits","nodmgspread","payload","uncletopia"],"game_id":440,"stv_port":27056,"stv_name":"Uncletopia | Frankfurt | 5 | All Maps | STV","players":[{"user_id":320,"name":"‚Ç≠√§Ã∑≈Çƒê…Ü‚Ç¶","steam_id":76561198166352975,"connected_time":200000000000,"state":"active","ping":49},{"user_id":309,"name":"avewszystkim","steam_id":76561199382492530,"connected_time":868000000000,"state":"active","ping":64},{"user_id":310,"name":"Arturias","steam_id":76561198188720263,"connected_time":823000000000,"state":"active","ping":46},{"user_id":283,"name":"Rambi","steam_id":76561199058078505,"connected_time":3053000000000,"state":"active","ping":155},{"user_id":292,"name":"Loading...","steam_id":76561198441894694,"connected_time":2689000000000,"state":"active","ping":65},{"user_id":284,"name":"√Ñ√§rik ‚ô£","steam_id":76561198131871737,"connected_time":3025000000000,"state":"active","ping":44},{"user_id":281,"name":"Washburne","steam_id":76561198032810579,"connected_time":3067000000000,"state":"active","ping":59},{"user_id":287,"name":"Large Seel","steam_id":76561198419483326,"connected_time":2980000000000,"state":"active","ping":86},{"user_id":288,"name":"Cap N' Crunch","steam_id":76561198917309036,"connected_time":2966000000000,"state":"active","ping":139},{"user_id":321,"name":"‚ô•Love‚ô•","steam_id":76561198162681436,"connected_time":140000000000,"state":"active","ping":39},{"user_id":322,"name":"Blo","steam_id":76561198161651469,"connected_time":131000000000,"state":"active","ping":49},{"user_id":286,"name":"The Fellow Feller","steam_id":76561198188864306,"connected_time":2990000000000,"state":"active","ping":59},{"user_id":266,"name":"Sandvich Gaming","steam_id":76561199079493666,"connected_time":3991000000000,"state":"active","ping":88},{"user_id":296,"name":"jozkotrozko","steam_id":76561198355270729,"connected_time":2402000000000,"state":"active","ping":62},{"user_id":315,"name":"gamer man","steam_id":76561198436817109,"connected_time":765000000000,"state":"active","ping":63},{"user_id":323,"name":"beurgeur","steam_id":76561198872426314,"connected_time":124000000000,"state":"active","ping":47},{"user_id":289,"name":"Hetmanych","steam_id":76561198870926865,"connected_time":2961000000000,"state":"active","ping":49},{"user_id":313,"name":"Mario3ghj","steam_id":76561198069804561,"connected_time":819000000000,"state":"active","ping":96},{"user_id":324,"name":"We are in a world of magic","steam_id":76561198104745492,"connected_time":68000000000,"state":"spawning","ping":148},{"user_id":245,"name":"BarrackOmaha","steam_id":76561198027922724,"connected_time":5254000000000,"state":"active","ping":78},{"user_id":305,"name":"Nex","steam_id":76561199223747483,"connected_time":1646000000000,"state":"active","ping":69},{"user_id":325,"name":"Pyr0s_Fx","steam_id":76561198057201503,"connected_time":31000000000,"state":"active","ping":64},{"user_id":299,"name":"‚Ä¢stepbro‚Ä¢","steam_id":76561198119607160,"connected_time":2182000000000,"state":"active","ping":70},{"user_id":318,"name":"GEP Gun","steam_id":76561197981821003,"connected_time":568000000000,"state":"active","ping":70}]},{"server_id":311,"name":"Uncletopia | Frankfurt | 6 | All Maps","name_short":"frk-6","host":"frk-1.de.uncletopia.com","port":27065,"enabled":true,"region":"eu","cc":"de","latitude":50.110924,"longitude":8.682127,"reserved":0,"last_update":"0001-01-01T00:00:00Z","name_a2s":"Uncletopia | Frankfurt | 6 | All Maps","protocol":17,"map":"pl_frontier_final","folder":"tf","game":"Team Fortress","app_id":440,"player_count":23,"max_players":24,"Bots":0,"server_type":"Dedicated","server_os":"Linux","password":true,"vac":true,"version":"7742253","steam_id":85568392924504278,"keywords":["nocrits","nodmgspread","payload","uncletopia"],"game_id":440,"stv_port":27066,"stv_name":"Uncletopia | Frankfurt | 6 | All Maps | STV","players":[{"user_id":155,"name":"Hexagon","steam_id":76561198151205758,"connected_time":4198000000000,"state":"active","ping":49},{"user_id":173,"name":"jmp","steam_id":76561198168283286,"connected_time":2950000000000,"state":"active","ping":72},{"user_id":194,"name":"citronous","steam_id":76561198093290934,"connected_time":1527000000000,"state":"active","ping":59},{"user_id":156,"name":"Mr. Mundy","steam_id":76561198132008918,"connected_time":4189000000000,"state":"active","ping":74},{"user_id":182,"name":"Equinox","steam_id":76561199055592635,"connected_time":2535000000000,"state":"active","ping":66},{"user_id":202,"name":"Silver","steam_id":76561198175238807,"connected_time":380000000000,"state":"active","ping":58},{"user_id":203,"name":"EWAG","steam_id":76561199195225937,"connected_time":377000000000,"state":"active","ping":101},{"user_id":170,"name":"Mao Zedong","steam_id":76561198347020945,"connected_time":3351000000000,"state":"active","ping":108},{"user_id":201,"name":"Muppburg","steam_id":76561198031070682,"connected_time":534000000000,"state":"active","ping":73},{"user_id":198,"name":"Frylock","steam_id":76561198050292560,"connected_time":1162000000000,"state":"active","ping":56},{"user_id":165,"name":"grip","steam_id":76561198088201976,"connected_time":3962000000000,"state":"active","ping":45},{"user_id":199,"name":"Drow","steam_id":76561198435560896,"connected_time":1126000000000,"state":"active","ping":90},{"user_id":210,"name":"Uncle Lame","steam_id":76561198089003514,"connected_time":90000000000,"state":"active","ping":45},{"user_id":146,"name":"Romultra","steam_id":76561198354105082,"connected_time":4737000000000,"state":"active","ping":51},{"user_id":209,"name":"asdl√¶kasd","steam_id":76561198870764276,"connected_time":109000000000,"state":"active","ping":75},{"user_id":179,"name":"ProfessorCrack","steam_id":76561199035475627,"connected_time":2833000000000,"state":"active","ping":88},{"user_id":180,"name":"doubletwist","steam_id":76561198062571317,"connected_time":2720000000000,"state":"active","ping":79},{"user_id":184,"name":"Palle","steam_id":76561198090101870,"connected_time":2358000000000,"state":"active","ping":59},{"user_id":132,"name":"bigwish | bmod.tf","steam_id":76561197997859723,"connected_time":5823000000000,"state":"active","ping":70},{"user_id":163,"name":"JGV","steam_id":76561198094654971,"connected_time":4139000000000,"state":"active","ping":68},{"user_id":192,"name":"–î–µ–Ω–∏—Å –ë–∞–∑—É–∫–∞","steam_id":76561198835849082,"connected_time":1673000000000,"state":"active","ping":105},{"user_id":183,"name":"Wdfrodo","steam_id":76561198985647263,"connected_time":2530000000000,"state":"active","ping":57},{"user_id":205,"name":"hurgen von durgen","steam_id":76561198207175293,"connected_time":329000000000,"state":"active","ping":88}]},{"server_id":23,"name":"Uncletopia | Frankfurt | 7 | Stopwatch Beta","name_short":"frk-7","host":"frk-1.de.uncletopia.com","port":27075,"enabled":true,"region":"eu","cc":"de","latitude":50.110924,"longitude":8.682127,"reserved":0,"last_update":"0001-01-01T00:00:00Z","name_a2s":"Uncletopia | Frankfurt | 7 | Stopwatch Beta","protocol":17,"map":"cp_sunshine","folder":"tf","game":"Team Fortress","app_id":440,"player_count":24,"max_players":24,"Bots":0,"server_type":"Dedicated","server_os":"Linux","password":true,"vac":true,"version":"7742253","steam_id":85568392924742827,"keywords":["cp","nocrits","nodmgspread","uncletopia"],"game_id":440,"stv_port":27076,"stv_name":"Uncletopia | Frankfurt | 7 | Stopwatch Beta | STV","players":[{"user_id":172,"name":"Feesh0","steam_id":76561198113128147,"connected_time":969000000000,"state":"active","ping":69},{"user_id":145,"name":"1234","steam_id":76561198032073045,"connected_time":2391000000000,"state":"active","ping":75},{"user_id":190,"name":"GrimSnail","steam_id":76561198063319881,"connected_time":228000000000,"state":"active","ping":46},{"user_id":37,"name":"Rodia","steam_id":76561197968293161,"connected_time":7909000000000,"state":"active","ping":60},{"user_id":176,"name":"The Bonk Man‚Ñ¢","steam_id":76561199044260792,"connected_time":654000000000,"state":"active","ping":61},{"user_id":193,"name":"Cranjis McBasketball","steam_id":76561198051290193,"connected_time":96000000000,"state":"active","ping":60},{"user_id":150,"name":"Fan","steam_id":76561198440592048,"connected_time":2060000000000,"state":"active","ping":79},{"user_id":169,"name":"marko","steam_id":76561198274165935,"connected_time":1274000000000,"state":"active","ping":85},{"user_id":186,"name":"Akker","steam_id":76561199000630792,"connected_time":410000000000,"state":"active","ping":59},{"user_id":181,"name":"FigazMaslam","steam_id":76561198148207978,"connected_time":623000000000,"state":"active","ping":90},{"user_id":171,"name":"Jyghc","steam_id":76561198405980575,"connected_time":1033000000000,"state":"active","ping":78},{"user_id":194,"name":"Cappuccino","steam_id":76561199065155403,"connected_time":92000000000,"state":"active","ping":59},{"user_id":191,"name":"78","steam_id":76561198208328357,"connected_time":194000000000,"state":"active","ping":76},{"user_id":165,"name":"Sch","steam_id":76561198071341689,"connected_time":1509000000000,"state":"active","ping":52},{"user_id":126,"name":"Quartzy","steam_id":76561198313301520,"connected_time":3024000000000,"state":"active","ping":46},{"user_id":189,"name":"yosif9993","steam_id":76561199294138972,"connected_time":262000000000,"state":"active","ping":96},{"user_id":188,"name":"SirNeeco \u003c3","steam_id":76561198103014203,"connected_time":293000000000,"state":"active","ping":59},{"user_id":161,"name":"Tank","steam_id":76561199059174576,"connected_time":1598000000000,"state":"active","ping":171},{"user_id":177,"name":"I.C. Wiener","steam_id":76561197999912254,"connected_time":649000000000,"state":"active","ping":80},{"user_id":192,"name":"Badger","steam_id":76561198021181972,"connected_time":184000000000,"state":"active","ping":66},{"user_id":187,"name":"Daddy Donovan","steam_id":76561198140938904,"connected_time":393000000000,"state":"active","ping":60},{"user_id":173,"name":"Scipionemiliano","steam_id":76561198027646559,"connected_time":967000000000,"state":"active","ping":118},{"user_id":195,"name":"JohnTraveltime","steam_id":76561199244281754,"connected_time":61000000000,"state":"active","ping":80},{"user_id":178,"name":"Mankor","steam_id":76561198020439322,"connected_time":644000000000,"state":"active","ping":51}]},{"server_id":24,"name":"Uncletopia | Frankfurt | 8 | Community","name_short":"frk-8","host":"frk-1.de.uncletopia.com","port":27085,"enabled":true,"region":"eu","cc":"de","latitude":50.110924,"longitude":8.682127,"reserved":0,"last_update":"0001-01-01T00:00:00Z","name_a2s":"Uncletopia | Frankfurt | 8 | Community","protocol":17,"map":"workshop/pl_vigil_rc9.ugc1266210012","folder":"tf","game":"Team Fortress","app_id":440,"player_count":1,"max_players":24,"Bots":0,"server_type":"Dedicated","server_os":"Linux","password":true,"vac":true,"version":"7742253","steam_id":85568392924742828,"keywords":["nocrits","nodmgspread","payload","uncletopia"],"game_id":440,"stv_port":27086,"stv_name":"Uncletopia | Frankfurt | 8 | Community | STV","players":[{"user_id":113,"name":"beli-ben","steam_id":76561199230045254,"connected_time":52000000000,"state":"active","ping":74}]},{"server_id":202,"name":"Uncletopia | Hong Kong | 1 | All Maps","name_short":"hgk-1","host":"hgk-1.hk.uncletopia.com","port":27015,"enabled":true,"region":"asia","cc":"hk","latitude":22.302711,"longitude":114.177216,"reserved":0,"last_update":"0001-01-01T00:00:00Z","name_a2s":"Uncletopia | Hong Kong | 1 | All Maps","protocol":17,"map":"plr_hightower","folder":"tf","game":"Team Fortress","app_id":440,"player_count":0,"max_players":24,"Bots":0,"server_type":"Dedicated","server_os":"Linux","password":true,"vac":true,"version":"7742253","steam_id":85568392924494504,"keywords":["nocrits","nodmgspread","payload","uncletopia"],"game_id":440,"stv_port":27016,"stv_name":"Uncletopia | Hong Kong | 1 | All Maps | STV","players":null},{"server_id":1,"name":"Uncletopia | Los Angeles | 1 | All Maps","name_short":"lax-1","host":"lax-1.us.uncletopia.com","port":27015,"enabled":true,"region":"us-west","cc":"us","latitude":33.94279,"longitude":-118.41004,"reserved":0,"last_update":"0001-01-01T00:00:00Z","name_a2s":"Uncletopia | Los Angeles | 1 | All Maps","protocol":17,"map":"pl_snowycoast","folder":"tf","game":"Team Fortress","app_id":440,"player_count":0,"max_players":24,"Bots":0,"server_type":"Dedicated","server_os":"Linux","password":true,"vac":true,"version":"7742253","steam_id":85568392924469991,"keywords":["nocrits","nodmgspread","payload","uncletopia"],"game_id":440,"stv_port":27016,"stv_name":"Uncletopia | Los Angeles | 1 | All Maps | STV","players":null},{"server_id":112,"name":"Uncletopia | Los Angeles | 2 | All Maps","name_short":"lax-2","host":"lax-1.us.uncletopia.com","port":27025,"enabled":true,"region":"us-west","cc":"us","latitude":33.94279,"longitude":-118.41004,"reserved":0,"last_update":"0001-01-01T00:00:00Z","name_a2s":"Uncletopia | Los Angeles | 2 | All Maps","protocol":17,"map":"pl_frontier_final","folder":"tf","game":"Team Fortress","app_id":440,"player_count":1,"max_players":24,"Bots":0,"server_type":"Dedicated","server_os":"Linux","password":true,"vac":true,"version":"7742253","steam_id":85568392924469992,"keywords":["nocrits","nodmgspread","payload","uncletopia"],"game_id":440,"stv_port":27026,"stv_name":"Uncletopia | Los Angeles | 2 | All Maps | STV","players":[{"user_id":4,"name":"Warloghe","steam_id":76561198275107470,"connected_time":240000000000,"state":"active","ping":75}]},{"server_id":324,"name":"Uncletopia | Los Angeles | 3 | All Maps","name_short":"lax-3","host":"lax-1.us.uncletopia.com","port":27035,"enabled":true,"region":"us-west","cc":"us","latitude":33.94279,"longitude":-118.41004,"reserved":0,"last_update":"0001-01-01T00:00:00Z","name_a2s":"Uncletopia | Los Angeles | 3 | All Maps","protocol":17,"map":"cp_snakewater_final1","folder":"tf","game":"Team Fortress","app_id":440,"player_count":0,"max_players":24,"Bots":0,"server_type":"Dedicated","server_os":"Linux","password":true,"vac":true,"version":"7742253","steam_id":85568392924510198,"keywords":["cp","nocrits","nodmgspread","uncletopia"],"game_id":440,"stv_port":27036,"stv_name":"Uncletopia | Los Angeles | 3 | All Maps | STV","players":null},{"server_id":25,"name":"Uncletopia | Los Angeles | 4 | Stopwatch Beta","name_short":"lax-4","host":"lax-1.us.uncletopia.com","port":27045,"enabled":true,"region":"us-west","cc":"us","latitude":33.94279,"longitude":-118.41004,"reserved":0,"last_update":"0001-01-01T00:00:00Z","name_a2s":"Uncletopia | Los Angeles | 4 | Stopwatch Beta","protocol":17,"map":"cp_snakewater_final1","folder":"tf","game":"Team Fortress","app_id":440,"player_count":0,"max_players":24,"Bots":0,"server_type":"Dedicated","server_os":"Linux","password":true,"vac":true,"version":"7742253","steam_id":85568392924510199,"keywords":["cp","nocrits","nodmgspread","uncletopia"],"game_id":440,"stv_port":27046,"stv_name":"Uncletopia | Los Angeles | 4 | Stopwatch Beta | STV","players":null},{"server_id":11,"name":"Uncletopia | London | 1 | All Maps","name_short":"lon-1","host":"lon-1.uk.uncletopia.com","port":27015,"enabled":true,"region":"eu","cc":"gb","latitude":51.509865,"longitude":-0.118092,"reserved":0,"last_update":"0001-01-01T00:00:00Z","name_a2s":"Uncletopia | London | 1 | All Maps","protocol":17,"map":"cp_snakewater_final1","folder":"tf","game":"Team Fortress","app_id":440,"player_count":24,"max_players":24,"Bots":0,"server_type":"Dedicated","server_os":"Linux","password":true,"vac":true,"version":"7742253","steam_id":85568392924367362,"keywords":["cp","nocrits","nodmgspread","uncletopia"],"game_id":440,"stv_port":27016,"stv_name":"Uncletopia | London | 1 | All Maps | STV","players":[{"user_id":481,"name":"Jaxonfogcap","steam_id":76561198327688357,"connected_time":852000000000,"state":"active","ping":61},{"user_id":469,"name":"eggslut","steam_id":76561198010752241,"connected_time":1742000000000,"state":"active","ping":62},{"user_id":488,"name":"homeinvasion$","steam_id":76561199111905021,"connected_time":421000000000,"state":"active","ping":111},{"user_id":487,"name":"tekszi","steam_id":76561198107220903,"connected_time":500000000000,"state":"active","ping":60},{"user_id":478,"name":"UltimateAura","steam_id":76561198338361324,"connected_time":1000000000000,"state":"active","ping":44},{"user_id":476,"name":"Overhaul","steam_id":76561198878610347,"connected_time":1358000000000,"state":"active","ping":96},{"user_id":464,"name":"Hkitchen","steam_id":76561198194779526,"connected_time":2731000000000,"state":"active","ping":41},{"user_id":432,"name":"Katie","steam_id":76561198056193753,"connected_time":4331000000000,"state":"active","ping":49},{"user_id":458,"name":"„Åô LightFlight „Åó","steam_id":76561198079007530,"connected_time":3326000000000,"state":"active","ping":56},{"user_id":463,"name":"Kahvi","steam_id":76561198723244199,"connected_time":3062000000000,"state":"active","ping":76},{"user_id":428,"name":"brokenphilip","steam_id":76561198080960604,"connected_time":5057000000000,"state":"active","ping":71},{"user_id":490,"name":"Piox","steam_id":76561198125689157,"connected_time":276000000000,"state":"active","ping":78},{"user_id":456,"name":"the indomitable human spirit","steam_id":76561198718760200,"connected_time":3369000000000,"state":"active","ping":46},{"user_id":491,"name":"OhMyGrosch","steam_id":76561198361193051,"connected_time":256000000000,"state":"active","ping":40},{"user_id":470,"name":"nudjura","steam_id":76561198281986139,"connected_time":1670000000000,"state":"active","ping":44},{"user_id":484,"name":"kikithenorthwind","steam_id":76561199013581278,"connected_time":833000000000,"state":"active","ping":90},{"user_id":485,"name":"peruna","steam_id":76561198000721196,"connected_time":661000000000,"state":"active","ping":86},{"user_id":465,"name":"–ò–Ω—Å–ø–µ–∫—Ç–æ—Ä –ê—Ç–∞—Å","steam_id":76561199175688390,"connected_time":2668000000000,"state":"active","ping":90},{"user_id":492,"name":"/…ô ÀàstjuÀêp…™d Ààf…õmb…î…™/","steam_id":76561198413545609,"connected_time":213000000000,"state":"active","ping":57},{"user_id":457,"name":"Zargibarg","steam_id":76561198007792525,"connected_time":3350000000000,"state":"active","ping":39},{"user_id":479,"name":"ddchdrn","steam_id":76561198024358566,"connected_time":998000000000,"state":"active","ping":73},{"user_id":482,"name":"Rockfire","steam_id":76561198014117679,"connected_time":847000000000,"state":"active","ping":47},{"user_id":440,"name":"Jedi doggo","steam_id":76561198360026202,"connected_time":4187000000000,"state":"active","ping":72},{"user_id":483,"name":"Waffles","steam_id":76561199086942763,"connected_time":846000000000,"state":"active","ping":92}]},{"server_id":114,"name":"Uncletopia | London | 2 | All Maps","name_short":"lon-2","host":"lon-1.uk.uncletopia.com","port":27025,"enabled":true,"region":"eu","cc":"gb","latitude":51.509865,"longitude":-0.118092,"reserved":0,"last_update":"0001-01-01T00:00:00Z","name_a2s":"Uncletopia | London | 2 | All Maps","protocol":17,"map":"koth_harvest_final","folder":"tf","game":"Team Fortress","app_id":440,"player_count":19,"max_players":24,"Bots":0,"server_type":"Dedicated","server_os":"Linux","password":true,"vac":true,"version":"7742253","steam_id":85568392924470941,"keywords":["cp","nocrits","nodmgspread","uncletopia"],"game_id":440,"stv_port":27026,"stv_name":"Uncletopia | London | 2 | All Maps | STV","players":[{"user_id":282,"name":"B4R10N","steam_id":76561198047167954,"connected_time":104000000000,"state":"active","ping":41},{"user_id":281,"name":"Pinroe","steam_id":76561198968160899,"connected_time":154000000000,"state":"active","ping":168},{"user_id":248,"name":"Barry","steam_id":76561198351154533,"connected_time":2615000000000,"state":"active","ping":52},{"user_id":218,"name":"Nobaddy","steam_id":76561198037871007,"connected_time":3848000000000,"state":"active","ping":75},{"user_id":268,"name":"Joel!","steam_id":76561198155422742,"connected_time":1474000000000,"state":"active","ping":41},{"user_id":263,"name":"Lunar","steam_id":76561199077495290,"connected_time":2128000000000,"state":"active","ping":65},{"user_id":277,"name":"risco1bolota","steam_id":76561198323074603,"connected_time":879000000000,"state":"active","ping":89},{"user_id":280,"name":"Meatballs","steam_id":76561198005948884,"connected_time":164000000000,"state":"active","ping":35},{"user_id":283,"name":"ibm","steam_id":76561198275615610,"connected_time":38000000000,"state":"active","ping":74},{"user_id":259,"name":"Nathan Randall Beady III","steam_id":76561198453089238,"connected_time":2345000000000,"state":"active","ping":104},{"user_id":200,"name":"drippin jimmy","steam_id":76561198219243969,"connected_time":4559000000000,"state":"active","ping":57},{"user_id":278,"name":"spy gaming","steam_id":76561198410955546,"connected_time":875000000000,"state":"active","ping":91},{"user_id":273,"name":"ahhhhhhhhhh","steam_id":76561198271867664,"connected_time":1098000000000,"state":"active","ping":60},{"user_id":266,"name":"the thingamabob","steam_id":76561198372639514,"connected_time":1853000000000,"state":"active","ping":79},{"user_id":173,"name":"StabbyKnife","steam_id":76561198094010004,"connected_time":7428000000000,"state":"active","ping":91},{"user_id":264,"name":"rat performance","steam_id":76561198065854668,"connected_time":2104000000000,"state":"active","ping":44},{"user_id":270,"name":"peterthedoor","steam_id":76561198315827194,"connected_time":1270000000000,"state":"active","ping":82},{"user_id":223,"name":"üß±Big Murstenüß±","steam_id":76561199073257952,"connected_time":3762000000000,"state":"active","ping":65},{"user_id":257,"name":"rmz.ssj","steam_id":76561198329613930,"connected_time":2462000000000,"state":"active","ping":48}]},{"server_id":320,"name":"Uncletopia | London | 3 | All Maps","name_short":"lon-3","host":"lon-1.uk.uncletopia.com","port":27035,"enabled":true,"region":"eu","cc":"gb","latitude":51.509865,"longitude":-0.118092,"reserved":0,"last_update":"0001-01-01T00:00:00Z","name_a2s":"Uncletopia | London | 3 | All Maps","protocol":17,"map":"pl_borneo","folder":"tf","game":"Team Fortress","app_id":440,"player_count":24,"max_players":24,"Bots":0,"server_type":"Dedicated","server_os":"Linux","password":true,"vac":true,"version":"7742253","steam_id":85568392924510192,"keywords":["nocrits","nodmgspread","payload","uncletopia"],"game_id":440,"stv_port":27036,"stv_name":"Uncletopia | London | 3 | All Maps | STV","players":[{"user_id":390,"name":"lyra","steam_id":76561198043601838,"connected_time":3782000000000,"state":"active","ping":60},{"user_id":355,"name":"sigma female","steam_id":76561198298576765,"connected_time":6059000000000,"state":"active","ping":59},{"user_id":392,"name":"breakfast","steam_id":76561198106049954,"connected_time":3726000000000,"state":"active","ping":75},{"user_id":376,"name":"scantron","steam_id":76561199103959197,"connected_time":4791000000000,"state":"active","ping":112},{"user_id":439,"name":"Soldie","steam_id":76561198118414372,"connected_time":337000000000,"state":"active","ping":132},{"user_id":429,"name":"romaingallo","steam_id":76561198268112907,"connected_time":1560000000000,"state":"active","ping":69},{"user_id":433,"name":"ThePhantomAlibaba","steam_id":76561198072301450,"connected_time":1226000000000,"state":"active","ping":48},{"user_id":413,"name":"Tanza -","steam_id":76561197961335217,"connected_time":2302000000000,"state":"active","ping":60},{"user_id":425,"name":"Tankship","steam_id":76561198201964424,"connected_time":1957000000000,"state":"active","ping":45},{"user_id":414,"name":"void_star","steam_id":76561198035696014,"connected_time":2250000000000,"state":"active","ping":135},{"user_id":416,"name":"InsectKing","steam_id":76561199013519071,"connected_time":2192000000000,"state":"active","ping":38},{"user_id":417,"name":"Yiffware :3","steam_id":76561198198461837,"connected_time":2158000000000,"state":"active","ping":53},{"user_id":418,"name":"Penis Contortionist","steam_id":76561198073663784,"connected_time":2141000000000,"state":"active","ping":44},{"user_id":420,"name":"SaltyPig","steam_id":76561198213643013,"connected_time":2108000000000,"state":"active","ping":55},{"user_id":423,"name":"John Daly","steam_id":76561197993849325,"connected_time":2031000000000,"state":"active","ping":63},{"user_id":434,"name":"Diamhair","steam_id":76561198109020178,"connected_time":1224000000000,"state":"active","ping":62},{"user_id":427,"name":"SpaceGoat","steam_id":76561198091774304,"connected_time":1741000000000,"state":"active","ping":50},{"user_id":437,"name":"MtnDew","steam_id":76561199100059743,"connected_time":869000000000,"state":"active","ping":112},{"user_id":401,"name":"Florua","steam_id":76561198182297846,"connected_time":3235000000000,"state":"active","ping":67},{"user_id":428,"name":"Mar","steam_id":76561198127633424,"connected_time":1623000000000,"state":"active","ping":76},{"user_id":377,"name":"Buddy","steam_id":76561198050185582,"connected_time":4765000000000,"state":"active","ping":58},{"user_id":435,"name":"King_Nothing","steam_id":76561198313701436,"connected_time":1214000000000,"state":"active","ping":84},{"user_id":438,"name":"Frenzy","steam_id":76561199194842456,"connected_time":391000000000,"state":"active","ping":88},{"user_id":432,"name":"STANISLAV","steam_id":76561198007394937,"connected_time":1335000000000,"state":"active","ping":79}]},{"server_id":321,"name":"Uncletopia | London | 4 | All Maps","name_short":"lon-4","host":"lon-1.uk.uncletopia.com","port":27045,"enabled":true,"region":"eu","cc":"gb","latitude":51.509865,"longitude":-0.118092,"reserved":0,"last_update":"0001-01-01T00:00:00Z","name_a2s":"Uncletopia | London | 4 | All Maps","protocol":17,"map":"cp_dustbowl","folder":"tf","game":"Team Fortress","app_id":440,"player_count":24,"max_players":24,"Bots":0,"server_type":"Dedicated","server_os":"Linux","password":true,"vac":true,"version":"7742253","steam_id":85568392924510193,"keywords":["cp","nocrits","nodmgspread","uncletopia"],"game_id":440,"stv_port":27046,"stv_name":"Uncletopia | London | 4 | All Maps | STV","players":[{"user_id":240,"name":"X45Y","steam_id":76561198112534025,"connected_time":787000000000,"state":"active","ping":46},{"user_id":227,"name":"your_local_penguin","steam_id":76561199224954346,"connected_time":1108000000000,"state":"active","ping":89},{"user_id":241,"name":"ralph wiggum","steam_id":76561198041034886,"connected_time":764000000000,"state":"active","ping":58},{"user_id":187,"name":"Albert Einstein","steam_id":76561198351190006,"connected_time":2924000000000,"state":"active","ping":91},{"user_id":230,"name":"Ganuz ‚ôø thug hunter","steam_id":76561198093396587,"connected_time":1044000000000,"state":"active","ping":61},{"user_id":243,"name":"DottorPuce","steam_id":76561198070413248,"connected_time":82000000000,"state":"active","ping":74},{"user_id":238,"name":"hinfort","steam_id":76561198046354794,"connected_time":813000000000,"state":"active","ping":55},{"user_id":189,"name":"Tortoise Guy","steam_id":76561199047825610,"connected_time":2896000000000,"state":"active","ping":71},{"user_id":198,"name":"multipack shakur (bargain)","steam_id":76561198023211417,"connected_time":2673000000000,"state":"active","ping":46},{"user_id":237,"name":"Kotlet schabowy","steam_id":76561198048983509,"connected_time":858000000000,"state":"active","ping":81},{"user_id":184,"name":"Marioalexsan","steam_id":76561198125512367,"connected_time":3005000000000,"state":"active","ping":97},{"user_id":190,"name":"JohnMat2","steam_id":76561199007662486,"connected_time":2867000000000,"state":"active","ping":58},{"user_id":244,"name":"heavy sings (real)","steam_id":76561199023804405,"connected_time":79000000000,"state":"spawning","ping":558},{"user_id":245,"name":"Pumello","steam_id":76561198143305625,"connected_time":53000000000,"state":"active","ping":91},{"user_id":242,"name":"Toylanska Kazemski","steam_id":76561198135343869,"connected_time":628000000000,"state":"active","ping":110},{"user_id":232,"name":"System","steam_id":76561199442503973,"connected_time":1012000000000,"state":"active","ping":56},{"user_id":164,"name":"Blyatwork","steam_id":76561198825379598,"connected_time":4872000000000,"state":"active","ping":46},{"user_id":236,"name":"Adopted?","steam_id":76561198118667043,"connected_time":867000000000,"state":"active","ping":46},{"user_id":195,"name":"HARDSTYLEDRILL2009NOKIAANGELZ1.","steam_id":76561198063925704,"connected_time":2718000000000,"state":"active","ping":30},{"user_id":196,"name":"tm","steam_id":76561198256619964,"connected_time":2713000000000,"state":"active","ping":81},{"user_id":209,"name":"The Minister of Party City","steam_id":76561199219790713,"connected_time":2345000000000,"state":"active","ping":146},{"user_id":197,"name":"b4nny do not avoid me","steam_id":76561198070954045,"connected_time":2712000000000,"state":"active","ping":66},{"user_id":205,"name":"b41r06","steam_id":76561198123320266,"connected_time":2560000000000,"state":"active","ping":63},{"user_id":239,"name":"the boil","steam_id":76561199236080782,"connected_time":813000000000,"state":"active","ping":114}]},{"server_id":21,"name":"Uncletopia | London | 5 | All Maps","name_short":"lon-5","host":"lon-1.uk.uncletopia.com","port":27055,"enabled":true,"region":"eu","cc":"gb","latitude":51.509865,"longitude":-0.118092,"reserved":0,"last_update":"0001-01-01T00:00:00Z","name_a2s":"Uncletopia | London | 5 | All Maps","protocol":17,"map":"pl_frontier_final","folder":"tf","game":"Team Fortress","app_id":440,"player_count":0,"max_players":24,"Bots":0,"server_type":"Dedicated","server_os":"Linux","password":true,"vac":true,"version":"7742253","steam_id":85568392924742829,"keywords":["nocrits","nodmgspread","payload","uncletopia"],"game_id":440,"stv_port":27056,"stv_name":"Uncletopia | London | 5 | All Maps | STV","players":null},{"server_id":22,"name":"Uncletopia | London | 6 | All Maps","name_short":"lon-6","host":"lon-1.uk.uncletopia.com","port":27065,"enabled":true,"region":"eu","cc":"gb","latitude":51.509865,"longitude":-0.118092,"reserved":0,"last_update":"0001-01-01T00:00:00Z","name_a2s":"Uncletopia | London | 6 | All Maps","protocol":17,"map":"koth_lakeside_final","folder":"tf","game":"Team Fortress","app_id":440,"player_count":0,"max_players":24,"Bots":0,"server_type":"Dedicated","server_os":"Linux","password":true,"vac":true,"version":"7742253","steam_id":85568392924742830,"keywords":["cp","nocrits","nodmgspread","uncletopia"],"game_id":440,"stv_port":27066,"stv_name":"Uncletopia | London | 6 | All Maps | STV","players":null},{"server_id":40,"name":"Uncletopia | London | 7 | No Payload","name_short":"lon-7","host":"lon-1.uk.uncletopia.com","port":27075,"enabled":true,"region":"eu","cc":"gb","latitude":51.509865,"longitude":-0.118092,"reserved":0,"last_update":"0001-01-01T00:00:00Z","name_a2s":"Uncletopia | London | 7 | No Payload","protocol":17,"map":"koth_viaduct","folder":"tf","game":"Team Fortress","app_id":440,"player_count":0,"max_players":24,"Bots":0,"server_type":"Dedicated","server_os":"Linux","password":true,"vac":true,"version":"7742253","steam_id":85568392924964314,"keywords":["cp","nocrits","nodmgspread","uncletopia"],"game_id":440,"stv_port":27076,"stv_name":"Uncletopia | London | 7 | No Payload | STV","players":null},{"server_id":41,"name":"Uncletopia | London | 8 | Community","name_short":"lon-8","host":"lon-1.uk.uncletopia.com","port":27085,"enabled":true,"region":"eu","cc":"gb","latitude":51.509865,"longitude":-0.118092,"reserved":0,"last_update":"0001-01-01T00:00:00Z","name_a2s":"Uncletopia | London | 8 | Community","protocol":17,"map":"workshop/pl_vigil_rc9.ugc1266210012","folder":"tf","game":"Team Fortress","app_id":440,"player_count":0,"max_players":24,"Bots":0,"server_type":"Dedicated","server_os":"Linux","password":true,"vac":true,"version":"7742253","steam_id":85568392924964315,"keywords":["nocrits","nodmgspread","payload","uncletopia"],"game_id":440,"stv_port":27086,"stv_name":"Uncletopia | London | 8 | Community | STV","players":null},{"server_id":300,"name":"Uncletopia | Montr√©al | 1 | All Maps","name_short":"mtl-1","host":"mtl-1.ca.uncletopia.com","port":27015,"enabled":true,"region":"us-east","cc":"ca","latitude":45.50889,"longitude":-73.56167,"reserved":0,"last_update":"0001-01-01T00:00:00Z","name_a2s":"Uncletopia | Montr√©al | 1 | All Maps","protocol":17,"map":"pl_snowycoast","folder":"tf","game":"Team Fortress","app_id":440,"player_count":0,"max_players":24,"Bots":0,"server_type":"Dedicated","server_os":"Linux","password":true,"vac":true,"version":"7742253","steam_id":85568392924500087,"keywords":["nocrits","nodmgspread","payload","uncletopia"],"game_id":440,"stv_port":27016,"stv_name":"Uncletopia | Montr√©al | 1 | All Maps | STV","players":null},{"server_id":301,"name":"Uncletopia | Montr√©al | 2 | All Maps","name_short":"mtl-2","host":"mtl-1.ca.uncletopia.com","port":27025,"enabled":true,"region":"us-east","cc":"ca","latitude":45.50889,"longitude":-73.56167,"reserved":0,"last_update":"0001-01-01T00:00:00Z","name_a2s":"Uncletopia | Montr√©al | 2 | All Maps","protocol":17,"map":"koth_highpass","folder":"tf","game":"Team Fortress","app_id":440,"player_count":0,"max_players":24,"Bots":0,"server_type":"Dedicated","server_os":"Linux","password":true,"vac":true,"version":"7742253","steam_id":85568392924500088,"keywords":["cp","nocrits","nodmgspread","uncletopia"],"game_id":440,"stv_port":27026,"stv_name":"Uncletopia | Montr√©al | 2 | All Maps | STV","players":null},{"server_id":302,"name":"Uncletopia | Montr√©al | 3 | All Maps","name_short":"mtl-3","host":"mtl-1.ca.uncletopia.com","port":27035,"enabled":true,"region":"us-east","cc":"ca","latitude":45.50889,"longitude":-73.56167,"reserved":0,"last_update":"0001-01-01T00:00:00Z","name_a2s":"Uncletopia | Montr√©al | 3 | All Maps","protocol":17,"map":"cp_mountainlab","folder":"tf","game":"Team Fortress","app_id":440,"player_count":0,"max_players":24,"Bots":0,"server_type":"Dedicated","server_os":"Linux","password":true,"vac":true,"version":"7742253","steam_id":85568392924500089,"keywords":["cp","nocrits","nodmgspread","uncletopia"],"game_id":440,"stv_port":27036,"stv_name":"Uncletopia | Montr√©al | 3 | All Maps | STV","players":null},{"server_id":303,"name":"Uncletopia | Montr√©al | 4 | No Payload","name_short":"mtl-4","host":"mtl-1.ca.uncletopia.com","port":27045,"enabled":true,"region":"us-east","cc":"ca","latitude":45.50889,"longitude":-73.56167,"reserved":0,"last_update":"0001-01-01T00:00:00Z","name_a2s":"Uncletopia | Montr√©al | 4 | No Payload","protocol":17,"map":"cp_snakewater_final1","folder":"tf","game":"Team Fortress","app_id":440,"player_count":0,"max_players":24,"Bots":0,"server_type":"Dedicated","server_os":"Linux","password":true,"vac":true,"version":"7742253","steam_id":85568392924500090,"keywords":["cp","nocrits","nodmgspread","uncletopia"],"game_id":440,"stv_port":27046,"stv_name":"Uncletopia | Montr√©al | 4 | No Payload | STV","players":null},{"server_id":13,"name":"Uncletopia | New York City | 1 | All Maps","name_short":"nyc-1","host":"nyc-1.us.uncletopia.com","port":27015,"enabled":true,"region":"us-east","cc":"us","latitude":40.73061,"longitude":-73.93524,"reserved":0,"last_update":"0001-01-01T00:00:00Z","name_a2s":"Uncletopia | New York City | 1 | All Maps","protocol":17,"map":"pl_badwater","folder":"tf","game":"Team Fortress","app_id":440,"player_count":23,"max_players":24,"Bots":0,"server_type":"Dedicated","server_os":"Linux","password":true,"vac":true,"version":"7742253","steam_id":85568392924469993,"keywords":["nocrits","nodmgspread","payload","uncletopia"],"game_id":440,"stv_port":27016,"stv_name":"Uncletopia | New York City | 1 | All Maps | STV","players":[{"user_id":7,"name":"Gitgudgame","steam_id":76561198354761942,"connected_time":7068000000000,"state":"active","ping":52},{"user_id":106,"name":"[T.H.W.U] Juggernaut","steam_id":76561198306730124,"connected_time":222000000000,"state":"active","ping":59},{"user_id":62,"name":"moron, son of boron","steam_id":76561198081681647,"connected_time":3490000000000,"state":"active","ping":79},{"user_id":104,"name":"lyanide","steam_id":76561198311704368,"connected_time":532000000000,"state":"active","ping":51},{"user_id":13,"name":"Japanese Rabbit Enthusiast","steam_id":76561199134895220,"connected_time":6425000000000,"state":"active","ping":50},{"user_id":97,"name":"Herr Doktor","steam_id":76561198025473302,"connected_time":1142000000000,"state":"active","ping":80},{"user_id":102,"name":"Vagineer Gaming","steam_id":76561198276179693,"connected_time":716000000000,"state":"active","ping":69},{"user_id":81,"name":"GuyGoom","steam_id":76561198254522178,"connected_time":2084000000000,"state":"active","ping":74},{"user_id":105,"name":"PanPanPan111","steam_id":76561198197070906,"connected_time":439000000000,"state":"active","ping":85},{"user_id":82,"name":"LARGE","steam_id":76561198124583948,"connected_time":2024000000000,"state":"active","ping":63},{"user_id":56,"name":"4d4","steam_id":76561198402360789,"connected_time":3722000000000,"state":"active","ping":63},{"user_id":103,"name":"Turboconoco","steam_id":76561199123741609,"connected_time":576000000000,"state":"active","ping":52},{"user_id":89,"name":"ck_rene","steam_id":76561199079260488,"connected_time":1847000000000,"state":"active","ping":59},{"user_id":101,"name":"Endy","steam_id":76561199031301177,"connected_time":779000000000,"state":"active","ping":57},{"user_id":83,"name":"guyinatophat51","steam_id":76561198180230694,"connected_time":2009000000000,"state":"active","ping":63},{"user_id":69,"name":"[BBC][BBW]MyNameJeffVineComp","steam_id":76561198120312532,"connected_time":2838000000000,"state":"active","ping":60},{"user_id":99,"name":"outboard gloater","steam_id":76561199436141076,"connected_time":888000000000,"state":"active","ping":86},{"user_id":98,"name":"local engineer sweat","steam_id":76561198262573311,"connected_time":1140000000000,"state":"active","ping":67},{"user_id":107,"name":"caberknight tf2","steam_id":76561199273882768,"connected_time":16000000000,"state":"active","ping":54},{"user_id":92,"name":"Ronin Grinch","steam_id":76561198041439581,"connected_time":1545000000000,"state":"active","ping":55},{"user_id":93,"name":"Deej","steam_id":76561198121162429,"connected_time":1495000000000,"state":"active","ping":48},{"user_id":96,"name":"A Rhino with Coronavirus","steam_id":76561197999451366,"connected_time":1277000000000,"state":"active","ping":83},{"user_id":46,"name":"AOkScrump","steam_id":76561198996230924,"connected_time":4965000000000,"state":"active","ping":73}]},{"server_id":14,"name":"Uncletopia | New York City | 2 | All Maps","name_short":"nyc-2","host":"nyc-1.us.uncletopia.com","port":27025,"enabled":true,"region":"us-east","cc":"us","latitude":40.73061,"longitude":-73.93524,"reserved":0,"last_update":"0001-01-01T00:00:00Z","name_a2s":"Uncletopia | New York City | 2 | All Maps","protocol":17,"map":"pl_upward","folder":"tf","game":"Team Fortress","app_id":440,"player_count":0,"max_players":24,"Bots":0,"server_type":"Dedicated","server_os":"Linux","password":true,"vac":true,"version":"7742253","steam_id":85568392924469994,"keywords":["nocrits","nodmgspread","payload","uncletopia"],"game_id":440,"stv_port":27026,"stv_name":"Uncletopia | New York City | 2 | All Maps | STV","players":null},{"server_id":15,"name":"Uncletopia | New York City | 3 | Stopwatch Beta","name_short":"nyc-3","host":"nyc-1.us.uncletopia.com","port":27035,"enabled":true,"region":"us-east","cc":"us","latitude":40.73061,"longitude":-73.93524,"reserved":0,"last_update":"0001-01-01T00:00:00Z","name_a2s":"Uncletopia | New York City | 3 | Stopwatch Beta","protocol":17,"map":"pl_pier","folder":"tf","game":"Team Fortress","app_id":440,"player_count":0,"max_players":24,"Bots":0,"server_type":"Dedicated","server_os":"Linux","password":true,"vac":true,"version":"7742253","steam_id":85568392924742820,"keywords":["nocrits","nodmgspread","payload","uncletopia"],"game_id":440,"stv_port":27036,"stv_name":"Uncletopia | New York City | 3 | Stopwatch Beta | STV","players":null},{"server_id":16,"name":"Uncletopia | New York City | 4 | Community","name_short":"nyc-4","host":"nyc-1.us.uncletopia.com","port":27045,"enabled":true,"region":"us-east","cc":"us","latitude":40.73061,"longitude":-73.93524,"reserved":0,"last_update":"0001-01-01T00:00:00Z","name_a2s":"Uncletopia | New York City | 4 | Community","protocol":17,"map":"workshop/koth_ashville_final.ugc2130459942","folder":"tf","game":"Team Fortress","app_id":440,"player_count":0,"max_players":24,"Bots":0,"server_type":"Dedicated","server_os":"Linux","password":true,"vac":true,"version":"7742253","steam_id":85568392924742821,"keywords":["cp","nocrits","nodmgspread","uncletopia"],"game_id":440,"stv_port":27046,"stv_name":"Uncletopia | New York City | 4 | Community | STV","players":null},{"server_id":142,"name":"Uncletopia | S√£o Paulo | 1 | All Maps","name_short":"sao-1","host":"sao-1.br.uncletopia.com","port":27015,"enabled":true,"region":"sa","cc":"br","latitude":-23.533773,"longitude":-46.62529,"reserved":0,"last_update":"0001-01-01T00:00:00Z","name_a2s":"Uncletopia | S√£o Paulo | 1 | All Maps","protocol":17,"map":"koth_viaduct","folder":"tf","game":"Team Fortress","app_id":440,"player_count":0,"max_players":24,"Bots":0,"server_type":"Dedicated","server_os":"Linux","password":true,"vac":true,"version":"7742253","steam_id":85568392924469996,"keywords":["cp","nocrits","nodmgspread","uncletopia"],"game_id":440,"stv_port":27016,"stv_name":"Uncletopia | S√£o Paulo | 1 | All Maps | STV","players":null},{"server_id":143,"name":"Uncletopia | S√£o Paulo | 2 | All Maps","name_short":"sao-2","host":"sao-2.br.uncletopia.com","port":27015,"enabled":true,"region":"sa","cc":"br","latitude":-23.533773,"longitude":-46.62529,"reserved":0,"last_update":"0001-01-01T00:00:00Z","name_a2s":"Uncletopia | S√£o Paulo | 2 | All Maps","protocol":17,"map":"koth_viaduct","folder":"tf","game":"Team Fortress","app_id":440,"player_count":0,"max_players":24,"Bots":0,"server_type":"Dedicated","server_os":"Linux","password":true,"vac":true,"version":"7742253","steam_id":85568392924485349,"keywords":["cp","nocrits","nodmgspread","uncletopia"],"game_id":440,"stv_port":27016,"stv_name":"Uncletopia | S√£o Paulo | 2 | All Maps | STV","players":null},{"server_id":7,"name":"Uncletopia | Seattle | 1 | All Maps","name_short":"sea-1","host":"sea-1.us.uncletopia.com","port":27015,"enabled":true,"region":"us-west","cc":"us","latitude":47.608013,"longitude":-122.33517,"reserved":0,"last_update":"0001-01-01T00:00:00Z","name_a2s":"Uncletopia | Seattle | 1 | All Maps","protocol":17,"map":"pl_upward","folder":"tf","game":"Team Fortress","app_id":440,"player_count":6,"max_players":24,"Bots":0,"server_type":"Dedicated","server_os":"Linux","password":true,"vac":true,"version":"7742253","steam_id":85568392924469997,"keywords":["cp","nocrits","nodmgspread","uncletopia"],"game_id":440,"stv_port":27016,"stv_name":"Uncletopia | Seattle | 1 | All Maps | STV","players":[{"user_id":30,"name":"SesataPomang","steam_id":76561198145133059,"connected_time":67000000000,"state":"connecting","ping":114},{"user_id":28,"name":"Isopentyl Ethanoate","steam_id":76561198116389072,"connected_time":224000000000,"state":"connecting","ping":63},{"user_id":7,"name":"Pyrolimited","steam_id":76561198195455657,"connected_time":3112000000000,"state":"spawning","ping":60},{"user_id":23,"name":"hoOmIN","steam_id":76561198334947079,"connected_time":1217000000000,"state":"connecting","ping":94},{"user_id":20,"name":"Alec_76a","steam_id":76561198054305165,"connected_time":1696000000000,"state":"connecting","ping":217},{"user_id":29,"name":"Advice Ball","steam_id":76561198037306249,"connected_time":129000000000,"state":"connecting","ping":114}]},{"server_id":119,"name":"Uncletopia | Seattle | 2 | All Maps","name_short":"sea-2","host":"sea-1.us.uncletopia.com","port":27025,"enabled":true,"region":"us-west","cc":"us","latitude":47.608013,"longitude":-122.33517,"reserved":0,"last_update":"0001-01-01T00:00:00Z","name_a2s":"Uncletopia | Seattle | 2 | All Maps","protocol":17,"map":"koth_cascade","folder":"tf","game":"Team Fortress","app_id":440,"player_count":0,"max_players":24,"Bots":0,"server_type":"Dedicated","server_os":"Linux","password":true,"vac":true,"version":"7742253","steam_id":85568392924469998,"keywords":["cp","nocrits","nodmgspread","uncletopia"],"game_id":440,"stv_port":27026,"stv_name":"Uncletopia | Seattle | 2 | All Maps | STV","players":null},{"server_id":406,"name":"Uncletopia | Seattle | 3 | Stopwatch Beta","name_short":"sea-3","host":"sea-1.us.uncletopia.com","port":27035,"enabled":true,"region":"us-west","cc":"us","latitude":47.608013,"longitude":-122.33517,"reserved":0,"last_update":"0001-01-01T00:00:00Z","name_a2s":"Uncletopia | Seattle | 3 | Stopwatch Beta","protocol":17,"map":"workshop/koth_ramjam_rc1.ugc459778887","folder":"tf","game":"Team Fortress","app_id":440,"player_count":2,"max_players":24,"Bots":0,"server_type":"Dedicated","server_os":"Linux","password":true,"vac":true,"version":"7742253","steam_id":85568392924515217,"keywords":["cp","nocrits","nodmgspread","uncletopia"],"game_id":440,"stv_port":27036,"stv_name":"Uncletopia | Seattle | 3 | Stopwatch Beta | STV","players":[{"user_id":4,"name":"NaisaCantika","steam_id":76561199185227681,"connected_time":1798000000000,"state":"active","ping":238},{"user_id":5,"name":"Tiqra","steam_id":76561199223068436,"connected_time":1790000000000,"state":"active","ping":250}]},{"server_id":17,"name":"Uncletopia | San Francisco | 1 | All Maps","name_short":"sfo-1","host":"sfo-1.us.uncletopia.com","port":27015,"enabled":true,"region":"us-west","cc":"us","latitude":37.77397,"longitude":-122.4313,"reserved":0,"last_update":"0001-01-01T00:00:00Z","name_a2s":"Uncletopia | San Francisco | 1 | All Maps","protocol":17,"map":"pl_snowycoast","folder":"tf","game":"Team Fortress","app_id":440,"player_count":0,"max_players":24,"Bots":0,"server_type":"Dedicated","server_os":"Linux","password":true,"vac":true,"version":"7742253","steam_id":85568392924469999,"keywords":["nocrits","nodmgspread","payload","uncletopia"],"game_id":440,"stv_port":27016,"stv_name":"Uncletopia | San Francisco | 1 | All Maps | STV","players":null},{"server_id":18,"name":"Uncletopia | San Francisco | 2 | All Maps","name_short":"sfo-2","host":"sfo-1.us.uncletopia.com","port":27025,"enabled":true,"region":"us-west","cc":"us","latitude":37.77397,"longitude":-122.4313,"reserved":0,"last_update":"0001-01-01T00:00:00Z","name_a2s":"Uncletopia | San Francisco | 2 | All Maps","protocol":17,"map":"pl_borneo","folder":"tf","game":"Team Fortress","app_id":440,"player_count":0,"max_players":24,"Bots":0,"server_type":"Dedicated","server_os":"Linux","password":true,"vac":true,"version":"7742253","steam_id":85568392924470000,"keywords":["nocrits","nodmgspread","payload","uncletopia"],"game_id":440,"stv_port":27026,"stv_name":"Uncletopia | San Francisco | 2 | All Maps | STV","players":null},{"server_id":19,"name":"Uncletopia | San Francisco | 3 | Stopwatch Beta","name_short":"sfo-3","host":"sfo-1.us.uncletopia.com","port":27035,"enabled":true,"region":"us-west","cc":"us","latitude":37.77397,"longitude":-122.4313,"reserved":0,"last_update":"0001-01-01T00:00:00Z","name_a2s":"Uncletopia | San Francisco | 3 | Stopwatch Beta","protocol":17,"map":"cp_snakewater_final1","folder":"tf","game":"Team Fortress","app_id":440,"player_count":0,"max_players":24,"Bots":0,"server_type":"Dedicated","server_os":"Linux","password":true,"vac":true,"version":"7742253","steam_id":85568392924742824,"keywords":["cp","nocrits","nodmgspread","uncletopia"],"game_id":440,"stv_port":27036,"stv_name":"Uncletopia | San Francisco | 3 | Stopwatch Beta | STV","players":null},{"server_id":20,"name":"Uncletopia | San Francisco | 4 | Community","name_short":"sfo-4","host":"sfo-1.us.uncletopia.com","port":27045,"enabled":true,"region":"us-west","cc":"us","latitude":37.77397,"longitude":-122.4313,"reserved":0,"last_update":"0001-01-01T00:00:00Z","name_a2s":"Uncletopia | San Francisco | 4 | Community","protocol":17,"map":"workshop/koth_bagel_rc5.ugc2514036946","folder":"tf","game":"Team Fortress","app_id":440,"player_count":0,"max_players":24,"Bots":0,"server_type":"Dedicated","server_os":"Linux","password":true,"vac":true,"version":"7742253","steam_id":85568392924742826,"keywords":["cp","nocrits","nodmgspread","uncletopia"],"game_id":440,"stv_port":27046,"stv_name":"Uncletopia | San Francisco | 4 | Community | STV","players":null},{"server_id":141,"name":"Uncletopia | Sydney | 1 | All Maps","name_short":"syd-1","host":"syd-1.au.uncletopia.com","port":27015,"enabled":true,"region":"au","cc":"au","latitude":-33.865143,"longitude":151.2099,"reserved":0,"last_update":"0001-01-01T00:00:00Z","name_a2s":"Uncletopia | Sydney | 1 | All Maps","protocol":17,"map":"pl_swiftwater_final1","folder":"tf","game":"Team Fortress","app_id":440,"player_count":0,"max_players":24,"Bots":0,"server_type":"Dedicated","server_os":"Linux","password":true,"vac":true,"version":"7742253","steam_id":85568392924470001,"keywords":["nocrits","nodmgspread","payload","uncletopia"],"game_id":440,"stv_port":27016,"stv_name":"Uncletopia | Sydney | 1 | All Maps | STV","players":null},{"server_id":123,"name":"Uncletopia | Sydney | 2 | All Maps","name_short":"syd-2","host":"syd-1.au.uncletopia.com","port":27025,"enabled":true,"region":"au","cc":"au","latitude":-33.865143,"longitude":151.2099,"reserved":0,"last_update":"0001-01-01T00:00:00Z","name_a2s":"Uncletopia | Sydney | 2 | All Maps","protocol":17,"map":"koth_viaduct","folder":"tf","game":"Team Fortress","app_id":440,"player_count":0,"max_players":24,"Bots":0,"server_type":"Dedicated","server_os":"Linux","password":true,"vac":true,"version":"7742253","steam_id":85568392924470002,"keywords":["cp","nocrits","nodmgspread","uncletopia"],"game_id":440,"stv_port":27026,"stv_name":"Uncletopia | Sydney | 2 | All Maps | STV","players":null},{"server_id":395,"name":"Uncletopia | Sydney | 3 | All Maps","name_short":"syd-3","host":"syd-1.au.uncletopia.com","port":27035,"enabled":true,"region":"au","cc":"au","latitude":-33.865143,"longitude":151.2099,"reserved":0,"last_update":"0001-01-01T00:00:00Z","name_a2s":"Uncletopia | Sydney | 3 | All Maps","protocol":17,"map":"koth_cascade","folder":"tf","game":"Team Fortress","app_id":440,"player_count":0,"max_players":24,"Bots":0,"server_type":"Dedicated","server_os":"Linux","password":true,"vac":true,"version":"7742253","steam_id":85568392925194467,"keywords":["cp","nocrits","nodmgspread","uncletopia"],"game_id":440,"stv_port":27036,"stv_name":"Uncletopia | Sydney | 3 | All Maps | STV","players":null},{"server_id":396,"name":"Uncletopia | Sydney | 4 | All Maps","name_short":"syd-4","host":"syd-1.au.uncletopia.com","port":27045,"enabled":true,"region":"au","cc":"au","latitude":-33.865143,"longitude":151.2099,"reserved":0,"last_update":"0001-01-01T00:00:00Z","name_a2s":"Uncletopia | Sydney | 4 | All Maps","protocol":17,"map":"koth_viaduct","folder":"tf","game":"Team Fortress","app_id":440,"player_count":0,"max_players":24,"Bots":0,"server_type":"Dedicated","server_os":"Linux","password":true,"vac":true,"version":"7742253","steam_id":85568392925397958,"keywords":["cp","nocrits","nodmgspread","uncletopia"],"game_id":440,"stv_port":27046,"stv_name":"Uncletopia | Sydney | 4 | All Maps | STV","players":null},{"server_id":58,"name":"Uncletopia | Sydney | 5 | Stopwatch Beta","name_short":"syd-5","host":"syd-1.au.uncletopia.com","port":27055,"enabled":true,"region":"au","cc":"au","latitude":-33.865143,"longitude":151.2099,"reserved":0,"last_update":"0001-01-01T00:00:00Z","name_a2s":"Uncletopia | Sydney | 5 | Stopwatch Beta","protocol":17,"map":"koth_highpass","folder":"tf","game":"Team Fortress","app_id":440,"player_count":0,"max_players":24,"Bots":0,"server_type":"Dedicated","server_os":"Linux","password":true,"vac":true,"version":"7742253","steam_id":85568392925397959,"keywords":["cp","nocrits","nodmgspread","uncletopia"],"game_id":440,"stv_port":27056,"stv_name":"Uncletopia | Sydney | 5 | Stopwatch Beta | STV","players":null},{"server_id":59,"name":"Uncletopia | Sydney | 6 | Community","name_short":"syd-6","host":"syd-1.au.uncletopia.com","port":27065,"enabled":true,"region":"au","cc":"au","latitude":-33.865143,"longitude":151.2099,"reserved":0,"last_update":"0001-01-01T00:00:00Z","name_a2s":"Uncletopia | Sydney | 6 | Community","protocol":17,"map":"workshop/koth_slaughter_rc1.ugc1712845210","folder":"tf","game":"Team Fortress","app_id":440,"player_count":0,"max_players":24,"Bots":0,"server_type":"Dedicated","server_os":"Linux","password":true,"vac":true,"version":"7742253","steam_id":85568392925397960,"keywords":["cp","nocrits","nodmgspread","uncletopia"],"game_id":440,"stv_port":27066,"stv_name":"Uncletopia | Sydney | 6 | Community | STV","players":null},{"server_id":49,"name":"Uncletopia | Warsaw | 1 | All Maps","name_short":"waw-1","host":"waw-1.pl.uncletopia.com","port":27015,"enabled":true,"region":"eu","cc":"pl","latitude":52.2297,"longitude":21.017532,"reserved":0,"last_update":"0001-01-01T00:00:00Z","name_a2s":"","protocol":0,"map":"","folder":"","game":"","app_id":0,"player_count":0,"max_players":0,"Bots":0,"server_type":"","server_os":"","password":false,"vac":false,"version":"","steam_id":0,"keywords":null,"game_id":0,"stv_port":0,"stv_name":"","players":null},{"server_id":50,"name":"Uncletopia | Warsaw | 2 | All Maps","name_short":"waw-2","host":"waw-1.pl.uncletopia.com","port":27025,"enabled":true,"region":"eu","cc":"pl","latitude":52.2297,"longitude":21.017532,"reserved":0,"last_update":"0001-01-01T00:00:00Z","name_a2s":"Uncletopia | Warsaw | 2 | All Maps","protocol":17,"map":"koth_lakeside_final","folder":"tf","game":"Team Fortress","app_id":440,"player_count":0,"max_players":24,"Bots":0,"server_type":"Dedicated","server_os":"Linux","password":true,"vac":true,"version":"7742253","steam_id":85568392925397851,"keywords":["cp","nocrits","nodmgspread","uncletopia"],"game_id":440,"stv_port":27026,"stv_name":"Uncletopia | Warsaw | 2 | All Maps | STV","players":null},{"server_id":51,"name":"Uncletopia | Warsaw | 3 | All Maps","name_short":"waw-3","host":"waw-1.pl.uncletopia.com","port":27035,"enabled":true,"region":"eu","cc":"pl","latitude":52.2297,"longitude":21.017532,"reserved":0,"last_update":"0001-01-01T00:00:00Z","name_a2s":"Uncletopia | Warsaw | 3 | All Maps","protocol":17,"map":"koth_lakeside_final","folder":"tf","game":"Team Fortress","app_id":440,"player_count":0,"max_players":24,"Bots":0,"server_type":"Dedicated","server_os":"Linux","password":true,"vac":true,"version":"7742253","steam_id":85568392925397852,"keywords":["cp","nocrits","nodmgspread","uncletopia"],"game_id":440,"stv_port":27036,"stv_name":"Uncletopia | Warsaw | 3 | All Maps | STV","players":null},{"server_id":52,"name":"Uncletopia | Warsaw | 4 | All Maps","name_short":"waw-4","host":"waw-1.pl.uncletopia.com","port":27045,"enabled":true,"region":"eu","cc":"pl","latitude":52.2297,"longitude":21.017532,"reserved":0,"last_update":"0001-01-01T00:00:00Z","name_a2s":"Uncletopia | Warsaw | 4 | All Maps","protocol":17,"map":"pl_frontier_final","folder":"tf","game":"Team Fortress","app_id":440,"player_count":23,"max_players":24,"Bots":0,"server_type":"Dedicated","server_os":"Linux","password":true,"vac":true,"version":"7742253","steam_id":85568392925397853,"keywords":["nocrits","nodmgspread","payload","uncletopia"],"game_id":440,"stv_port":27046,"stv_name":"Uncletopia | Warsaw | 4 | All Maps | STV","players":[{"user_id":53,"name":"APenjuin","steam_id":76561198169007976,"connected_time":1654000000000,"state":"active","ping":92},{"user_id":37,"name":"„Éî„Éâ„É©„Çπ","steam_id":76561198092463910,"connected_time":2673000000000,"state":"active","ping":75},{"user_id":39,"name":"Grumpy_Owl","steam_id":76561198190652941,"connected_time":2641000000000,"state":"active","ping":102},{"user_id":56,"name":"‚Ä†–¢—è–ø–∫–∞‚Ä†","steam_id":76561198162133786,"connected_time":1514000000000,"state":"active","ping":64},{"user_id":64,"name":"Pvt. Grichmann","steam_id":76561197977589522,"connected_time":849000000000,"state":"active","ping":77},{"user_id":82,"name":"lagzer","steam_id":76561198029295449,"connected_time":62000000000,"state":"active","ping":51},{"user_id":68,"name":"cum 2","steam_id":76561198010075638,"connected_time":522000000000,"state":"active","ping":78},{"user_id":70,"name":"Noob_with_source","steam_id":76561198870362103,"connected_time":511000000000,"state":"active","ping":67},{"user_id":62,"name":"Senator Armstrong","steam_id":76561198984346408,"connected_time":946000000000,"state":"active","ping":52},{"user_id":61,"name":"stafforrdd","steam_id":76561198155137951,"connected_time":1301000000000,"state":"active","ping":92},{"user_id":40,"name":"hatac","steam_id":76561198204281927,"connected_time":2631000000000,"state":"active","ping":46},{"user_id":69,"name":"dgz","steam_id":76561197979345019,"connected_time":520000000000,"state":"active","ping":84},{"user_id":46,"name":"SODA!!!!!!!","steam_id":76561198107362485,"connected_time":2443000000000,"state":"active","ping":46},{"user_id":71,"name":"Quinton Heckroth","steam_id":76561197979780972,"connected_time":427000000000,"state":"active","ping":85},{"user_id":72,"name":"Abel","steam_id":76561198857940653,"connected_time":414000000000,"state":"active","ping":43},{"user_id":73,"name":"Nana(anger issues)","steam_id":76561198315144211,"connected_time":407000000000,"state":"active","ping":43},{"user_id":74,"name":"Van","steam_id":76561199177668753,"connected_time":393000000000,"state":"active","ping":68},{"user_id":81,"name":"brtaba","steam_id":76561198796334790,"connected_time":152000000000,"state":"active","ping":63},{"user_id":76,"name":"Athurios","steam_id":76561198061843983,"connected_time":323000000000,"state":"active","ping":79},{"user_id":77,"name":"MonetaryFlame","steam_id":76561198054186916,"connected_time":313000000000,"state":"active","ping":67},{"user_id":78,"name":"Taffer","steam_id":76561198883964471,"connected_time":258000000000,"state":"active","ping":171},{"user_id":79,"name":"daddy","steam_id":76561198358112131,"connected_time":255000000000,"state":"active","ping":60},{"user_id":80,"name":"result","steam_id":76561198269200388,"connected_time":255000000000,"state":"active","ping":56}]},{"server_id":53,"name":"Uncletopia | Warsaw | 5 | Stopwatch Beta","name_short":"waw-5","host":"waw-1.pl.uncletopia.com","port":27055,"enabled":true,"region":"eu","cc":"pl","latitude":52.2297,"longitude":21.017532,"reserved":0,"last_update":"0001-01-01T00:00:00Z","name_a2s":"Uncletopia | Warsaw | 5 | Stopwatch Beta","protocol":17,"map":"pl_swiftwater_final1","folder":"tf","game":"Team Fortress","app_id":440,"player_count":0,"max_players":24,"Bots":0,"server_type":"Dedicated","server_os":"Linux","password":true,"vac":true,"version":"7742253","steam_id":85568392925397854,"keywords":["nocrits","nodmgspread","payload","uncletopia"],"game_id":440,"stv_port":27056,"stv_name":"Uncletopia | Warsaw | 5 | Stopwatch Beta | STV","players":null},{"server_id":54,"name":"Uncletopia | Warsaw | 6 | Community","name_short":"waw-6","host":"waw-1.pl.uncletopia.com","port":27065,"enabled":true,"region":"eu","cc":"pl","latitude":52.2297,"longitude":21.017532,"reserved":0,"last_update":"0001-01-01T00:00:00Z","name_a2s":"Uncletopia | Warsaw | 6 | Community","protocol":17,"map":"workshop/koth_slaughter_rc1.ugc1712845210","folder":"tf","game":"Team Fortress","app_id":440,"player_count":0,"max_players":24,"Bots":0,"server_type":"Dedicated","server_os":"Linux","password":true,"vac":true,"version":"7742253","steam_id":85568392925397856,"keywords":["cp","nocrits","nodmgspread","uncletopia"],"game_id":440,"stv_port":27066,"stv_name":"Uncletopia | Warsaw | 6 | Community | STV","players":null}]}