{"status":true,"message":"","result":[{"server_id":9,"name":"Uncletopia | Atlanta | 1 | All Maps","name_short":"atl-1","host":"atl-1.us.uncletopia.com","port":27015,"enabled":true,"region":"us-east","cc":"us","latitude":33.753746,"longitude":-84.38633,"reserved":0,"last_update":"0001-01-01T00:00:00Z","name_a2s":"Uncletopia | Atlanta | 1 | All Maps","protocol":17,"map":"pl_snowycoast","folder":"tf","game":"Team Fortress","app_id":440,"player_count":24,"max_players":24,"Bots":0,"server_type":"Dedicated","server_os":"Linux","password":true,"vac":true,"version":"7757534","steam_id":85568392924469982,"keywords":["nocrits","nodmgspread","payload","uncletopia"],"game_id":440,"stv_port":27016,"stv_name":"Uncletopia | Atlanta | 1 | All Maps | STV","players":[{"user_id":760,"name":"Barress","steam_id":76561198011728743,"connected_time":11130000000000,"state":"active","ping":102},{"user_id":839,"name":"paetho YT","steam_id":76561198152690003,"connected_time":1967000000000,"state":"active","ping":42},{"user_id":826,"name":"SWISH","steam_id":76561198397009880,"connected_time":3149000000000,"state":"active","ping":47},{"user_id":813,"name":"Magechaos","steam_id":76561198026852227,"connected_time":4235000000000,"state":"active","ping":51},{"user_id":845,"name":"Eden Hazard","steam_id":76561198089241053,"connected_time":927000000000,"state":"active","ping":76},{"user_id":848,"name":"Rat","steam_id":76561198137925582,"connected_time":371000000000,"state":"active","ping":61},{"user_id":843,"name":"Yoloisnotded","steam_id":76561198995043589,"connected_time":952000000000,"state":"active","ping":92},{"user_id":830,"name":"BackThrowTheBaguetteBrawler","steam_id":76561198118340623,"connected_time":2280000000000,"state":"active","ping":49},{"user_id":799,"name":"balls_on_toast","steam_id":76561198307702552,"connected_time":5806000000000,"state":"active","ping":131},{"user_id":842,"name":"Lilith","steam_id":76561198125102885,"connected_time":1396000000000,"state":"active","ping":61},{"user_id":846,"name":"ATL1 | Pango","steam_id":76561198069811545,"connected_time":858000000000,"state":"active","ping":46},{"user_id":822,"name":"ElZeto","steam_id":76561198252322622,"connected_time":3383000000000,"state":"active","ping":92},{"user_id":789,"name":"Decolour","steam_id":76561199045608372,"connected_time":7279000000000,"state":"active","ping":77},{"user_id":841,"name":"Lord Dragon","steam_id":76561198310300373,"connected_time":1677000000000,"state":"active","ping":85},{"user_id":847,"name":"rose","steam_id":76561198048882285,"connected_time":697000000000,"state":"active","ping":61},{"user_id":831,"name":"Ace Attorney","steam_id":76561198133011705,"connected_time":2272000000000,"state":"active","ping":59},{"user_id":837,"name":"An Unhappy Clown","steam_id":76561198175516514,"connected_time":2053000000000,"state":"active","ping":68},{"user_id":838,"name":"Galactamarx","steam_id":76561198028065755,"connected_time":2001000000000,"state":"active","ping":100},{"user_id":818,"name":"Merit","steam_id":76561198803769563,"connected_time":3929000000000,"state":"active","ping":64},{"user_id":827,"name":"BackAxeTheCharacter","steam_id":76561198025042484,"connected_time":2960000000000,"state":"active","ping":75},{"user_id":804,"name":"MadEye","steam_id":76561198972627948,"connected_time":5459000000000,"state":"active","ping":58},{"user_id":819,"name":"Orange Juice","steam_id":76561198151423112,"connected_time":3896000000000,"state":"active","ping":78},{"user_id":820,"name":"funygreenman","steam_id":76561199466038013,"connected_time":3842000000000,"state":"active","ping":90},{"user_id":829,"name":"Swag Messiah","steam_id":76561198214464720,"connected_time":2639000000000,"state":"active","ping":60}]},{"server_id":104,"name":"Uncletopia | Atlanta | 2 | All Maps","name_short":"atl-2","host":"atl-1.us.uncletopia.com","port":27025,"enabled":true,"region":"us-east","cc":"us","latitude":33.753746,"longitude":-84.38633,"reserved":0,"last_update":"0001-01-01T00:00:00Z","name_a2s":"Uncletopia | Atlanta | 2 | All Maps","protocol":17,"map":"pl_upward","folder":"tf","game":"Team Fortress","app_id":440,"player_count":0,"max_players":24,"Bots":0,"server_type":"Dedicated","server_os":"Linux","password":true,"vac":true,"version":"7757534","steam_id":85568392924469983,"keywords":["nocrits","nodmgspread","payload","uncletopia"],"game_id":440,"stv_port":27026,"stv_name":"Uncletopia | Atlanta | 2 | All Maps | STV","players":null},{"server_id":400,"name":"Uncletopia | Atlanta | 3 | Community","name_short":"atl-3","host":"atl-1.us.uncletopia.com","port":27035,"enabled":true,"region":"us-east","cc":"us","latitude":33.753746,"longitude":-84.38633,"reserved":0,"last_update":"0001-01-01T00:00:00Z","name_a2s":"Uncletopia | Atlanta | 3 | Community","protocol":17,"map":"workshop/cp_mannbase_rc2a.ugc1900737467","folder":"tf","game":"Team Fortress","app_id":440,"player_count":0,"max_players":24,"Bots":0,"server_type":"Dedicated","server_os":"Linux","password":true,"vac":true,"version":"7757534","steam_id":85568392924515187,"keywords":["cp","nocrits","nodmgspread","uncletopia"],"game_id":440,"stv_port":27036,"stv_name":"Uncletopia | Atlanta | 3 | Community | STV","players":null},{"server_id":401,"name":"Uncletopia | Atlanta | 4 | No Payload","name_short":"atl-4","host":"atl-1.us.uncletopia.com","port":27045,"enabled":true,"region":"us-east","cc":"us","latitude":33.753746,"longitude":-84.38633,"reserved":0,"last_update":"0001-01-01T00:00:00Z","name_a2s":"","protocol":0,"map":"","folder":"","game":"","app_id":0,"player_count":0,"max_players":0,"Bots":0,"server_type":"","server_os":"","password":false,"vac":false,"version":"","steam_id":0,"keywords":null,"game_id":0,"stv_port":0,"stv_name":"","players":null},{"server_id":2,"name":"Uncletopia | Chicago | 1 | All Maps","name_short":"chi-1","host":"chi-1.us.uncletopia.com","port":27015,"enabled":true,"region":"us-central","cc":"us","latitude":41.881832,"longitude":-87.62318,"reserved":0,"last_update":"0001-01-01T00:00:00Z","name_a2s":"Uncletopia | Chicago | 1 | All Maps","protocol":17,"map":"pl_snowycoast","folder":"tf","game":"Team Fortress","app_id":440,"player_count":22,"max_players":24,"Bots":0,"server_type":"Dedicated","server_os":"Linux","password":true,"vac":true,"version":"7757534","steam_id":85568392924469984,"keywords":["nocrits","nodmgspread","payload","uncletopia"],"game_id":440,"stv_port":27016,"stv_name":"Uncletopia | Chicago | 1 | All Maps | STV","players":[{"user_id":866,"name":"Hazen","steam_id":76561198426604330,"connected_time":1268000000000,"state":"active","ping":79},{"user_id":847,"name":"Achtan","steam_id":76561198078189844,"connected_time":2670000000000,"state":"active","ping":58},{"user_id":860,"name":"PBxJAY","steam_id":76561198402471788,"connected_time":1499000000000,"state":"active","ping":122},{"user_id":886,"name":"sacred","steam_id":76561198012414439,"connected_time":57000000000,"state":"active","ping":75},{"user_id":849,"name":"Ademar","steam_id":76561199391802581,"connected_time":2612000000000,"state":"spawning","ping":61},{"user_id":884,"name":"Niykin","steam_id":76561198044779043,"connected_time":78000000000,"state":"active","ping":69},{"user_id":853,"name":"bary","steam_id":76561197988317087,"connected_time":2058000000000,"state":"active","ping":62},{"user_id":880,"name":"Cuphead","steam_id":76561198211892779,"connected_time":387000000000,"state":"active","ping":68},{"user_id":867,"name":"OctoBlitzVA","steam_id":76561198073909202,"connected_time":1230000000000,"state":"active","ping":92},{"user_id":851,"name":"Professor Peppermint","steam_id":76561198184017082,"connected_time":2513000000000,"state":"active","ping":46},{"user_id":855,"name":"button boy","steam_id":76561198820897304,"connected_time":2027000000000,"state":"active","ping":160},{"user_id":883,"name":"Yune","steam_id":76561198039324447,"connected_time":98000000000,"state":"active","ping":77},{"user_id":885,"name":"Rat_king","steam_id":76561199465689129,"connected_time":67000000000,"state":"active","ping":75},{"user_id":887,"name":"Dilo","steam_id":76561198799078414,"connected_time":55000000000,"state":"active","ping":61},{"user_id":836,"name":"soupy","steam_id":76561197974283797,"connected_time":3347000000000,"state":"active","ping":45},{"user_id":856,"name":"Rukks","steam_id":76561197993918954,"connected_time":1674000000000,"state":"active","ping":89},{"user_id":888,"name":"\u003e\u003e=","steam_id":76561198337705174,"connected_time":38000000000,"state":"active","ping":62},{"user_id":877,"name":"be","steam_id":76561198000824533,"connected_time":579000000000,"state":"active","ping":88},{"user_id":840,"name":"Thot Patrol","steam_id":76561198138713736,"connected_time":3277000000000,"state":"active","ping":74},{"user_id":879,"name":"Marcy2231","steam_id":76561198202323656,"connected_time":465000000000,"state":"active","ping":72},{"user_id":871,"name":"Regular Dog","steam_id":76561198042898614,"connected_time":999000000000,"state":"active","ping":56},{"user_id":878,"name":"guess i'll die...virtually","steam_id":76561199112291386,"connected_time":524000000000,"state":"active","ping":102}]},{"server_id":106,"name":"Uncletopia | Chicago | 2 | All Maps","name_short":"chi-2","host":"chi-1.us.uncletopia.com","port":27025,"enabled":true,"region":"us-central","cc":"us","latitude":41.881832,"longitude":-87.62318,"reserved":0,"last_update":"0001-01-01T00:00:00Z","name_a2s":"Uncletopia | Chicago | 2 | All Maps","protocol":17,"map":"pl_snowycoast","folder":"tf","game":"Team Fortress","app_id":440,"player_count":0,"max_players":24,"Bots":0,"server_type":"Dedicated","server_os":"Linux","password":true,"vac":true,"version":"7757534","steam_id":85568392924469985,"keywords":["nocrits","nodmgspread","payload","uncletopia"],"game_id":440,"stv_port":27026,"stv_name":"Uncletopia | Chicago | 2 | All Maps | STV","players":null},{"server_id":402,"name":"Uncletopia | Chicago | 3 | All Maps","name_short":"chi-3","host":"chi-1.us.uncletopia.com","port":27035,"enabled":true,"region":"us-central","cc":"us","latitude":41.881832,"longitude":-87.62318,"reserved":0,"last_update":"0001-01-01T00:00:00Z","name_a2s":"Uncletopia | Chicago | 3 | All Maps","protocol":17,"map":"pl_frontier_final","folder":"tf","game":"Team Fortress","app_id":440,"player_count":0,"max_players":24,"Bots":0,"server_type":"Dedicated","server_os":"Linux","password":true,"vac":true,"version":"7757534","steam_id":85568392924515191,"keywords":["nocrits","nodmgspread","payload","uncletopia"],"game_id":440,"stv_port":27036,"stv_name":"Uncletopia | Chicago | 3 | All Maps | STV","players":null},{"server_id":403,"name":"Uncletopia | Chicago | 4 | All Maps","name_short":"chi-4","host":"chi-1.us.uncletopia.com","port":27045,"enabled":true,"region":"us-central","cc":"us","latitude":41.881832,"longitude":-87.62318,"reserved":0,"last_update":"0001-01-01T00:00:00Z","name_a2s":"Uncletopia | Chicago | 4 | All Maps","protocol":17,"map":"cp_dustbowl","folder":"tf","game":"Team Fortress","app_id":440,"player_count":0,"max_players":24,"Bots":0,"server_type":"Dedicated","server_os":"Linux","password":true,"vac":true,"version":"7757534","steam_id":85568392924515193,"keywords":["cp","nocrits","nodmgspread","uncletopia"],"game_id":440,"stv_port":27046,"stv_name":"Uncletopia | Chicago | 4 | All Maps | STV","players":null},{"server_id":36,"name":"Uncletopia | Chicago | 5 | All Maps","name_short":"chi-5","host":"chi-2.us.uncletopia.com","port":27015,"enabled":true,"region":"us-central","cc":"us","latitude":41.881832,"longitude":-87.62318,"reserved":0,"last_update":"0001-01-01T00:00:00Z","name_a2s":"Uncletopia | Chicago | 5 | All Maps","protocol":17,"map":"cp_dustbowl","folder":"tf","game":"Team Fortress","app_id":440,"player_count":22,"max_players":24,"Bots":0,"server_type":"Dedicated","server_os":"Linux","password":true,"vac":true,"version":"7757534","steam_id":85568392924866362,"keywords":["cp","nocrits","nodmgspread","uncletopia"],"game_id":440,"stv_port":27016,"stv_name":"Uncletopia | Chicago | 5 | All Maps | STV","players":[{"user_id":576,"name":"hee","steam_id":76561198110576126,"connected_time":1880000000000,"state":"active","ping":68},{"user_id":585,"name":"Seal","steam_id":76561198043985619,"connected_time":1214000000000,"state":"active","ping":76},{"user_id":556,"name":"PeaR","steam_id":76561198149968863,"connected_time":3809000000000,"state":"active","ping":69},{"user_id":554,"name":"Gambling Man","steam_id":76561198322666631,"connected_time":3850000000000,"state":"active","ping":61},{"user_id":557,"name":"turbo builder's club","steam_id":76561198079516018,"connected_time":3796000000000,"state":"active","ping":33},{"user_id":558,"name":"stacys mom","steam_id":76561198209411824,"connected_time":3769000000000,"state":"active","ping":111},{"user_id":559,"name":"AquamarineBloke","steam_id":76561198093975842,"connected_time":3762000000000,"state":"active","ping":84},{"user_id":572,"name":"mmmguava","steam_id":76561198799742992,"connected_time":2345000000000,"state":"active","ping":138},{"user_id":595,"name":"SuperSchlong","steam_id":76561197963363115,"connected_time":221000000000,"state":"active","ping":89},{"user_id":580,"name":"Chubby Monarch","steam_id":76561198027487285,"connected_time":1575000000000,"state":"active","ping":104},{"user_id":564,"name":"Birch","steam_id":76561198316231704,"connected_time":2677000000000,"state":"active","ping":45},{"user_id":565,"name":"Xida","steam_id":76561198273471095,"connected_time":2675000000000,"state":"active","ping":90},{"user_id":567,"name":"Desse","steam_id":76561198817390149,"connected_time":2616000000000,"state":"active","ping":52},{"user_id":571,"name":"ALonelyPaperclip","steam_id":76561198116036160,"connected_time":2374000000000,"state":"active","ping":117},{"user_id":570,"name":"SIGMA [BS]","steam_id":76561197962604879,"connected_time":2415000000000,"state":"active","ping":65},{"user_id":597,"name":"cryne","steam_id":76561198042120598,"connected_time":94000000000,"state":"active","ping":144},{"user_id":592,"name":"Tigre","steam_id":76561198001608598,"connected_time":427000000000,"state":"active","ping":67},{"user_id":582,"name":"strctfsh","steam_id":76561198083619784,"connected_time":1540000000000,"state":"active","ping":45},{"user_id":593,"name":"Gucio [CSC]","steam_id":76561198797330806,"connected_time":419000000000,"state":"active","ping":174},{"user_id":596,"name":"Spruce","steam_id":76561198081684676,"connected_time":211000000000,"state":"active","ping":126},{"user_id":588,"name":"ark","steam_id":76561198041066271,"connected_time":992000000000,"state":"active","ping":75},{"user_id":591,"name":"onion","steam_id":76561198242311084,"connected_time":770000000000,"state":"active","ping":60}]},{"server_id":37,"name":"Uncletopia | Chicago | 6 | All Maps","name_short":"chi-6","host":"chi-2.us.uncletopia.com","port":27025,"enabled":true,"region":"us-central","cc":"us","latitude":41.881832,"longitude":-87.62318,"reserved":0,"last_update":"0001-01-01T00:00:00Z","name_a2s":"Uncletopia | Chicago | 6 | All Maps","protocol":17,"map":"koth_viaduct","folder":"tf","game":"Team Fortress","app_id":440,"player_count":7,"max_players":24,"Bots":0,"server_type":"Dedicated","server_os":"Linux","password":true,"vac":true,"version":"7757534","steam_id":85568392924866363,"keywords":["cp","nocrits","nodmgspread","uncletopia"],"game_id":440,"stv_port":27026,"stv_name":"Uncletopia | Chicago | 6 | All Maps | STV","players":[{"user_id":521,"name":"Dovahnaut","steam_id":76561198103550672,"connected_time":1638000000000,"state":"active","ping":70},{"user_id":480,"name":"Le0901","steam_id":76561198372891244,"connected_time":5359000000000,"state":"active","ping":48},{"user_id":522,"name":"V","steam_id":76561198998082956,"connected_time":429000000000,"state":"active","ping":41},{"user_id":481,"name":"Jarlpy","steam_id":76561198193905778,"connected_time":5287000000000,"state":"active","ping":73},{"user_id":514,"name":"SuperSandwichGoku","steam_id":76561198438882159,"connected_time":2756000000000,"state":"active","ping":42},{"user_id":501,"name":"Ask Nicely For Heals","steam_id":76561198138478907,"connected_time":4061000000000,"state":"active","ping":41},{"user_id":507,"name":"strawberry shortcock","steam_id":76561198032040831,"connected_time":3564000000000,"state":"active","ping":75}]},{"server_id":38,"name":"Uncletopia | Chicago | 7 | Stopwatch Beta","name_short":"chi-7","host":"chi-2.us.uncletopia.com","port":27035,"enabled":true,"region":"us-central","cc":"us","latitude":41.881832,"longitude":-87.62318,"reserved":0,"last_update":"0001-01-01T00:00:00Z","name_a2s":"Uncletopia | Chicago | 7 | Stopwatch Beta","protocol":17,"map":"workshop/koth_clearcut_b15.ugc2107050255","folder":"tf","game":"Team Fortress","app_id":440,"player_count":0,"max_players":24,"Bots":0,"server_type":"Dedicated","server_os":"Linux","password":true,"vac":true,"version":"7757534","steam_id":85568392924866364,"keywords":["cp","nocrits","nodmgspread","uncletopia"],"game_id":440,"stv_port":27036,"stv_name":"Uncletopia | Chicago | 7 | Stopwatch Beta | STV","players":null},{"server_id":39,"name":"Uncletopia | Chicago | 8 | Community","name_short":"chi-8","host":"chi-2.us.uncletopia.com","port":27045,"enabled":true,"region":"us-central","cc":"us","latitude":41.881832,"longitude":-87.62318,"reserved":0,"last_update":"0001-01-01T00:00:00Z","name_a2s":"Uncletopia | Chicago | 8 | Community","protocol":17,"map":"workshop/cp_bruhstbowl_b5.ugc2878604990","folder":"tf","game":"Team Fortress","app_id":440,"player_count":0,"max_players":24,"Bots":0,"server_type":"Dedicated","server_os":"Linux","password":true,"vac":true,"version":"7757534","steam_id":85568392924866365,"keywords":["cp","nocrits","nodmgspread","uncletopia"],"game_id":440,"stv_port":27046,"stv_name":"Uncletopia | Chicago | 8 | Community | STV","players":null},{"server_id":8,"name":"Uncletopia | Dallas | 1 | All Maps","name_short":"dal-1","host":"dal-1.us.uncletopia.com","port":27015,"enabled":true,"region":"us-central","cc":"us","latitude":32.779167,"longitude":-96.80889,"reserved":0,"last_update":"0001-01-01T00:00:00Z","name_a2s":"Uncletopia | Dallas | 1 | All Maps","protocol":17,"map":"pl_upward","folder":"tf","game":"Team Fortress","app_id":440,"player_count":16,"max_players":24,"Bots":0,"server_type":"Dedicated","server_os":"Linux","password":true,"vac":true,"version":"7757534","steam_id":85568392924469986,"keywords":["nocrits","nodmgspread","payload","uncletopia"],"game_id":440,"stv_port":27016,"stv_name":"Uncletopia | Dallas | 1 | All Maps | STV","players":[{"user_id":641,"name":"errant","steam_id":76561197961758410,"connected_time":7974000000000,"state":"active","ping":30},{"user_id":712,"name":"wakeupbdot","steam_id":76561198160786631,"connected_time":26000000000,"state":"active","ping":85},{"user_id":696,"name":"bolainassr0","steam_id":76561199079078845,"connected_time":2051000000000,"state":"active","ping":101},{"user_id":711,"name":"substance","steam_id":76561198050103868,"connected_time":79000000000,"state":"active","ping":110},{"user_id":713,"name":"seve","steam_id":76561197974470963,"connected_time":22000000000,"state":"active","ping":75},{"user_id":695,"name":"TTV/YT Hunter","steam_id":76561198115812405,"connected_time":2266000000000,"state":"active","ping":99},{"user_id":637,"name":"Xen","steam_id":76561198025311844,"connected_time":8994000000000,"state":"active","ping":104},{"user_id":714,"name":"Blows","steam_id":76561198065349185,"connected_time":4000000000,"state":"spawning","ping":72},{"user_id":709,"name":"Luna the Milk Bringer","steam_id":76561198991791655,"connected_time":697000000000,"state":"active","ping":96},{"user_id":688,"name":"hotpocket","steam_id":76561199070028098,"connected_time":2932000000000,"state":"active","ping":95},{"user_id":691,"name":"Emperor Dankatine","steam_id":76561198044741086,"connected_time":2601000000000,"state":"active","ping":71},{"user_id":703,"name":"fitotutus","steam_id":76561197974993253,"connected_time":1445000000000,"state":"active","ping":134},{"user_id":679,"name":"deb","steam_id":76561198414336279,"connected_time":3898000000000,"state":"active","ping":55},{"user_id":699,"name":"!! BRO IS FLABBERGASTED !!","steam_id":76561198135036396,"connected_time":1769000000000,"state":"active","ping":55},{"user_id":692,"name":"kermitcreeper(ZAZA)","steam_id":76561199222829972,"connected_time":2499000000000,"state":"active","ping":56},{"user_id":665,"name":"Reyloko","steam_id":76561198172480913,"connected_time":5253000000000,"state":"active","ping":75}]},{"server_id":108,"name":"Uncletopia | Dallas | 2 | All Maps","name_short":"dal-2","host":"dal-1.us.uncletopia.com","port":27025,"enabled":true,"region":"us-central","cc":"us","latitude":32.779167,"longitude":-96.80889,"reserved":0,"last_update":"0001-01-01T00:00:00Z","name_a2s":"Uncletopia | Dallas | 2 | All Maps","protocol":17,"map":"cp_gorge","folder":"tf","game":"Team Fortress","app_id":440,"player_count":23,"max_players":24,"Bots":0,"server_type":"Dedicated","server_os":"Linux","password":true,"vac":true,"version":"7757534","steam_id":85568392924469988,"keywords":["cp","nocrits","nodmgspread","uncletopia"],"game_id":440,"stv_port":27026,"stv_name":"Uncletopia | Dallas | 2 | All Maps | STV","players":[{"user_id":659,"name":"eatmysteel","steam_id":76561198976437527,"connected_time":2072000000000,"state":"active","ping":94},{"user_id":689,"name":"The Doc","steam_id":76561198121604602,"connected_time":36000000000,"state":"active","ping":64},{"user_id":639,"name":"Jack from Jack in The Box","steam_id":76561199083594971,"connected_time":3227000000000,"state":"active","ping":64},{"user_id":662,"name":"Spring Beans","steam_id":76561197978546259,"connected_time":1982000000000,"state":"active","ping":30},{"user_id":681,"name":"Mogori","steam_id":76561198074060650,"connected_time":637000000000,"state":"active","ping":69},{"user_id":686,"name":"Auburn","steam_id":76561198199541493,"connected_time":260000000000,"state":"active","ping":88},{"user_id":682,"name":"Spy","steam_id":76561198937717599,"connected_time":601000000000,"state":"active","ping":39},{"user_id":636,"name":"Yummy Kabobz","steam_id":76561198067661705,"connected_time":3292000000000,"state":"active","ping":83},{"user_id":646,"name":"LemonPoppyMuffin","steam_id":76561198044813750,"connected_time":2885000000000,"state":"active","ping":60},{"user_id":661,"name":"Shaundude","steam_id":76561197979164191,"connected_time":2024000000000,"state":"active","ping":71},{"user_id":663,"name":"Mr. Peon","steam_id":76561198012334474,"connected_time":1973000000000,"state":"active","ping":39},{"user_id":664,"name":"motherfucker 2.0","steam_id":76561198141189209,"connected_time":1963000000000,"state":"active","ping":43},{"user_id":675,"name":"Dr Hernandez","steam_id":76561198064232988,"connected_time":1412000000000,"state":"active","ping":111},{"user_id":621,"name":"alpharuby","steam_id":76561198051638462,"connected_time":4246000000000,"state":"active","ping":72},{"user_id":622,"name":"Faraday","steam_id":76561198089928357,"connected_time":4244000000000,"state":"active","ping":57},{"user_id":676,"name":"literally tyler durden","steam_id":76561199014628655,"connected_time":1102000000000,"state":"active","ping":60},{"user_id":623,"name":"Phil Collins","steam_id":76561198068868644,"connected_time":4224000000000,"state":"active","ping":76},{"user_id":674,"name":"Dylancyclone","steam_id":76561198000959790,"connected_time":1573000000000,"state":"active","ping":70},{"user_id":688,"name":"nutlube","steam_id":76561198128831131,"connected_time":110000000000,"state":"active","ping":188},{"user_id":684,"name":"¡cálmate!","steam_id":76561198071421094,"connected_time":497000000000,"state":"active","ping":95},{"user_id":670,"name":"Kaos","steam_id":76561198059816476,"connected_time":1648000000000,"state":"active","ping":81},{"user_id":685,"name":"STOP DYING AT ME","steam_id":76561198073624045,"connected_time":389000000000,"state":"active","ping":46},{"user_id":671,"name":"GeekyFox3","steam_id":76561198267733290,"connected_time":1647000000000,"state":"active","ping":88}]},{"server_id":5,"name":"Uncletopia | Frankfurt | 1 | All Maps","name_short":"frk-1","host":"frk-1.de.uncletopia.com","port":27015,"enabled":true,"region":"eu","cc":"de","latitude":50.110924,"longitude":8.682127,"reserved":0,"last_update":"0001-01-01T00:00:00Z","name_a2s":"Uncletopia | Frankfurt | 1 | All Maps","protocol":17,"map":"cp_mountainlab","folder":"tf","game":"Team Fortress","app_id":440,"player_count":24,"max_players":24,"Bots":0,"server_type":"Dedicated","server_os":"Linux","password":true,"vac":true,"version":"7757534","steam_id":85568392924469989,"keywords":["cp","nocrits","nodmgspread","uncletopia"],"game_id":440,"stv_port":27016,"stv_name":"Uncletopia | Frankfurt | 1 | All Maps | STV","players":[{"user_id":43,"name":"Bingus","steam_id":76561198334528186,"connected_time":2629000000000,"state":"active","ping":55},{"user_id":71,"name":"scott steiners strongest warrio","steam_id":76561198148888622,"connected_time":974000000000,"state":"active","ping":69},{"user_id":54,"name":"Loyde","steam_id":76561198029919524,"connected_time":2279000000000,"state":"active","ping":103},{"user_id":76,"name":"Acanda","steam_id":76561198123246537,"connected_time":729000000000,"state":"active","ping":55},{"user_id":28,"name":"Pogmanson","steam_id":76561198919953445,"connected_time":3499000000000,"state":"active","ping":51},{"user_id":69,"name":"Ezekiel","steam_id":76561199024034022,"connected_time":1271000000000,"state":"active","ping":75},{"user_id":12,"name":"trans werewolf 2nd of her name","steam_id":76561198369367211,"connected_time":5174000000000,"state":"active","ping":69},{"user_id":74,"name":"Someone","steam_id":76561199030195879,"connected_time":760000000000,"state":"active","ping":57},{"user_id":45,"name":"VOLATILE","steam_id":76561198139131179,"connected_time":2536000000000,"state":"active","ping":129},{"user_id":81,"name":"Aydef","steam_id":76561198821964726,"connected_time":132000000000,"state":"active","ping":157},{"user_id":57,"name":"Wat Means?","steam_id":76561197966629582,"connected_time":2036000000000,"state":"active","ping":52},{"user_id":37,"name":"Topme","steam_id":76561198091734693,"connected_time":3065000000000,"state":"active","ping":75},{"user_id":70,"name":"Georman Forge","steam_id":76561198256504605,"connected_time":1211000000000,"state":"active","ping":64},{"user_id":73,"name":"trans werewolf","steam_id":76561198107235989,"connected_time":936000000000,"state":"active","ping":61},{"user_id":30,"name":"Loop_Cat","steam_id":76561199045902145,"connected_time":3388000000000,"state":"active","ping":116},{"user_id":31,"name":"FUKTARD2005","steam_id":76561198839121591,"connected_time":3380000000000,"state":"active","ping":63},{"user_id":44,"name":"poliakov.noam","steam_id":76561199259322961,"connected_time":2623000000000,"state":"active","ping":108},{"user_id":82,"name":"KAZAM | Tervez","steam_id":76561198045459068,"connected_time":131000000000,"state":"active","ping":79},{"user_id":77,"name":"s’il vous plaît","steam_id":76561197960467762,"connected_time":697000000000,"state":"active","ping":76},{"user_id":56,"name":"-15 Social Credit","steam_id":76561199013107775,"connected_time":2173000000000,"state":"active","ping":64},{"user_id":75,"name":"pljuga","steam_id":76561198001174470,"connected_time":747000000000,"state":"active","ping":65},{"user_id":78,"name":"Tyra","steam_id":76561198043739064,"connected_time":675000000000,"state":"active","ping":68},{"user_id":59,"name":"Hedge Knight","steam_id":76561198989449047,"connected_time":1940000000000,"state":"active","ping":117},{"user_id":53,"name":"Irbynx","steam_id":76561197980421195,"connected_time":2324000000000,"state":"active","ping":86}]},{"server_id":110,"name":"Uncletopia | Frankfurt | 2 | All Maps","name_short":"frk-2","host":"frk-1.de.uncletopia.com","port":27025,"enabled":true,"region":"eu","cc":"de","latitude":50.110924,"longitude":8.682127,"reserved":0,"last_update":"0001-01-01T00:00:00Z","name_a2s":"Uncletopia | Frankfurt | 2 | All Maps","protocol":17,"map":"pl_pier","folder":"tf","game":"Team Fortress","app_id":440,"player_count":5,"max_players":24,"Bots":0,"server_type":"Dedicated","server_os":"Linux","password":true,"vac":true,"version":"7757534","steam_id":85568392924469990,"keywords":["nocrits","nodmgspread","payload","uncletopia"],"game_id":440,"stv_port":27026,"stv_name":"Uncletopia | Frankfurt | 2 | All Maps | STV","players":[{"user_id":4,"name":"Bob Sacamano","steam_id":76561198085610701,"connected_time":991000000000,"state":"active","ping":91},{"user_id":5,"name":"Shi 死","steam_id":76561199214163032,"connected_time":894000000000,"state":"active","ping":80},{"user_id":6,"name":"Itai","steam_id":76561198804555329,"connected_time":853000000000,"state":"active","ping":101},{"user_id":7,"name":"quabens","steam_id":76561198277858041,"connected_time":553000000000,"state":"active","ping":89},{"user_id":8,"name":"strideΔ","steam_id":76561199007826093,"connected_time":51000000000,"state":"active","ping":76}]},{"server_id":308,"name":"Uncletopia | Frankfurt | 3 | All Maps","name_short":"frk-3","host":"frk-1.de.uncletopia.com","port":27035,"enabled":true,"region":"eu","cc":"de","latitude":50.110924,"longitude":8.682127,"reserved":0,"last_update":"0001-01-01T00:00:00Z","name_a2s":"Uncletopia | Frankfurt | 3 | All Maps","protocol":17,"map":"pl_swiftwater_final1","folder":"tf","game":"Team Fortress","app_id":440,"player_count":0,"max_players":24,"Bots":0,"server_type":"Dedicated","server_os":"Linux","password":true,"vac":true,"version":"7757534","steam_id":85568392924504274,"keywords":["nocrits","nodmgspread","payload","uncletopia"],"game_id":440,"stv_port":27036,"stv_name":"Uncletopia | Frankfurt | 3 | All Maps | STV","players":null},{"server_id":309,"name":"Uncletopia | Frankfurt | 4 | All Maps","name_short":"frk-4","host":"frk-1.de.uncletopia.com","port":27045,"enabled":true,"region":"eu","cc":"de","latitude":50.110924,"longitude":8.682127,"reserved":0,"last_update":"0001-01-01T00:00:00Z","name_a2s":"Uncletopia | Frankfurt | 4 | All Maps","protocol":17,"map":"koth_viaduct","folder":"tf","game":"Team Fortress","app_id":440,"player_count":0,"max_players":24,"Bots":0,"server_type":"Dedicated","server_os":"Linux","password":true,"vac":true,"version":"7757534","steam_id":85568392924504275,"keywords":["cp","nocrits","nodmgspread","uncletopia"],"game_id":440,"stv_port":27046,"stv_name":"Uncletopia | Frankfurt | 4 | All Maps | STV","players":null},{"server_id":310,"name":"Uncletopia | Frankfurt | 5 | All Maps","name_short":"frk-5","host":"frk-1.de.uncletopia.com","port":27055,"enabled":true,"region":"eu","cc":"de","latitude":50.110924,"longitude":8.682127,"reserved":0,"last_update":"0001-01-01T00:00:00Z","name_a2s":"Uncletopia | Frankfurt | 5 | All Maps","protocol":17,"map":"koth_lakeside_final","folder":"tf","game":"Team Fortress","app_id":440,"player_count":0,"max_players":24,"Bots":0,"server_type":"Dedicated","server_os":"Linux","password":true,"vac":true,"version":"7757534","steam_id":85568392924504277,"keywords":["cp","nocrits","nodmgspread","uncletopia"],"game_id":440,"stv_port":27056,"stv_name":"Uncletopia | Frankfurt | 5 | All Maps | STV","players":null},{"server_id":311,"name":"Uncletopia | Frankfurt | 6 | All Maps","name_short":"frk-6","host":"frk-1.de.uncletopia.com","port":27065,"enabled":true,"region":"eu","cc":"de","latitude":50.110924,"longitude":8.682127,"reserved":0,"last_update":"0001-01-01T00:00:00Z","name_a2s":"Uncletopia | Frankfurt | 6 | All Maps","protocol":17,"map":"pl_frontier_final","folder":"tf","game":"Team Fortress","app_id":440,"player_count":0,"max_players":24,"Bots":0,"server_type":"Dedicated","server_os":"Linux","password":true,"vac":true,"version":"7757534","steam_id":85568392924504278,"keywords":["nocrits","nodmgspread","payload","uncletopia"],"game_id":440,"stv_port":27066,"stv_name":"Uncletopia | Frankfurt | 6 | All Maps | STV","players":null},{"server_id":23,"name":"Uncletopia | Frankfurt | 7 | Stopwatch Beta","name_short":"frk-7","host":"frk-1.de.uncletopia.com","port":27075,"enabled":true,"region":"eu","cc":"de","latitude":50.110924,"longitude":8.682127,"reserved":0,"last_update":"0001-01-01T00:00:00Z","name_a2s":"Uncletopia | Frankfurt | 7 | Stopwatch Beta","protocol":17,"map":"cp_sunshine","folder":"tf","game":"Team Fortress","app_id":440,"player_count":0,"max_players":24,"Bots":0,"server_type":"Dedicated","server_os":"Linux","password":true,"vac":true,"version":"7757534","steam_id":85568392924742827,"keywords":["cp","nocrits","nodmgspread","uncletopia"],"game_id":440,"stv_port":27076,"stv_name":"Uncletopia | Frankfurt | 7 | Stopwatch Beta | STV","players":null},{"server_id":24,"name":"Uncletopia | Frankfurt | 8 | Community","name_short":"frk-8","host":"frk-1.de.uncletopia.com","port":27085,"enabled":true,"region":"eu","cc":"de","latitude":50.110924,"longitude":8.682127,"reserved":0,"last_update":"0001-01-01T00:00:00Z","name_a2s":"Uncletopia | Frankfurt | 8 | Community","protocol":17,"map":"koth_lakeside_final","folder":"tf","game":"Team Fortress","app_id":440,"player_count":0,"max_players":24,"Bots":0,"server_type":"Dedicated","server_os":"Linux","password":true,"vac":true,"version":"7757534","steam_id":85568392924742828,"keywords":["cp","nocrits","nodmgspread","uncletopia"],"game_id":440,"stv_port":27086,"stv_name":"Uncletopia | Frankfurt | 8 | Community | STV","players":null},{"server_id":202,"name":"Uncletopia | Hong Kong | 1 | All Maps","name_short":"hgk-1","host":"hgk-1.hk.uncletopia.com","port":27015,"enabled":true,"region":"asia","cc":"hk","latitude":22.302711,"longitude":114.177216,"reserved":0,"last_update":"0001-01-01T00:00:00Z","name_a2s":"Uncletopia | Hong Kong | 1 | All Maps","protocol":17,"map":"pl_borneo","folder":"tf","game":"Team Fortress","app_id":440,"player_count":24,"max_players":24,"Bots":0,"server_type":"Dedicated","server_os":"Linux","password":true,"vac":true,"version":"7757534","steam_id":85568392924494504,"keywords":["nocrits","nodmgspread","payload","uncletopia"],"game_id":440,"stv_port":27016,"stv_name":"Uncletopia | Hong Kong | 1 | All Maps | STV","players":[{"user_id":219,"name":"Slim3rs","steam_id":76561199088010585,"connected_time":2167000000000,"state":"active","ping":163},{"user_id":211,"name":"P","steam_id":76561198304514505,"connected_time":2421000000000,"state":"active","ping":75},{"user_id":228,"name":"shego","steam_id":76561198109141608,"connected_time":1100000000000,"state":"active","ping":86},{"user_id":182,"name":"帕","steam_id":76561198439343999,"connected_time":5038000000000,"state":"active","ping":77},{"user_id":222,"name":"trillionaire grindset sigma","steam_id":76561198160089663,"connected_time":2066000000000,"state":"active","ping":76},{"user_id":241,"name":"AmaiToxic(I drew FemPyro tits)","steam_id":76561199122491157,"connected_time":210000000000,"state":"active","ping":134},{"user_id":210,"name":"Monday","steam_id":76561198829584056,"connected_time":2434000000000,"state":"active","ping":45},{"user_id":223,"name":"ConHoshi","steam_id":76561199387718733,"connected_time":2052000000000,"state":"active","ping":81},{"user_id":170,"name":"7853","steam_id":76561199390507975,"connected_time":5761000000000,"state":"active","ping":53},{"user_id":188,"name":"Michael Scott","steam_id":76561198023082794,"connected_time":4659000000000,"state":"active","ping":48},{"user_id":152,"name":"Meru","steam_id":76561198405734851,"connected_time":8758000000000,"state":"active","ping":170},{"user_id":232,"name":"17","steam_id":76561198241530712,"connected_time":1028000000000,"state":"active","ping":54},{"user_id":244,"name":"chlorine poisoning","steam_id":76561199146847474,"connected_time":69000000000,"state":"active","ping":51},{"user_id":243,"name":"MongGoyo63","steam_id":76561198349540834,"connected_time":105000000000,"state":"active","ping":85},{"user_id":239,"name":"General_Goat","steam_id":76561199085601059,"connected_time":395000000000,"state":"active","ping":39},{"user_id":236,"name":"Giyu","steam_id":76561198299150410,"connected_time":758000000000,"state":"active","ping":71},{"user_id":245,"name":"malas solat","steam_id":76561198154470283,"connected_time":48000000000,"state":"active","ping":89},{"user_id":231,"name":"Nonexistent","steam_id":76561198980563251,"connected_time":1086000000000,"state":"active","ping":81},{"user_id":225,"name":"Milk❤","steam_id":76561198163911560,"connected_time":1884000000000,"state":"active","ping":137},{"user_id":208,"name":"David Keithson","steam_id":76561199279393636,"connected_time":2730000000000,"state":"active","ping":70},{"user_id":234,"name":"A Toilet","steam_id":76561198148278657,"connected_time":998000000000,"state":"active","ping":152},{"user_id":204,"name":"Light Rainbow","steam_id":76561198118966673,"connected_time":3162000000000,"state":"active","ping":38},{"user_id":237,"name":"SandMann","steam_id":76561198884765747,"connected_time":556000000000,"state":"active","ping":137},{"user_id":230,"name":"Puddin","steam_id":76561198140052918,"connected_time":1097000000000,"state":"active","ping":90}]},{"server_id":1,"name":"Uncletopia | Los Angeles | 1 | All Maps","name_short":"lax-1","host":"lax-1.us.uncletopia.com","port":27015,"enabled":true,"region":"us-west","cc":"us","latitude":33.94279,"longitude":-118.41004,"reserved":0,"last_update":"0001-01-01T00:00:00Z","name_a2s":"Uncletopia | Los Angeles | 1 | All Maps","protocol":17,"map":"plr_hightower","folder":"tf","game":"Team Fortress","app_id":440,"player_count":0,"max_players":24,"Bots":0,"server_type":"Dedicated","server_os":"Linux","password":true,"vac":true,"version":"7757534","steam_id":85568392924469991,"keywords":["nocrits","nodmgspread","payload","uncletopia"],"game_id":440,"stv_port":27016,"stv_name":"Uncletopia | Los Angeles | 1 | All Maps | STV","players":null},{"server_id":112,"name":"Uncletopia | Los Angeles | 2 | All Maps","name_short":"lax-2","host":"lax-1.us.uncletopia.com","port":27025,"enabled":true,"region":"us-west","cc":"us","latitude":33.94279,"longitude":-118.41004,"reserved":0,"last_update":"0001-01-01T00:00:00Z","name_a2s":"Uncletopia | Los Angeles | 2 | All Maps","protocol":17,"map":"plr_hightower","folder":"tf","game":"Team Fortress","app_id":440,"player_count":22,"max_players":24,"Bots":0,"server_type":"Dedicated","server_os":"Linux","password":true,"vac":true,"version":"7757534","steam_id":85568392924469992,"keywords":["nocrits","nodmgspread","payload","uncletopia"],"game_id":440,"stv_port":27026,"stv_name":"Uncletopia | Los Angeles | 2 | All Maps | STV","players":[{"user_id":458,"name":"FI LO","steam_id":76561198976530881,"connected_time":453000000000,"state":"active","ping":44},{"user_id":449,"name":"schnof","steam_id":76561198301598124,"connected_time":1002000000000,"state":"active","ping":80},{"user_id":318,"name":"perc 10","steam_id":76561198116471653,"connected_time":8325000000000,"state":"active","ping":58},{"user_id":415,"name":"selvhat","steam_id":76561198114225509,"connected_time":3691000000000,"state":"active","ping":45},{"user_id":451,"name":"Zelumie","steam_id":76561198147335801,"connected_time":870000000000,"state":"active","ping":120},{"user_id":286,"name":"★CyberMario★","steam_id":76561198045798329,"connected_time":11075000000000,"state":"active","ping":73},{"user_id":459,"name":"netoc6","steam_id":76561199065312168,"connected_time":339000000000,"state":"active","ping":112},{"user_id":460,"name":"Qepop","steam_id":76561199051354040,"connected_time":10000000000,"state":"spawning","ping":72},{"user_id":444,"name":"[DEEP] offrow","steam_id":76561198123596791,"connected_time":1366000000000,"state":"active","ping":50},{"user_id":441,"name":"indyjacob","steam_id":76561198065158713,"connected_time":1459000000000,"state":"active","ping":77},{"user_id":443,"name":"citron, fruit of genesis","steam_id":76561198093353303,"connected_time":1414000000000,"state":"active","ping":39},{"user_id":409,"name":"Lucerne★Flower","steam_id":76561198264105406,"connected_time":4102000000000,"state":"active","ping":101},{"user_id":427,"name":"yeah","steam_id":76561198334059206,"connected_time":3007000000000,"state":"active","ping":59},{"user_id":455,"name":"cool beans","steam_id":76561198045758072,"connected_time":694000000000,"state":"active","ping":48},{"user_id":383,"name":"PortalMaster555 | trade.tf","steam_id":76561198097321251,"connected_time":4937000000000,"state":"active","ping":78},{"user_id":448,"name":"GamingJoker2012","steam_id":76561198247589168,"connected_time":1028000000000,"state":"active","ping":105},{"user_id":446,"name":"FriskyDemon","steam_id":76561198043684646,"connected_time":1190000000000,"state":"active","ping":67},{"user_id":433,"name":"Assassin","steam_id":76561198321410235,"connected_time":2757000000000,"state":"active","ping":33},{"user_id":457,"name":"bengineer","steam_id":76561198171912174,"connected_time":491000000000,"state":"active","ping":84},{"user_id":447,"name":"HOG RIDER","steam_id":76561198298589502,"connected_time":1148000000000,"state":"active","ping":50},{"user_id":407,"name":"beeble!","steam_id":76561198219538525,"connected_time":4136000000000,"state":"active","ping":86},{"user_id":260,"name":"MuscleWizard","steam_id":76561198113756539,"connected_time":13759000000000,"state":"active","ping":59}]},{"server_id":324,"name":"Uncletopia | Los Angeles | 3 | All Maps","name_short":"lax-3","host":"lax-1.us.uncletopia.com","port":27035,"enabled":true,"region":"us-west","cc":"us","latitude":33.94279,"longitude":-118.41004,"reserved":0,"last_update":"0001-01-01T00:00:00Z","name_a2s":"Uncletopia | Los Angeles | 3 | All Maps","protocol":17,"map":"pl_frontier_final","folder":"tf","game":"Team Fortress","app_id":440,"player_count":0,"max_players":24,"Bots":0,"server_type":"Dedicated","server_os":"Linux","password":true,"vac":true,"version":"7757534","steam_id":85568392924510198,"keywords":["nocrits","nodmgspread","payload","uncletopia"],"game_id":440,"stv_port":27036,"stv_name":"Uncletopia | Los Angeles | 3 | All Maps | STV","players":null},{"server_id":25,"name":"Uncletopia | Los Angeles | 4 | Stopwatch Beta","name_short":"lax-4","host":"lax-1.us.uncletopia.com","port":27045,"enabled":true,"region":"us-west","cc":"us","latitude":33.94279,"longitude":-118.41004,"reserved":0,"last_update":"0001-01-01T00:00:00Z","name_a2s":"Uncletopia | Los Angeles | 4 | Stopwatch Beta","protocol":17,"map":"cp_sunshine","folder":"tf","game":"Team Fortress","app_id":440,"player_count":0,"max_players":24,"Bots":0,"server_type":"Dedicated","server_os":"Linux","password":true,"vac":true,"version":"7757534","steam_id":85568392924510199,"keywords":["cp","nocrits","nodmgspread","uncletopia"],"game_id":440,"stv_port":27046,"stv_name":"Uncletopia | Los Angeles | 4 | Stopwatch Beta | STV","players":null},{"server_id":11,"name":"Uncletopia | London | 1 | All Maps","name_short":"lon-1","host":"lon-1.uk.uncletopia.com","port":27015,"enabled":true,"region":"eu","cc":"gb","latitude":51.509865,"longitude":-0.118092,"reserved":0,"last_update":"0001-01-01T00:00:00Z","name_a2s":"Uncletopia | London | 1 | All Maps","protocol":17,"map":"koth_highpass","folder":"tf","game":"Team Fortress","app_id":440,"player_count":0,"max_players":24,"Bots":0,"server_type":"Dedicated","server_os":"Linux","password":true,"vac":true,"version":"7757534","steam_id":85568392924367362,"keywords":["cp","nocrits","nodmgspread","uncletopia"],"game_id":440,"stv_port":27016,"stv_name":"Uncletopia | London | 1 | All Maps | STV","players":null},{"server_id":114,"name":"Uncletopia | London | 2 | All Maps","name_short":"lon-2","host":"lon-1.uk.uncletopia.com","port":27025,"enabled":true,"region":"eu","cc":"gb","latitude":51.509865,"longitude":-0.118092,"reserved":0,"last_update":"0001-01-01T00:00:00Z","name_a2s":"Uncletopia | London | 2 | All Maps","protocol":17,"map":"koth_viaduct","folder":"tf","game":"Team Fortress","app_id":440,"player_count":0,"max_players":24,"Bots":0,"server_type":"Dedicated","server_os":"Linux","password":true,"vac":true,"version":"7757534","steam_id":85568392924470941,"keywords":["cp","nocrits","nodmgspread","uncletopia"],"game_id":440,"stv_port":27026,"stv_name":"Uncletopia | London | 2 | All Maps | STV","players":null},{"server_id":320,"name":"Uncletopia | London | 3 | All Maps","name_short":"lon-3","host":"lon-1.uk.uncletopia.com","port":27035,"enabled":true,"region":"eu","cc":"gb","latitude":51.509865,"longitude":-0.118092,"reserved":0,"last_update":"0001-01-01T00:00:00Z","name_a2s":"Uncletopia | London | 3 | All Maps","protocol":17,"map":"cp_dustbowl","folder":"tf","game":"Team Fortress","app_id":440,"player_count":0,"max_players":24,"Bots":0,"server_type":"Dedicated","server_os":"Linux","password":true,"vac":true,"version":"7757534","steam_id":85568392924510192,"keywords":["cp","nocrits","nodmgspread","uncletopia"],"game_id":440,"stv_port":27036,"stv_name":"Uncletopia | London | 3 | All Maps | STV","players":null},{"server_id":321,"name":"Uncletopia | London | 4 | All Maps","name_short":"lon-4","host":"lon-1.uk.uncletopia.com","port":27045,"enabled":true,"region":"eu","cc":"gb","latitude":51.509865,"longitude":-0.118092,"reserved":0,"last_update":"0001-01-01T00:00:00Z","name_a2s":"Uncletopia | London | 4 | All Maps","protocol":17,"map":"koth_highpass","folder":"tf","game":"Team Fortress","app_id":440,"player_count":0,"max_players":24,"Bots":0,"server_type":"Dedicated","server_os":"Linux","password":true,"vac":true,"version":"7757534","steam_id":85568392924510193,"keywords":["cp","nocrits","nodmgspread","uncletopia"],"game_id":440,"stv_port":27046,"stv_name":"Uncletopia | London | 4 | All Maps | STV","players":null},{"server_id":21,"name":"Uncletopia | London | 5 | All Maps","name_short":"lon-5","host":"lon-1.uk.uncletopia.com","port":27055,"enabled":true,"region":"eu","cc":"gb","latitude":51.509865,"longitude":-0.118092,"reserved":0,"last_update":"0001-01-01T00:00:00Z","name_a2s":"Uncletopia | London | 5 | All Maps","protocol":17,"map":"cp_altitude","folder":"tf","game":"Team Fortress","app_id":440,"player_count":0,"max_players":24,"Bots":0,"server_type":"Dedicated","server_os":"Linux","password":true,"vac":true,"version":"7757534","steam_id":85568392924742829,"keywords":["cp","nocrits","nodmgspread","uncletopia"],"game_id":440,"stv_port":27056,"stv_name":"Uncletopia | London | 5 | All Maps | STV","players":null},{"server_id":22,"name":"Uncletopia | London | 6 | All Maps","name_short":"lon-6","host":"lon-1.uk.uncletopia.com","port":27065,"enabled":true,"region":"eu","cc":"gb","latitude":51.509865,"longitude":-0.118092,"reserved":0,"last_update":"0001-01-01T00:00:00Z","name_a2s":"Uncletopia | London | 6 | All Maps","protocol":17,"map":"pl_pier","folder":"tf","game":"Team Fortress","app_id":440,"player_count":0,"max_players":24,"Bots":0,"server_type":"Dedicated","server_os":"Linux","password":true,"vac":true,"version":"7757534","steam_id":85568392924742830,"keywords":["nocrits","nodmgspread","payload","uncletopia"],"game_id":440,"stv_port":27066,"stv_name":"Uncletopia | London | 6 | All Maps | STV","players":null},{"server_id":40,"name":"Uncletopia | London | 7 | No Payload","name_short":"lon-7","host":"lon-1.uk.uncletopia.com","port":27075,"enabled":true,"region":"eu","cc":"gb","latitude":51.509865,"longitude":-0.118092,"reserved":0,"last_update":"0001-01-01T00:00:00Z","name_a2s":"Uncletopia | London | 7 | No Payload","protocol":17,"map":"pl_badwater","folder":"tf","game":"Team Fortress","app_id":440,"player_count":0,"max_players":24,"Bots":0,"server_type":"Dedicated","server_os":"Linux","password":true,"vac":true,"version":"7757534","steam_id":85568392924964314,"keywords":["nocrits","nodmgspread","payload","uncletopia"],"game_id":440,"stv_port":27076,"stv_name":"Uncletopia | London | 7 | No Payload | STV","players":null},{"server_id":41,"name":"Uncletopia | London | 8 | Community","name_short":"lon-8","host":"lon-1.uk.uncletopia.com","port":27085,"enabled":true,"region":"eu","cc":"gb","latitude":51.509865,"longitude":-0.118092,"reserved":0,"last_update":"0001-01-01T00:00:00Z","name_a2s":"Uncletopia | London | 8 | Community","protocol":17,"map":"pl_barnblitz","folder":"tf","game":"Team Fortress","app_id":440,"player_count":0,"max_players":24,"Bots":0,"server_type":"Dedicated","server_os":"Linux","password":true,"vac":true,"version":"7757534","steam_id":85568392924964315,"keywords":["nocrits","nodmgspread","payload","uncletopia"],"game_id":440,"stv_port":27086,"stv_name":"Uncletopia | London | 8 | Community | STV","players":null},{"server_id":300,"name":"Uncletopia | Montréal | 1 | All Maps","name_short":"mtl-1","host":"mtl-1.ca.uncletopia.com","port":27015,"enabled":true,"region":"us-east","cc":"ca","latitude":45.50889,"longitude":-73.56167,"reserved":0,"last_update":"0001-01-01T00:00:00Z","name_a2s":"Uncletopia | Montréal | 1 | All Maps","protocol":17,"map":"koth_highpass","folder":"tf","game":"Team Fortress","app_id":440,"player_count":0,"max_players":24,"Bots":0,"server_type":"Dedicated","server_os":"Linux","password":true,"vac":true,"version":"7757534","steam_id":85568392924500087,"keywords":["cp","nocrits","nodmgspread","uncletopia"],"game_id":440,"stv_port":27016,"stv_name":"Uncletopia | Montréal | 1 | All Maps | STV","players":null},{"server_id":301,"name":"Uncletopia | Montréal | 2 | All Maps","name_short":"mtl-2","host":"mtl-1.ca.uncletopia.com","port":27025,"enabled":true,"region":"us-east","cc":"ca","latitude":45.50889,"longitude":-73.56167,"reserved":0,"last_update":"0001-01-01T00:00:00Z","name_a2s":"Uncletopia | Montréal | 2 | All Maps","protocol":17,"map":"cp_snakewater_final1","folder":"tf","game":"Team Fortress","app_id":440,"player_count":0,"max_players":24,"Bots":0,"server_type":"Dedicated","server_os":"Linux","password":true,"vac":true,"version":"7757534","steam_id":85568392924500088,"keywords":["cp","nocrits","nodmgspread","uncletopia"],"game_id":440,"stv_port":27026,"stv_name":"Uncletopia | Montréal | 2 | All Maps | STV","players":null},{"server_id":302,"name":"Uncletopia | Montréal | 3 | All Maps","name_short":"mtl-3","host":"mtl-1.ca.uncletopia.com","port":27035,"enabled":true,"region":"us-east","cc":"ca","latitude":45.50889,"longitude":-73.56167,"reserved":0,"last_update":"0001-01-01T00:00:00Z","name_a2s":"Uncletopia | Montréal | 3 | All Maps","protocol":17,"map":"pl_pier","folder":"tf","game":"Team Fortress","app_id":440,"player_count":0,"max_players":24,"Bots":0,"server_type":"Dedicated","server_os":"Linux","password":true,"vac":true,"version":"7757534","steam_id":85568392924500089,"keywords":["nocrits","nodmgspread","payload","uncletopia"],"game_id":440,"stv_port":27036,"stv_name":"Uncletopia | Montréal | 3 | All Maps | STV","players":null},{"server_id":303,"name":"Uncletopia | Montréal | 4 | No Payload","name_short":"mtl-4","host":"mtl-1.ca.uncletopia.com","port":27045,"enabled":true,"region":"us-east","cc":"ca","latitude":45.50889,"longitude":-73.56167,"reserved":0,"last_update":"0001-01-01T00:00:00Z","name_a2s":"Uncletopia | Montréal | 4 | No Payload","protocol":17,"map":"plr_nightfall_final","folder":"tf","game":"Team Fortress","app_id":440,"player_count":0,"max_players":24,"Bots":0,"server_type":"Dedicated","server_os":"Linux","password":true,"vac":true,"version":"7757534","steam_id":85568392924500090,"keywords":["nocrits","nodmgspread","payload","uncletopia"],"game_id":440,"stv_port":27046,"stv_name":"Uncletopia | Montréal | 4 | No Payload | STV","players":null},{"server_id":13,"name":"Uncletopia | New York City | 1 | All Maps","name_short":"nyc-1","host":"nyc-1.us.uncletopia.com","port":27015,"enabled":true,"region":"us-east","cc":"us","latitude":40.73061,"longitude":-73.93524,"reserved":0,"last_update":"0001-01-01T00:00:00Z","name_a2s":"Uncletopia | New York City | 1 | All Maps","protocol":17,"map":"pl_barnblitz","folder":"tf","game":"Team Fortress","app_id":440,"player_count":23,"max_players":24,"Bots":0,"server_type":"Dedicated","server_os":"Linux","password":true,"vac":true,"version":"7757534","steam_id":85568392924469993,"keywords":["nocrits","nodmgspread","payload","uncletopia"],"game_id":440,"stv_port":27016,"stv_name":"Uncletopia | New York City | 1 | All Maps | STV","players":[{"user_id":681,"name":"lemn","steam_id":76561198177305950,"connected_time":2310000000000,"state":"active","ping":60},{"user_id":682,"name":"blorp","steam_id":76561198054677742,"connected_time":2290000000000,"state":"active","ping":107},{"user_id":715,"name":"Yoshimelon","steam_id":76561198253054325,"connected_time":325000000000,"state":"active","ping":75},{"user_id":673,"name":"WorkerDave","steam_id":76561199261017507,"connected_time":2693000000000,"state":"active","ping":74},{"user_id":693,"name":"OrangeKing64","steam_id":76561198082903736,"connected_time":1172000000000,"state":"active","ping":42},{"user_id":694,"name":"Jelx_","steam_id":76561198087109541,"connected_time":1169000000000,"state":"active","ping":48},{"user_id":685,"name":"Hope","steam_id":76561199201900779,"connected_time":1762000000000,"state":"active","ping":63},{"user_id":695,"name":"Knower","steam_id":76561198036213722,"connected_time":1071000000000,"state":"active","ping":77},{"user_id":711,"name":"Thot Police","steam_id":76561198084299100,"connected_time":452000000000,"state":"active","ping":65},{"user_id":712,"name":"Shoku","steam_id":76561199092197288,"connected_time":431000000000,"state":"active","ping":57},{"user_id":700,"name":"Poptart From Mars","steam_id":76561197979930960,"connected_time":931000000000,"state":"active","ping":91},{"user_id":691,"name":"newport 100's","steam_id":76561198297514076,"connected_time":1282000000000,"state":"active","ping":69},{"user_id":661,"name":"CRAZY engineer","steam_id":76561198887937902,"connected_time":4343000000000,"state":"active","ping":53},{"user_id":713,"name":"Harold","steam_id":76561198057317770,"connected_time":424000000000,"state":"active","ping":103},{"user_id":718,"name":"Person","steam_id":76561198093244204,"connected_time":153000000000,"state":"active","ping":62},{"user_id":719,"name":"ogenez","steam_id":76561198252596234,"connected_time":84000000000,"state":"active","ping":60},{"user_id":716,"name":"Lucky7","steam_id":76561199084623109,"connected_time":275000000000,"state":"active","ping":121},{"user_id":704,"name":"craxyt","steam_id":76561198050192689,"connected_time":811000000000,"state":"active","ping":113},{"user_id":676,"name":"Chromix","steam_id":76561199383060168,"connected_time":2661000000000,"state":"active","ping":60},{"user_id":705,"name":"Arrythmia","steam_id":76561198093748123,"connected_time":781000000000,"state":"active","ping":119},{"user_id":706,"name":"dzcreeper","steam_id":76561198072250723,"connected_time":778000000000,"state":"active","ping":104},{"user_id":639,"name":"Mufalito","steam_id":76561198951889482,"connected_time":6647000000000,"state":"active","ping":140},{"user_id":603,"name":"zpalmtree","steam_id":76561198134307620,"connected_time":10937000000000,"state":"active","ping":70}]},{"server_id":14,"name":"Uncletopia | New York City | 2 | All Maps","name_short":"nyc-2","host":"nyc-1.us.uncletopia.com","port":27025,"enabled":true,"region":"us-east","cc":"us","latitude":40.73061,"longitude":-73.93524,"reserved":0,"last_update":"0001-01-01T00:00:00Z","name_a2s":"Uncletopia | New York City | 2 | All Maps","protocol":17,"map":"cp_dustbowl","folder":"tf","game":"Team Fortress","app_id":440,"player_count":0,"max_players":24,"Bots":0,"server_type":"Dedicated","server_os":"Linux","password":true,"vac":true,"version":"7757534","steam_id":85568392924469994,"keywords":["cp","nocrits","nodmgspread","uncletopia"],"game_id":440,"stv_port":27026,"stv_name":"Uncletopia | New York City | 2 | All Maps | STV","players":null},{"server_id":15,"name":"Uncletopia | New York City | 3 | Stopwatch Beta","name_short":"nyc-3","host":"nyc-1.us.uncletopia.com","port":27035,"enabled":true,"region":"us-east","cc":"us","latitude":40.73061,"longitude":-73.93524,"reserved":0,"last_update":"0001-01-01T00:00:00Z","name_a2s":"Uncletopia | New York City | 3 | Stopwatch Beta","protocol":17,"map":"workshop/koth_ramjam_rc1.ugc459778887","folder":"tf","game":"Team Fortress","app_id":440,"player_count":0,"max_players":24,"Bots":0,"server_type":"Dedicated","server_os":"Linux","password":true,"vac":true,"version":"7757534","steam_id":85568392924742820,"keywords":["cp","nocrits","nodmgspread","uncletopia"],"game_id":440,"stv_port":27036,"stv_name":"Uncletopia | New York City | 3 | Stopwatch Beta | STV","players":null},{"server_id":16,"name":"Uncletopia | New York City | 4 | Community","name_short":"nyc-4","host":"nyc-1.us.uncletopia.com","port":27045,"enabled":true,"region":"us-east","cc":"us","latitude":40.73061,"longitude":-73.93524,"reserved":0,"last_update":"0001-01-01T00:00:00Z","name_a2s":"Uncletopia | New York City | 4 | Community","protocol":17,"map":"workshop/cp_propaganda_b18.ugc1603743849","folder":"tf","game":"Team Fortress","app_id":440,"player_count":0,"max_players":24,"Bots":0,"server_type":"Dedicated","server_os":"Linux","password":true,"vac":true,"version":"7757534","steam_id":85568392924742821,"keywords":["cp","nocrits","nodmgspread","uncletopia"],"game_id":440,"stv_port":27046,"stv_name":"Uncletopia | New York City | 4 | Community | STV","players":null},{"server_id":142,"name":"Uncletopia | São Paulo | 1 | All Maps","name_short":"sao-1","host":"sao-1.br.uncletopia.com","port":27015,"enabled":true,"region":"sa","cc":"br","latitude":-23.533773,"longitude":-46.62529,"reserved":0,"last_update":"0001-01-01T00:00:00Z","name_a2s":"Uncletopia | São Paulo | 1 | All Maps","protocol":17,"map":"koth_viaduct","folder":"tf","game":"Team Fortress","app_id":440,"player_count":0,"max_players":24,"Bots":0,"server_type":"Dedicated","server_os":"Linux","password":true,"vac":true,"version":"7757534","steam_id":85568392924469996,"keywords":["cp","nocrits","nodmgspread","uncletopia"],"game_id":440,"stv_port":27016,"stv_name":"Uncletopia | São Paulo | 1 | All Maps | STV","players":null},{"server_id":143,"name":"Uncletopia | São Paulo | 2 | All Maps","name_short":"sao-2","host":"sao-2.br.uncletopia.com","port":27015,"enabled":true,"region":"sa","cc":"br","latitude":-23.533773,"longitude":-46.62529,"reserved":0,"last_update":"0001-01-01T00:00:00Z","name_a2s":"Uncletopia | São Paulo | 2 | All Maps","protocol":17,"map":"koth_viaduct","folder":"tf","game":"Team Fortress","app_id":440,"player_count":0,"max_players":24,"Bots":0,"server_type":"Dedicated","server_os":"Linux","password":true,"vac":true,"version":"7757534","steam_id":85568392924485349,"keywords":["cp","nocrits","nodmgspread","uncletopia"],"game_id":440,"stv_port":27016,"stv_name":"Uncletopia | São Paulo | 2 | All Maps | STV","players":null},{"server_id":7,"name":"Uncletopia | Seattle | 1 | All Maps","name_short":"sea-1","host":"sea-1.us.uncletopia.com","port":27015,"enabled":true,"region":"us-west","cc":"us","latitude":47.608013,"longitude":-122.33517,"reserved":0,"last_update":"0001-01-01T00:00:00Z","name_a2s":"Uncletopia | Seattle | 1 | All Maps","protocol":17,"map":"pl_swiftwater_final1","folder":"tf","game":"Team Fortress","app_id":440,"player_count":24,"max_players":24,"Bots":0,"server_type":"Dedicated","server_os":"Linux","password":true,"vac":true,"version":"7757534","steam_id":85568392924469997,"keywords":["nocrits","nodmgspread","payload","uncletopia"],"game_id":440,"stv_port":27016,"stv_name":"Uncletopia | Seattle | 1 | All Maps | STV","players":[{"user_id":759,"name":"Inflight","steam_id":76561198920049475,"connected_time":2246000000000,"state":"active","ping":111},{"user_id":779,"name":"Cloud","steam_id":76561198272454184,"connected_time":564000000000,"state":"active","ping":174},{"user_id":751,"name":"Nierin","steam_id":76561198227545132,"connected_time":3641000000000,"state":"active","ping":73},{"user_id":780,"name":"Thequirka","steam_id":76561198968058652,"connected_time":557000000000,"state":"active","ping":46},{"user_id":767,"name":"Willy Wonker","steam_id":76561198082944789,"connected_time":1997000000000,"state":"active","ping":74},{"user_id":785,"name":"UUUUU","steam_id":76561198069812149,"connected_time":175000000000,"state":"active","ping":67},{"user_id":750,"name":"ITSPICE","steam_id":76561198173274042,"connected_time":3881000000000,"state":"active","ping":59},{"user_id":778,"name":"cracky","steam_id":76561197971365444,"connected_time":646000000000,"state":"active","ping":53},{"user_id":756,"name":"Morago","steam_id":76561198131466634,"connected_time":2493000000000,"state":"active","ping":154},{"user_id":773,"name":"nelly modelo","steam_id":76561198044875206,"connected_time":1401000000000,"state":"active","ping":46},{"user_id":749,"name":"Fawful's Minion","steam_id":76561198090120779,"connected_time":3887000000000,"state":"active","ping":75},{"user_id":784,"name":"✪ Y V E S","steam_id":76561198299479796,"connected_time":226000000000,"state":"active","ping":74},{"user_id":777,"name":"Smeagolhoss","steam_id":76561198361514063,"connected_time":867000000000,"state":"active","ping":94},{"user_id":738,"name":"Ryuujin","steam_id":76561198000897946,"connected_time":5819000000000,"state":"active","ping":76},{"user_id":758,"name":"she skyler on my white till i y","steam_id":76561198074716338,"connected_time":2459000000000,"state":"active","ping":71},{"user_id":770,"name":"hart","steam_id":76561198046073848,"connected_time":1761000000000,"state":"active","ping":55},{"user_id":737,"name":"Viol3tOni","steam_id":76561198079208738,"connected_time":6073000000000,"state":"active","ping":57},{"user_id":742,"name":"Dunkle","steam_id":76561198041903573,"connected_time":5203000000000,"state":"active","ping":43},{"user_id":712,"name":"The Deders","steam_id":76561198002639950,"connected_time":7851000000000,"state":"active","ping":81},{"user_id":713,"name":"Bobbycoolpop","steam_id":76561198186392674,"connected_time":7843000000000,"state":"active","ping":71},{"user_id":772,"name":"mango cafe","steam_id":76561198142328193,"connected_time":1647000000000,"state":"active","ping":51},{"user_id":768,"name":"AzuriousAlex","steam_id":76561198158026405,"connected_time":1977000000000,"state":"active","ping":87},{"user_id":754,"name":"Smellbow McArmpit","steam_id":76561198109445099,"connected_time":2863000000000,"state":"active","ping":52},{"user_id":786,"name":"The local hobo","steam_id":76561198289650060,"connected_time":115000000000,"state":"active","ping":73}]},{"server_id":119,"name":"Uncletopia | Seattle | 2 | All Maps","name_short":"sea-2","host":"sea-1.us.uncletopia.com","port":27025,"enabled":true,"region":"us-west","cc":"us","latitude":47.608013,"longitude":-122.33517,"reserved":0,"last_update":"0001-01-01T00:00:00Z","name_a2s":"Uncletopia | Seattle | 2 | All Maps","protocol":17,"map":"pl_upward","folder":"tf","game":"Team Fortress","app_id":440,"player_count":24,"max_players":24,"Bots":0,"server_type":"Dedicated","server_os":"Linux","password":true,"vac":true,"version":"7757534","steam_id":85568392924469998,"keywords":["nocrits","nodmgspread","payload","uncletopia"],"game_id":440,"stv_port":27026,"stv_name":"Uncletopia | Seattle | 2 | All Maps | STV","players":[{"user_id":717,"name":"p9 delight","steam_id":76561197980280272,"connected_time":3859000000000,"state":"active","ping":44},{"user_id":714,"name":"dust | she/it","steam_id":76561198045218909,"connected_time":4468000000000,"state":"active","ping":38},{"user_id":667,"name":"Screamin' Eagle","steam_id":76561198090475891,"connected_time":8705000000000,"state":"active","ping":57},{"user_id":702,"name":"mooney","steam_id":76561199110622484,"connected_time":6020000000000,"state":"active","ping":62},{"user_id":715,"name":"smeasly","steam_id":76561198028718812,"connected_time":4109000000000,"state":"active","ping":40},{"user_id":753,"name":"Shadow.","steam_id":76561197965552409,"connected_time":242000000000,"state":"active","ping":72},{"user_id":735,"name":"Magic Enjoyer","steam_id":76561198258451026,"connected_time":1909000000000,"state":"active","ping":57},{"user_id":748,"name":"North","steam_id":76561199173696836,"connected_time":927000000000,"state":"active","ping":74},{"user_id":744,"name":"wtf (what the flop)","steam_id":76561198059437813,"connected_time":1039000000000,"state":"active","ping":59},{"user_id":703,"name":"a most nefarious gamer","steam_id":76561198169755734,"connected_time":5455000000000,"state":"active","ping":70},{"user_id":681,"name":"Florist","steam_id":76561198009121060,"connected_time":7855000000000,"state":"active","ping":45},{"user_id":751,"name":"azarjan","steam_id":76561198006140025,"connected_time":393000000000,"state":"active","ping":112},{"user_id":738,"name":"Resident Thrussy Lender","steam_id":76561198071790583,"connected_time":1800000000000,"state":"active","ping":106},{"user_id":739,"name":"Dongus","steam_id":76561197979056451,"connected_time":1789000000000,"state":"active","ping":48},{"user_id":740,"name":"moopmop","steam_id":76561198065224965,"connected_time":1725000000000,"state":"active","ping":71},{"user_id":747,"name":"Snoopy_dog","steam_id":76561198065339248,"connected_time":951000000000,"state":"active","ping":64},{"user_id":741,"name":"Chemically Dead","steam_id":76561199475507686,"connected_time":1707000000000,"state":"active","ping":145},{"user_id":752,"name":"ItsTanleyCrunch","steam_id":76561198037915942,"connected_time":368000000000,"state":"active","ping":120},{"user_id":720,"name":"IIrelia","steam_id":76561198384007672,"connected_time":3443000000000,"state":"active","ping":136},{"user_id":743,"name":"They/Them Rattussy","steam_id":76561198238186628,"connected_time":1117000000000,"state":"active","ping":81},{"user_id":750,"name":"thundah!","steam_id":76561199159928133,"connected_time":903000000000,"state":"active","ping":116},{"user_id":712,"name":"lili ezili","steam_id":76561199391478575,"connected_time":4499000000000,"state":"active","ping":91},{"user_id":728,"name":"oil","steam_id":76561198099980149,"connected_time":2743000000000,"state":"active","ping":77},{"user_id":680,"name":"p9 jorts (zoot)","steam_id":76561199041179985,"connected_time":7966000000000,"state":"active","ping":69}]},{"server_id":406,"name":"Uncletopia | Seattle | 3 | Stopwatch Beta","name_short":"sea-3","host":"sea-1.us.uncletopia.com","port":27035,"enabled":true,"region":"us-west","cc":"us","latitude":47.608013,"longitude":-122.33517,"reserved":0,"last_update":"0001-01-01T00:00:00Z","name_a2s":"Uncletopia | Seattle | 3 | Stopwatch Beta","protocol":17,"map":"workshop/pl_vigil_rc9.ugc1266210012","folder":"tf","game":"Team Fortress","app_id":440,"player_count":0,"max_players":24,"Bots":0,"server_type":"Dedicated","server_os":"Linux","password":true,"vac":true,"version":"7757534","steam_id":85568392924515217,"keywords":["nocrits","nodmgspread","payload","uncletopia"],"game_id":440,"stv_port":27036,"stv_name":"Uncletopia | Seattle | 3 | Stopwatch Beta | STV","players":null},{"server_id":17,"name":"Uncletopia | San Francisco | 1 | All Maps","name_short":"sfo-1","host":"sfo-1.us.uncletopia.com","port":27015,"enabled":true,"region":"us-west","cc":"us","latitude":37.77397,"longitude":-122.4313,"reserved":0,"last_update":"0001-01-01T00:00:00Z","name_a2s":"Uncletopia | San Francisco | 1 | All Maps","protocol":17,"map":"pl_upward","folder":"tf","game":"Team Fortress","app_id":440,"player_count":23,"max_players":24,"Bots":0,"server_type":"Dedicated","server_os":"Linux","password":true,"vac":true,"version":"7757534","steam_id":85568392924469999,"keywords":["nocrits","nodmgspread","payload","uncletopia"],"game_id":440,"stv_port":27016,"stv_name":"Uncletopia | San Francisco | 1 | All Maps | STV","players":[{"user_id":747,"name":"VIRGINIA!!","steam_id":76561198036066855,"connected_time":839000000000,"state":"active","ping":71},{"user_id":641,"name":"Bobbo","steam_id":76561198055689771,"connected_time":8957000000000,"state":"active","ping":77},{"user_id":719,"name":"Livin' Like Larry","steam_id":76561198313360974,"connected_time":3089000000000,"state":"active","ping":36},{"user_id":751,"name":"goldhed","steam_id":76561198051751133,"connected_time":474000000000,"state":"active","ping":66},{"user_id":731,"name":"smiley","steam_id":76561198240116276,"connected_time":1757000000000,"state":"active","ping":101},{"user_id":745,"name":"Rafl","steam_id":76561198055222756,"connected_time":857000000000,"state":"active","ping":86},{"user_id":738,"name":"SvicidalBug","steam_id":76561198221390504,"connected_time":1353000000000,"state":"active","ping":76},{"user_id":752,"name":"shart","steam_id":76561198039002838,"connected_time":459000000000,"state":"active","ping":124},{"user_id":711,"name":"Austin the Forecaster","steam_id":76561198141635855,"connected_time":3533000000000,"state":"active","ping":116},{"user_id":721,"name":"Franko","steam_id":76561198045554683,"connected_time":2995000000000,"state":"active","ping":92},{"user_id":722,"name":"Soninova","steam_id":76561198026229113,"connected_time":2974000000000,"state":"active","ping":90},{"user_id":723,"name":"Ghee Buttersnaps","steam_id":76561199225708271,"connected_time":2922000000000,"state":"active","ping":75},{"user_id":636,"name":"dandy","steam_id":76561197967362217,"connected_time":9081000000000,"state":"active","ping":58},{"user_id":637,"name":"Fred","steam_id":76561197983870604,"connected_time":9078000000000,"state":"active","ping":64},{"user_id":758,"name":"warrior","steam_id":76561198074500319,"connected_time":85000000000,"state":"active","ping":102},{"user_id":739,"name":"porksoda","steam_id":76561198021451377,"connected_time":1208000000000,"state":"active","ping":66},{"user_id":746,"name":"gNarNar","steam_id":76561197994505205,"connected_time":856000000000,"state":"active","ping":116},{"user_id":714,"name":"Thunderchief","steam_id":76561198022802780,"connected_time":3488000000000,"state":"active","ping":83},{"user_id":740,"name":"flop","steam_id":76561197989058876,"connected_time":1199000000000,"state":"active","ping":70},{"user_id":754,"name":"nella","steam_id":76561198079349621,"connected_time":430000000000,"state":"active","ping":58},{"user_id":742,"name":"raya","steam_id":76561198051504581,"connected_time":1177000000000,"state":"active","ping":86},{"user_id":755,"name":"fish","steam_id":76561198059510391,"connected_time":387000000000,"state":"active","ping":45},{"user_id":729,"name":"dP | I'm in a Wookie Suit","steam_id":76561198083307644,"connected_time":2379000000000,"state":"active","ping":80}]},{"server_id":18,"name":"Uncletopia | San Francisco | 2 | All Maps","name_short":"sfo-2","host":"sfo-1.us.uncletopia.com","port":27025,"enabled":true,"region":"us-west","cc":"us","latitude":37.77397,"longitude":-122.4313,"reserved":0,"last_update":"0001-01-01T00:00:00Z","name_a2s":"Uncletopia | San Francisco | 2 | All Maps","protocol":17,"map":"cp_snakewater_final1","folder":"tf","game":"Team Fortress","app_id":440,"player_count":0,"max_players":24,"Bots":0,"server_type":"Dedicated","server_os":"Linux","password":true,"vac":true,"version":"7757534","steam_id":85568392924470000,"keywords":["cp","nocrits","nodmgspread","uncletopia"],"game_id":440,"stv_port":27026,"stv_name":"Uncletopia | San Francisco | 2 | All Maps | STV","players":null},{"server_id":19,"name":"Uncletopia | San Francisco | 3 | Stopwatch Beta","name_short":"sfo-3","host":"sfo-1.us.uncletopia.com","port":27035,"enabled":true,"region":"us-west","cc":"us","latitude":37.77397,"longitude":-122.4313,"reserved":0,"last_update":"0001-01-01T00:00:00Z","name_a2s":"Uncletopia | San Francisco | 3 | Stopwatch Beta","protocol":17,"map":"workshop/pl_summercoast_rc8e.ugc1761528829","folder":"tf","game":"Team Fortress","app_id":440,"player_count":0,"max_players":24,"Bots":0,"server_type":"Dedicated","server_os":"Linux","password":true,"vac":true,"version":"7757534","steam_id":85568392924742824,"keywords":["nocrits","nodmgspread","payload","uncletopia"],"game_id":440,"stv_port":27036,"stv_name":"Uncletopia | San Francisco | 3 | Stopwatch Beta | STV","players":null},{"server_id":20,"name":"Uncletopia | San Francisco | 4 | Community","name_short":"sfo-4","host":"sfo-1.us.uncletopia.com","port":27045,"enabled":true,"region":"us-west","cc":"us","latitude":37.77397,"longitude":-122.4313,"reserved":0,"last_update":"0001-01-01T00:00:00Z","name_a2s":"Uncletopia | San Francisco | 4 | Community","protocol":17,"map":"workshop/cp_villa_b19.ugc2113052569","folder":"tf","game":"Team Fortress","app_id":440,"player_count":0,"max_players":24,"Bots":0,"server_type":"Dedicated","server_os":"Linux","password":true,"vac":true,"version":"7757534","steam_id":85568392924742826,"keywords":["cp","nocrits","nodmgspread","uncletopia"],"game_id":440,"stv_port":27046,"stv_name":"Uncletopia | San Francisco | 4 | Community | STV","players":null},{"server_id":141,"name":"Uncletopia | Sydney | 1 | All Maps","name_short":"syd-1","host":"syd-1.au.uncletopia.com","port":27015,"enabled":true,"region":"au","cc":"au","latitude":-33.865143,"longitude":151.2099,"reserved":0,"last_update":"0001-01-01T00:00:00Z","name_a2s":"Uncletopia | Sydney | 1 | All Maps","protocol":17,"map":"cp_mountainlab","folder":"tf","game":"Team Fortress","app_id":440,"player_count":24,"max_players":24,"Bots":0,"server_type":"Dedicated","server_os":"Linux","password":true,"vac":true,"version":"7757534","steam_id":85568392924470001,"keywords":["cp","nocrits","nodmgspread","uncletopia"],"game_id":440,"stv_port":27016,"stv_name":"Uncletopia | Sydney | 1 | All Maps | STV","players":[{"user_id":424,"name":"Crabloid","steam_id":76561199081848498,"connected_time":1509000000000,"state":"active","ping":61},{"user_id":427,"name":"Rat Pope","steam_id":76561199059450243,"connected_time":1241000000000,"state":"active","ping":54},{"user_id":391,"name":"The_Green_Jelly","steam_id":76561198381061704,"connected_time":3002000000000,"state":"active","ping":90},{"user_id":389,"name":"Tiger_Tan","steam_id":76561198221733844,"connected_time":3204000000000,"state":"active","ping":84},{"user_id":403,"name":"EpicGuy4227","steam_id":76561198094132328,"connected_time":2221000000000,"state":"active","ping":39},{"user_id":412,"name":"saudi ambassador messi","steam_id":76561198031293430,"connected_time":1939000000000,"state":"active","ping":79},{"user_id":382,"name":"Traveller","steam_id":76561199161637215,"connected_time":3447000000000,"state":"active","ping":96},{"user_id":398,"name":"elcanggoro","steam_id":76561199139343632,"connected_time":2621000000000,"state":"active","ping":137},{"user_id":438,"name":"Dupiter","steam_id":76561198108820767,"connected_time":376000000000,"state":"active","ping":45},{"user_id":384,"name":"Toucan Rizz","steam_id":76561198150760829,"connected_time":3376000000000,"state":"active","ping":44},{"user_id":425,"name":"Powersurge The Protogen","steam_id":76561198013117218,"connected_time":1349000000000,"state":"active","ping":52},{"user_id":385,"name":"BruceWillis235","steam_id":76561198884324029,"connected_time":3361000000000,"state":"active","ping":127},{"user_id":401,"name":"Shiki Eiki Yamaxanadu","steam_id":76561198095744048,"connected_time":2463000000000,"state":"active","ping":99},{"user_id":409,"name":"SUSHIMAN","steam_id":76561199089989428,"connected_time":2051000000000,"state":"active","ping":95},{"user_id":426,"name":"you have been deemed, Gilbert","steam_id":76561198301282416,"connected_time":1297000000000,"state":"active","ping":71},{"user_id":434,"name":"cat food xxl","steam_id":76561198042188786,"connected_time":737000000000,"state":"active","ping":48},{"user_id":408,"name":"IdkNameKindaHard","steam_id":76561198422091190,"connected_time":2078000000000,"state":"active","ping":80},{"user_id":419,"name":"Kumquat King","steam_id":76561199018139964,"connected_time":1745000000000,"state":"active","ping":88},{"user_id":420,"name":"Invidia","steam_id":76561198096251579,"connected_time":1730000000000,"state":"active","ping":48},{"user_id":407,"name":"5GNETWORK.whitehouse","steam_id":76561198836003115,"connected_time":2149000000000,"state":"active","ping":60},{"user_id":435,"name":"Slammer (She/Her)","steam_id":76561198322313582,"connected_time":700000000000,"state":"active","ping":122},{"user_id":430,"name":"Obeseus the Wide","steam_id":76561198139444147,"connected_time":1010000000000,"state":"active","ping":66},{"user_id":423,"name":"sabeuo","steam_id":76561198288259746,"connected_time":1620000000000,"state":"active","ping":55},{"user_id":436,"name":"Easel (any/all)","steam_id":76561198049213583,"connected_time":565000000000,"state":"active","ping":63}]},{"server_id":123,"name":"Uncletopia | Sydney | 2 | All Maps","name_short":"syd-2","host":"syd-1.au.uncletopia.com","port":27025,"enabled":true,"region":"au","cc":"au","latitude":-33.865143,"longitude":151.2099,"reserved":0,"last_update":"0001-01-01T00:00:00Z","name_a2s":"Uncletopia | Sydney | 2 | All Maps","protocol":17,"map":"cp_dustbowl","folder":"tf","game":"Team Fortress","app_id":440,"player_count":24,"max_players":24,"Bots":0,"server_type":"Dedicated","server_os":"Linux","password":true,"vac":true,"version":"7757534","steam_id":85568392924470002,"keywords":["cp","nocrits","nodmgspread","uncletopia"],"game_id":440,"stv_port":27026,"stv_name":"Uncletopia | Sydney | 2 | All Maps | STV","players":[{"user_id":131,"name":"Jodelkönig Franzl Lang","steam_id":76561198007667830,"connected_time":5421000000000,"state":"active","ping":66},{"user_id":146,"name":"Cofwee","steam_id":76561198072414195,"connected_time":3816000000000,"state":"active","ping":75},{"user_id":193,"name":"jone","steam_id":76561198285234796,"connected_time":785000000000,"state":"active","ping":76},{"user_id":195,"name":"Zoey","steam_id":76561198126153554,"connected_time":281000000000,"state":"active","ping":75},{"user_id":174,"name":"monocrumb","steam_id":76561199126588682,"connected_time":1833000000000,"state":"active","ping":61},{"user_id":189,"name":"tom :D","steam_id":76561198073393715,"connected_time":1017000000000,"state":"active","ping":107},{"user_id":196,"name":"noskills","steam_id":76561198044310968,"connected_time":268000000000,"state":"active","ping":45},{"user_id":176,"name":"michael","steam_id":76561198052848358,"connected_time":1723000000000,"state":"active","ping":56},{"user_id":184,"name":"Jellyfish_kurage","steam_id":76561198425670698,"connected_time":1337000000000,"state":"active","ping":54},{"user_id":172,"name":"Mudskip","steam_id":76561199141569721,"connected_time":2346000000000,"state":"active","ping":80},{"user_id":202,"name":"Jeffrey Epstein","steam_id":76561198076063067,"connected_time":51000000000,"state":"active","ping":231},{"user_id":177,"name":"dustmephit","steam_id":76561198314776696,"connected_time":1699000000000,"state":"active","ping":60},{"user_id":165,"name":"FIX","steam_id":76561197995157189,"connected_time":2917000000000,"state":"active","ping":49},{"user_id":170,"name":"Raypest","steam_id":76561197980678745,"connected_time":2636000000000,"state":"active","ping":34},{"user_id":201,"name":"Bigrichard","steam_id":76561198032092945,"connected_time":160000000000,"state":"active","ping":75},{"user_id":175,"name":"Dr. Hoppity","steam_id":76561197999715646,"connected_time":1812000000000,"state":"active","ping":63},{"user_id":179,"name":"bitch furry","steam_id":76561199057568663,"connected_time":1572000000000,"state":"active","ping":60},{"user_id":199,"name":"Pompadouraus","steam_id":76561198327530525,"connected_time":218000000000,"state":"active","ping":75},{"user_id":173,"name":"Glorious Cow","steam_id":76561198995999715,"connected_time":2339000000000,"state":"active","ping":69},{"user_id":194,"name":"Owlenstein™","steam_id":76561198093983826,"connected_time":306000000000,"state":"active","ping":117},{"user_id":186,"name":"TwilightJericho","steam_id":76561198044875117,"connected_time":1198000000000,"state":"active","ping":72},{"user_id":190,"name":"SkoKiE","steam_id":76561198283542986,"connected_time":985000000000,"state":"active","ping":65},{"user_id":187,"name":"JohnFlower","steam_id":76561197992124514,"connected_time":1182000000000,"state":"active","ping":65},{"user_id":191,"name":"Arpazha","steam_id":76561199072257230,"connected_time":971000000000,"state":"active","ping":148}]},{"server_id":395,"name":"Uncletopia | Sydney | 3 | All Maps","name_short":"syd-3","host":"syd-1.au.uncletopia.com","port":27035,"enabled":true,"region":"au","cc":"au","latitude":-33.865143,"longitude":151.2099,"reserved":0,"last_update":"0001-01-01T00:00:00Z","name_a2s":"Uncletopia | Sydney | 3 | All Maps","protocol":17,"map":"koth_highpass","folder":"tf","game":"Team Fortress","app_id":440,"player_count":0,"max_players":24,"Bots":0,"server_type":"Dedicated","server_os":"Linux","password":true,"vac":true,"version":"7757534","steam_id":85568392925194467,"keywords":["cp","nocrits","nodmgspread","uncletopia"],"game_id":440,"stv_port":27036,"stv_name":"Uncletopia | Sydney | 3 | All Maps | STV","players":null},{"server_id":396,"name":"Uncletopia | Sydney | 4 | All Maps","name_short":"syd-4","host":"syd-1.au.uncletopia.com","port":27045,"enabled":true,"region":"au","cc":"au","latitude":-33.865143,"longitude":151.2099,"reserved":0,"last_update":"0001-01-01T00:00:00Z","name_a2s":"Uncletopia | Sydney | 4 | All Maps","protocol":17,"map":"pl_barnblitz","folder":"tf","game":"Team Fortress","app_id":440,"player_count":0,"max_players":24,"Bots":0,"server_type":"Dedicated","server_os":"Linux","password":true,"vac":true,"version":"7757534","steam_id":85568392925397958,"keywords":["nocrits","nodmgspread","payload","uncletopia"],"game_id":440,"stv_port":27046,"stv_name":"Uncletopia | Sydney | 4 | All Maps | STV","players":null},{"server_id":58,"name":"Uncletopia | Sydney | 5 | Stopwatch Beta","name_short":"syd-5","host":"syd-1.au.uncletopia.com","port":27055,"enabled":true,"region":"au","cc":"au","latitude":-33.865143,"longitude":151.2099,"reserved":0,"last_update":"0001-01-01T00:00:00Z","name_a2s":"Uncletopia | Sydney | 5 | Stopwatch Beta","protocol":17,"map":"koth_cascade","folder":"tf","game":"Team Fortress","app_id":440,"player_count":0,"max_players":24,"Bots":0,"server_type":"Dedicated","server_os":"Linux","password":true,"vac":true,"version":"7757534","steam_id":85568392925397959,"keywords":["cp","nocrits","nodmgspread","uncletopia"],"game_id":440,"stv_port":27056,"stv_name":"Uncletopia | Sydney | 5 | Stopwatch Beta | STV","players":null},{"server_id":59,"name":"Uncletopia | Sydney | 6 | Community","name_short":"syd-6","host":"syd-1.au.uncletopia.com","port":27065,"enabled":true,"region":"au","cc":"au","latitude":-33.865143,"longitude":151.2099,"reserved":0,"last_update":"0001-01-01T00:00:00Z","name_a2s":"Uncletopia | Sydney | 6 | Community","protocol":17,"map":"workshop/cp_alloy_rc3.ugc592805587","folder":"tf","game":"Team Fortress","app_id":440,"player_count":0,"max_players":24,"Bots":0,"server_type":"Dedicated","server_os":"Linux","password":true,"vac":true,"version":"7757534","steam_id":85568392925397960,"keywords":["cp","nocrits","nodmgspread","uncletopia"],"game_id":440,"stv_port":27066,"stv_name":"Uncletopia | Sydney | 6 | Community | STV","players":null},{"server_id":49,"name":"Uncletopia | Warsaw | 1 | All Maps","name_short":"waw-1","host":"waw-1.pl.uncletopia.com","port":27015,"enabled":true,"region":"eu","cc":"pl","latitude":52.2297,"longitude":21.017532,"reserved":0,"last_update":"0001-01-01T00:00:00Z","name_a2s":"","protocol":0,"map":"","folder":"","game":"","app_id":0,"player_count":0,"max_players":0,"Bots":0,"server_type":"","server_os":"","password":false,"vac":false,"version":"","steam_id":0,"keywords":null,"game_id":0,"stv_port":0,"stv_name":"","players":null},{"server_id":50,"name":"Uncletopia | Warsaw | 2 | All Maps","name_short":"waw-2","host":"waw-1.pl.uncletopia.com","port":27025,"enabled":true,"region":"eu","cc":"pl","latitude":52.2297,"longitude":21.017532,"reserved":0,"last_update":"0001-01-01T00:00:00Z","name_a2s":"Uncletopia | Warsaw | 2 | All Maps","protocol":17,"map":"koth_viaduct","folder":"tf","game":"Team Fortress","app_id":440,"player_count":0,"max_players":24,"Bots":0,"server_type":"Dedicated","server_os":"Linux","password":true,"vac":true,"version":"7757534","steam_id":85568392925397851,"keywords":["cp","nocrits","nodmgspread","uncletopia"],"game_id":440,"stv_port":27026,"stv_name":"Uncletopia | Warsaw | 2 | All Maps | STV","players":null},{"server_id":51,"name":"Uncletopia | Warsaw | 3 | All Maps","name_short":"waw-3","host":"waw-1.pl.uncletopia.com","port":27035,"enabled":true,"region":"eu","cc":"pl","latitude":52.2297,"longitude":21.017532,"reserved":0,"last_update":"0001-01-01T00:00:00Z","name_a2s":"Uncletopia | Warsaw | 3 | All Maps","protocol":17,"map":"pl_swiftwater_final1","folder":"tf","game":"Team Fortress","app_id":440,"player_count":0,"max_players":24,"Bots":0,"server_type":"Dedicated","server_os":"Linux","password":true,"vac":true,"version":"7757534","steam_id":85568392925397852,"keywords":["nocrits","nodmgspread","payload","uncletopia"],"game_id":440,"stv_port":27036,"stv_name":"Uncletopia | Warsaw | 3 | All Maps | STV","players":null},{"server_id":52,"name":"Uncletopia | Warsaw | 4 | All Maps","name_short":"waw-4","host":"waw-1.pl.uncletopia.com","port":27045,"enabled":true,"region":"eu","cc":"pl","latitude":52.2297,"longitude":21.017532,"reserved":0,"last_update":"0001-01-01T00:00:00Z","name_a2s":"Uncletopia | Warsaw | 4 | All Maps","protocol":17,"map":"koth_lakeside_final","folder":"tf","game":"Team Fortress","app_id":440,"player_count":0,"max_players":24,"Bots":0,"server_type":"Dedicated","server_os":"Linux","password":true,"vac":true,"version":"7757534","steam_id":85568392925397853,"keywords":["cp","nocrits","nodmgspread","uncletopia"],"game_id":440,"stv_port":27046,"stv_name":"Uncletopia | Warsaw | 4 | All Maps | STV","players":null},{"server_id":53,"name":"Uncletopia | Warsaw | 5 | Stopwatch Beta","name_short":"waw-5","host":"waw-1.pl.uncletopia.com","port":27055,"enabled":true,"region":"eu","cc":"pl","latitude":52.2297,"longitude":21.017532,"reserved":0,"last_update":"0001-01-01T00:00:00Z","name_a2s":"Uncletopia | Warsaw | 5 | Stopwatch Beta","protocol":17,"map":"pl_borneo","folder":"tf","game":"Team Fortress","app_id":440,"player_count":0,"max_players":24,"Bots":0,"server_type":"Dedicated","server_os":"Linux","password":true,"vac":true,"version":"7757534","steam_id":85568392925397854,"keywords":["nocrits","nodmgspread","payload","uncletopia"],"game_id":440,"stv_port":27056,"stv_name":"Uncletopia | Warsaw | 5 | Stopwatch Beta | STV","players":null},{"server_id":54,"name":"Uncletopia | Warsaw | 6 | Community","name_short":"waw-6","host":"waw-1.pl.uncletopia.com","port":27065,"enabled":true,"region":"eu","cc":"pl","latitude":52.2297,"longitude":21.017532,"reserved":0,"last_update":"0001-01-01T00:00:00Z","name_a2s":"Uncletopia | Warsaw | 6 | Community","protocol":17,"map":"koth_lakeside_final","folder":"tf","game":"Team Fortress","app_id":440,"player_count":0,"max_players":24,"Bots":0,"server_type":"Dedicated","server_os":"Linux","password":true,"vac":true,"version":"7757534","steam_id":85568392925397856,"keywords":["cp","nocrits","nodmgspread","uncletopia"],"game_id":440,"stv_port":27066,"stv_name":"Uncletopia | Warsaw | 6 | Community | STV","players":null}]}