{"status":true,"message":"","result":[{"server_id":9,"name":"Uncletopia | Atlanta | 1 | All Maps","name_short":"atl-1","host":"atl-1.us.uncletopia.com","port":27015,"enabled":true,"region":"us-east","cc":"us","latitude":33.753746,"longitude":-84.38633,"reserved":0,"last_update":"0001-01-01T00:00:00Z","name_a2s":"Uncletopia | Atlanta | 1 | All Maps","protocol":17,"map":"pl_snowycoast","folder":"tf","game":"Team Fortress","app_id":440,"player_count":23,"max_players":24,"Bots":0,"server_type":"Dedicated","server_os":"Linux","password":true,"vac":true,"version":"7757534","steam_id":85568392924469982,"keywords":["nocrits","nodmgspread","payload","uncletopia"],"game_id":440,"stv_port":27016,"stv_name":"Uncletopia | Atlanta | 1 | All Maps | STV","players":[{"user_id":19,"name":"Rockhead","steam_id":76561197995196535,"connected_time":2803000000000,"state":"active","ping":69},{"user_id":20,"name":"Mask","steam_id":76561198877649728,"connected_time":2660000000000,"state":"active","ping":115},{"user_id":35,"name":"Mellon","steam_id":76561198092509893,"connected_time":964000000000,"state":"active","ping":60},{"user_id":47,"name":"Timur","steam_id":76561197989552257,"connected_time":573000000000,"state":"active","ping":72},{"user_id":25,"name":"Jujitsu82","steam_id":76561198445522556,"connected_time":1515000000000,"state":"active","ping":78},{"user_id":31,"name":"kaden14204","steam_id":76561199229531058,"connected_time":1170000000000,"state":"active","ping":177},{"user_id":28,"name":"davi_b11","steam_id":76561199071416407,"connected_time":1418000000000,"state":"active","ping":76},{"user_id":32,"name":"Allround2472","steam_id":76561199415662603,"connected_time":1052000000000,"state":"active","ping":65},{"user_id":63,"name":"Obamacare","steam_id":76561198018894553,"connected_time":170000000000,"state":"active","ping":89},{"user_id":43,"name":"frank","steam_id":76561198045436159,"connected_time":772000000000,"state":"active","ping":69},{"user_id":40,"name":"RabidTaco","steam_id":76561198023404808,"connected_time":847000000000,"state":"active","ping":60},{"user_id":37,"name":"No Credit","steam_id":76561198110245806,"connected_time":933000000000,"state":"active","ping":70},{"user_id":41,"name":"root beer enthusiast","steam_id":76561198124791670,"connected_time":840000000000,"state":"active","ping":32},{"user_id":44,"name":"UltimateSourceGamer2008","steam_id":76561199284296037,"connected_time":766000000000,"state":"active","ping":115},{"user_id":45,"name":"Unwavering Flavor","steam_id":76561198053306065,"connected_time":710000000000,"state":"active","ping":70},{"user_id":46,"name":"Female Gamer","steam_id":76561199366482682,"connected_time":677000000000,"state":"active","ping":122},{"user_id":64,"name":"A Gmod Virgin","steam_id":76561198420637458,"connected_time":158000000000,"state":"active","ping":101},{"user_id":49,"name":"Squid!","steam_id":76561198341361827,"connected_time":529000000000,"state":"active","ping":51},{"user_id":51,"name":"James","steam_id":76561198055687973,"connected_time":468000000000,"state":"active","ping":47},{"user_id":58,"name":"StarWither","steam_id":76561198383264295,"connected_time":355000000000,"state":"active","ping":113},{"user_id":54,"name":"Steve Jobs' cousin Hand Jobs","steam_id":76561198282766831,"connected_time":421000000000,"state":"active","ping":70},{"user_id":55,"name":"Emails","steam_id":76561198836919458,"connected_time":397000000000,"state":"active","ping":85},{"user_id":61,"name":"AC repair school","steam_id":76561198959389063,"connected_time":316000000000,"state":"active","ping":126}]},{"server_id":400,"name":"Uncletopia | Atlanta | 3 | Community","name_short":"atl-3","host":"atl-1.us.uncletopia.com","port":27035,"enabled":true,"region":"us-east","cc":"us","latitude":33.753746,"longitude":-84.38633,"reserved":0,"last_update":"0001-01-01T00:00:00Z","name_a2s":"Uncletopia | Atlanta | 3 | Community","protocol":17,"map":"workshop/koth_trenchfoot_b1a.ugc731436616","folder":"tf","game":"Team Fortress","app_id":440,"player_count":0,"max_players":32,"Bots":0,"server_type":"Dedicated","server_os":"Linux","password":true,"vac":true,"version":"7757534","steam_id":85568392924515187,"keywords":["cp","increased_maxplayers","nocrits","nodmgspread","uncletopia"],"game_id":440,"stv_port":27036,"stv_name":"Uncletopia | Atlanta | 3 | Community | STV","players":null},{"server_id":401,"name":"Uncletopia | Atlanta | 4 | No Payload","name_short":"atl-4","host":"atl-1.us.uncletopia.com","port":27045,"enabled":true,"region":"us-east","cc":"us","latitude":33.753746,"longitude":-84.38633,"reserved":0,"last_update":"0001-01-01T00:00:00Z","name_a2s":"","protocol":0,"map":"","folder":"","game":"","app_id":0,"player_count":0,"max_players":0,"Bots":0,"server_type":"","server_os":"","password":false,"vac":false,"version":"","steam_id":0,"keywords":null,"game_id":0,"stv_port":0,"stv_name":"","players":null},{"server_id":2,"name":"Uncletopia | Chicago | 1 | All Maps","name_short":"chi-1","host":"chi-1.us.uncletopia.com","port":27015,"enabled":true,"region":"us-central","cc":"us","latitude":41.881832,"longitude":-87.62318,"reserved":0,"last_update":"0001-01-01T00:00:00Z","name_a2s":"Uncletopia | Chicago | 1 | All Maps","protocol":17,"map":"cp_powerhouse","folder":"tf","game":"Team Fortress","app_id":440,"player_count":21,"max_players":24,"Bots":0,"server_type":"Dedicated","server_os":"Linux","password":true,"vac":true,"version":"7757534","steam_id":85568392924469984,"keywords":["cp","nocrits","nodmgspread","uncletopia"],"game_id":440,"stv_port":27016,"stv_name":"Uncletopia | Chicago | 1 | All Maps | STV","players":[{"user_id":111,"name":"gaming elliptical","steam_id":76561198013456569,"connected_time":3050000000000,"state":"active","ping":47},{"user_id":112,"name":"Comrade Generico","steam_id":76561198377574031,"connected_time":3023000000000,"state":"active","ping":55},{"user_id":137,"name":"Pixler544","steam_id":76561198240575132,"connected_time":1263000000000,"state":"active","ping":89},{"user_id":121,"name":"cavelife","steam_id":76561198091369097,"connected_time":2308000000000,"state":"active","ping":78},{"user_id":129,"name":"GREG","steam_id":76561198073021168,"connected_time":1308000000000,"state":"active","ping":63},{"user_id":144,"name":"no way","steam_id":76561198082496000,"connected_time":68000000000,"state":"active","ping":77},{"user_id":132,"name":"Squatchamo","steam_id":76561198012968239,"connected_time":1302000000000,"state":"active","ping":74},{"user_id":145,"name":"Cracky Baby","steam_id":76561198005720144,"connected_time":62000000000,"state":"active","ping":60},{"user_id":142,"name":"three three","steam_id":76561198177354155,"connected_time":150000000000,"state":"active","ping":45},{"user_id":143,"name":"lazyhead","steam_id":76561198044358804,"connected_time":96000000000,"state":"active","ping":46},{"user_id":141,"name":"DeadErebus","steam_id":76561198286117045,"connected_time":853000000000,"state":"active","ping":31},{"user_id":115,"name":"economy","steam_id":76561198221128984,"connected_time":2599000000000,"state":"active","ping":60},{"user_id":131,"name":"Kami","steam_id":76561199039249396,"connected_time":1306000000000,"state":"active","ping":85},{"user_id":119,"name":"the horse from schenectady?","steam_id":76561198142756572,"connected_time":2496000000000,"state":"active","ping":64},{"user_id":116,"name":"Uncle Meat","steam_id":76561198012534850,"connected_time":2598000000000,"state":"active","ping":67},{"user_id":87,"name":"mustahd cat","steam_id":76561197993509566,"connected_time":4708000000000,"state":"active","ping":61},{"user_id":139,"name":"Pinky","steam_id":76561199019483777,"connected_time":1141000000000,"state":"active","ping":124},{"user_id":124,"name":"kametro4","steam_id":76561198835430429,"connected_time":2059000000000,"state":"active","ping":86},{"user_id":134,"name":"Cerabond","steam_id":76561199230915333,"connected_time":1280000000000,"state":"active","ping":81},{"user_id":106,"name":"Motreir","steam_id":76561198151717946,"connected_time":3582000000000,"state":"active","ping":79},{"user_id":136,"name":"Scripted","steam_id":76561199217224551,"connected_time":1275000000000,"state":"active","ping":76}]},{"server_id":106,"name":"Uncletopia | Chicago | 2 | All Maps","name_short":"chi-2","host":"chi-1.us.uncletopia.com","port":27025,"enabled":true,"region":"us-central","cc":"us","latitude":41.881832,"longitude":-87.62318,"reserved":0,"last_update":"0001-01-01T00:00:00Z","name_a2s":"Uncletopia | Chicago | 2 | All Maps","protocol":17,"map":"pl_borneo","folder":"tf","game":"Team Fortress","app_id":440,"player_count":23,"max_players":24,"Bots":0,"server_type":"Dedicated","server_os":"Linux","password":true,"vac":true,"version":"7757534","steam_id":85568392924469985,"keywords":["nocrits","nodmgspread","payload","uncletopia"],"game_id":440,"stv_port":27026,"stv_name":"Uncletopia | Chicago | 2 | All Maps | STV","players":[{"user_id":270,"name":"HollowMan","steam_id":76561198967266827,"connected_time":4109000000000,"state":"active","ping":84},{"user_id":257,"name":"Sunvaar","steam_id":76561198852679851,"connected_time":4486000000000,"state":"active","ping":62},{"user_id":282,"name":"SparkySa","steam_id":76561198114889075,"connected_time":3682000000000,"state":"active","ping":67},{"user_id":291,"name":"Moz","steam_id":76561198027171160,"connected_time":2704000000000,"state":"active","ping":48},{"user_id":300,"name":"big slug","steam_id":76561198042154373,"connected_time":2414000000000,"state":"active","ping":73},{"user_id":322,"name":"Scoobert","steam_id":76561198255705632,"connected_time":84000000000,"state":"active","ping":61},{"user_id":272,"name":"SN-95 Mustang","steam_id":76561198873095688,"connected_time":4091000000000,"state":"active","ping":62},{"user_id":323,"name":"HollowPilot","steam_id":76561198351435851,"connected_time":68000000000,"state":"active","ping":90},{"user_id":317,"name":"Quansen","steam_id":76561198151594550,"connected_time":821000000000,"state":"active","ping":47},{"user_id":320,"name":"Sloppy John (Extra Sauce)","steam_id":76561198359703432,"connected_time":305000000000,"state":"active","ping":91},{"user_id":319,"name":"Lt. Birb","steam_id":76561199086146261,"connected_time":306000000000,"state":"active","ping":81},{"user_id":296,"name":"TonesMcGroans","steam_id":76561197996691606,"connected_time":2655000000000,"state":"active","ping":64},{"user_id":306,"name":"mikey | I'm Burning Bright!","steam_id":76561198985847893,"connected_time":1997000000000,"state":"active","ping":69},{"user_id":311,"name":"bird","steam_id":76561199144340440,"connected_time":1429000000000,"state":"active","ping":68},{"user_id":286,"name":"Green Icicle","steam_id":76561198069624529,"connected_time":3113000000000,"state":"active","ping":95},{"user_id":298,"name":"Fantastibad","steam_id":76561199087329262,"connected_time":2436000000000,"state":"active","ping":77},{"user_id":304,"name":"CuSO4","steam_id":76561199278147589,"connected_time":2055000000000,"state":"active","ping":71},{"user_id":280,"name":"SALAMANDER","steam_id":76561198048005186,"connected_time":3850000000000,"state":"active","ping":58},{"user_id":302,"name":"Carbuncle","steam_id":76561198983852058,"connected_time":2069000000000,"state":"active","ping":84},{"user_id":303,"name":"-W3E- grim10465","steam_id":76561198045698581,"connected_time":2059000000000,"state":"active","ping":45},{"user_id":314,"name":"BLU1 | Shame","steam_id":76561198100490994,"connected_time":1195000000000,"state":"active","ping":77},{"user_id":313,"name":"Rein","steam_id":76561198300340427,"connected_time":1207000000000,"state":"active","ping":63},{"user_id":321,"name":"Furry Saul Goodman","steam_id":76561198069580305,"connected_time":229000000000,"state":"active","ping":56}]},{"server_id":402,"name":"Uncletopia | Chicago | 3 | All Maps","name_short":"chi-3","host":"chi-1.us.uncletopia.com","port":27035,"enabled":true,"region":"us-central","cc":"us","latitude":41.881832,"longitude":-87.62318,"reserved":0,"last_update":"0001-01-01T00:00:00Z","name_a2s":"Uncletopia | Chicago | 3 | All Maps","protocol":17,"map":"koth_lakeside_final","folder":"tf","game":"Team Fortress","app_id":440,"player_count":0,"max_players":24,"Bots":0,"server_type":"Dedicated","server_os":"Linux","password":true,"vac":true,"version":"7757534","steam_id":85568392924515191,"keywords":["cp","nocrits","nodmgspread","uncletopia"],"game_id":440,"stv_port":27036,"stv_name":"Uncletopia | Chicago | 3 | All Maps | STV","players":null},{"server_id":403,"name":"Uncletopia | Chicago | 4 | All Maps","name_short":"chi-4","host":"chi-1.us.uncletopia.com","port":27045,"enabled":true,"region":"us-central","cc":"us","latitude":41.881832,"longitude":-87.62318,"reserved":0,"last_update":"0001-01-01T00:00:00Z","name_a2s":"Uncletopia | Chicago | 4 | All Maps","protocol":17,"map":"cp_altitude","folder":"tf","game":"Team Fortress","app_id":440,"player_count":23,"max_players":24,"Bots":0,"server_type":"Dedicated","server_os":"Linux","password":true,"vac":true,"version":"7757534","steam_id":85568392924515193,"keywords":["cp","nocrits","nodmgspread","uncletopia"],"game_id":440,"stv_port":27046,"stv_name":"Uncletopia | Chicago | 4 | All Maps | STV","players":[{"user_id":114,"name":"Default","steam_id":76561198980066859,"connected_time":77000000000,"state":"active","ping":142},{"user_id":81,"name":"nvm_","steam_id":76561198843128678,"connected_time":1818000000000,"state":"active","ping":46},{"user_id":105,"name":"caption cool","steam_id":76561197990612056,"connected_time":992000000000,"state":"active","ping":45},{"user_id":73,"name":"‚ù§‚ô°ÔΩ•ÔæüBubblesÔΩ•Ôæü‚ô°‚ù§","steam_id":76561198041057042,"connected_time":2050000000000,"state":"active","ping":69},{"user_id":108,"name":"Chromatic Bliss","steam_id":76561198252604816,"connected_time":245000000000,"state":"active","ping":73},{"user_id":58,"name":"Bucket Hat Trick","steam_id":76561198381785132,"connected_time":3193000000000,"state":"active","ping":94},{"user_id":109,"name":"lofileBOOYAH :)","steam_id":76561198083798918,"connected_time":164000000000,"state":"active","ping":61},{"user_id":110,"name":"Zamboni","steam_id":76561199084964927,"connected_time":161000000000,"state":"active","ping":70},{"user_id":111,"name":"NitroNick","steam_id":76561198045728022,"connected_time":151000000000,"state":"active","ping":85},{"user_id":98,"name":"6t26j","steam_id":76561198278282836,"connected_time":1116000000000,"state":"active","ping":48},{"user_id":106,"name":"Kyzer","steam_id":76561198048034600,"connected_time":991000000000,"state":"active","ping":74},{"user_id":112,"name":"‚ô• memegamer23123 ‚ô•","steam_id":76561198048478450,"connected_time":146000000000,"state":"active","ping":73},{"user_id":100,"name":"Big ol' Willy Gaming","steam_id":76561198048545731,"connected_time":1044000000000,"state":"active","ping":88},{"user_id":99,"name":"BeeMoe","steam_id":76561198002100697,"connected_time":1057000000000,"state":"active","ping":58},{"user_id":101,"name":"348 here","steam_id":76561197995110569,"connected_time":1039000000000,"state":"active","ping":54},{"user_id":102,"name":"SomeRandomPerson (f2p)","steam_id":76561198977045933,"connected_time":1038000000000,"state":"active","ping":101},{"user_id":37,"name":"Looneymunkey","steam_id":76561198414675183,"connected_time":4363000000000,"state":"active","ping":79},{"user_id":75,"name":"bash -lc ./asshat.sh","steam_id":76561198004584315,"connected_time":2049000000000,"state":"active","ping":75},{"user_id":27,"name":"Gotta get my ammo fix","steam_id":76561198039763676,"connected_time":4636000000000,"state":"active","ping":64},{"user_id":113,"name":"Meelo","steam_id":76561198128569927,"connected_time":142000000000,"state":"active","ping":86},{"user_id":96,"name":"drippy man","steam_id":76561199074936388,"connected_time":1237000000000,"state":"active","ping":85},{"user_id":115,"name":"shake","steam_id":76561199064204750,"connected_time":34000000000,"state":"active","ping":82},{"user_id":103,"name":"Nodspine","steam_id":76561198253579994,"connected_time":1030000000000,"state":"active","ping":134}]},{"server_id":36,"name":"Uncletopia | Chicago | 5 | All Maps","name_short":"chi-5","host":"chi-2.us.uncletopia.com","port":27015,"enabled":true,"region":"us-central","cc":"us","latitude":41.881832,"longitude":-87.62318,"reserved":0,"last_update":"0001-01-01T00:00:00Z","name_a2s":"Uncletopia | Chicago | 5 | All Maps","protocol":17,"map":"koth_cascade","folder":"tf","game":"Team Fortress","app_id":440,"player_count":2,"max_players":24,"Bots":0,"server_type":"Dedicated","server_os":"Linux","password":true,"vac":true,"version":"7757534","steam_id":85568392924866362,"keywords":["cp","nocrits","nodmgspread","uncletopia"],"game_id":440,"stv_port":27016,"stv_name":"Uncletopia | Chicago | 5 | All Maps | STV","players":[{"user_id":6,"name":"CJspellsfish","steam_id":76561198277342368,"connected_time":451000000000,"state":"active","ping":67},{"user_id":7,"name":"RobloxFearlessFace","steam_id":76561199443012579,"connected_time":242000000000,"state":"active","ping":61}]},{"server_id":37,"name":"Uncletopia | Chicago | 6 | All Maps","name_short":"chi-6","host":"chi-2.us.uncletopia.com","port":27025,"enabled":true,"region":"us-central","cc":"us","latitude":41.881832,"longitude":-87.62318,"reserved":0,"last_update":"0001-01-01T00:00:00Z","name_a2s":"Uncletopia | Chicago | 6 | All Maps","protocol":17,"map":"koth_cascade","folder":"tf","game":"Team Fortress","app_id":440,"player_count":0,"max_players":24,"Bots":0,"server_type":"Dedicated","server_os":"Linux","password":true,"vac":true,"version":"7757534","steam_id":85568392924866363,"keywords":["cp","nocrits","nodmgspread","uncletopia"],"game_id":440,"stv_port":27026,"stv_name":"Uncletopia | Chicago | 6 | All Maps | STV","players":null},{"server_id":38,"name":"Uncletopia | Chicago | 7 | Stopwatch Beta","name_short":"chi-7","host":"chi-2.us.uncletopia.com","port":27035,"enabled":true,"region":"us-central","cc":"us","latitude":41.881832,"longitude":-87.62318,"reserved":0,"last_update":"0001-01-01T00:00:00Z","name_a2s":"Uncletopia | Chicago | 7 | Stopwatch Beta","protocol":17,"map":"pl_upward","folder":"tf","game":"Team Fortress","app_id":440,"player_count":0,"max_players":24,"Bots":0,"server_type":"Dedicated","server_os":"Linux","password":true,"vac":true,"version":"7757534","steam_id":85568392924866364,"keywords":["nocrits","nodmgspread","payload","uncletopia"],"game_id":440,"stv_port":27036,"stv_name":"Uncletopia | Chicago | 7 | Stopwatch Beta | STV","players":null},{"server_id":39,"name":"Uncletopia | Chicago | 8 | Community","name_short":"chi-8","host":"chi-2.us.uncletopia.com","port":27045,"enabled":true,"region":"us-central","cc":"us","latitude":41.881832,"longitude":-87.62318,"reserved":0,"last_update":"0001-01-01T00:00:00Z","name_a2s":"Uncletopia | Chicago | 8 | Community","protocol":17,"map":"pl_barnblitz","folder":"tf","game":"Team Fortress","app_id":440,"player_count":0,"max_players":24,"Bots":0,"server_type":"Dedicated","server_os":"Linux","password":true,"vac":true,"version":"7757534","steam_id":85568392924866365,"keywords":["nocrits","nodmgspread","payload","uncletopia"],"game_id":440,"stv_port":27046,"stv_name":"Uncletopia | Chicago | 8 | Community | STV","players":null},{"server_id":8,"name":"Uncletopia | Dallas | 1 | All Maps","name_short":"dal-1","host":"dal-1.us.uncletopia.com","port":27015,"enabled":true,"region":"us-central","cc":"us","latitude":32.779167,"longitude":-96.80889,"reserved":0,"last_update":"0001-01-01T00:00:00Z","name_a2s":"Uncletopia | Dallas | 1 | All Maps","protocol":17,"map":"cp_dustbowl","folder":"tf","game":"Team Fortress","app_id":440,"player_count":24,"max_players":24,"Bots":0,"server_type":"Dedicated","server_os":"Linux","password":true,"vac":true,"version":"7757534","steam_id":85568392924469986,"keywords":["cp","nocrits","nodmgspread","uncletopia"],"game_id":440,"stv_port":27016,"stv_name":"Uncletopia | Dallas | 1 | All Maps | STV","players":[{"user_id":5,"name":"dicksnip","steam_id":76561198356515396,"connected_time":3680000000000,"state":"active","ping":57},{"user_id":6,"name":"The man who sold 2Fort","steam_id":76561199100003132,"connected_time":3422000000000,"state":"active","ping":166},{"user_id":7,"name":"alien3_buh_scene_.wmv","steam_id":76561198158851614,"connected_time":3264000000000,"state":"active","ping":44},{"user_id":35,"name":"epic","steam_id":76561198353171475,"connected_time":1793000000000,"state":"active","ping":83},{"user_id":9,"name":"Cole Moleson","steam_id":76561199441524738,"connected_time":2754000000000,"state":"active","ping":96},{"user_id":10,"name":"Sorrow.R","steam_id":76561198309957185,"connected_time":2746000000000,"state":"active","ping":69},{"user_id":11,"name":"tacofever","steam_id":76561198010966507,"connected_time":2594000000000,"state":"active","ping":73},{"user_id":47,"name":"Hong","steam_id":76561198317684125,"connected_time":1270000000000,"state":"active","ping":97},{"user_id":13,"name":"MrTweady","steam_id":76561198073352802,"connected_time":2520000000000,"state":"active","ping":170},{"user_id":62,"name":"Luke Ninja","steam_id":76561198068720199,"connected_time":486000000000,"state":"active","ping":79},{"user_id":18,"name":"Ninty","steam_id":76561199364725776,"connected_time":2338000000000,"state":"active","ping":92},{"user_id":41,"name":"DuckMann","steam_id":76561198197058638,"connected_time":1587000000000,"state":"active","ping":62},{"user_id":49,"name":"HarryjusttHarry","steam_id":76561198982810452,"connected_time":1179000000000,"state":"active","ping":105},{"user_id":21,"name":"Dr.Long","steam_id":76561198930316713,"connected_time":2148000000000,"state":"active","ping":87},{"user_id":55,"name":"AjProductions","steam_id":76561198217950125,"connected_time":603000000000,"state":"active","ping":111},{"user_id":59,"name":"Just Reni","steam_id":76561198065005979,"connected_time":553000000000,"state":"active","ping":92},{"user_id":52,"name":"Princess Peach","steam_id":76561198260272240,"connected_time":976000000000,"state":"active","ping":155},{"user_id":26,"name":"Part-Time Pybro","steam_id":76561198079508595,"connected_time":1920000000000,"state":"active","ping":99},{"user_id":33,"name":"Dr. Jal","steam_id":76561198308893736,"connected_time":1837000000000,"state":"active","ping":105},{"user_id":56,"name":"ZodiacThundaga","steam_id":76561199025117814,"connected_time":570000000000,"state":"active","ping":87},{"user_id":57,"name":"Rhutebeer","steam_id":76561198018302761,"connected_time":570000000000,"state":"active","ping":83},{"user_id":58,"name":"deech","steam_id":76561198066429444,"connected_time":562000000000,"state":"active","ping":90},{"user_id":60,"name":"IxMic88","steam_id":76561198018552479,"connected_time":520000000000,"state":"active","ping":60},{"user_id":61,"name":"Acro Banwagon","steam_id":76561198092451804,"connected_time":517000000000,"state":"active","ping":73}]},{"server_id":108,"name":"Uncletopia | Dallas | 2 | All Maps","name_short":"dal-2","host":"dal-1.us.uncletopia.com","port":27025,"enabled":true,"region":"us-central","cc":"us","latitude":32.779167,"longitude":-96.80889,"reserved":0,"last_update":"0001-01-01T00:00:00Z","name_a2s":"Uncletopia | Dallas | 2 | All Maps","protocol":17,"map":"pl_snowycoast","folder":"tf","game":"Team Fortress","app_id":440,"player_count":24,"max_players":24,"Bots":0,"server_type":"Dedicated","server_os":"Linux","password":true,"vac":true,"version":"7757534","steam_id":85568392924469988,"keywords":["nocrits","nodmgspread","payload","uncletopia"],"game_id":440,"stv_port":27026,"stv_name":"Uncletopia | Dallas | 2 | All Maps | STV","players":[{"user_id":188,"name":"Sup m8","steam_id":76561198081659121,"connected_time":1186000000000,"state":"active","ping":38},{"user_id":181,"name":"AdorableMew","steam_id":76561198186706405,"connected_time":1491000000000,"state":"active","ping":53},{"user_id":178,"name":"Crystallixed","steam_id":76561198072263515,"connected_time":1816000000000,"state":"active","ping":80},{"user_id":198,"name":"Mr.mage","steam_id":76561198879378530,"connected_time":443000000000,"state":"active","ping":73},{"user_id":63,"name":"rmbl","steam_id":76561198150137369,"connected_time":5788000000000,"state":"active","ping":80},{"user_id":192,"name":"LepoHum","steam_id":76561198383509659,"connected_time":1044000000000,"state":"active","ping":110},{"user_id":109,"name":"Reyloko","steam_id":76561198172480913,"connected_time":3601000000000,"state":"active","ping":74},{"user_id":183,"name":"Blender Cube (Captain_Geff)","steam_id":76561199073206872,"connected_time":1424000000000,"state":"active","ping":66},{"user_id":186,"name":"[CWBY] Scumbag","steam_id":76561198155618184,"connected_time":1221000000000,"state":"active","ping":85},{"user_id":185,"name":"BobSoup89","steam_id":76561198908566221,"connected_time":1369000000000,"state":"active","ping":43},{"user_id":156,"name":"Claydaddy","steam_id":76561198211153109,"connected_time":2639000000000,"state":"active","ping":93},{"user_id":92,"name":"motov","steam_id":76561197990238902,"connected_time":4043000000000,"state":"active","ping":94},{"user_id":197,"name":"pleasehelpidonthavefingers","steam_id":76561199367935846,"connected_time":662000000000,"state":"active","ping":72},{"user_id":189,"name":"nerb","steam_id":76561198125255196,"connected_time":1148000000000,"state":"active","ping":84},{"user_id":195,"name":"carrot cake","steam_id":76561198055174915,"connected_time":772000000000,"state":"active","ping":88},{"user_id":90,"name":"Dirt Man Dan","steam_id":76561198071586519,"connected_time":4101000000000,"state":"active","ping":86},{"user_id":193,"name":"batscovethe2nd","steam_id":76561199109923603,"connected_time":996000000000,"state":"active","ping":102},{"user_id":190,"name":"trans rights","steam_id":76561198066270313,"connected_time":1110000000000,"state":"active","ping":98},{"user_id":191,"name":"Duncle Frazzle","steam_id":76561198145596626,"connected_time":1085000000000,"state":"active","ping":102},{"user_id":177,"name":"a sour femme","steam_id":76561198323491654,"connected_time":1986000000000,"state":"active","ping":45},{"user_id":179,"name":"Sone","steam_id":76561198069601032,"connected_time":1770000000000,"state":"active","ping":100},{"user_id":199,"name":"M√©xico","steam_id":76561198238059280,"connected_time":249000000000,"state":"active","ping":92},{"user_id":194,"name":"ilMoose","steam_id":76561198827275420,"connected_time":986000000000,"state":"active","ping":108},{"user_id":196,"name":"purply-ghost","steam_id":76561199204779865,"connected_time":737000000000,"state":"active","ping":43}]},{"server_id":5,"name":"Uncletopia | Frankfurt | 1 | All Maps","name_short":"frk-1","host":"frk-1.de.uncletopia.com","port":27015,"enabled":true,"region":"eu","cc":"de","latitude":50.110924,"longitude":8.682127,"reserved":0,"last_update":"0001-01-01T00:00:00Z","name_a2s":"Uncletopia | Frankfurt | 1 | All Maps","protocol":17,"map":"pl_frontier_final","folder":"tf","game":"Team Fortress","app_id":440,"player_count":24,"max_players":24,"Bots":0,"server_type":"Dedicated","server_os":"Linux","password":true,"vac":true,"version":"7757534","steam_id":85568392924469989,"keywords":["nocrits","nodmgspread","payload","uncletopia"],"game_id":440,"stv_port":27016,"stv_name":"Uncletopia | Frankfurt | 1 | All Maps | STV","players":[{"user_id":480,"name":"Giovine Killjoy","steam_id":76561198059375315,"connected_time":346000000000,"state":"active","ping":59},{"user_id":421,"name":"Veile","steam_id":76561199007201531,"connected_time":4501000000000,"state":"active","ping":87},{"user_id":465,"name":"PyroHam wannabe \u003c3","steam_id":76561199046008395,"connected_time":1561000000000,"state":"active","ping":68},{"user_id":474,"name":"Weenie Hut Jr's","steam_id":76561198050515739,"connected_time":1007000000000,"state":"active","ping":64},{"user_id":481,"name":"Brother Roga","steam_id":76561198029613515,"connected_time":327000000000,"state":"active","ping":63},{"user_id":476,"name":"Albert Einstein","steam_id":76561198351190006,"connected_time":965000000000,"state":"active","ping":80},{"user_id":479,"name":"ron","steam_id":76561198930351000,"connected_time":626000000000,"state":"active","ping":62},{"user_id":471,"name":"Cosmetic brain","steam_id":76561198055936410,"connected_time":1055000000000,"state":"active","ping":80},{"user_id":466,"name":"veins","steam_id":76561198997602764,"connected_time":1522000000000,"state":"active","ping":62},{"user_id":455,"name":"soup","steam_id":76561198386933065,"connected_time":1773000000000,"state":"active","ping":64},{"user_id":482,"name":"penis","steam_id":76561199002864030,"connected_time":323000000000,"state":"active","ping":94},{"user_id":415,"name":"Charles Darwin","steam_id":76561197973496139,"connected_time":5494000000000,"state":"active","ping":66},{"user_id":468,"name":"The2PLAYZ","steam_id":76561198352720404,"connected_time":1313000000000,"state":"active","ping":77},{"user_id":433,"name":"Vlijm @GnoeLAN2023","steam_id":76561197994163065,"connected_time":3619000000000,"state":"active","ping":47},{"user_id":456,"name":"Micha≈Ç","steam_id":76561198320346362,"connected_time":1711000000000,"state":"active","ping":61},{"user_id":483,"name":"ApplePieGuy","steam_id":76561199148792697,"connected_time":322000000000,"state":"active","ping":188},{"user_id":472,"name":"DeCypher","steam_id":76561198171992619,"connected_time":1051000000000,"state":"active","ping":79},{"user_id":485,"name":"Rask","steam_id":76561198052934944,"connected_time":267000000000,"state":"active","ping":92},{"user_id":460,"name":"semaka","steam_id":76561198068027379,"connected_time":1620000000000,"state":"active","ping":75},{"user_id":467,"name":"gagalak","steam_id":76561198089979108,"connected_time":1419000000000,"state":"active","ping":84},{"user_id":484,"name":"sork","steam_id":76561198082446459,"connected_time":302000000000,"state":"active","ping":71},{"user_id":475,"name":"–ö—Ä–æ–∫–æ–¥–∏–ª","steam_id":76561199040797074,"connected_time":983000000000,"state":"active","ping":117},{"user_id":426,"name":"„Åô LightFlight „Åó","steam_id":76561198079007530,"connected_time":3983000000000,"state":"active","ping":73},{"user_id":469,"name":"dollar foot long","steam_id":76561199250808808,"connected_time":1223000000000,"state":"active","ping":75}]},{"server_id":110,"name":"Uncletopia | Frankfurt | 2 | All Maps","name_short":"frk-2","host":"frk-1.de.uncletopia.com","port":27025,"enabled":true,"region":"eu","cc":"de","latitude":50.110924,"longitude":8.682127,"reserved":0,"last_update":"0001-01-01T00:00:00Z","name_a2s":"Uncletopia | Frankfurt | 2 | All Maps","protocol":17,"map":"pl_badwater","folder":"tf","game":"Team Fortress","app_id":440,"player_count":24,"max_players":24,"Bots":0,"server_type":"Dedicated","server_os":"Linux","password":true,"vac":true,"version":"7757534","steam_id":85568392924469990,"keywords":["nocrits","nodmgspread","payload","uncletopia"],"game_id":440,"stv_port":27026,"stv_name":"Uncletopia | Frankfurt | 2 | All Maps | STV","players":[{"user_id":441,"name":"juupel","steam_id":76561198000562317,"connected_time":1423000000000,"state":"active","ping":74},{"user_id":405,"name":"SisuUkko","steam_id":76561198321850428,"connected_time":3558000000000,"state":"active","ping":92},{"user_id":436,"name":"‚ô´‚òÖXriasp‚òÖ‚ô´","steam_id":76561198104721321,"connected_time":1572000000000,"state":"active","ping":70},{"user_id":470,"name":"Glitch","steam_id":76561198002221911,"connected_time":428000000000,"state":"active","ping":98},{"user_id":456,"name":"antlionguard","steam_id":76561198072747143,"connected_time":859000000000,"state":"active","ping":98},{"user_id":462,"name":"frosty","steam_id":76561198094560834,"connected_time":767000000000,"state":"active","ping":68},{"user_id":460,"name":"LEGEND FUMO.","steam_id":76561198061033903,"connected_time":810000000000,"state":"active","ping":46},{"user_id":443,"name":"Konswil","steam_id":76561198107019657,"connected_time":1414000000000,"state":"active","ping":83},{"user_id":431,"name":"Quartzy","steam_id":76561198313301520,"connected_time":2012000000000,"state":"active","ping":45},{"user_id":421,"name":"20BB Raxor","steam_id":76561198239927434,"connected_time":2889000000000,"state":"active","ping":75},{"user_id":463,"name":"heykikidom","steam_id":76561198267574417,"connected_time":695000000000,"state":"active","ping":89},{"user_id":437,"name":"DeleteTrickster","steam_id":76561198397120242,"connected_time":1572000000000,"state":"active","ping":83},{"user_id":403,"name":"Vibing Wave [IR]","steam_id":76561198866358613,"connected_time":3888000000000,"state":"active","ping":137},{"user_id":392,"name":"œÉsiris","steam_id":76561198050791602,"connected_time":4214000000000,"state":"active","ping":47},{"user_id":376,"name":"Realist 40","steam_id":76561198052476979,"connected_time":4811000000000,"state":"active","ping":85},{"user_id":445,"name":"ALLIA","steam_id":76561198001927753,"connected_time":1406000000000,"state":"active","ping":55},{"user_id":426,"name":"Optimist 50","steam_id":76561198039631442,"connected_time":2353000000000,"state":"active","ping":84},{"user_id":446,"name":"568","steam_id":76561198167675482,"connected_time":1387000000000,"state":"active","ping":88},{"user_id":455,"name":"Jon Snuh","steam_id":76561198075298635,"connected_time":933000000000,"state":"active","ping":150},{"user_id":448,"name":"HimpoX","steam_id":76561198043946778,"connected_time":1338000000000,"state":"active","ping":102},{"user_id":459,"name":"AWJ ÀÜ-ÀÜ","steam_id":76561198053628243,"connected_time":815000000000,"state":"active","ping":61},{"user_id":427,"name":"ugly","steam_id":76561199050412617,"connected_time":2236000000000,"state":"active","ping":107},{"user_id":468,"name":"Need Glasses, can't C#","steam_id":76561198051589639,"connected_time":511000000000,"state":"active","ping":60},{"user_id":472,"name":"Ghorkin","steam_id":76561198070923312,"connected_time":62000000000,"state":"active","ping":393}]},{"server_id":308,"name":"Uncletopia | Frankfurt | 3 | All Maps","name_short":"frk-3","host":"frk-1.de.uncletopia.com","port":27035,"enabled":true,"region":"eu","cc":"de","latitude":50.110924,"longitude":8.682127,"reserved":0,"last_update":"0001-01-01T00:00:00Z","name_a2s":"Uncletopia | Frankfurt | 3 | All Maps","protocol":17,"map":"pl_swiftwater_final1","folder":"tf","game":"Team Fortress","app_id":440,"player_count":24,"max_players":24,"Bots":0,"server_type":"Dedicated","server_os":"Linux","password":true,"vac":true,"version":"7757534","steam_id":85568392924504274,"keywords":["nocrits","nodmgspread","payload","uncletopia"],"game_id":440,"stv_port":27036,"stv_name":"Uncletopia | Frankfurt | 3 | All Maps | STV","players":[{"user_id":280,"name":"darktheif54","steam_id":76561198043650119,"connected_time":5038000000000,"state":"active","ping":46},{"user_id":294,"name":"sz(k)","steam_id":76561198118500940,"connected_time":4286000000000,"state":"active","ping":58},{"user_id":337,"name":"Mr.Schnittlauch","steam_id":76561198295868113,"connected_time":2447000000000,"state":"active","ping":60},{"user_id":372,"name":"Chicote","steam_id":76561198054689637,"connected_time":176000000000,"state":"active","ping":73},{"user_id":374,"name":"remove trains","steam_id":76561199433578516,"connected_time":137000000000,"state":"active","ping":76},{"user_id":367,"name":"logos.slava","steam_id":76561199470305851,"connected_time":681000000000,"state":"active","ping":125},{"user_id":357,"name":"The Bushman","steam_id":76561198152576682,"connected_time":1425000000000,"state":"active","ping":80},{"user_id":365,"name":"Acanda","steam_id":76561198123246537,"connected_time":1193000000000,"state":"active","ping":54},{"user_id":358,"name":"Parapluie","steam_id":76561197971640301,"connected_time":1374000000000,"state":"active","ping":55},{"user_id":377,"name":"dunduu","steam_id":76561198875240717,"connected_time":7000000000,"state":"spawning","ping":70},{"user_id":359,"name":"Cheddar","steam_id":76561199072919985,"connected_time":1347000000000,"state":"active","ping":91},{"user_id":368,"name":"FLYING DWARF","steam_id":76561199048614286,"connected_time":506000000000,"state":"active","ping":107},{"user_id":373,"name":"4","steam_id":76561197964945192,"connected_time":144000000000,"state":"active","ping":51},{"user_id":366,"name":"foo","steam_id":76561198042000263,"connected_time":969000000000,"state":"active","ping":71},{"user_id":375,"name":"Paulo","steam_id":76561198001386978,"connected_time":136000000000,"state":"active","ping":60},{"user_id":345,"name":"Mr. Mundy","steam_id":76561198132008918,"connected_time":1906000000000,"state":"active","ping":71},{"user_id":351,"name":"Na'vi Misato (by popular demand","steam_id":76561198130860698,"connected_time":1635000000000,"state":"active","ping":59},{"user_id":362,"name":"crazyredhead yt","steam_id":76561198297679010,"connected_time":1299000000000,"state":"active","ping":69},{"user_id":364,"name":"[BROBOT] Nergal","steam_id":76561198098172161,"connected_time":1253000000000,"state":"active","ping":68},{"user_id":363,"name":"Pepegi","steam_id":76561198001230113,"connected_time":1287000000000,"state":"active","ping":76},{"user_id":353,"name":"erobrine2","steam_id":76561198173218318,"connected_time":1607000000000,"state":"active","ping":58},{"user_id":370,"name":"Prison Mike","steam_id":76561198014221596,"connected_time":483000000000,"state":"active","ping":75},{"user_id":344,"name":"Hexagon","steam_id":76561198151205758,"connected_time":1941000000000,"state":"active","ping":45},{"user_id":376,"name":"DaBumo","steam_id":76561198156781075,"connected_time":129000000000,"state":"active","ping":67}]},{"server_id":309,"name":"Uncletopia | Frankfurt | 4 | All Maps","name_short":"frk-4","host":"frk-1.de.uncletopia.com","port":27045,"enabled":true,"region":"eu","cc":"de","latitude":50.110924,"longitude":8.682127,"reserved":0,"last_update":"0001-01-01T00:00:00Z","name_a2s":"Uncletopia | Frankfurt | 4 | All Maps","protocol":17,"map":"cp_mercenarypark","folder":"tf","game":"Team Fortress","app_id":440,"player_count":24,"max_players":24,"Bots":0,"server_type":"Dedicated","server_os":"Linux","password":true,"vac":true,"version":"7757534","steam_id":85568392924504275,"keywords":["cp","nocrits","nodmgspread","uncletopia"],"game_id":440,"stv_port":27046,"stv_name":"Uncletopia | Frankfurt | 4 | All Maps | STV","players":[{"user_id":148,"name":"Jimmy","steam_id":76561198133680783,"connected_time":1175000000000,"state":"active","ping":63},{"user_id":117,"name":"thekoolest88","steam_id":76561199022415672,"connected_time":2477000000000,"state":"active","ping":145},{"user_id":143,"name":"pijukaaaaaaaaa","steam_id":76561198083063005,"connected_time":1785000000000,"state":"active","ping":57},{"user_id":132,"name":"Not Friends","steam_id":76561198043775605,"connected_time":2126000000000,"state":"active","ping":84},{"user_id":152,"name":"Fizzing Fool","steam_id":76561198425415033,"connected_time":884000000000,"state":"active","ping":80},{"user_id":112,"name":"dfhfhjd #savetf2","steam_id":76561198170036665,"connected_time":2830000000000,"state":"active","ping":94},{"user_id":153,"name":"YEEET","steam_id":76561198914938199,"connected_time":815000000000,"state":"active","ping":95},{"user_id":158,"name":"Denialman (Muted)","steam_id":76561198309182092,"connected_time":638000000000,"state":"active","ping":59},{"user_id":165,"name":"Dr. Le Quack","steam_id":76561197995711176,"connected_time":297000000000,"state":"active","ping":87},{"user_id":156,"name":"john fortress","steam_id":76561198013237629,"connected_time":680000000000,"state":"active","ping":101},{"user_id":121,"name":"fector","steam_id":76561199204249586,"connected_time":2446000000000,"state":"active","ping":124},{"user_id":62,"name":"LordTrap.exe","steam_id":76561198318089716,"connected_time":7373000000000,"state":"active","ping":48},{"user_id":159,"name":"0","steam_id":76561198372406941,"connected_time":630000000000,"state":"active","ping":61},{"user_id":122,"name":"Û†Ä°Û†Ä°","steam_id":76561198015585266,"connected_time":2442000000000,"state":"active","ping":75},{"user_id":160,"name":"Bargain Brand Cereal","steam_id":76561198440470058,"connected_time":624000000000,"state":"active","ping":175},{"user_id":135,"name":"galaxy","steam_id":76561198164819022,"connected_time":1862000000000,"state":"active","ping":68},{"user_id":126,"name":"Patrick Star","steam_id":76561198127779511,"connected_time":2248000000000,"state":"active","ping":69},{"user_id":150,"name":"gosi","steam_id":76561198084111532,"connected_time":1094000000000,"state":"active","ping":60},{"user_id":147,"name":"üåº HugeE","steam_id":76561198245495152,"connected_time":1497000000000,"state":"active","ping":61},{"user_id":137,"name":"Utter Shit","steam_id":76561198020254869,"connected_time":1850000000000,"state":"active","ping":47},{"user_id":161,"name":"7hero","steam_id":76561198118829945,"connected_time":607000000000,"state":"active","ping":109},{"user_id":162,"name":"XRazvanD","steam_id":76561199021945313,"connected_time":559000000000,"state":"active","ping":77},{"user_id":164,"name":"looking for e-wife (hmu) (real)","steam_id":76561197996468677,"connected_time":398000000000,"state":"active","ping":59},{"user_id":108,"name":"[-SC-] AdamEng","steam_id":76561197994561724,"connected_time":3013000000000,"state":"active","ping":59}]},{"server_id":310,"name":"Uncletopia | Frankfurt | 5 | All Maps","name_short":"frk-5","host":"frk-1.de.uncletopia.com","port":27055,"enabled":true,"region":"eu","cc":"de","latitude":50.110924,"longitude":8.682127,"reserved":0,"last_update":"0001-01-01T00:00:00Z","name_a2s":"Uncletopia | Frankfurt | 5 | All Maps","protocol":17,"map":"ctf_2fort","folder":"tf","game":"Team Fortress","app_id":440,"player_count":23,"max_players":24,"Bots":0,"server_type":"Dedicated","server_os":"Linux","password":true,"vac":true,"version":"7757534","steam_id":85568392924504277,"keywords":["ctf","nocrits","nodmgspread","uncletopia"],"game_id":440,"stv_port":27056,"stv_name":"Uncletopia | Frankfurt | 5 | All Maps | STV","players":[{"user_id":422,"name":"wasteacount705","steam_id":76561199472191680,"connected_time":159000000000,"state":"active","ping":72},{"user_id":411,"name":"Mike Rizzowski","steam_id":76561198798657045,"connected_time":540000000000,"state":"active","ping":71},{"user_id":407,"name":"wouris","steam_id":76561198876188003,"connected_time":596000000000,"state":"active","ping":58},{"user_id":418,"name":"Cocsam","steam_id":76561198050827179,"connected_time":373000000000,"state":"active","ping":55},{"user_id":400,"name":"Ataraxia","steam_id":76561198086654069,"connected_time":1095000000000,"state":"active","ping":72},{"user_id":412,"name":"vgiamp10","steam_id":76561198396069529,"connected_time":523000000000,"state":"active","ping":76},{"user_id":303,"name":"Seeker","steam_id":76561198873052772,"connected_time":6946000000000,"state":"active","ping":65},{"user_id":426,"name":"many thanks","steam_id":76561198089003514,"connected_time":15000000000,"state":"active","ping":276},{"user_id":377,"name":"Acid","steam_id":76561198102110680,"connected_time":2373000000000,"state":"active","ping":92},{"user_id":282,"name":"X-tis","steam_id":76561198043837480,"connected_time":8722000000000,"state":"active","ping":67},{"user_id":159,"name":"Fat Pigeon","steam_id":76561198817940142,"connected_time":15350000000000,"state":"active","ping":50},{"user_id":424,"name":"SpeddyMeddy","steam_id":76561197999693825,"connected_time":110000000000,"state":"active","ping":69},{"user_id":419,"name":"grana padano dop","steam_id":76561198066071855,"connected_time":275000000000,"state":"active","ping":60},{"user_id":389,"name":"Egor Pomidor","steam_id":76561199175688390,"connected_time":1536000000000,"state":"active","ping":75},{"user_id":402,"name":"Glam Stachee‚òÜ","steam_id":76561198115252607,"connected_time":951000000000,"state":"active","ping":96},{"user_id":351,"name":"cat","steam_id":76561199045736884,"connected_time":3560000000000,"state":"active","ping":60},{"user_id":420,"name":"TheCattoofDankness","steam_id":76561197961922329,"connected_time":222000000000,"state":"active","ping":163},{"user_id":404,"name":"mtyxrst","steam_id":76561198057256978,"connected_time":636000000000,"state":"active","ping":48},{"user_id":387,"name":"Certified Hood pybro (ua)","steam_id":76561198970562699,"connected_time":1652000000000,"state":"active","ping":54},{"user_id":399,"name":"Priceybay","steam_id":76561198055389492,"connected_time":1171000000000,"state":"active","ping":54},{"user_id":355,"name":"clems17","steam_id":76561199420685482,"connected_time":3277000000000,"state":"active","ping":57},{"user_id":423,"name":"KaasKrans","steam_id":76561198240451972,"connected_time":155000000000,"state":"active","ping":60},{"user_id":401,"name":"ChesseKnight","steam_id":76561198102476339,"connected_time":981000000000,"state":"active","ping":87}]},{"server_id":311,"name":"Uncletopia | Frankfurt | 6 | All Maps","name_short":"frk-6","host":"frk-1.de.uncletopia.com","port":27065,"enabled":true,"region":"eu","cc":"de","latitude":50.110924,"longitude":8.682127,"reserved":0,"last_update":"0001-01-01T00:00:00Z","name_a2s":"Uncletopia | Frankfurt | 6 | All Maps","protocol":17,"map":"koth_highpass","folder":"tf","game":"Team Fortress","app_id":440,"player_count":0,"max_players":24,"Bots":0,"server_type":"Dedicated","server_os":"Linux","password":true,"vac":true,"version":"7757534","steam_id":85568392924504278,"keywords":["cp","nocrits","nodmgspread","uncletopia"],"game_id":440,"stv_port":27066,"stv_name":"Uncletopia | Frankfurt | 6 | All Maps | STV","players":null},{"server_id":23,"name":"Uncletopia | Frankfurt | 7 | Stopwatch Beta","name_short":"frk-7","host":"frk-1.de.uncletopia.com","port":27075,"enabled":true,"region":"eu","cc":"de","latitude":50.110924,"longitude":8.682127,"reserved":0,"last_update":"0001-01-01T00:00:00Z","name_a2s":"Uncletopia | Frankfurt | 7 | Stopwatch Beta","protocol":17,"map":"pl_frontier_final","folder":"tf","game":"Team Fortress","app_id":440,"player_count":0,"max_players":24,"Bots":0,"server_type":"Dedicated","server_os":"Linux","password":true,"vac":true,"version":"7757534","steam_id":85568392924742827,"keywords":["nocrits","nodmgspread","payload","uncletopia"],"game_id":440,"stv_port":27076,"stv_name":"Uncletopia | Frankfurt | 7 | Stopwatch Beta | STV","players":null},{"server_id":24,"name":"Uncletopia | Frankfurt | 8 | Community","name_short":"frk-8","host":"frk-1.de.uncletopia.com","port":27085,"enabled":true,"region":"eu","cc":"de","latitude":50.110924,"longitude":8.682127,"reserved":0,"last_update":"0001-01-01T00:00:00Z","name_a2s":"Uncletopia | Frankfurt | 8 | Community","protocol":17,"map":"workshop/koth_bagel_rc5.ugc2514036946","folder":"tf","game":"Team Fortress","app_id":440,"player_count":0,"max_players":24,"Bots":0,"server_type":"Dedicated","server_os":"Linux","password":true,"vac":true,"version":"7757534","steam_id":85568392924742828,"keywords":["cp","nocrits","nodmgspread","uncletopia"],"game_id":440,"stv_port":27086,"stv_name":"Uncletopia | Frankfurt | 8 | Community | STV","players":null},{"server_id":202,"name":"Uncletopia | Hong Kong | 1 | All Maps","name_short":"hgk-1","host":"hgk-1.hk.uncletopia.com","port":27015,"enabled":true,"region":"asia","cc":"hk","latitude":22.302711,"longitude":114.177216,"reserved":0,"last_update":"0001-01-01T00:00:00Z","name_a2s":"Uncletopia | Hong Kong | 1 | All Maps","protocol":17,"map":"koth_viaduct","folder":"tf","game":"Team Fortress","app_id":440,"player_count":0,"max_players":24,"Bots":0,"server_type":"Dedicated","server_os":"Linux","password":true,"vac":true,"version":"7757534","steam_id":85568392924494504,"keywords":["cp","nocrits","nodmgspread","uncletopia"],"game_id":440,"stv_port":27016,"stv_name":"Uncletopia | Hong Kong | 1 | All Maps | STV","players":null},{"server_id":1,"name":"Uncletopia | Los Angeles | 1 | All Maps","name_short":"lax-1","host":"lax-1.us.uncletopia.com","port":27015,"enabled":true,"region":"us-west","cc":"us","latitude":33.94279,"longitude":-118.41004,"reserved":0,"last_update":"0001-01-01T00:00:00Z","name_a2s":"Uncletopia | Los Angeles | 1 | All Maps","protocol":17,"map":"cp_process_final","folder":"tf","game":"Team Fortress","app_id":440,"player_count":1,"max_players":24,"Bots":0,"server_type":"Dedicated","server_os":"Linux","password":true,"vac":true,"version":"7757534","steam_id":85568392924469991,"keywords":["cp","nocrits","nodmgspread","uncletopia"],"game_id":440,"stv_port":27016,"stv_name":"Uncletopia | Los Angeles | 1 | All Maps | STV","players":[{"user_id":15,"name":"The engineer","steam_id":76561199234860030,"connected_time":470000000000,"state":"active","ping":94}]},{"server_id":112,"name":"Uncletopia | Los Angeles | 2 | All Maps","name_short":"lax-2","host":"lax-1.us.uncletopia.com","port":27025,"enabled":true,"region":"us-west","cc":"us","latitude":33.94279,"longitude":-118.41004,"reserved":0,"last_update":"0001-01-01T00:00:00Z","name_a2s":"Uncletopia | Los Angeles | 2 | All Maps","protocol":17,"map":"koth_cascade","folder":"tf","game":"Team Fortress","app_id":440,"player_count":0,"max_players":24,"Bots":0,"server_type":"Dedicated","server_os":"Linux","password":true,"vac":true,"version":"7757534","steam_id":85568392924469992,"keywords":["cp","nocrits","nodmgspread","uncletopia"],"game_id":440,"stv_port":27026,"stv_name":"Uncletopia | Los Angeles | 2 | All Maps | STV","players":null},{"server_id":324,"name":"Uncletopia | Los Angeles | 3 | All Maps","name_short":"lax-3","host":"lax-1.us.uncletopia.com","port":27035,"enabled":true,"region":"us-west","cc":"us","latitude":33.94279,"longitude":-118.41004,"reserved":0,"last_update":"0001-01-01T00:00:00Z","name_a2s":"Uncletopia | Los Angeles | 3 | All Maps","protocol":17,"map":"koth_cascade","folder":"tf","game":"Team Fortress","app_id":440,"player_count":0,"max_players":24,"Bots":0,"server_type":"Dedicated","server_os":"Linux","password":true,"vac":true,"version":"7757534","steam_id":85568392924510198,"keywords":["cp","nocrits","nodmgspread","uncletopia"],"game_id":440,"stv_port":27036,"stv_name":"Uncletopia | Los Angeles | 3 | All Maps | STV","players":null},{"server_id":25,"name":"Uncletopia | Los Angeles | 4 | Stopwatch Beta","name_short":"lax-4","host":"lax-1.us.uncletopia.com","port":27045,"enabled":true,"region":"us-west","cc":"us","latitude":33.94279,"longitude":-118.41004,"reserved":0,"last_update":"0001-01-01T00:00:00Z","name_a2s":"Uncletopia | Los Angeles | 4 | Stopwatch Beta","protocol":17,"map":"pl_frontier_final","folder":"tf","game":"Team Fortress","app_id":440,"player_count":0,"max_players":24,"Bots":0,"server_type":"Dedicated","server_os":"Linux","password":true,"vac":true,"version":"7757534","steam_id":85568392924510199,"keywords":["nocrits","nodmgspread","payload","uncletopia"],"game_id":440,"stv_port":27046,"stv_name":"Uncletopia | Los Angeles | 4 | Stopwatch Beta | STV","players":null},{"server_id":11,"name":"Uncletopia | London | 1 | All Maps","name_short":"lon-1","host":"lon-1.uk.uncletopia.com","port":27015,"enabled":true,"region":"eu","cc":"gb","latitude":51.509865,"longitude":-0.118092,"reserved":0,"last_update":"0001-01-01T00:00:00Z","name_a2s":"Uncletopia | London | 1 | All Maps","protocol":17,"map":"koth_harvest_final","folder":"tf","game":"Team Fortress","app_id":440,"player_count":24,"max_players":24,"Bots":0,"server_type":"Dedicated","server_os":"Linux","password":true,"vac":true,"version":"7757534","steam_id":85568392924367362,"keywords":["cp","nocrits","nodmgspread","uncletopia"],"game_id":440,"stv_port":27016,"stv_name":"Uncletopia | London | 1 | All Maps | STV","players":[{"user_id":515,"name":"Danube501","steam_id":76561198143222686,"connected_time":1206000000000,"state":"active","ping":103},{"user_id":493,"name":"Rowan Atkinson","steam_id":76561199378865926,"connected_time":1798000000000,"state":"active","ping":92},{"user_id":460,"name":"GardenFungus","steam_id":76561198054894337,"connected_time":3247000000000,"state":"active","ping":31},{"user_id":529,"name":"Dr Doom","steam_id":76561199440615213,"connected_time":523000000000,"state":"active","ping":54},{"user_id":519,"name":"Clitorina","steam_id":76561198077570815,"connected_time":854000000000,"state":"active","ping":45},{"user_id":205,"name":"AnonTron","steam_id":76561199031895493,"connected_time":21124000000000,"state":"active","ping":180},{"user_id":509,"name":"Celtins","steam_id":76561198839837475,"connected_time":1383000000000,"state":"active","ping":57},{"user_id":530,"name":"Garfield Gaming","steam_id":76561198254539791,"connected_time":221000000000,"state":"active","ping":46},{"user_id":518,"name":"The_Jaystone","steam_id":76561198126280691,"connected_time":906000000000,"state":"active","ping":32},{"user_id":488,"name":"Soph","steam_id":76561198131688853,"connected_time":2049000000000,"state":"active","ping":50},{"user_id":522,"name":"subway vergil","steam_id":76561199110064166,"connected_time":737000000000,"state":"active","ping":65},{"user_id":508,"name":"Dimitry","steam_id":76561197972243696,"connected_time":1505000000000,"state":"active","ping":70},{"user_id":437,"name":"Dr. Uberschwein","steam_id":76561198111367431,"connected_time":6018000000000,"state":"active","ping":71},{"user_id":497,"name":"Critical Hit","steam_id":76561198028524029,"connected_time":1675000000000,"state":"active","ping":70},{"user_id":528,"name":"god","steam_id":76561198288183181,"connected_time":583000000000,"state":"active","ping":77},{"user_id":495,"name":"Backup","steam_id":76561197999557567,"connected_time":1725000000000,"state":"active","ping":71},{"user_id":502,"name":"JOHN GAMING (based)","steam_id":76561199085822219,"connected_time":1582000000000,"state":"active","ping":90},{"user_id":520,"name":"naleksi","steam_id":76561198018391055,"connected_time":772000000000,"state":"active","ping":104},{"user_id":475,"name":"ivanmixo","steam_id":76561198160213989,"connected_time":2972000000000,"state":"active","ping":80},{"user_id":532,"name":"Sparky","steam_id":76561198036754195,"connected_time":60000000000,"state":"active","ping":51},{"user_id":485,"name":"fume.","steam_id":76561197960476801,"connected_time":2445000000000,"state":"active","ping":55},{"user_id":496,"name":"Morisan","steam_id":76561198043153528,"connected_time":1710000000000,"state":"active","ping":49},{"user_id":521,"name":"The Empire Ant","steam_id":76561198082466790,"connected_time":761000000000,"state":"active","ping":61},{"user_id":507,"name":"Archie","steam_id":76561199073056124,"connected_time":1537000000000,"state":"active","ping":61}]},{"server_id":114,"name":"Uncletopia | London | 2 | All Maps","name_short":"lon-2","host":"lon-1.uk.uncletopia.com","port":27025,"enabled":true,"region":"eu","cc":"gb","latitude":51.509865,"longitude":-0.118092,"reserved":0,"last_update":"0001-01-01T00:00:00Z","name_a2s":"Uncletopia | London | 2 | All Maps","protocol":17,"map":"cp_process_final","folder":"tf","game":"Team Fortress","app_id":440,"player_count":24,"max_players":24,"Bots":0,"server_type":"Dedicated","server_os":"Linux","password":true,"vac":true,"version":"7757534","steam_id":85568392924470941,"keywords":["cp","nocrits","nodmgspread","uncletopia"],"game_id":440,"stv_port":27026,"stv_name":"Uncletopia | London | 2 | All Maps | STV","players":[{"user_id":492,"name":"Chikapu Xek #savetf2","steam_id":76561198428023493,"connected_time":1176000000000,"state":"active","ping":83},{"user_id":496,"name":"Cave Johnson","steam_id":76561198366456565,"connected_time":897000000000,"state":"active","ping":77},{"user_id":502,"name":"Tryrn","steam_id":76561198075487436,"connected_time":616000000000,"state":"active","ping":77},{"user_id":486,"name":":)","steam_id":76561198039964082,"connected_time":1606000000000,"state":"active","ping":65},{"user_id":461,"name":"0xDEADBEEF","steam_id":76561199075416111,"connected_time":3178000000000,"state":"active","ping":78},{"user_id":489,"name":"schmick","steam_id":76561198039537958,"connected_time":1201000000000,"state":"active","ping":52},{"user_id":500,"name":"Koi-Koi","steam_id":76561198045527771,"connected_time":759000000000,"state":"active","ping":52},{"user_id":495,"name":"Skinny101","steam_id":76561197985599360,"connected_time":911000000000,"state":"active","ping":56},{"user_id":501,"name":"mrk","steam_id":76561198120166752,"connected_time":697000000000,"state":"active","ping":88},{"user_id":381,"name":"Aspartus","steam_id":76561198101385763,"connected_time":7252000000000,"state":"active","ping":44},{"user_id":504,"name":"Frikerf","steam_id":76561198079602952,"connected_time":529000000000,"state":"active","ping":50},{"user_id":370,"name":"Zerfesh","steam_id":76561198117534358,"connected_time":7695000000000,"state":"active","ping":105},{"user_id":490,"name":"RedPyro2009","steam_id":76561198935824363,"connected_time":1193000000000,"state":"active","ping":86},{"user_id":438,"name":"Squishy","steam_id":76561198124618876,"connected_time":4659000000000,"state":"active","ping":120},{"user_id":474,"name":"Lyra","steam_id":76561198043601838,"connected_time":2529000000000,"state":"active","ping":74},{"user_id":508,"name":"kiki","steam_id":76561198838277022,"connected_time":37000000000,"state":"active","ping":75},{"user_id":491,"name":"ZiNSON!","steam_id":76561197995762123,"connected_time":1192000000000,"state":"active","ping":81},{"user_id":484,"name":"weasl","steam_id":76561198076388927,"connected_time":1876000000000,"state":"active","ping":51},{"user_id":506,"name":"tosostrongbow","steam_id":76561198172720290,"connected_time":421000000000,"state":"active","ping":41},{"user_id":475,"name":"beurgeur","steam_id":76561198872426314,"connected_time":2510000000000,"state":"active","ping":45},{"user_id":494,"name":"whatever","steam_id":76561198095943461,"connected_time":1152000000000,"state":"active","ping":74},{"user_id":478,"name":"AxeGeddon","steam_id":76561198145365762,"connected_time":2406000000000,"state":"active","ping":83},{"user_id":418,"name":"Sgreff","steam_id":76561198036304365,"connected_time":5928000000000,"state":"active","ping":44},{"user_id":460,"name":"Kotlet schabowy","steam_id":76561198048983509,"connected_time":3198000000000,"state":"active","ping":88}]},{"server_id":320,"name":"Uncletopia | London | 3 | All Maps","name_short":"lon-3","host":"lon-1.uk.uncletopia.com","port":27035,"enabled":true,"region":"eu","cc":"gb","latitude":51.509865,"longitude":-0.118092,"reserved":0,"last_update":"0001-01-01T00:00:00Z","name_a2s":"Uncletopia | London | 3 | All Maps","protocol":17,"map":"koth_lakeside_final","folder":"tf","game":"Team Fortress","app_id":440,"player_count":0,"max_players":24,"Bots":0,"server_type":"Dedicated","server_os":"Linux","password":true,"vac":true,"version":"7757534","steam_id":85568392924510192,"keywords":["cp","nocrits","nodmgspread","uncletopia"],"game_id":440,"stv_port":27036,"stv_name":"Uncletopia | London | 3 | All Maps | STV","players":null},{"server_id":321,"name":"Uncletopia | London | 4 | All Maps","name_short":"lon-4","host":"lon-1.uk.uncletopia.com","port":27045,"enabled":true,"region":"eu","cc":"gb","latitude":51.509865,"longitude":-0.118092,"reserved":0,"last_update":"0001-01-01T00:00:00Z","name_a2s":"Uncletopia | London | 4 | All Maps","protocol":17,"map":"koth_viaduct","folder":"tf","game":"Team Fortress","app_id":440,"player_count":0,"max_players":24,"Bots":0,"server_type":"Dedicated","server_os":"Linux","password":true,"vac":true,"version":"7757534","steam_id":85568392924510193,"keywords":["cp","nocrits","nodmgspread","uncletopia"],"game_id":440,"stv_port":27046,"stv_name":"Uncletopia | London | 4 | All Maps | STV","players":null},{"server_id":21,"name":"Uncletopia | London | 5 | All Maps","name_short":"lon-5","host":"lon-1.uk.uncletopia.com","port":27055,"enabled":true,"region":"eu","cc":"gb","latitude":51.509865,"longitude":-0.118092,"reserved":0,"last_update":"0001-01-01T00:00:00Z","name_a2s":"Uncletopia | London | 5 | All Maps","protocol":17,"map":"pl_thundermountain","folder":"tf","game":"Team Fortress","app_id":440,"player_count":23,"max_players":24,"Bots":0,"server_type":"Dedicated","server_os":"Linux","password":true,"vac":true,"version":"7757534","steam_id":85568392924742829,"keywords":["nocrits","nodmgspread","payload","uncletopia"],"game_id":440,"stv_port":27056,"stv_name":"Uncletopia | London | 5 | All Maps | STV","players":[{"user_id":154,"name":"SailingSeal","steam_id":76561198965637156,"connected_time":402000000000,"state":"active","ping":89},{"user_id":140,"name":"Dolcelatte","steam_id":76561198038501770,"connected_time":2458000000000,"state":"active","ping":73},{"user_id":150,"name":"Pepsiman","steam_id":76561198436946165,"connected_time":1414000000000,"state":"active","ping":132},{"user_id":153,"name":"duster cat","steam_id":76561198832231975,"connected_time":961000000000,"state":"active","ping":96},{"user_id":151,"name":"Mantra","steam_id":76561198058505094,"connected_time":1387000000000,"state":"active","ping":109},{"user_id":155,"name":"Littleyoshifan","steam_id":76561198445491045,"connected_time":356000000000,"state":"active","ping":39},{"user_id":111,"name":"Prim","steam_id":76561198043191342,"connected_time":3707000000000,"state":"active","ping":87},{"user_id":112,"name":"Zoodly","steam_id":76561198080594440,"connected_time":3523000000000,"state":"active","ping":54},{"user_id":157,"name":"SuperBob103","steam_id":76561199175360012,"connected_time":230000000000,"state":"active","ping":51},{"user_id":142,"name":"Planet","steam_id":76561198044626616,"connected_time":2395000000000,"state":"active","ping":61},{"user_id":131,"name":"neJ","steam_id":76561198003397488,"connected_time":3151000000000,"state":"active","ping":83},{"user_id":145,"name":"leibh√©alfaidh m√© th√∫","steam_id":76561198078484073,"connected_time":2337000000000,"state":"active","ping":86},{"user_id":147,"name":"Night Fury","steam_id":76561197995207032,"connected_time":2297000000000,"state":"active","ping":99},{"user_id":103,"name":"Daddyflabburger","steam_id":76561198104352907,"connected_time":4547000000000,"state":"active","ping":61},{"user_id":136,"name":"tumtum","steam_id":76561198059211479,"connected_time":2585000000000,"state":"active","ping":79},{"user_id":118,"name":"Polo","steam_id":76561197963751673,"connected_time":3440000000000,"state":"active","ping":72},{"user_id":152,"name":"Davey","steam_id":76561198256879107,"connected_time":1354000000000,"state":"active","ping":75},{"user_id":121,"name":"average deck user","steam_id":76561198295310457,"connected_time":3372000000000,"state":"active","ping":56},{"user_id":133,"name":"Insain Bolt!","steam_id":76561198025687726,"connected_time":2872000000000,"state":"active","ping":77},{"user_id":123,"name":"Vectillion","steam_id":76561198074292454,"connected_time":3364000000000,"state":"active","ping":69},{"user_id":128,"name":"Purple Panda","steam_id":76561198092231980,"connected_time":3273000000000,"state":"active","ping":49},{"user_id":158,"name":"TK","steam_id":76561199384193338,"connected_time":43000000000,"state":"active","ping":75},{"user_id":129,"name":"QuorglepleegJR","steam_id":76561198984658438,"connected_time":3258000000000,"state":"active","ping":52}]},{"server_id":22,"name":"Uncletopia | London | 6 | All Maps","name_short":"lon-6","host":"lon-1.uk.uncletopia.com","port":27065,"enabled":true,"region":"eu","cc":"gb","latitude":51.509865,"longitude":-0.118092,"reserved":0,"last_update":"0001-01-01T00:00:00Z","name_a2s":"Uncletopia | London | 6 | All Maps","protocol":17,"map":"pl_upward","folder":"tf","game":"Team Fortress","app_id":440,"player_count":23,"max_players":24,"Bots":0,"server_type":"Dedicated","server_os":"Linux","password":true,"vac":true,"version":"7757534","steam_id":85568392924742830,"keywords":["nocrits","nodmgspread","payload","uncletopia"],"game_id":440,"stv_port":27066,"stv_name":"Uncletopia | London | 6 | All Maps | STV","players":[{"user_id":216,"name":"madhead200","steam_id":76561198119498666,"connected_time":1887000000000,"state":"active","ping":96},{"user_id":238,"name":"Fancy","steam_id":76561198350658462,"connected_time":371000000000,"state":"active","ping":87},{"user_id":175,"name":"medicinal man","steam_id":76561198202668788,"connected_time":5478000000000,"state":"active","ping":70},{"user_id":249,"name":"weaselmeister","steam_id":76561199059841173,"connected_time":99000000000,"state":"active","ping":48},{"user_id":242,"name":"When Life gives you Lemons","steam_id":76561198318290663,"connected_time":306000000000,"state":"active","ping":63},{"user_id":220,"name":"gmem","steam_id":76561198070006725,"connected_time":1815000000000,"state":"active","ping":57},{"user_id":212,"name":"holykyckling","steam_id":76561198040661615,"connected_time":2834000000000,"state":"active","ping":75},{"user_id":243,"name":"jge","steam_id":76561198123186387,"connected_time":301000000000,"state":"active","ping":64},{"user_id":254,"name":"radek","steam_id":76561197998883721,"connected_time":52000000000,"state":"active","ping":88},{"user_id":182,"name":"kilikia","steam_id":76561198350261670,"connected_time":5157000000000,"state":"active","ping":105},{"user_id":236,"name":"Wario","steam_id":76561198356089255,"connected_time":434000000000,"state":"active","ping":74},{"user_id":244,"name":"OfficeDuck","steam_id":76561199274055606,"connected_time":265000000000,"state":"active","ping":60},{"user_id":233,"name":"True Slavic Hardbass Boi","steam_id":76561198097276522,"connected_time":1066000000000,"state":"active","ping":83},{"user_id":231,"name":"After8","steam_id":76561198090750865,"connected_time":1212000000000,"state":"active","ping":75},{"user_id":205,"name":"Carrotcracker","steam_id":76561198034862396,"connected_time":3967000000000,"state":"active","ping":90},{"user_id":250,"name":"lettuce at 58p","steam_id":76561199401283123,"connected_time":98000000000,"state":"active","ping":53},{"user_id":206,"name":"Hot \u0026 sexy personality","steam_id":76561198124435543,"connected_time":3920000000000,"state":"active","ping":90},{"user_id":240,"name":"Cheddar","steam_id":76561198094192281,"connected_time":346000000000,"state":"active","ping":50},{"user_id":230,"name":"limdungbeetle","steam_id":76561198026160958,"connected_time":1257000000000,"state":"active","ping":65},{"user_id":235,"name":"Femboy Lilli","steam_id":76561198090146457,"connected_time":652000000000,"state":"active","ping":41},{"user_id":241,"name":"Zhongding Construction Group Lt","steam_id":76561198065915748,"connected_time":342000000000,"state":"active","ping":55},{"user_id":234,"name":"peshosalama16","steam_id":76561199104058150,"connected_time":998000000000,"state":"active","ping":100},{"user_id":246,"name":"CalicoCat12","steam_id":76561198081933130,"connected_time":240000000000,"state":"active","ping":62}]},{"server_id":40,"name":"Uncletopia | London | 7 | No Payload","name_short":"lon-7","host":"lon-1.uk.uncletopia.com","port":27075,"enabled":true,"region":"eu","cc":"gb","latitude":51.509865,"longitude":-0.118092,"reserved":0,"last_update":"0001-01-01T00:00:00Z","name_a2s":"Uncletopia | London | 7 | No Payload","protocol":17,"map":"cp_sunshine","folder":"tf","game":"Team Fortress","app_id":440,"player_count":3,"max_players":24,"Bots":0,"server_type":"Dedicated","server_os":"Linux","password":true,"vac":true,"version":"7757534","steam_id":85568392924964314,"keywords":["cp","nocrits","nodmgspread","uncletopia"],"game_id":440,"stv_port":27076,"stv_name":"Uncletopia | London | 7 | No Payload | STV","players":[{"user_id":300,"name":"Spajro","steam_id":76561198257383813,"connected_time":134000000000,"state":"active","ping":45},{"user_id":301,"name":"he's not even good xd","steam_id":76561198148115584,"connected_time":133000000000,"state":"active","ping":69},{"user_id":302,"name":"andrew fade","steam_id":76561198857396812,"connected_time":130000000000,"state":"active","ping":47}]},{"server_id":41,"name":"Uncletopia | London | 8 | Community","name_short":"lon-8","host":"lon-1.uk.uncletopia.com","port":27085,"enabled":true,"region":"eu","cc":"gb","latitude":51.509865,"longitude":-0.118092,"reserved":0,"last_update":"0001-01-01T00:00:00Z","name_a2s":"Uncletopia | London | 8 | Community","protocol":17,"map":"workshop/koth_synthetic_rc6a.ugc1549817316","folder":"tf","game":"Team Fortress","app_id":440,"player_count":18,"max_players":24,"Bots":0,"server_type":"Dedicated","server_os":"Linux","password":true,"vac":true,"version":"7757534","steam_id":85568392924964315,"keywords":["cp","nocrits","nodmgspread","uncletopia"],"game_id":440,"stv_port":27086,"stv_name":"Uncletopia | London | 8 | Community | STV","players":[{"user_id":45,"name":"gabagool","steam_id":76561198307111838,"connected_time":124000000000,"state":"active","ping":44},{"user_id":44,"name":"Rohnus","steam_id":76561198074049934,"connected_time":127000000000,"state":"active","ping":54},{"user_id":36,"name":"met my wife in mge","steam_id":76561198869806001,"connected_time":452000000000,"state":"active","ping":85},{"user_id":32,"name":"dRumata","steam_id":76561198022150210,"connected_time":751000000000,"state":"active","ping":119},{"user_id":37,"name":"Your-Local-Guy","steam_id":76561198403607193,"connected_time":434000000000,"state":"active","ping":63},{"user_id":41,"name":"alshep00","steam_id":76561198079585198,"connected_time":152000000000,"state":"active","ping":52},{"user_id":23,"name":"Black Sheep","steam_id":76561198042244701,"connected_time":2822000000000,"state":"active","ping":58},{"user_id":40,"name":"Limeg210","steam_id":76561198152671630,"connected_time":297000000000,"state":"active","ping":98},{"user_id":30,"name":"Hypno_Flower","steam_id":76561199225893185,"connected_time":876000000000,"state":"active","ping":53},{"user_id":42,"name":"StabbyKnife","steam_id":76561198094010004,"connected_time":146000000000,"state":"active","ping":93},{"user_id":43,"name":"Swedde","steam_id":76561198297296440,"connected_time":136000000000,"state":"active","ping":57},{"user_id":46,"name":"gb5376365","steam_id":76561199467420989,"connected_time":107000000000,"state":"active","ping":50},{"user_id":47,"name":"Misterz","steam_id":76561198282994518,"connected_time":99000000000,"state":"active","ping":100},{"user_id":48,"name":"Markos","steam_id":76561198815203446,"connected_time":78000000000,"state":"active","ping":96},{"user_id":49,"name":"Shohi","steam_id":76561198080656840,"connected_time":72000000000,"state":"active","ping":56},{"user_id":50,"name":"Hector","steam_id":76561198028618586,"connected_time":14000000000,"state":"spawning","ping":175},{"user_id":51,"name":"Bored Man","steam_id":76561198027351619,"connected_time":10000000000,"state":"spawning","ping":105},{"user_id":52,"name":"MaÕ°ximÕúus","steam_id":76561197970986094,"connected_time":0,"state":"connecting","ping":0}]},{"server_id":300,"name":"Uncletopia | Montr√©al | 1 | All Maps","name_short":"mtl-1","host":"mtl-1.ca.uncletopia.com","port":27015,"enabled":true,"region":"us-east","cc":"ca","latitude":45.50889,"longitude":-73.56167,"reserved":0,"last_update":"0001-01-01T00:00:00Z","name_a2s":"Uncletopia | Montr√©al | 1 | All Maps","protocol":17,"map":"pl_snowycoast","folder":"tf","game":"Team Fortress","app_id":440,"player_count":0,"max_players":24,"Bots":0,"server_type":"Dedicated","server_os":"Linux","password":true,"vac":true,"version":"7757534","steam_id":85568392924500087,"keywords":["nocrits","nodmgspread","payload","uncletopia"],"game_id":440,"stv_port":27016,"stv_name":"Uncletopia | Montr√©al | 1 | All Maps | STV","players":null},{"server_id":301,"name":"Uncletopia | Montr√©al | 2 | All Maps","name_short":"mtl-2","host":"mtl-1.ca.uncletopia.com","port":27025,"enabled":true,"region":"us-east","cc":"ca","latitude":45.50889,"longitude":-73.56167,"reserved":0,"last_update":"0001-01-01T00:00:00Z","name_a2s":"Uncletopia | Montr√©al | 2 | All Maps","protocol":17,"map":"pl_snowycoast","folder":"tf","game":"Team Fortress","app_id":440,"player_count":0,"max_players":24,"Bots":0,"server_type":"Dedicated","server_os":"Linux","password":true,"vac":true,"version":"7757534","steam_id":85568392924500088,"keywords":["nocrits","nodmgspread","payload","uncletopia"],"game_id":440,"stv_port":27026,"stv_name":"Uncletopia | Montr√©al | 2 | All Maps | STV","players":null},{"server_id":302,"name":"Uncletopia | Montr√©al | 3 | All Maps","name_short":"mtl-3","host":"mtl-1.ca.uncletopia.com","port":27035,"enabled":true,"region":"us-east","cc":"ca","latitude":45.50889,"longitude":-73.56167,"reserved":0,"last_update":"0001-01-01T00:00:00Z","name_a2s":"Uncletopia | Montr√©al | 3 | All Maps","protocol":17,"map":"cp_dustbowl","folder":"tf","game":"Team Fortress","app_id":440,"player_count":0,"max_players":24,"Bots":0,"server_type":"Dedicated","server_os":"Linux","password":true,"vac":true,"version":"7757534","steam_id":85568392924500089,"keywords":["cp","nocrits","nodmgspread","uncletopia"],"game_id":440,"stv_port":27036,"stv_name":"Uncletopia | Montr√©al | 3 | All Maps | STV","players":null},{"server_id":303,"name":"Uncletopia | Montr√©al | 4 | No Payload","name_short":"mtl-4","host":"mtl-1.ca.uncletopia.com","port":27045,"enabled":true,"region":"us-east","cc":"ca","latitude":45.50889,"longitude":-73.56167,"reserved":0,"last_update":"0001-01-01T00:00:00Z","name_a2s":"Uncletopia | Montr√©al | 4 | No Payload","protocol":17,"map":"pl_borneo","folder":"tf","game":"Team Fortress","app_id":440,"player_count":0,"max_players":24,"Bots":0,"server_type":"Dedicated","server_os":"Linux","password":true,"vac":true,"version":"7757534","steam_id":85568392924500090,"keywords":["nocrits","nodmgspread","payload","uncletopia"],"game_id":440,"stv_port":27046,"stv_name":"Uncletopia | Montr√©al | 4 | No Payload | STV","players":null},{"server_id":13,"name":"Uncletopia | New York City | 1 | All Maps","name_short":"nyc-1","host":"nyc-1.us.uncletopia.com","port":27015,"enabled":true,"region":"us-east","cc":"us","latitude":40.73061,"longitude":-73.93524,"reserved":0,"last_update":"0001-01-01T00:00:00Z","name_a2s":"Uncletopia | New York City | 1 | All Maps","protocol":17,"map":"pl_upward","folder":"tf","game":"Team Fortress","app_id":440,"player_count":23,"max_players":24,"Bots":0,"server_type":"Dedicated","server_os":"Linux","password":true,"vac":true,"version":"7757534","steam_id":85568392924469993,"keywords":["nocrits","nodmgspread","payload","uncletopia"],"game_id":440,"stv_port":27016,"stv_name":"Uncletopia | New York City | 1 | All Maps | STV","players":[{"user_id":13,"name":"Nice21","steam_id":76561199427548141,"connected_time":2549000000000,"state":"active","ping":71},{"user_id":12,"name":"ssjrone600","steam_id":76561199208263809,"connected_time":2999000000000,"state":"active","ping":56},{"user_id":16,"name":"FreonAddict9x19","steam_id":76561198060010824,"connected_time":909000000000,"state":"active","ping":61},{"user_id":17,"name":"Laelaps","steam_id":76561198100061416,"connected_time":861000000000,"state":"active","ping":60},{"user_id":20,"name":"Arjen PSN 23","steam_id":76561198963682232,"connected_time":562000000000,"state":"active","ping":42},{"user_id":19,"name":"Nic0","steam_id":76561198305690218,"connected_time":672000000000,"state":"active","ping":51},{"user_id":21,"name":"TheWallaby","steam_id":76561198948037546,"connected_time":539000000000,"state":"active","ping":50},{"user_id":22,"name":"Lemur2016","steam_id":76561198194372906,"connected_time":505000000000,"state":"active","ping":56},{"user_id":23,"name":"rip muhammad ali","steam_id":76561198072640720,"connected_time":456000000000,"state":"active","ping":51},{"user_id":24,"name":"Kuddly Kay (She/Her)","steam_id":76561198353432576,"connected_time":370000000000,"state":"active","ping":117},{"user_id":25,"name":"Saber king of f2p's","steam_id":76561199146302602,"connected_time":301000000000,"state":"active","ping":58},{"user_id":26,"name":"Chipper","steam_id":76561199122454081,"connected_time":282000000000,"state":"active","ping":93},{"user_id":27,"name":"Birdman","steam_id":76561199105404502,"connected_time":277000000000,"state":"active","ping":88},{"user_id":28,"name":"Chechens Spotted","steam_id":76561199028910893,"connected_time":248000000000,"state":"active","ping":73},{"user_id":29,"name":"my shit smells better than you","steam_id":76561198986534519,"connected_time":237000000000,"state":"active","ping":106},{"user_id":32,"name":"woodrow","steam_id":76561198323702203,"connected_time":189000000000,"state":"active","ping":89},{"user_id":31,"name":"A Fruit","steam_id":76561198951830050,"connected_time":228000000000,"state":"active","ping":75},{"user_id":33,"name":"max","steam_id":76561198953695435,"connected_time":127000000000,"state":"active","ping":88},{"user_id":34,"name":"Ursus Ludius","steam_id":76561198025470722,"connected_time":113000000000,"state":"active","ping":71},{"user_id":35,"name":"Flyingmeadow","steam_id":76561198144687723,"connected_time":103000000000,"state":"active","ping":68},{"user_id":36,"name":"Ts0wl","steam_id":76561199164829066,"connected_time":78000000000,"state":"active","ping":83},{"user_id":37,"name":"Snugboo","steam_id":76561198147970327,"connected_time":71000000000,"state":"active","ping":43},{"user_id":38,"name":"Kep","steam_id":76561199215126029,"connected_time":69000000000,"state":"active","ping":79}]},{"server_id":14,"name":"Uncletopia | New York City | 2 | All Maps","name_short":"nyc-2","host":"nyc-1.us.uncletopia.com","port":27025,"enabled":true,"region":"us-east","cc":"us","latitude":40.73061,"longitude":-73.93524,"reserved":0,"last_update":"0001-01-01T00:00:00Z","name_a2s":"Uncletopia | New York City | 2 | All Maps","protocol":17,"map":"koth_suijin","folder":"tf","game":"Team Fortress","app_id":440,"player_count":23,"max_players":24,"Bots":0,"server_type":"Dedicated","server_os":"Linux","password":true,"vac":true,"version":"7757534","steam_id":85568392924469994,"keywords":["cp","nocrits","nodmgspread","uncletopia"],"game_id":440,"stv_port":27026,"stv_name":"Uncletopia | New York City | 2 | All Maps | STV","players":[{"user_id":211,"name":"BONZ","steam_id":76561199445629071,"connected_time":553000000000,"state":"active","ping":54},{"user_id":177,"name":"E-ferret","steam_id":76561198394134715,"connected_time":1944000000000,"state":"active","ping":67},{"user_id":191,"name":"puffy","steam_id":76561198411347037,"connected_time":1297000000000,"state":"active","ping":58},{"user_id":175,"name":"warewarewa","steam_id":76561197965022076,"connected_time":2021000000000,"state":"active","ping":45},{"user_id":205,"name":"craZend","steam_id":76561198848063795,"connected_time":871000000000,"state":"active","ping":79},{"user_id":215,"name":"Big plastic","steam_id":76561199082610233,"connected_time":0,"state":"spawning","ping":34},{"user_id":207,"name":"beastierbeast","steam_id":76561199030645530,"connected_time":812000000000,"state":"active","ping":85},{"user_id":194,"name":"i like the way Snrub thinks","steam_id":76561198043988179,"connected_time":1197000000000,"state":"active","ping":137},{"user_id":203,"name":"Sigiferd","steam_id":76561198148788110,"connected_time":911000000000,"state":"active","ping":118},{"user_id":192,"name":"Wyatt the Wallaby","steam_id":76561198151881388,"connected_time":1279000000000,"state":"active","ping":72},{"user_id":105,"name":"MILF Gaming","steam_id":76561198155378170,"connected_time":6801000000000,"state":"active","ping":56},{"user_id":195,"name":"Copter_Boy","steam_id":76561198322921312,"connected_time":1186000000000,"state":"active","ping":55},{"user_id":124,"name":"Convict Police Officers","steam_id":76561197993527275,"connected_time":5692000000000,"state":"active","ping":75},{"user_id":183,"name":"LuBzEur0b3ats","steam_id":76561199041041574,"connected_time":1642000000000,"state":"active","ping":60},{"user_id":146,"name":"uVeins","steam_id":76561198067445528,"connected_time":4171000000000,"state":"active","ping":57},{"user_id":214,"name":"hydrationing","steam_id":76561199429069267,"connected_time":15000000000,"state":"spawning","ping":46},{"user_id":209,"name":"tangytang","steam_id":76561197961697774,"connected_time":769000000000,"state":"active","ping":59},{"user_id":210,"name":"Taco Cabeza","steam_id":76561198880227689,"connected_time":762000000000,"state":"active","ping":48},{"user_id":213,"name":"ThatGamingKiwi","steam_id":76561199170522237,"connected_time":401000000000,"state":"active","ping":79},{"user_id":184,"name":"Nepp0","steam_id":76561198086966948,"connected_time":1557000000000,"state":"active","ping":66},{"user_id":161,"name":"Deterrent","steam_id":76561198256763734,"connected_time":3038000000000,"state":"active","ping":60},{"user_id":187,"name":"uncletopia is a psyop","steam_id":76561198056178518,"connected_time":1450000000000,"state":"active","ping":68},{"user_id":179,"name":"Peepster","steam_id":76561198297854733,"connected_time":1894000000000,"state":"active","ping":80}]},{"server_id":15,"name":"Uncletopia | New York City | 3 | Stopwatch Beta","name_short":"nyc-3","host":"nyc-1.us.uncletopia.com","port":27035,"enabled":true,"region":"us-east","cc":"us","latitude":40.73061,"longitude":-73.93524,"reserved":0,"last_update":"0001-01-01T00:00:00Z","name_a2s":"Uncletopia | New York City | 3 | Stopwatch Beta","protocol":17,"map":"koth_highpass","folder":"tf","game":"Team Fortress","app_id":440,"player_count":0,"max_players":24,"Bots":0,"server_type":"Dedicated","server_os":"Linux","password":true,"vac":true,"version":"7757534","steam_id":85568392924742820,"keywords":["cp","nocrits","nodmgspread","uncletopia"],"game_id":440,"stv_port":27036,"stv_name":"Uncletopia | New York City | 3 | Stopwatch Beta | STV","players":null},{"server_id":16,"name":"Uncletopia | New York City | 4 | Community","name_short":"nyc-4","host":"nyc-1.us.uncletopia.com","port":27045,"enabled":true,"region":"us-east","cc":"us","latitude":40.73061,"longitude":-73.93524,"reserved":0,"last_update":"0001-01-01T00:00:00Z","name_a2s":"Uncletopia | New York City | 4 | Community","protocol":17,"map":"workshop/pl_badwater_pro_v12.ugc2142942074","folder":"tf","game":"Team Fortress","app_id":440,"player_count":0,"max_players":24,"Bots":0,"server_type":"Dedicated","server_os":"Linux","password":true,"vac":true,"version":"7757534","steam_id":85568392924742821,"keywords":["nocrits","nodmgspread","payload","uncletopia"],"game_id":440,"stv_port":27046,"stv_name":"Uncletopia | New York City | 4 | Community | STV","players":null},{"server_id":142,"name":"Uncletopia | S√£o Paulo | 1 | All Maps","name_short":"sao-1","host":"sao-1.br.uncletopia.com","port":27015,"enabled":true,"region":"sa","cc":"br","latitude":-23.533773,"longitude":-46.62529,"reserved":0,"last_update":"0001-01-01T00:00:00Z","name_a2s":"Uncletopia | S√£o Paulo | 1 | All Maps","protocol":17,"map":"cp_snakewater_final1","folder":"tf","game":"Team Fortress","app_id":440,"player_count":0,"max_players":24,"Bots":0,"server_type":"Dedicated","server_os":"Linux","password":true,"vac":true,"version":"7757534","steam_id":85568392924469996,"keywords":["cp","nocrits","nodmgspread","uncletopia"],"game_id":440,"stv_port":27016,"stv_name":"Uncletopia | S√£o Paulo | 1 | All Maps | STV","players":null},{"server_id":143,"name":"Uncletopia | S√£o Paulo | 2 | All Maps","name_short":"sao-2","host":"sao-2.br.uncletopia.com","port":27015,"enabled":true,"region":"sa","cc":"br","latitude":-23.533773,"longitude":-46.62529,"reserved":0,"last_update":"0001-01-01T00:00:00Z","name_a2s":"Uncletopia | S√£o Paulo | 2 | All Maps","protocol":17,"map":"pl_swiftwater_final1","folder":"tf","game":"Team Fortress","app_id":440,"player_count":0,"max_players":24,"Bots":0,"server_type":"Dedicated","server_os":"Linux","password":true,"vac":true,"version":"7757534","steam_id":85568392924485349,"keywords":["nocrits","nodmgspread","payload","uncletopia"],"game_id":440,"stv_port":27016,"stv_name":"Uncletopia | S√£o Paulo | 2 | All Maps | STV","players":null},{"server_id":7,"name":"Uncletopia | Seattle | 1 | All Maps","name_short":"sea-1","host":"sea-1.us.uncletopia.com","port":27015,"enabled":true,"region":"us-west","cc":"us","latitude":47.608013,"longitude":-122.33517,"reserved":0,"last_update":"0001-01-01T00:00:00Z","name_a2s":"Uncletopia | Seattle | 1 | All Maps","protocol":17,"map":"pl_badwater","folder":"tf","game":"Team Fortress","app_id":440,"player_count":24,"max_players":24,"Bots":0,"server_type":"Dedicated","server_os":"Linux","password":true,"vac":true,"version":"7757534","steam_id":85568392924469997,"keywords":["nocrits","nodmgspread","payload","uncletopia"],"game_id":440,"stv_port":27016,"stv_name":"Uncletopia | Seattle | 1 | All Maps | STV","players":[{"user_id":200,"name":"Whizzo the Clown","steam_id":76561197995910627,"connected_time":1415000000000,"state":"active","ping":138},{"user_id":170,"name":"Surly Joe","steam_id":76561199150833796,"connected_time":2944000000000,"state":"active","ping":92},{"user_id":206,"name":"Donkey Kong Mug","steam_id":76561199472118589,"connected_time":611000000000,"state":"active","ping":133},{"user_id":9,"name":"Little Linguine","steam_id":76561198816986370,"connected_time":13131000000000,"state":"active","ping":124},{"user_id":167,"name":"Ryld","steam_id":76561198010174380,"connected_time":3085000000000,"state":"active","ping":64},{"user_id":192,"name":"noraneko","steam_id":76561198025418738,"connected_time":1767000000000,"state":"active","ping":45},{"user_id":204,"name":"K.A.R.M.A.","steam_id":76561198240750142,"connected_time":673000000000,"state":"active","ping":74},{"user_id":180,"name":"Cam(era)","steam_id":76561198285054047,"connected_time":2441000000000,"state":"active","ping":78},{"user_id":195,"name":"rlty","steam_id":76561198009395055,"connected_time":1683000000000,"state":"active","ping":118},{"user_id":168,"name":"pat back","steam_id":76561198347225801,"connected_time":3052000000000,"state":"active","ping":45},{"user_id":205,"name":"Burning Godzilla 2042","steam_id":76561198870835557,"connected_time":672000000000,"state":"active","ping":112},{"user_id":208,"name":"the watcher","steam_id":76561198870649125,"connected_time":43000000000,"state":"active","ping":78},{"user_id":99,"name":"The Classy Ferret","steam_id":76561198200961750,"connected_time":7218000000000,"state":"active","ping":73},{"user_id":196,"name":"Civilian","steam_id":76561198153573947,"connected_time":1681000000000,"state":"active","ping":89},{"user_id":202,"name":"land0","steam_id":76561198321264704,"connected_time":1083000000000,"state":"active","ping":82},{"user_id":178,"name":"Paco","steam_id":76561198023504958,"connected_time":2778000000000,"state":"active","ping":120},{"user_id":207,"name":"Flame","steam_id":76561198324128398,"connected_time":396000000000,"state":"active","ping":114},{"user_id":198,"name":"John","steam_id":76561198050348944,"connected_time":1673000000000,"state":"active","ping":129},{"user_id":176,"name":"b4rry","steam_id":76561198365887154,"connected_time":2930000000000,"state":"active","ping":123},{"user_id":169,"name":"FUSION","steam_id":76561197972659738,"connected_time":2978000000000,"state":"active","ping":117},{"user_id":186,"name":"Hertz Donut","steam_id":76561197983040945,"connected_time":2212000000000,"state":"active","ping":113},{"user_id":164,"name":"Themasterman75","steam_id":76561199385573293,"connected_time":3327000000000,"state":"active","ping":70},{"user_id":199,"name":"Rostovne","steam_id":76561198050293434,"connected_time":1661000000000,"state":"active","ping":121},{"user_id":188,"name":"Hippo","steam_id":76561198309681901,"connected_time":1933000000000,"state":"active","ping":87}]},{"server_id":119,"name":"Uncletopia | Seattle | 2 | All Maps","name_short":"sea-2","host":"sea-1.us.uncletopia.com","port":27025,"enabled":true,"region":"us-west","cc":"us","latitude":47.608013,"longitude":-122.33517,"reserved":0,"last_update":"0001-01-01T00:00:00Z","name_a2s":"Uncletopia | Seattle | 2 | All Maps","protocol":17,"map":"pl_pier","folder":"tf","game":"Team Fortress","app_id":440,"player_count":11,"max_players":24,"Bots":0,"server_type":"Dedicated","server_os":"Linux","password":true,"vac":true,"version":"7757534","steam_id":85568392924469998,"keywords":["nocrits","nodmgspread","payload","uncletopia"],"game_id":440,"stv_port":27026,"stv_name":"Uncletopia | Seattle | 2 | All Maps | STV","players":[{"user_id":205,"name":"N.A.T.O","steam_id":76561198076749999,"connected_time":35000000000,"state":"active","ping":84},{"user_id":131,"name":"THE NUT","steam_id":76561198067813626,"connected_time":5888000000000,"state":"active","ping":48},{"user_id":194,"name":"canakblasteran","steam_id":76561199472518822,"connected_time":339000000000,"state":"active","ping":99},{"user_id":154,"name":"Lolxdloldx","steam_id":76561198136887125,"connected_time":3602000000000,"state":"active","ping":92},{"user_id":184,"name":"OH JIMMY I'M HOME #SaveTf2","steam_id":76561198396658806,"connected_time":1043000000000,"state":"active","ping":82},{"user_id":195,"name":"mu","steam_id":76561197997530228,"connected_time":336000000000,"state":"active","ping":51},{"user_id":62,"name":"Casual Vore","steam_id":76561197999045683,"connected_time":10201000000000,"state":"active","ping":38},{"user_id":196,"name":"Dasiy","steam_id":76561199214783841,"connected_time":315000000000,"state":"active","ping":125},{"user_id":193,"name":"SOUPTF2","steam_id":76561198304230194,"connected_time":480000000000,"state":"active","ping":95},{"user_id":197,"name":"He whose head grows the fingers","steam_id":76561198043790938,"connected_time":186000000000,"state":"active","ping":66},{"user_id":167,"name":"Coach McFish","steam_id":76561198210456405,"connected_time":2850000000000,"state":"active","ping":135}]},{"server_id":406,"name":"Uncletopia | Seattle | 3 | Stopwatch Beta","name_short":"sea-3","host":"sea-1.us.uncletopia.com","port":27035,"enabled":true,"region":"us-west","cc":"us","latitude":47.608013,"longitude":-122.33517,"reserved":0,"last_update":"0001-01-01T00:00:00Z","name_a2s":"Uncletopia | Seattle | 3 | Stopwatch Beta","protocol":17,"map":"pl_barnblitz","folder":"tf","game":"Team Fortress","app_id":440,"player_count":0,"max_players":24,"Bots":0,"server_type":"Dedicated","server_os":"Linux","password":true,"vac":true,"version":"7757534","steam_id":85568392924515217,"keywords":["nocrits","nodmgspread","payload","uncletopia"],"game_id":440,"stv_port":27036,"stv_name":"Uncletopia | Seattle | 3 | Stopwatch Beta | STV","players":null},{"server_id":17,"name":"Uncletopia | San Francisco | 1 | All Maps","name_short":"sfo-1","host":"sfo-1.us.uncletopia.com","port":27015,"enabled":true,"region":"us-west","cc":"us","latitude":37.77397,"longitude":-122.4313,"reserved":0,"last_update":"0001-01-01T00:00:00Z","name_a2s":"Uncletopia | San Francisco | 1 | All Maps","protocol":17,"map":"pl_badwater","folder":"tf","game":"Team Fortress","app_id":440,"player_count":0,"max_players":24,"Bots":0,"server_type":"Dedicated","server_os":"Linux","password":true,"vac":true,"version":"7757534","steam_id":85568392924469999,"keywords":["nocrits","nodmgspread","payload","uncletopia"],"game_id":440,"stv_port":27016,"stv_name":"Uncletopia | San Francisco | 1 | All Maps | STV","players":null},{"server_id":18,"name":"Uncletopia | San Francisco | 2 | All Maps","name_short":"sfo-2","host":"sfo-1.us.uncletopia.com","port":27025,"enabled":true,"region":"us-west","cc":"us","latitude":37.77397,"longitude":-122.4313,"reserved":0,"last_update":"0001-01-01T00:00:00Z","name_a2s":"Uncletopia | San Francisco | 2 | All Maps","protocol":17,"map":"koth_cascade","folder":"tf","game":"Team Fortress","app_id":440,"player_count":0,"max_players":24,"Bots":0,"server_type":"Dedicated","server_os":"Linux","password":true,"vac":true,"version":"7757534","steam_id":85568392924470000,"keywords":["cp","nocrits","nodmgspread","uncletopia"],"game_id":440,"stv_port":27026,"stv_name":"Uncletopia | San Francisco | 2 | All Maps | STV","players":null},{"server_id":19,"name":"Uncletopia | San Francisco | 3 | Stopwatch Beta","name_short":"sfo-3","host":"sfo-1.us.uncletopia.com","port":27035,"enabled":true,"region":"us-west","cc":"us","latitude":37.77397,"longitude":-122.4313,"reserved":0,"last_update":"0001-01-01T00:00:00Z","name_a2s":"Uncletopia | San Francisco | 3 | Stopwatch Beta","protocol":17,"map":"pl_borneo","folder":"tf","game":"Team Fortress","app_id":440,"player_count":0,"max_players":24,"Bots":0,"server_type":"Dedicated","server_os":"Linux","password":true,"vac":true,"version":"7757534","steam_id":85568392924742824,"keywords":["nocrits","nodmgspread","payload","uncletopia"],"game_id":440,"stv_port":27036,"stv_name":"Uncletopia | San Francisco | 3 | Stopwatch Beta | STV","players":null},{"server_id":20,"name":"Uncletopia | San Francisco | 4 | Community","name_short":"sfo-4","host":"sfo-1.us.uncletopia.com","port":27045,"enabled":true,"region":"us-west","cc":"us","latitude":37.77397,"longitude":-122.4313,"reserved":0,"last_update":"0001-01-01T00:00:00Z","name_a2s":"Uncletopia | San Francisco | 4 | Community","protocol":17,"map":"koth_highpass","folder":"tf","game":"Team Fortress","app_id":440,"player_count":0,"max_players":24,"Bots":0,"server_type":"Dedicated","server_os":"Linux","password":true,"vac":true,"version":"7757534","steam_id":85568392924742826,"keywords":["cp","nocrits","nodmgspread","uncletopia"],"game_id":440,"stv_port":27046,"stv_name":"Uncletopia | San Francisco | 4 | Community | STV","players":null},{"server_id":141,"name":"Uncletopia | Sydney | 1 | All Maps","name_short":"syd-1","host":"syd-1.au.uncletopia.com","port":27015,"enabled":true,"region":"au","cc":"au","latitude":-33.865143,"longitude":151.2099,"reserved":0,"last_update":"0001-01-01T00:00:00Z","name_a2s":"Uncletopia | Sydney | 1 | All Maps","protocol":17,"map":"koth_highpass","folder":"tf","game":"Team Fortress","app_id":440,"player_count":0,"max_players":24,"Bots":0,"server_type":"Dedicated","server_os":"Linux","password":true,"vac":true,"version":"7757534","steam_id":85568392924470001,"keywords":["cp","nocrits","nodmgspread","uncletopia"],"game_id":440,"stv_port":27016,"stv_name":"Uncletopia | Sydney | 1 | All Maps | STV","players":null},{"server_id":123,"name":"Uncletopia | Sydney | 2 | All Maps","name_short":"syd-2","host":"syd-1.au.uncletopia.com","port":27025,"enabled":true,"region":"au","cc":"au","latitude":-33.865143,"longitude":151.2099,"reserved":0,"last_update":"0001-01-01T00:00:00Z","name_a2s":"Uncletopia | Sydney | 2 | All Maps","protocol":17,"map":"koth_viaduct","folder":"tf","game":"Team Fortress","app_id":440,"player_count":0,"max_players":24,"Bots":0,"server_type":"Dedicated","server_os":"Linux","password":true,"vac":true,"version":"7757534","steam_id":85568392924470002,"keywords":["cp","nocrits","nodmgspread","uncletopia"],"game_id":440,"stv_port":27026,"stv_name":"Uncletopia | Sydney | 2 | All Maps | STV","players":null},{"server_id":395,"name":"Uncletopia | Sydney | 3 | All Maps","name_short":"syd-3","host":"syd-1.au.uncletopia.com","port":27035,"enabled":true,"region":"au","cc":"au","latitude":-33.865143,"longitude":151.2099,"reserved":0,"last_update":"0001-01-01T00:00:00Z","name_a2s":"Uncletopia | Sydney | 3 | All Maps","protocol":17,"map":"cp_altitude","folder":"tf","game":"Team Fortress","app_id":440,"player_count":0,"max_players":24,"Bots":0,"server_type":"Dedicated","server_os":"Linux","password":true,"vac":true,"version":"7757534","steam_id":85568392925194467,"keywords":["cp","nocrits","nodmgspread","uncletopia"],"game_id":440,"stv_port":27036,"stv_name":"Uncletopia | Sydney | 3 | All Maps | STV","players":null},{"server_id":396,"name":"Uncletopia | Sydney | 4 | All Maps","name_short":"syd-4","host":"syd-1.au.uncletopia.com","port":27045,"enabled":true,"region":"au","cc":"au","latitude":-33.865143,"longitude":151.2099,"reserved":0,"last_update":"0001-01-01T00:00:00Z","name_a2s":"Uncletopia | Sydney | 4 | All Maps","protocol":17,"map":"koth_viaduct","folder":"tf","game":"Team Fortress","app_id":440,"player_count":0,"max_players":24,"Bots":0,"server_type":"Dedicated","server_os":"Linux","password":true,"vac":true,"version":"7757534","steam_id":85568392925397958,"keywords":["cp","nocrits","nodmgspread","uncletopia"],"game_id":440,"stv_port":27046,"stv_name":"Uncletopia | Sydney | 4 | All Maps | STV","players":null},{"server_id":58,"name":"Uncletopia | Sydney | 5 | Stopwatch Beta","name_short":"syd-5","host":"syd-1.au.uncletopia.com","port":27055,"enabled":true,"region":"au","cc":"au","latitude":-33.865143,"longitude":151.2099,"reserved":0,"last_update":"0001-01-01T00:00:00Z","name_a2s":"Uncletopia | Sydney | 5 | Stopwatch Beta","protocol":17,"map":"workshop/koth_ramjam_rc1.ugc459778887","folder":"tf","game":"Team Fortress","app_id":440,"player_count":0,"max_players":24,"Bots":0,"server_type":"Dedicated","server_os":"Linux","password":true,"vac":true,"version":"7757534","steam_id":85568392925397959,"keywords":["cp","nocrits","nodmgspread","uncletopia"],"game_id":440,"stv_port":27056,"stv_name":"Uncletopia | Sydney | 5 | Stopwatch Beta | STV","players":null},{"server_id":59,"name":"Uncletopia | Sydney | 6 | Community","name_short":"syd-6","host":"syd-1.au.uncletopia.com","port":27065,"enabled":true,"region":"au","cc":"au","latitude":-33.865143,"longitude":151.2099,"reserved":0,"last_update":"0001-01-01T00:00:00Z","name_a2s":"Uncletopia | Sydney | 6 | Community","protocol":17,"map":"cp_sunshine","folder":"tf","game":"Team Fortress","app_id":440,"player_count":0,"max_players":24,"Bots":0,"server_type":"Dedicated","server_os":"Linux","password":true,"vac":true,"version":"7757534","steam_id":85568392925397960,"keywords":["cp","nocrits","nodmgspread","uncletopia"],"game_id":440,"stv_port":27066,"stv_name":"Uncletopia | Sydney | 6 | Community | STV","players":null},{"server_id":49,"name":"Uncletopia | Warsaw | 1 | All Maps","name_short":"waw-1","host":"waw-1.pl.uncletopia.com","port":27015,"enabled":true,"region":"eu","cc":"pl","latitude":52.2297,"longitude":21.017532,"reserved":0,"last_update":"0001-01-01T00:00:00Z","name_a2s":"","protocol":0,"map":"","folder":"","game":"","app_id":0,"player_count":0,"max_players":0,"Bots":0,"server_type":"","server_os":"","password":false,"vac":false,"version":"","steam_id":0,"keywords":null,"game_id":0,"stv_port":0,"stv_name":"","players":null},{"server_id":50,"name":"Uncletopia | Warsaw | 2 | All Maps","name_short":"waw-2","host":"waw-1.pl.uncletopia.com","port":27025,"enabled":true,"region":"eu","cc":"pl","latitude":52.2297,"longitude":21.017532,"reserved":0,"last_update":"0001-01-01T00:00:00Z","name_a2s":"Uncletopia | Warsaw | 2 | All Maps","protocol":17,"map":"koth_viaduct","folder":"tf","game":"Team Fortress","app_id":440,"player_count":0,"max_players":24,"Bots":0,"server_type":"Dedicated","server_os":"Linux","password":true,"vac":true,"version":"7757534","steam_id":85568392925397851,"keywords":["cp","nocrits","nodmgspread","uncletopia"],"game_id":440,"stv_port":27026,"stv_name":"Uncletopia | Warsaw | 2 | All Maps | STV","players":null},{"server_id":51,"name":"Uncletopia | Warsaw | 3 | All Maps","name_short":"waw-3","host":"waw-1.pl.uncletopia.com","port":27035,"enabled":true,"region":"eu","cc":"pl","latitude":52.2297,"longitude":21.017532,"reserved":0,"last_update":"0001-01-01T00:00:00Z","name_a2s":"Uncletopia | Warsaw | 3 | All Maps","protocol":17,"map":"koth_cascade","folder":"tf","game":"Team Fortress","app_id":440,"player_count":0,"max_players":24,"Bots":0,"server_type":"Dedicated","server_os":"Linux","password":true,"vac":true,"version":"7757534","steam_id":85568392925397852,"keywords":["cp","nocrits","nodmgspread","uncletopia"],"game_id":440,"stv_port":27036,"stv_name":"Uncletopia | Warsaw | 3 | All Maps | STV","players":null},{"server_id":52,"name":"Uncletopia | Warsaw | 4 | All Maps","name_short":"waw-4","host":"waw-1.pl.uncletopia.com","port":27045,"enabled":true,"region":"eu","cc":"pl","latitude":52.2297,"longitude":21.017532,"reserved":0,"last_update":"0001-01-01T00:00:00Z","name_a2s":"Uncletopia | Warsaw | 4 | All Maps","protocol":17,"map":"koth_lakeside_final","folder":"tf","game":"Team Fortress","app_id":440,"player_count":1,"max_players":24,"Bots":0,"server_type":"Dedicated","server_os":"Linux","password":true,"vac":true,"version":"7757534","steam_id":85568392925397853,"keywords":["cp","nocrits","nodmgspread","uncletopia"],"game_id":440,"stv_port":27046,"stv_name":"Uncletopia | Warsaw | 4 | All Maps | STV","players":[{"user_id":11,"name":"KARADAYI","steam_id":76561198167594061,"connected_time":323000000000,"state":"active","ping":101}]},{"server_id":53,"name":"Uncletopia | Warsaw | 5 | Stopwatch Beta","name_short":"waw-5","host":"waw-1.pl.uncletopia.com","port":27055,"enabled":true,"region":"eu","cc":"pl","latitude":52.2297,"longitude":21.017532,"reserved":0,"last_update":"0001-01-01T00:00:00Z","name_a2s":"Uncletopia | Warsaw | 5 | Stopwatch Beta","protocol":17,"map":"pl_barnblitz","folder":"tf","game":"Team Fortress","app_id":440,"player_count":0,"max_players":24,"Bots":0,"server_type":"Dedicated","server_os":"Linux","password":true,"vac":true,"version":"7757534","steam_id":85568392925397854,"keywords":["nocrits","nodmgspread","payload","uncletopia"],"game_id":440,"stv_port":27056,"stv_name":"Uncletopia | Warsaw | 5 | Stopwatch Beta | STV","players":null},{"server_id":54,"name":"Uncletopia | Warsaw | 6 | Community","name_short":"waw-6","host":"waw-1.pl.uncletopia.com","port":27065,"enabled":true,"region":"eu","cc":"pl","latitude":52.2297,"longitude":21.017532,"reserved":0,"last_update":"0001-01-01T00:00:00Z","name_a2s":"Uncletopia | Warsaw | 6 | Community","protocol":17,"map":"workshop/koth_bagel_rc5.ugc2514036946","folder":"tf","game":"Team Fortress","app_id":440,"player_count":0,"max_players":24,"Bots":0,"server_type":"Dedicated","server_os":"Linux","password":true,"vac":true,"version":"7757534","steam_id":85568392925397856,"keywords":["cp","nocrits","nodmgspread","uncletopia"],"game_id":440,"stv_port":27066,"stv_name":"Uncletopia | Warsaw | 6 | Community | STV","players":null}]}