{"status":true,"message":"","result":[{"server_id":9,"name":"Uncletopia | Atlanta | 1 | All Maps","name_short":"atl-1","host":"atl-1.us.uncletopia.com","port":27015,"enabled":true,"region":"us-east","cc":"us","latitude":33.753746,"longitude":-84.38633,"reserved":0,"last_update":"0001-01-01T00:00:00Z","name_a2s":"Uncletopia | Atlanta | 1 | All Maps","protocol":17,"map":"ctf_landfall","folder":"tf","game":"Team Fortress","app_id":440,"player_count":23,"max_players":24,"Bots":0,"server_type":"Dedicated","server_os":"Linux","password":true,"vac":true,"version":"7882260","steam_id":85568392924469982,"keywords":["ctf","nocrits","nodmgspread","uncletopia"],"game_id":440,"stv_port":27016,"stv_name":"Uncletopia | Atlanta | 1 | All Maps | STV","players":[{"user_id":285,"name":"Onyx","steam_id":76561198275349640,"connected_time":15035000000000,"state":"active","ping":74},{"user_id":333,"name":"Dog","steam_id":76561198043431819,"connected_time":8524000000000,"state":"active","ping":69},{"user_id":387,"name":"APlasticBag","steam_id":76561198205389735,"connected_time":3674000000000,"state":"active","ping":108},{"user_id":317,"name":"cola","steam_id":76561198374390458,"connected_time":10677000000000,"state":"active","ping":60},{"user_id":395,"name":"bogginwater","steam_id":76561198155547142,"connected_time":3156000000000,"state":"active","ping":65},{"user_id":403,"name":"Jin","steam_id":76561198119873148,"connected_time":2517000000000,"state":"active","ping":75},{"user_id":385,"name":"Eazy_Peazy16","steam_id":76561198079056194,"connected_time":4030000000000,"state":"active","ping":73},{"user_id":411,"name":"Wheely Williams","steam_id":76561198880523320,"connected_time":832000000000,"state":"active","ping":84},{"user_id":420,"name":"Javelin","steam_id":76561198068782818,"connected_time":380000000000,"state":"active","ping":92},{"user_id":388,"name":"D(b) Hell","steam_id":76561198067869016,"connected_time":3650000000000,"state":"active","ping":62},{"user_id":425,"name":"tesagi","steam_id":76561198026664629,"connected_time":214000000000,"state":"active","ping":59},{"user_id":430,"name":"SuperNovaFox","steam_id":76561198052172564,"connected_time":62000000000,"state":"active","ping":76},{"user_id":335,"name":"Nox(She/They)","steam_id":76561198141950842,"connected_time":8523000000000,"state":"active","ping":40},{"user_id":419,"name":"Bewen","steam_id":76561198325334261,"connected_time":513000000000,"state":"active","ping":61},{"user_id":408,"name":"emily","steam_id":76561198148132163,"connected_time":1531000000000,"state":"active","ping":77},{"user_id":423,"name":"GoodOldGamer9","steam_id":76561198813216699,"connected_time":300000000000,"state":"active","ping":72},{"user_id":393,"name":"Save your wifi","steam_id":76561198286147372,"connected_time":3223000000000,"state":"active","ping":57},{"user_id":426,"name":"Papyrus gaming","steam_id":76561199204337708,"connected_time":209000000000,"state":"active","ping":82},{"user_id":394,"name":"Skinny pete","steam_id":76561198801608576,"connected_time":3177000000000,"state":"active","ping":74},{"user_id":384,"name":"Karma","steam_id":76561198030565234,"connected_time":4104000000000,"state":"active","ping":79},{"user_id":427,"name":"shaderoses","steam_id":76561198070800500,"connected_time":192000000000,"state":"active","ping":62},{"user_id":428,"name":"stupid little idiot","steam_id":76561199015781176,"connected_time":182000000000,"state":"active","ping":90},{"user_id":392,"name":"Lucky","steam_id":76561198418262145,"connected_time":3316000000000,"state":"active","ping":113}]},{"server_id":104,"name":"Uncletopia | Atlanta | 2 | All Maps","name_short":"atl-2","host":"atl-1.us.uncletopia.com","port":27025,"enabled":true,"region":"us-east","cc":"us","latitude":33.753746,"longitude":-84.38633,"reserved":0,"last_update":"0001-01-01T00:00:00Z","name_a2s":"Uncletopia | Atlanta | 2 | All Maps","protocol":17,"map":"pl_pier","folder":"tf","game":"Team Fortress","app_id":440,"player_count":24,"max_players":24,"Bots":0,"server_type":"Dedicated","server_os":"Linux","password":true,"vac":true,"version":"7882260","steam_id":85568392924469983,"keywords":["nocrits","nodmgspread","payload","uncletopia"],"game_id":440,"stv_port":27026,"stv_name":"Uncletopia | Atlanta | 2 | All Maps | STV","players":[{"user_id":328,"name":"anBee","steam_id":76561198050760807,"connected_time":1732000000000,"state":"active","ping":122},{"user_id":329,"name":"Monkey Mode","steam_id":76561197961267543,"connected_time":1725000000000,"state":"active","ping":58},{"user_id":346,"name":"the silly","steam_id":76561198850632709,"connected_time":510000000000,"state":"active","ping":66},{"user_id":347,"name":"nayonhaha","steam_id":76561198066507360,"connected_time":478000000000,"state":"active","ping":62},{"user_id":348,"name":"Ligmus Sigmus","steam_id":76561198168946002,"connected_time":441000000000,"state":"active","ping":52},{"user_id":349,"name":"helen keller","steam_id":76561197979870540,"connected_time":374000000000,"state":"active","ping":71},{"user_id":331,"name":"Cherry Bomb!","steam_id":76561198017947020,"connected_time":1593000000000,"state":"active","ping":48},{"user_id":327,"name":"troll","steam_id":76561198040890252,"connected_time":1779000000000,"state":"active","ping":54},{"user_id":332,"name":"Kasodani Kyouko","steam_id":76561198023178589,"connected_time":1592000000000,"state":"active","ping":98},{"user_id":333,"name":"saber","steam_id":76561197980089457,"connected_time":1576000000000,"state":"active","ping":96},{"user_id":356,"name":"Tejo","steam_id":76561198200617911,"connected_time":149000000000,"state":"active","ping":75},{"user_id":341,"name":"soof","steam_id":76561198043762955,"connected_time":1286000000000,"state":"active","ping":84},{"user_id":324,"name":"GingerIsTheThing","steam_id":76561198801787983,"connected_time":1939000000000,"state":"active","ping":77},{"user_id":358,"name":"Prsm","steam_id":76561198053344995,"connected_time":76000000000,"state":"active","ping":60},{"user_id":336,"name":"Rat Brain Solar Probe","steam_id":76561197995191233,"connected_time":1558000000000,"state":"active","ping":111},{"user_id":352,"name":"StarManMatt","steam_id":76561198125513574,"connected_time":310000000000,"state":"active","ping":87},{"user_id":323,"name":"OOJW801","steam_id":76561198191884159,"connected_time":2015000000000,"state":"active","ping":87},{"user_id":355,"name":"froGG Townze","steam_id":76561198081827165,"connected_time":205000000000,"state":"active","ping":66},{"user_id":357,"name":"OH GOD OH FUCK!!","steam_id":76561198055445565,"connected_time":138000000000,"state":"active","ping":178},{"user_id":343,"name":"Glar","steam_id":76561198341907150,"connected_time":1254000000000,"state":"active","ping":92},{"user_id":354,"name":"basmati jarate","steam_id":76561198319442494,"connected_time":255000000000,"state":"active","ping":116},{"user_id":340,"name":"Comfy Monkey","steam_id":76561197998434936,"connected_time":1345000000000,"state":"active","ping":47},{"user_id":267,"name":"TruffleShuffl","steam_id":76561198833742625,"connected_time":6031000000000,"state":"active","ping":122},{"user_id":345,"name":"lost in spaaaaace","steam_id":76561199085974120,"connected_time":1137000000000,"state":"active","ping":69}]},{"server_id":400,"name":"Uncletopia | Atlanta | 3 | Community","name_short":"atl-3","host":"atl-1.us.uncletopia.com","port":27035,"enabled":true,"region":"us-east","cc":"us","latitude":33.753746,"longitude":-84.38633,"reserved":0,"last_update":"0001-01-01T00:00:00Z","name_a2s":"Uncletopia | Atlanta | 3 | Community","protocol":17,"map":"workshop/pl_highwood_b13.ugc1769496557","folder":"tf","game":"Team Fortress","app_id":440,"player_count":22,"max_players":24,"Bots":0,"server_type":"Dedicated","server_os":"Linux","password":true,"vac":true,"version":"7882260","steam_id":85568392924515187,"keywords":["nocrits","nodmgspread","payload","uncletopia"],"game_id":440,"stv_port":27036,"stv_name":"Uncletopia | Atlanta | 3 | Community | STV","players":[{"user_id":693,"name":"maturefuch","steam_id":76561198965463096,"connected_time":599000000000,"state":"active","ping":104},{"user_id":679,"name":"GravyPouch","steam_id":76561198067539038,"connected_time":1543000000000,"state":"active","ping":68},{"user_id":694,"name":"ItsBrieDude","steam_id":76561198051971306,"connected_time":568000000000,"state":"active","ping":44},{"user_id":686,"name":"Kdash","steam_id":76561198043829155,"connected_time":1081000000000,"state":"active","ping":92},{"user_id":687,"name":"MrSyNx","steam_id":76561198215640747,"connected_time":970000000000,"state":"active","ping":68},{"user_id":688,"name":"SleepyT","steam_id":76561198042272576,"connected_time":918000000000,"state":"active","ping":59},{"user_id":689,"name":"PacoTaco","steam_id":76561198215649505,"connected_time":904000000000,"state":"active","ping":84},{"user_id":626,"name":"lucin","steam_id":76561198258062078,"connected_time":5388000000000,"state":"active","ping":60},{"user_id":653,"name":"CassieCarryd","steam_id":76561198092048062,"connected_time":3021000000000,"state":"active","ping":80},{"user_id":690,"name":"Sibbs","steam_id":76561198099021235,"connected_time":785000000000,"state":"active","ping":64},{"user_id":656,"name":"Where The F**K I Am?","steam_id":76561197986530028,"connected_time":2847000000000,"state":"active","ping":110},{"user_id":657,"name":"Dawg","steam_id":76561198214090164,"connected_time":2799000000000,"state":"active","ping":67},{"user_id":658,"name":"Samrizo el Chorizo","steam_id":76561198009838162,"connected_time":2788000000000,"state":"active","ping":69},{"user_id":681,"name":"EnfieldTheEnigmatic","steam_id":76561198277794879,"connected_time":1364000000000,"state":"active","ping":86},{"user_id":561,"name":"Reverie","steam_id":76561198987005784,"connected_time":10650000000000,"state":"active","ping":79},{"user_id":699,"name":"crashymicsplody","steam_id":76561198213916765,"connected_time":68000000000,"state":"active","ping":89},{"user_id":692,"name":"firstlastmcgee","steam_id":76561198170187989,"connected_time":759000000000,"state":"active","ping":96},{"user_id":695,"name":"etahn","steam_id":76561199112620038,"connected_time":563000000000,"state":"active","ping":100},{"user_id":682,"name":"Dog Cheeks","steam_id":76561198353478423,"connected_time":1351000000000,"state":"active","ping":96},{"user_id":670,"name":"The Chosen One","steam_id":76561199046984627,"connected_time":2446000000000,"state":"active","ping":72},{"user_id":684,"name":"DinoFan11902","steam_id":76561198260348654,"connected_time":1281000000000,"state":"active","ping":90},{"user_id":698,"name":"catrinaisahuman","steam_id":76561198281355729,"connected_time":166000000000,"state":"active","ping":88}]},{"server_id":401,"name":"Uncletopia | Atlanta | 4 | No Payload","name_short":"atl-4","host":"atl-1.us.uncletopia.com","port":27045,"enabled":true,"region":"us-east","cc":"us","latitude":33.753746,"longitude":-84.38633,"reserved":0,"last_update":"0001-01-01T00:00:00Z","name_a2s":"","protocol":0,"map":"","folder":"","game":"","app_id":0,"player_count":0,"max_players":0,"Bots":0,"server_type":"","server_os":"","password":false,"vac":false,"version":"","steam_id":0,"keywords":null,"game_id":0,"stv_port":0,"stv_name":"","players":null},{"server_id":2,"name":"Uncletopia | Chicago | 1 | All Maps","name_short":"chi-1","host":"chi-1.us.uncletopia.com","port":27015,"enabled":true,"region":"us-central","cc":"us","latitude":41.881832,"longitude":-87.62318,"reserved":0,"last_update":"0001-01-01T00:00:00Z","name_a2s":"Uncletopia | Chicago | 1 | All Maps","protocol":17,"map":"pl_frontier_final","folder":"tf","game":"Team Fortress","app_id":440,"player_count":22,"max_players":24,"Bots":0,"server_type":"Dedicated","server_os":"Linux","password":true,"vac":true,"version":"7882260","steam_id":85568392924469984,"keywords":["nocrits","nodmgspread","payload","uncletopia"],"game_id":440,"stv_port":27016,"stv_name":"Uncletopia | Chicago | 1 | All Maps | STV","players":[{"user_id":754,"name":"Good Vibes","steam_id":76561197985206513,"connected_time":68000000000,"state":"active","ping":70},{"user_id":755,"name":"Chillin Turt","steam_id":76561198025796849,"connected_time":49000000000,"state":"active","ping":66},{"user_id":746,"name":"hidden_games","steam_id":76561198149683392,"connected_time":524000000000,"state":"active","ping":60},{"user_id":609,"name":"Maverick","steam_id":76561198322829814,"connected_time":9904000000000,"state":"active","ping":75},{"user_id":747,"name":"Zemlynn","steam_id":76561198072474034,"connected_time":502000000000,"state":"active","ping":62},{"user_id":748,"name":"uhhh","steam_id":76561198894548454,"connected_time":459000000000,"state":"active","ping":56},{"user_id":749,"name":"DeletedTaters","steam_id":76561198040773153,"connected_time":458000000000,"state":"active","ping":69},{"user_id":758,"name":"Zero","steam_id":76561198150262617,"connected_time":10000000000,"state":"spawning","ping":45},{"user_id":740,"name":"Piston≈ªul","steam_id":76561198105357090,"connected_time":781000000000,"state":"active","ping":191},{"user_id":719,"name":"TheSnipersHat","steam_id":76561198057684066,"connected_time":1334000000000,"state":"active","ping":61},{"user_id":720,"name":"mark wahlberg fan","steam_id":76561198814086664,"connected_time":1273000000000,"state":"active","ping":61},{"user_id":744,"name":"SIRFUZWUZ","steam_id":76561198127725259,"connected_time":628000000000,"state":"active","ping":77},{"user_id":741,"name":"C-Moon","steam_id":76561198093688740,"connected_time":763000000000,"state":"active","ping":75},{"user_id":712,"name":"Cheese","steam_id":76561199055985064,"connected_time":1663000000000,"state":"active","ping":141},{"user_id":757,"name":"ruof 9p","steam_id":76561198009121060,"connected_time":37000000000,"state":"active","ping":100},{"user_id":724,"name":"CraftKitty","steam_id":76561198080775103,"connected_time":1192000000000,"state":"active","ping":71},{"user_id":725,"name":"KVWI","steam_id":76561197971352904,"connected_time":1175000000000,"state":"active","ping":72},{"user_id":750,"name":"BTS | sat","steam_id":76561198084311006,"connected_time":453000000000,"state":"active","ping":81},{"user_id":751,"name":"challen","steam_id":76561197961277967,"connected_time":383000000000,"state":"active","ping":71},{"user_id":756,"name":"Jabroni Kris","steam_id":76561198048736247,"connected_time":49000000000,"state":"active","ping":92},{"user_id":752,"name":"StealthyZeroTwo","steam_id":76561198942692649,"connected_time":382000000000,"state":"active","ping":78},{"user_id":731,"name":"Underscorn","steam_id":76561198374209415,"connected_time":1121000000000,"state":"active","ping":58}]},{"server_id":106,"name":"Uncletopia | Chicago | 2 | All Maps","name_short":"chi-2","host":"chi-1.us.uncletopia.com","port":27025,"enabled":true,"region":"us-central","cc":"us","latitude":41.881832,"longitude":-87.62318,"reserved":0,"last_update":"0001-01-01T00:00:00Z","name_a2s":"Uncletopia | Chicago | 2 | All Maps","protocol":17,"map":"pl_borneo","folder":"tf","game":"Team Fortress","app_id":440,"player_count":24,"max_players":24,"Bots":0,"server_type":"Dedicated","server_os":"Linux","password":true,"vac":true,"version":"7882260","steam_id":85568392924469985,"keywords":["nocrits","nodmgspread","payload","uncletopia"],"game_id":440,"stv_port":27026,"stv_name":"Uncletopia | Chicago | 2 | All Maps | STV","players":[{"user_id":500,"name":"MrVegasAguitar","steam_id":76561198084466946,"connected_time":1236000000000,"state":"active","ping":92},{"user_id":485,"name":"babyboomer115","steam_id":76561199217734055,"connected_time":1876000000000,"state":"active","ping":127},{"user_id":502,"name":"-W3E- grim10465","steam_id":76561198045698581,"connected_time":653000000000,"state":"active","ping":45},{"user_id":486,"name":"James","steam_id":76561198081313916,"connected_time":1862000000000,"state":"active","ping":73},{"user_id":482,"name":"üíõMercyüíõ","steam_id":76561198147095572,"connected_time":1982000000000,"state":"active","ping":57},{"user_id":503,"name":"Drapph","steam_id":76561199384213314,"connected_time":651000000000,"state":"active","ping":69},{"user_id":459,"name":"Sods","steam_id":76561198010204565,"connected_time":3656000000000,"state":"active","ping":60},{"user_id":501,"name":"Pim","steam_id":76561198046050375,"connected_time":717000000000,"state":"active","ping":111},{"user_id":487,"name":"The Dead Weight","steam_id":76561198056694098,"connected_time":1824000000000,"state":"active","ping":60},{"user_id":470,"name":"hej","steam_id":76561197996366940,"connected_time":3338000000000,"state":"active","ping":60},{"user_id":499,"name":"[rat] RaviRavioli","steam_id":76561198968636443,"connected_time":1415000000000,"state":"active","ping":83},{"user_id":508,"name":"playguy carter","steam_id":76561198080679337,"connected_time":95000000000,"state":"active","ping":59},{"user_id":480,"name":"dude","steam_id":76561198323384949,"connected_time":2310000000000,"state":"active","ping":50},{"user_id":507,"name":"cheetaz","steam_id":76561198224614084,"connected_time":430000000000,"state":"active","ping":60},{"user_id":472,"name":"Swshbcklr","steam_id":76561197969421355,"connected_time":3111000000000,"state":"active","ping":70},{"user_id":497,"name":"Charlie","steam_id":76561198798127908,"connected_time":1539000000000,"state":"active","ping":77},{"user_id":417,"name":"Zigadox","steam_id":76561198079813479,"connected_time":7099000000000,"state":"active","ping":88},{"user_id":490,"name":"RickyDic","steam_id":76561198237366590,"connected_time":1713000000000,"state":"active","ping":77},{"user_id":506,"name":"dishes456","steam_id":76561199106285591,"connected_time":618000000000,"state":"active","ping":89},{"user_id":495,"name":"Noid","steam_id":76561198227804500,"connected_time":1606000000000,"state":"active","ping":85},{"user_id":458,"name":"TheAilingSword","steam_id":76561198250350844,"connected_time":3678000000000,"state":"active","ping":63},{"user_id":478,"name":"MedRed‚Ñ¢ #IATAH","steam_id":76561198002962970,"connected_time":2661000000000,"state":"active","ping":94},{"user_id":504,"name":"all dogs go to heaven","steam_id":76561198110046630,"connected_time":650000000000,"state":"active","ping":59},{"user_id":505,"name":"Tea","steam_id":76561198004133638,"connected_time":649000000000,"state":"active","ping":102}]},{"server_id":402,"name":"Uncletopia | Chicago | 3 | All Maps","name_short":"chi-3","host":"chi-1.us.uncletopia.com","port":27035,"enabled":true,"region":"us-central","cc":"us","latitude":41.881832,"longitude":-87.62318,"reserved":0,"last_update":"0001-01-01T00:00:00Z","name_a2s":"Uncletopia | Chicago | 3 | All Maps","protocol":17,"map":"pl_frontier_final","folder":"tf","game":"Team Fortress","app_id":440,"player_count":24,"max_players":24,"Bots":0,"server_type":"Dedicated","server_os":"Linux","password":true,"vac":true,"version":"7882260","steam_id":85568392924515191,"keywords":["nocrits","nodmgspread","payload","uncletopia"],"game_id":440,"stv_port":27036,"stv_name":"Uncletopia | Chicago | 3 | All Maps | STV","players":[{"user_id":356,"name":"Poyo Boyo","steam_id":76561198010201227,"connected_time":4502000000000,"state":"active","ping":78},{"user_id":387,"name":"Shoeshocker","steam_id":76561198174302467,"connected_time":3064000000000,"state":"active","ping":65},{"user_id":391,"name":"AJTarcza","steam_id":76561198070800190,"connected_time":2356000000000,"state":"active","ping":88},{"user_id":415,"name":"Bear bird","steam_id":76561198166769479,"connected_time":766000000000,"state":"active","ping":91},{"user_id":343,"name":"Goober","steam_id":76561198988863807,"connected_time":5560000000000,"state":"active","ping":79},{"user_id":333,"name":"bubbles","steam_id":76561198974276335,"connected_time":6491000000000,"state":"active","ping":57},{"user_id":369,"name":"Butters495","steam_id":76561197998689042,"connected_time":4098000000000,"state":"active","ping":76},{"user_id":419,"name":"Alice in Rubberland","steam_id":76561198087328346,"connected_time":414000000000,"state":"active","ping":44},{"user_id":359,"name":"tooth","steam_id":76561197986437643,"connected_time":4445000000000,"state":"active","ping":71},{"user_id":422,"name":"korekrash","steam_id":76561198272654876,"connected_time":35000000000,"state":"active","ping":86},{"user_id":412,"name":"Famelegion","steam_id":76561198958341424,"connected_time":851000000000,"state":"active","ping":98},{"user_id":405,"name":"Architect","steam_id":76561198015242016,"connected_time":1848000000000,"state":"active","ping":54},{"user_id":420,"name":"Killerkarate","steam_id":76561198067533929,"connected_time":340000000000,"state":"active","ping":53},{"user_id":400,"name":"The Entire Population of Canada","steam_id":76561198090187112,"connected_time":1979000000000,"state":"active","ping":63},{"user_id":377,"name":"RURU","steam_id":76561198039758987,"connected_time":3712000000000,"state":"active","ping":104},{"user_id":384,"name":"Flowers","steam_id":76561198031669899,"connected_time":3289000000000,"state":"active","ping":82},{"user_id":407,"name":"pirate pete","steam_id":76561198151048590,"connected_time":1359000000000,"state":"active","ping":60},{"user_id":411,"name":"Eins","steam_id":76561199030343810,"connected_time":1112000000000,"state":"active","ping":56},{"user_id":413,"name":"Acrid","steam_id":76561199019742998,"connected_time":797000000000,"state":"active","ping":108},{"user_id":390,"name":"Sneaky_Tank","steam_id":76561198078814793,"connected_time":2637000000000,"state":"active","ping":56},{"user_id":421,"name":"beckeon","steam_id":76561198056474975,"connected_time":185000000000,"state":"active","ping":70},{"user_id":417,"name":"Wengatang","steam_id":76561198021747059,"connected_time":717000000000,"state":"active","ping":49},{"user_id":408,"name":"Marlboro Man","steam_id":76561198117279677,"connected_time":1290000000000,"state":"active","ping":105},{"user_id":406,"name":"Euroclydon","steam_id":76561198279006965,"connected_time":1786000000000,"state":"active","ping":59}]},{"server_id":403,"name":"Uncletopia | Chicago | 4 | All Maps","name_short":"chi-4","host":"chi-1.us.uncletopia.com","port":27045,"enabled":true,"region":"us-central","cc":"us","latitude":41.881832,"longitude":-87.62318,"reserved":0,"last_update":"0001-01-01T00:00:00Z","name_a2s":"Uncletopia | Chicago | 4 | All Maps","protocol":17,"map":"cp_sunshine","folder":"tf","game":"Team Fortress","app_id":440,"player_count":24,"max_players":24,"Bots":0,"server_type":"Dedicated","server_os":"Linux","password":true,"vac":true,"version":"7882260","steam_id":85568392924515193,"keywords":["cp","nocrits","nodmgspread","uncletopia"],"game_id":440,"stv_port":27046,"stv_name":"Uncletopia | Chicago | 4 | All Maps | STV","players":[{"user_id":295,"name":"JayArr","steam_id":76561198124371253,"connected_time":2488000000000,"state":"active","ping":46},{"user_id":323,"name":"Hell's Reindeer","steam_id":76561198065310364,"connected_time":619000000000,"state":"active","ping":50},{"user_id":331,"name":"IfYouCantEatEmBeatEm","steam_id":76561198010019214,"connected_time":107000000000,"state":"active","ping":44},{"user_id":310,"name":"LooperDooper","steam_id":76561198162464484,"connected_time":1578000000000,"state":"active","ping":72},{"user_id":296,"name":"periwonkle","steam_id":76561198136198600,"connected_time":2485000000000,"state":"active","ping":76},{"user_id":317,"name":"malssite","steam_id":76561198014473091,"connected_time":722000000000,"state":"active","ping":92},{"user_id":318,"name":"The Rock","steam_id":76561198099039979,"connected_time":711000000000,"state":"active","ping":71},{"user_id":276,"name":"Lope","steam_id":76561198169381232,"connected_time":4380000000000,"state":"active","ping":109},{"user_id":319,"name":"Michaelpc1","steam_id":76561198088365519,"connected_time":702000000000,"state":"active","ping":74},{"user_id":332,"name":"bobo","steam_id":76561198123287268,"connected_time":73000000000,"state":"active","ping":44},{"user_id":330,"name":"The Mann With The Plann","steam_id":76561199001472144,"connected_time":207000000000,"state":"active","ping":86},{"user_id":312,"name":"cold spaghetti","steam_id":76561198983037944,"connected_time":1501000000000,"state":"active","ping":79},{"user_id":293,"name":"Captain fgarbage","steam_id":76561198023560955,"connected_time":2550000000000,"state":"active","ping":74},{"user_id":322,"name":"Toyo","steam_id":76561198146983983,"connected_time":642000000000,"state":"active","ping":95},{"user_id":306,"name":"mother lover","steam_id":76561198085451776,"connected_time":1712000000000,"state":"active","ping":75},{"user_id":279,"name":"RED","steam_id":76561198069598439,"connected_time":4322000000000,"state":"active","ping":99},{"user_id":280,"name":"DoubleX2000","steam_id":76561198164134387,"connected_time":4257000000000,"state":"active","ping":113},{"user_id":307,"name":"Copter_Boy","steam_id":76561198322921312,"connected_time":1712000000000,"state":"active","ping":63},{"user_id":324,"name":"themadlad67","steam_id":76561199309554436,"connected_time":600000000000,"state":"active","ping":94},{"user_id":304,"name":"$5 biggie bag","steam_id":76561198298310744,"connected_time":1751000000000,"state":"active","ping":75},{"user_id":284,"name":"Digitic","steam_id":76561198080295536,"connected_time":3916000000000,"state":"active","ping":81},{"user_id":326,"name":"Scrux","steam_id":76561198129763115,"connected_time":546000000000,"state":"active","ping":112},{"user_id":327,"name":"Je t'aime ta mere","steam_id":76561198233279668,"connected_time":503000000000,"state":"active","ping":83},{"user_id":333,"name":"Alfonso Molestro","steam_id":76561197998677099,"connected_time":8000000000,"state":"spawning","ping":74}]},{"server_id":36,"name":"Uncletopia | Chicago | 5 | All Maps","name_short":"chi-5","host":"chi-2.us.uncletopia.com","port":27015,"enabled":true,"region":"us-central","cc":"us","latitude":41.881832,"longitude":-87.62318,"reserved":0,"last_update":"0001-01-01T00:00:00Z","name_a2s":"Uncletopia | Chicago | 5 | All Maps","protocol":17,"map":"cp_powerhouse","folder":"tf","game":"Team Fortress","app_id":440,"player_count":24,"max_players":24,"Bots":0,"server_type":"Dedicated","server_os":"Linux","password":true,"vac":true,"version":"7882260","steam_id":85568392924866362,"keywords":["cp","nocrits","nodmgspread","uncletopia"],"game_id":440,"stv_port":27016,"stv_name":"Uncletopia | Chicago | 5 | All Maps | STV","players":[{"user_id":303,"name":"eat Pant","steam_id":76561197974965536,"connected_time":702000000000,"state":"active","ping":63},{"user_id":276,"name":"Farm3rJh0nson","steam_id":76561199166153873,"connected_time":2360000000000,"state":"active","ping":82},{"user_id":312,"name":"SIDEWAYS BLU SOLDIER","steam_id":76561198808224331,"connected_time":330000000000,"state":"active","ping":121},{"user_id":302,"name":"_normal","steam_id":76561198338505734,"connected_time":713000000000,"state":"active","ping":48},{"user_id":258,"name":"Toast Man","steam_id":76561198023349100,"connected_time":4261000000000,"state":"active","ping":67},{"user_id":270,"name":"Tap Dancer36","steam_id":76561198068390589,"connected_time":3153000000000,"state":"active","ping":68},{"user_id":313,"name":"TatChicksDigM16","steam_id":76561198119819732,"connected_time":211000000000,"state":"active","ping":56},{"user_id":306,"name":"footoftheday","steam_id":76561198052712449,"connected_time":550000000000,"state":"active","ping":67},{"user_id":307,"name":"Antwan","steam_id":76561198246200638,"connected_time":498000000000,"state":"active","ping":65},{"user_id":272,"name":"countrychefbeerboy92","steam_id":76561198132476501,"connected_time":3046000000000,"state":"active","ping":50},{"user_id":295,"name":"Doombob Slayerpants","steam_id":76561198084786241,"connected_time":1482000000000,"state":"active","ping":56},{"user_id":277,"name":"TomBoi","steam_id":76561198087732357,"connected_time":2334000000000,"state":"active","ping":49},{"user_id":285,"name":"Straight White Male","steam_id":76561199234350287,"connected_time":1881000000000,"state":"active","ping":58},{"user_id":226,"name":"begolds8","steam_id":76561198841069098,"connected_time":5596000000000,"state":"active","ping":88},{"user_id":287,"name":"PenutButterPirate","steam_id":76561198252962312,"connected_time":1846000000000,"state":"active","ping":69},{"user_id":252,"name":"Battery Acid Slurper","steam_id":76561198439793697,"connected_time":4793000000000,"state":"active","ping":94},{"user_id":304,"name":"mcjuice","steam_id":76561198087730829,"connected_time":663000000000,"state":"active","ping":67},{"user_id":289,"name":"¬øskitt1eS?","steam_id":76561198330093211,"connected_time":1819000000000,"state":"active","ping":67},{"user_id":308,"name":"cosmic ambiance","steam_id":76561198042788986,"connected_time":491000000000,"state":"active","ping":83},{"user_id":309,"name":"BigOrca54","steam_id":76561198181360271,"connected_time":421000000000,"state":"active","ping":66},{"user_id":298,"name":"HOTA","steam_id":76561199002778841,"connected_time":1328000000000,"state":"active","ping":77},{"user_id":310,"name":"Aeris","steam_id":76561198287271028,"connected_time":399000000000,"state":"active","ping":60},{"user_id":260,"name":"t2h","steam_id":76561198057944303,"connected_time":4151000000000,"state":"active","ping":105},{"user_id":311,"name":"Goku","steam_id":76561198064143198,"connected_time":385000000000,"state":"active","ping":57}]},{"server_id":37,"name":"Uncletopia | Chicago | 6 | All Maps","name_short":"chi-6","host":"chi-2.us.uncletopia.com","port":27025,"enabled":true,"region":"us-central","cc":"us","latitude":41.881832,"longitude":-87.62318,"reserved":0,"last_update":"0001-01-01T00:00:00Z","name_a2s":"Uncletopia | Chicago | 6 | All Maps","protocol":17,"map":"pl_upward","folder":"tf","game":"Team Fortress","app_id":440,"player_count":24,"max_players":24,"Bots":0,"server_type":"Dedicated","server_os":"Linux","password":true,"vac":true,"version":"7882260","steam_id":85568392924866363,"keywords":["nocrits","nodmgspread","payload","uncletopia"],"game_id":440,"stv_port":27026,"stv_name":"Uncletopia | Chicago | 6 | All Maps | STV","players":[{"user_id":200,"name":"Combatspok","steam_id":76561197971598115,"connected_time":1163000000000,"state":"active","ping":59},{"user_id":154,"name":"dr peppah chug!","steam_id":76561198068835693,"connected_time":4598000000000,"state":"active","ping":88},{"user_id":215,"name":"Sprinklingmydoughnut","steam_id":76561198168009092,"connected_time":303000000000,"state":"active","ping":81},{"user_id":194,"name":"malopy","steam_id":76561198354990729,"connected_time":1841000000000,"state":"active","ping":75},{"user_id":205,"name":"Reptile DysFunktion","steam_id":76561198018725250,"connected_time":649000000000,"state":"active","ping":96},{"user_id":203,"name":"Asura","steam_id":76561199026590878,"connected_time":877000000000,"state":"active","ping":53},{"user_id":201,"name":"Dacoda999","steam_id":76561198092203780,"connected_time":1147000000000,"state":"active","ping":56},{"user_id":208,"name":"crankshaft","steam_id":76561197992798282,"connected_time":597000000000,"state":"active","ping":101},{"user_id":204,"name":"Lvl100Feraligatr","steam_id":76561198105382955,"connected_time":677000000000,"state":"active","ping":104},{"user_id":187,"name":"creeeeeee","steam_id":76561198392539722,"connected_time":2367000000000,"state":"active","ping":77},{"user_id":216,"name":"papi perro","steam_id":76561198021649180,"connected_time":96000000000,"state":"active","ping":61},{"user_id":206,"name":"seaneneh","steam_id":76561198354473513,"connected_time":649000000000,"state":"active","ping":48},{"user_id":186,"name":"mio","steam_id":76561198239286750,"connected_time":2963000000000,"state":"active","ping":72},{"user_id":207,"name":"Luxury","steam_id":76561198063906599,"connected_time":614000000000,"state":"active","ping":83},{"user_id":198,"name":"we repair phones","steam_id":76561198098781227,"connected_time":1488000000000,"state":"active","ping":87},{"user_id":191,"name":"TwelvePackofSaltyBones","steam_id":76561198224764664,"connected_time":2281000000000,"state":"active","ping":60},{"user_id":209,"name":"Tinhead","steam_id":76561198446806080,"connected_time":597000000000,"state":"active","ping":52},{"user_id":183,"name":"freyja","steam_id":76561198249206656,"connected_time":3162000000000,"state":"active","ping":63},{"user_id":199,"name":"I ran over 32 senior citizens","steam_id":76561199244114198,"connected_time":1372000000000,"state":"active","ping":115},{"user_id":217,"name":"TheLlamaKang","steam_id":76561198125828837,"connected_time":85000000000,"state":"active","ping":91},{"user_id":185,"name":"garbo","steam_id":76561198149280150,"connected_time":3026000000000,"state":"active","ping":89},{"user_id":213,"name":"‡∏Ö^‚Ä¢Ôªå‚Ä¢^‡∏Ö","steam_id":76561198326987939,"connected_time":381000000000,"state":"active","ping":84},{"user_id":214,"name":"Question rock sock","steam_id":76561198273411260,"connected_time":381000000000,"state":"active","ping":60},{"user_id":164,"name":"herb","steam_id":76561198185980055,"connected_time":3798000000000,"state":"active","ping":62}]},{"server_id":38,"name":"Uncletopia | Chicago | 7 | Stopwatch Beta","name_short":"chi-7","host":"chi-2.us.uncletopia.com","port":27035,"enabled":true,"region":"us-central","cc":"us","latitude":41.881832,"longitude":-87.62318,"reserved":0,"last_update":"0001-01-01T00:00:00Z","name_a2s":"Uncletopia | Chicago | 7 | Stopwatch Beta","protocol":17,"map":"pl_upward","folder":"tf","game":"Team Fortress","app_id":440,"player_count":0,"max_players":24,"Bots":0,"server_type":"Dedicated","server_os":"Linux","password":true,"vac":true,"version":"7882260","steam_id":85568392924866364,"keywords":["nocrits","nodmgspread","payload","uncletopia"],"game_id":440,"stv_port":27036,"stv_name":"Uncletopia | Chicago | 7 | Stopwatch Beta | STV","players":null},{"server_id":39,"name":"Uncletopia | Chicago | 8 | Community","name_short":"chi-8","host":"chi-2.us.uncletopia.com","port":27045,"enabled":true,"region":"us-central","cc":"us","latitude":41.881832,"longitude":-87.62318,"reserved":0,"last_update":"0001-01-01T00:00:00Z","name_a2s":"Uncletopia | Chicago | 8 | Community","protocol":17,"map":"workshop/pl_badwater_pro_v12.ugc2142942074","folder":"tf","game":"Team Fortress","app_id":440,"player_count":19,"max_players":24,"Bots":0,"server_type":"Dedicated","server_os":"Linux","password":true,"vac":true,"version":"7882260","steam_id":85568392924866365,"keywords":["nocrits","nodmgspread","payload","uncletopia"],"game_id":440,"stv_port":27046,"stv_name":"Uncletopia | Chicago | 8 | Community | STV","players":[{"user_id":178,"name":"gps","steam_id":76561198067492304,"connected_time":238000000000,"state":"spawning","ping":164},{"user_id":146,"name":"·¥≥·µò·∂ú·∂ú·∂¶ ·µç·µÉ‚Åø·µç","steam_id":76561198044362988,"connected_time":2842000000000,"state":"spawning","ping":162},{"user_id":121,"name":"INVEST IN SKYNET::œÑRU œÑAO","steam_id":76561198144436132,"connected_time":4709000000000,"state":"spawning","ping":138},{"user_id":173,"name":"still holding on longer","steam_id":76561198044443985,"connected_time":767000000000,"state":"active","ping":75},{"user_id":179,"name":"Grippy Guy","steam_id":76561199013705323,"connected_time":5000000000,"state":"spawning","ping":74},{"user_id":128,"name":"BUNGACOWA","steam_id":76561198979176018,"connected_time":4315000000000,"state":"active","ping":68},{"user_id":150,"name":"Shuu","steam_id":76561199199180558,"connected_time":2002000000000,"state":"active","ping":74},{"user_id":170,"name":"MellowBoy-2354","steam_id":76561199080630632,"connected_time":909000000000,"state":"spawning","ping":145},{"user_id":158,"name":"Coconut","steam_id":76561198048287788,"connected_time":1207000000000,"state":"spawning","ping":173},{"user_id":143,"name":"gucci gang","steam_id":76561198046650995,"connected_time":2969000000000,"state":"spawning","ping":249},{"user_id":157,"name":"Alma Smego does it again","steam_id":76561199195104977,"connected_time":1227000000000,"state":"spawning","ping":96},{"user_id":159,"name":"LeehA","steam_id":76561198051135347,"connected_time":1201000000000,"state":"active","ping":90},{"user_id":160,"name":"R     i     q","steam_id":76561198105485586,"connected_time":1192000000000,"state":"active","ping":74},{"user_id":135,"name":"Moshi Man","steam_id":76561198038249762,"connected_time":3780000000000,"state":"active","ping":95},{"user_id":171,"name":"jolo","steam_id":76561198042831480,"connected_time":846000000000,"state":"active","ping":67},{"user_id":86,"name":"I GOT LAID AT SHEN YUN 2023","steam_id":76561198844003641,"connected_time":7716000000000,"state":"active","ping":112},{"user_id":131,"name":"Crispy Waffle","steam_id":76561198306945757,"connected_time":4164000000000,"state":"spawning","ping":249},{"user_id":165,"name":"JustLooking","steam_id":76561198207877387,"connected_time":1092000000000,"state":"active","ping":81},{"user_id":177,"name":"a Clumsy, painful Death...","steam_id":76561198050849790,"connected_time":521000000000,"state":"spawning","ping":172}]},{"server_id":8,"name":"Uncletopia | Dallas | 1 | All Maps","name_short":"dal-1","host":"dal-1.us.uncletopia.com","port":27015,"enabled":true,"region":"us-central","cc":"us","latitude":32.779167,"longitude":-96.80889,"reserved":0,"last_update":"0001-01-01T00:00:00Z","name_a2s":"Uncletopia | Dallas | 1 | All Maps","protocol":17,"map":"cp_snakewater_final1","folder":"tf","game":"Team Fortress","app_id":440,"player_count":24,"max_players":24,"Bots":0,"server_type":"Dedicated","server_os":"Linux","password":true,"vac":true,"version":"7882260","steam_id":85568392924469986,"keywords":["cp","nocrits","nodmgspread","uncletopia"],"game_id":440,"stv_port":27016,"stv_name":"Uncletopia | Dallas | 1 | All Maps | STV","players":[{"user_id":359,"name":"Antifa Supersoldier","steam_id":76561198141816516,"connected_time":3902000000000,"state":"active","ping":43},{"user_id":379,"name":"BigBattleToaster","steam_id":76561199087551431,"connected_time":2273000000000,"state":"active","ping":77},{"user_id":411,"name":"scrapheap","steam_id":76561198202407087,"connected_time":248000000000,"state":"active","ping":89},{"user_id":393,"name":"Purple potato","steam_id":76561198932276149,"connected_time":1090000000000,"state":"active","ping":99},{"user_id":401,"name":"A Fruit","steam_id":76561198951830050,"connected_time":943000000000,"state":"active","ping":45},{"user_id":365,"name":"NOT Susie Deltarune (not real)","steam_id":76561199007365488,"connected_time":3311000000000,"state":"active","ping":73},{"user_id":395,"name":"MasterCrafter27","steam_id":76561198151035981,"connected_time":1016000000000,"state":"active","ping":109},{"user_id":373,"name":"iluvtoust","steam_id":76561198869269207,"connected_time":2598000000000,"state":"active","ping":54},{"user_id":407,"name":"AyeJay","steam_id":76561198120547630,"connected_time":829000000000,"state":"active","ping":55},{"user_id":389,"name":"The Horselords and Animal Gods","steam_id":76561197975094050,"connected_time":1506000000000,"state":"active","ping":84},{"user_id":345,"name":"s p a c e k a t","steam_id":76561198066852209,"connected_time":4695000000000,"state":"active","ping":61},{"user_id":397,"name":"SubZeroDestruction","steam_id":76561198145082209,"connected_time":987000000000,"state":"active","ping":79},{"user_id":398,"name":"SleepingBrim","steam_id":76561198067650229,"connected_time":982000000000,"state":"active","ping":120},{"user_id":399,"name":"itsmajestic","steam_id":76561198304790008,"connected_time":976000000000,"state":"active","ping":90},{"user_id":400,"name":"MK","steam_id":76561198044764469,"connected_time":969000000000,"state":"active","ping":72},{"user_id":402,"name":"mos","steam_id":76561197995777973,"connected_time":935000000000,"state":"active","ping":101},{"user_id":263,"name":"Faefanger","steam_id":76561198201871002,"connected_time":13120000000000,"state":"active","ping":116},{"user_id":362,"name":"Yoshimelon","steam_id":76561198253054325,"connected_time":3859000000000,"state":"active","ping":45},{"user_id":412,"name":"Testicular manslaughter","steam_id":76561198413674981,"connected_time":41000000000,"state":"spawning","ping":52},{"user_id":404,"name":"M@verick","steam_id":76561198006363519,"connected_time":903000000000,"state":"active","ping":93},{"user_id":405,"name":"la cucaracha ( confirmed cheate","steam_id":76561198138353568,"connected_time":901000000000,"state":"active","ping":164},{"user_id":406,"name":"Mushroom Child","steam_id":76561198119212137,"connected_time":900000000000,"state":"active","ping":61},{"user_id":408,"name":"RaixaR","steam_id":76561198025289430,"connected_time":819000000000,"state":"active","ping":50},{"user_id":300,"name":"Wiggee","steam_id":76561197972792989,"connected_time":9322000000000,"state":"active","ping":44}]},{"server_id":108,"name":"Uncletopia | Dallas | 2 | All Maps","name_short":"dal-2","host":"dal-1.us.uncletopia.com","port":27025,"enabled":true,"region":"us-central","cc":"us","latitude":32.779167,"longitude":-96.80889,"reserved":0,"last_update":"0001-01-01T00:00:00Z","name_a2s":"Uncletopia | Dallas | 2 | All Maps","protocol":17,"map":"cp_egypt_final","folder":"tf","game":"Team Fortress","app_id":440,"player_count":24,"max_players":24,"Bots":0,"server_type":"Dedicated","server_os":"Linux","password":true,"vac":true,"version":"7882260","steam_id":85568392924469988,"keywords":["cp","nocrits","nodmgspread","uncletopia"],"game_id":440,"stv_port":27026,"stv_name":"Uncletopia | Dallas | 2 | All Maps | STV","players":[{"user_id":373,"name":"TRGG","steam_id":76561198797867876,"connected_time":1354000000000,"state":"active","ping":71},{"user_id":369,"name":"JAKandBEL","steam_id":76561198213060931,"connected_time":1962000000000,"state":"active","ping":86},{"user_id":359,"name":"I AM Malik","steam_id":76561198322021485,"connected_time":2108000000000,"state":"active","ping":87},{"user_id":386,"name":"wrander","steam_id":76561198195141221,"connected_time":193000000000,"state":"active","ping":67},{"user_id":379,"name":"HOVY GAMING (REAL)","steam_id":76561199210311096,"connected_time":595000000000,"state":"active","ping":110},{"user_id":360,"name":"TechnoBear2099","steam_id":76561198238863596,"connected_time":2108000000000,"state":"active","ping":44},{"user_id":313,"name":"Moonflower ‚ú¶","steam_id":76561198191782483,"connected_time":5666000000000,"state":"active","ping":49},{"user_id":350,"name":"InchMan","steam_id":76561198272658825,"connected_time":2679000000000,"state":"active","ping":87},{"user_id":380,"name":"adachi gaming","steam_id":76561198802510337,"connected_time":588000000000,"state":"active","ping":49},{"user_id":332,"name":"1TheExterminator","steam_id":76561198972879727,"connected_time":4186000000000,"state":"active","ping":59},{"user_id":378,"name":"Vanillex","steam_id":76561199125632814,"connected_time":633000000000,"state":"active","ping":46},{"user_id":383,"name":"Galaxy","steam_id":76561197997354354,"connected_time":381000000000,"state":"active","ping":77},{"user_id":366,"name":"Drozz Misses Shots","steam_id":76561198072555204,"connected_time":2015000000000,"state":"active","ping":73},{"user_id":371,"name":"Rex","steam_id":76561198138365053,"connected_time":1553000000000,"state":"active","ping":130},{"user_id":354,"name":"Spectre","steam_id":76561198025652246,"connected_time":2664000000000,"state":"active","ping":57},{"user_id":370,"name":"Wilhelmktx","steam_id":76561198158102295,"connected_time":1860000000000,"state":"active","ping":74},{"user_id":384,"name":"BlueCrue","steam_id":76561198066698869,"connected_time":308000000000,"state":"active","ping":66},{"user_id":355,"name":"catgirl giantess in heat","steam_id":76561198439042583,"connected_time":2608000000000,"state":"active","ping":61},{"user_id":221,"name":"spiderguy","steam_id":76561198412074955,"connected_time":11689000000000,"state":"active","ping":69},{"user_id":343,"name":"hihohe","steam_id":76561197987823936,"connected_time":3079000000000,"state":"active","ping":68},{"user_id":376,"name":"Darth Donutz","steam_id":76561198111308503,"connected_time":1018000000000,"state":"active","ping":82},{"user_id":356,"name":"deb","steam_id":76561198414336279,"connected_time":2591000000000,"state":"active","ping":59},{"user_id":382,"name":"Bird","steam_id":76561198231624620,"connected_time":528000000000,"state":"active","ping":72},{"user_id":385,"name":"Tough Puffin","steam_id":76561198024011010,"connected_time":250000000000,"state":"active","ping":96}]},{"server_id":5,"name":"Uncletopia | Frankfurt | 1 | All Maps","name_short":"frk-1","host":"frk-1.de.uncletopia.com","port":27015,"enabled":true,"region":"eu","cc":"de","latitude":50.110924,"longitude":8.682127,"reserved":0,"last_update":"0001-01-01T00:00:00Z","name_a2s":"Uncletopia | Frankfurt | 1 | All Maps","protocol":17,"map":"pl_thundermountain","folder":"tf","game":"Team Fortress","app_id":440,"player_count":21,"max_players":24,"Bots":0,"server_type":"Dedicated","server_os":"Linux","password":true,"vac":true,"version":"7882260","steam_id":85568392924469989,"keywords":["nocrits","nodmgspread","payload","uncletopia"],"game_id":440,"stv_port":27016,"stv_name":"Uncletopia | Frankfurt | 1 | All Maps | STV","players":[{"user_id":782,"name":"dirty rascal","steam_id":76561198000871038,"connected_time":827000000000,"state":"active","ping":56},{"user_id":762,"name":"Prem Nintendogs Player","steam_id":76561197970114051,"connected_time":3254000000000,"state":"active","ping":59},{"user_id":760,"name":"jonbob","steam_id":76561197963506620,"connected_time":3395000000000,"state":"active","ping":60},{"user_id":776,"name":"Hurry-Up-Shrimp","steam_id":76561198000667959,"connected_time":1428000000000,"state":"active","ping":156},{"user_id":768,"name":"wG Domo","steam_id":76561198056790920,"connected_time":2440000000000,"state":"active","ping":67},{"user_id":761,"name":"snowycoast","steam_id":76561198346638308,"connected_time":3392000000000,"state":"active","ping":59},{"user_id":763,"name":"Luigi","steam_id":76561199194954220,"connected_time":3073000000000,"state":"active","ping":69},{"user_id":694,"name":"frosty","steam_id":76561198094560834,"connected_time":9166000000000,"state":"active","ping":59},{"user_id":755,"name":"Marquis de Hoto","steam_id":76561198080687708,"connected_time":4076000000000,"state":"active","ping":59},{"user_id":769,"name":"JujuBalu","steam_id":76561198207253071,"connected_time":2418000000000,"state":"active","ping":48},{"user_id":784,"name":"-_-üí©Saloüí©-_-","steam_id":76561198839580047,"connected_time":69000000000,"state":"active","ping":85},{"user_id":770,"name":"vadr","steam_id":76561198334528186,"connected_time":2367000000000,"state":"active","ping":54},{"user_id":746,"name":"Sputnik","steam_id":76561198138660241,"connected_time":5062000000000,"state":"active","ping":76},{"user_id":731,"name":"d(^_^)z","steam_id":76561198088909286,"connected_time":6593000000000,"state":"active","ping":89},{"user_id":771,"name":"Steen","steam_id":76561198122992510,"connected_time":2346000000000,"state":"active","ping":51},{"user_id":781,"name":"Economic crisis","steam_id":76561198063562843,"connected_time":961000000000,"state":"active","ping":65},{"user_id":765,"name":"iyed","steam_id":76561198982141827,"connected_time":2865000000000,"state":"active","ping":144},{"user_id":778,"name":"Cloud'as","steam_id":76561198079840066,"connected_time":1370000000000,"state":"active","ping":76},{"user_id":749,"name":"etc","steam_id":76561197998394797,"connected_time":4886000000000,"state":"active","ping":58},{"user_id":748,"name":":P","steam_id":76561198106399430,"connected_time":4946000000000,"state":"active","ping":53}]},{"server_id":110,"name":"Uncletopia | Frankfurt | 2 | All Maps","name_short":"frk-2","host":"frk-1.de.uncletopia.com","port":27025,"enabled":true,"region":"eu","cc":"de","latitude":50.110924,"longitude":8.682127,"reserved":0,"last_update":"0001-01-01T00:00:00Z","name_a2s":"Uncletopia | Frankfurt | 2 | All Maps","protocol":17,"map":"koth_lakeside_final","folder":"tf","game":"Team Fortress","app_id":440,"player_count":0,"max_players":24,"Bots":0,"server_type":"Dedicated","server_os":"Linux","password":true,"vac":true,"version":"7882260","steam_id":85568392924469990,"keywords":["cp","nocrits","nodmgspread","uncletopia"],"game_id":440,"stv_port":27026,"stv_name":"Uncletopia | Frankfurt | 2 | All Maps | STV","players":null},{"server_id":308,"name":"Uncletopia | Frankfurt | 3 | All Maps","name_short":"frk-3","host":"frk-1.de.uncletopia.com","port":27035,"enabled":true,"region":"eu","cc":"de","latitude":50.110924,"longitude":8.682127,"reserved":0,"last_update":"0001-01-01T00:00:00Z","name_a2s":"Uncletopia | Frankfurt | 3 | All Maps","protocol":17,"map":"koth_lakeside_final","folder":"tf","game":"Team Fortress","app_id":440,"player_count":0,"max_players":24,"Bots":0,"server_type":"Dedicated","server_os":"Linux","password":true,"vac":true,"version":"7882260","steam_id":85568392924504274,"keywords":["cp","nocrits","nodmgspread","uncletopia"],"game_id":440,"stv_port":27036,"stv_name":"Uncletopia | Frankfurt | 3 | All Maps | STV","players":null},{"server_id":309,"name":"Uncletopia | Frankfurt | 4 | All Maps","name_short":"frk-4","host":"frk-1.de.uncletopia.com","port":27045,"enabled":true,"region":"eu","cc":"de","latitude":50.110924,"longitude":8.682127,"reserved":0,"last_update":"0001-01-01T00:00:00Z","name_a2s":"Uncletopia | Frankfurt | 4 | All Maps","protocol":17,"map":"cp_mountainlab","folder":"tf","game":"Team Fortress","app_id":440,"player_count":0,"max_players":24,"Bots":0,"server_type":"Dedicated","server_os":"Linux","password":true,"vac":true,"version":"7882260","steam_id":85568392924504275,"keywords":["cp","nocrits","nodmgspread","uncletopia"],"game_id":440,"stv_port":27046,"stv_name":"Uncletopia | Frankfurt | 4 | All Maps | STV","players":null},{"server_id":310,"name":"Uncletopia | Frankfurt | 5 | All Maps","name_short":"frk-5","host":"frk-1.de.uncletopia.com","port":27055,"enabled":true,"region":"eu","cc":"de","latitude":50.110924,"longitude":8.682127,"reserved":0,"last_update":"0001-01-01T00:00:00Z","name_a2s":"Uncletopia | Frankfurt | 5 | All Maps","protocol":17,"map":"pl_frontier_final","folder":"tf","game":"Team Fortress","app_id":440,"player_count":0,"max_players":24,"Bots":0,"server_type":"Dedicated","server_os":"Linux","password":true,"vac":true,"version":"7882260","steam_id":85568392924504277,"keywords":["nocrits","nodmgspread","payload","uncletopia"],"game_id":440,"stv_port":27056,"stv_name":"Uncletopia | Frankfurt | 5 | All Maps | STV","players":null},{"server_id":311,"name":"Uncletopia | Frankfurt | 6 | All Maps","name_short":"frk-6","host":"frk-1.de.uncletopia.com","port":27065,"enabled":true,"region":"eu","cc":"de","latitude":50.110924,"longitude":8.682127,"reserved":0,"last_update":"0001-01-01T00:00:00Z","name_a2s":"Uncletopia | Frankfurt | 6 | All Maps","protocol":17,"map":"cp_mountainlab","folder":"tf","game":"Team Fortress","app_id":440,"player_count":0,"max_players":24,"Bots":0,"server_type":"Dedicated","server_os":"Linux","password":true,"vac":true,"version":"7882260","steam_id":85568392924504278,"keywords":["cp","nocrits","nodmgspread","uncletopia"],"game_id":440,"stv_port":27066,"stv_name":"Uncletopia | Frankfurt | 6 | All Maps | STV","players":null},{"server_id":23,"name":"Uncletopia | Frankfurt | 7 | Stopwatch Beta","name_short":"frk-7","host":"frk-1.de.uncletopia.com","port":27075,"enabled":true,"region":"eu","cc":"de","latitude":50.110924,"longitude":8.682127,"reserved":0,"last_update":"0001-01-01T00:00:00Z","name_a2s":"Uncletopia | Frankfurt | 7 | Stopwatch Beta","protocol":17,"map":"koth_lakeside_final","folder":"tf","game":"Team Fortress","app_id":440,"player_count":0,"max_players":24,"Bots":0,"server_type":"Dedicated","server_os":"Linux","password":true,"vac":true,"version":"7882260","steam_id":85568392924742827,"keywords":["cp","nocrits","nodmgspread","uncletopia"],"game_id":440,"stv_port":27076,"stv_name":"Uncletopia | Frankfurt | 7 | Stopwatch Beta | STV","players":null},{"server_id":24,"name":"Uncletopia | Frankfurt | 8 | Community","name_short":"frk-8","host":"frk-1.de.uncletopia.com","port":27085,"enabled":true,"region":"eu","cc":"de","latitude":50.110924,"longitude":8.682127,"reserved":0,"last_update":"0001-01-01T00:00:00Z","name_a2s":"Uncletopia | Frankfurt | 8 | Community","protocol":17,"map":"workshop/koth_product_final.ugc454272353","folder":"tf","game":"Team Fortress","app_id":440,"player_count":0,"max_players":24,"Bots":0,"server_type":"Dedicated","server_os":"Linux","password":true,"vac":true,"version":"7882260","steam_id":85568392924742828,"keywords":["cp","nocrits","nodmgspread","uncletopia"],"game_id":440,"stv_port":27086,"stv_name":"Uncletopia | Frankfurt | 8 | Community | STV","players":null},{"server_id":202,"name":"Uncletopia | Hong Kong | 1 | All Maps","name_short":"hgk-1","host":"hgk-1.hk.uncletopia.com","port":27015,"enabled":true,"region":"asia","cc":"hk","latitude":22.302711,"longitude":114.177216,"reserved":0,"last_update":"0001-01-01T00:00:00Z","name_a2s":"Uncletopia | Hong Kong | 1 | All Maps","protocol":17,"map":"koth_viaduct","folder":"tf","game":"Team Fortress","app_id":440,"player_count":0,"max_players":24,"Bots":0,"server_type":"Dedicated","server_os":"Linux","password":true,"vac":true,"version":"7882260","steam_id":85568392924494504,"keywords":["cp","nocrits","nodmgspread","uncletopia"],"game_id":440,"stv_port":27016,"stv_name":"Uncletopia | Hong Kong | 1 | All Maps | STV","players":null},{"server_id":1,"name":"Uncletopia | Los Angeles | 1 | All Maps","name_short":"lax-1","host":"lax-1.us.uncletopia.com","port":27015,"enabled":true,"region":"us-west","cc":"us","latitude":33.94279,"longitude":-118.41004,"reserved":0,"last_update":"0001-01-01T00:00:00Z","name_a2s":"Uncletopia | Los Angeles | 1 | All Maps","protocol":17,"map":"pl_snowycoast","folder":"tf","game":"Team Fortress","app_id":440,"player_count":24,"max_players":24,"Bots":0,"server_type":"Dedicated","server_os":"Linux","password":true,"vac":true,"version":"7882260","steam_id":85568392924469991,"keywords":["nocrits","nodmgspread","payload","uncletopia"],"game_id":440,"stv_port":27016,"stv_name":"Uncletopia | Los Angeles | 1 | All Maps | STV","players":[{"user_id":44,"name":"Furrtren","steam_id":76561198375864986,"connected_time":2866000000000,"state":"active","ping":56},{"user_id":87,"name":"ElShaggy","steam_id":76561198148870214,"connected_time":285000000000,"state":"active","ping":60},{"user_id":46,"name":"MaraudingRhino","steam_id":76561198353385819,"connected_time":2837000000000,"state":"active","ping":84},{"user_id":47,"name":"Kama","steam_id":76561198292190430,"connected_time":2834000000000,"state":"active","ping":113},{"user_id":64,"name":"A Lil Guy","steam_id":76561198135662712,"connected_time":1800000000000,"state":"active","ping":60},{"user_id":82,"name":"Waffle_Hunter","steam_id":76561198220675860,"connected_time":694000000000,"state":"active","ping":76},{"user_id":50,"name":"Lukysix","steam_id":76561198390454186,"connected_time":2602000000000,"state":"active","ping":93},{"user_id":88,"name":"All 24 Pok√©mon movies at once","steam_id":76561198164738311,"connected_time":215000000000,"state":"active","ping":127},{"user_id":69,"name":"5ense11","steam_id":76561199152133433,"connected_time":1252000000000,"state":"active","ping":81},{"user_id":89,"name":"Edboi","steam_id":76561198117849098,"connected_time":191000000000,"state":"active","ping":56},{"user_id":67,"name":"semillams cuenta","steam_id":76561199223089296,"connected_time":1595000000000,"state":"active","ping":138},{"user_id":90,"name":"riSygneD","steam_id":76561198331618687,"connected_time":186000000000,"state":"active","ping":28},{"user_id":58,"name":"Drac0c4t","steam_id":76561199073871583,"connected_time":2222000000000,"state":"active","ping":113},{"user_id":59,"name":"minerkid2004","steam_id":76561198044262827,"connected_time":2050000000000,"state":"active","ping":61},{"user_id":70,"name":"SASQUATCH","steam_id":76561198308120431,"connected_time":1149000000000,"state":"active","ping":67},{"user_id":92,"name":"Monty","steam_id":76561197993567253,"connected_time":51000000000,"state":"active","ping":71},{"user_id":73,"name":"top 10 thug shakes","steam_id":76561199100342013,"connected_time":1064000000000,"state":"active","ping":46},{"user_id":74,"name":"Titan Exodos","steam_id":76561198063852935,"connected_time":1005000000000,"state":"active","ping":84},{"user_id":85,"name":"gmagnum","steam_id":76561199034260371,"connected_time":437000000000,"state":"active","ping":69},{"user_id":76,"name":"silvanae324","steam_id":76561199150642573,"connected_time":961000000000,"state":"active","ping":84},{"user_id":77,"name":"Wontairr","steam_id":76561198161581147,"connected_time":953000000000,"state":"active","ping":179},{"user_id":93,"name":"Fractured_Mango","steam_id":76561199013113268,"connected_time":40000000000,"state":"active","ping":70},{"user_id":81,"name":"Leaf","steam_id":76561198880728513,"connected_time":770000000000,"state":"active","ping":93},{"user_id":80,"name":"lil costco","steam_id":76561198043862737,"connected_time":939000000000,"state":"active","ping":97}]},{"server_id":112,"name":"Uncletopia | Los Angeles | 2 | All Maps","name_short":"lax-2","host":"lax-1.us.uncletopia.com","port":27025,"enabled":true,"region":"us-west","cc":"us","latitude":33.94279,"longitude":-118.41004,"reserved":0,"last_update":"0001-01-01T00:00:00Z","name_a2s":"Uncletopia | Los Angeles | 2 | All Maps","protocol":17,"map":"pl_upward","folder":"tf","game":"Team Fortress","app_id":440,"player_count":23,"max_players":24,"Bots":0,"server_type":"Dedicated","server_os":"Linux","password":true,"vac":true,"version":"7882260","steam_id":85568392924469992,"keywords":["nocrits","nodmgspread","payload","uncletopia"],"game_id":440,"stv_port":27026,"stv_name":"Uncletopia | Los Angeles | 2 | All Maps | STV","players":[{"user_id":224,"name":"WaywardFinn","steam_id":76561198040391296,"connected_time":1178000000000,"state":"active","ping":121},{"user_id":214,"name":"One of Gods Many Eyes","steam_id":76561198081817135,"connected_time":1924000000000,"state":"active","ping":103},{"user_id":222,"name":"Sushee","steam_id":76561197997031233,"connected_time":1356000000000,"state":"active","ping":52},{"user_id":220,"name":"danny screamo","steam_id":76561198064312388,"connected_time":1609000000000,"state":"active","ping":69},{"user_id":176,"name":"DrWilloughby","steam_id":76561198095260357,"connected_time":4742000000000,"state":"active","ping":70},{"user_id":241,"name":"I throw a lot","steam_id":76561198209650964,"connected_time":549000000000,"state":"active","ping":60},{"user_id":219,"name":"StrikcZ Áà∂","steam_id":76561198976507691,"connected_time":1732000000000,"state":"active","ping":29},{"user_id":216,"name":"[DATS‚û°] Sugar Meowth","steam_id":76561197995251793,"connected_time":1903000000000,"state":"active","ping":69},{"user_id":131,"name":"Sol","steam_id":76561198121500201,"connected_time":8227000000000,"state":"active","ping":45},{"user_id":223,"name":"BasedGod","steam_id":76561198061177973,"connected_time":1312000000000,"state":"active","ping":50},{"user_id":207,"name":"BrightOrangeMango","steam_id":76561198023144607,"connected_time":2220000000000,"state":"active","ping":64},{"user_id":225,"name":"HooDoo","steam_id":76561198088994018,"connected_time":1135000000000,"state":"active","ping":81},{"user_id":242,"name":"Zaiah","steam_id":76561198377588247,"connected_time":542000000000,"state":"active","ping":76},{"user_id":228,"name":"rommb","steam_id":76561198090159427,"connected_time":1081000000000,"state":"active","ping":91},{"user_id":195,"name":"chimplicity","steam_id":76561198012097062,"connected_time":3216000000000,"state":"active","ping":68},{"user_id":230,"name":"SnazzyCelestial","steam_id":76561198328763813,"connected_time":1032000000000,"state":"active","ping":110},{"user_id":231,"name":"plushvids11","steam_id":76561198889418752,"connected_time":1028000000000,"state":"active","ping":76},{"user_id":191,"name":"Sprite","steam_id":76561199229782599,"connected_time":3333000000000,"state":"active","ping":117},{"user_id":235,"name":"The Witchfinder General","steam_id":76561199113662942,"connected_time":823000000000,"state":"active","ping":46},{"user_id":233,"name":"Psych03","steam_id":76561198061753667,"connected_time":952000000000,"state":"active","ping":116},{"user_id":240,"name":"SmallestApple","steam_id":76561198353403983,"connected_time":629000000000,"state":"active","ping":98},{"user_id":237,"name":"thegolden","steam_id":76561198162369581,"connected_time":781000000000,"state":"active","ping":55},{"user_id":185,"name":"Dr. Bubs","steam_id":76561198011696595,"connected_time":4047000000000,"state":"active","ping":48}]},{"server_id":324,"name":"Uncletopia | Los Angeles | 3 | All Maps","name_short":"lax-3","host":"lax-1.us.uncletopia.com","port":27035,"enabled":true,"region":"us-west","cc":"us","latitude":33.94279,"longitude":-118.41004,"reserved":0,"last_update":"0001-01-01T00:00:00Z","name_a2s":"Uncletopia | Los Angeles | 3 | All Maps","protocol":17,"map":"cp_dustbowl","folder":"tf","game":"Team Fortress","app_id":440,"player_count":23,"max_players":24,"Bots":0,"server_type":"Dedicated","server_os":"Linux","password":true,"vac":true,"version":"7882260","steam_id":85568392924510198,"keywords":["cp","nocrits","nodmgspread","uncletopia"],"game_id":440,"stv_port":27036,"stv_name":"Uncletopia | Los Angeles | 3 | All Maps | STV","players":[{"user_id":17,"name":"Cel","steam_id":76561198119023653,"connected_time":5105000000000,"state":"active","ping":48},{"user_id":58,"name":"GrayHexos","steam_id":76561198328544460,"connected_time":2231000000000,"state":"active","ping":117},{"user_id":68,"name":"Weakest Dwarf Enjoyer","steam_id":76561197993227472,"connected_time":1421000000000,"state":"active","ping":79},{"user_id":84,"name":"Rose","steam_id":76561198955581861,"connected_time":209000000000,"state":"active","ping":53},{"user_id":65,"name":"Korn Dawg","steam_id":76561198026941076,"connected_time":1549000000000,"state":"active","ping":44},{"user_id":79,"name":"Hope","steam_id":76561199182558088,"connected_time":490000000000,"state":"active","ping":77},{"user_id":83,"name":"Î©çÏ≤≠Ìïú ÎØ∏Íµ≠Ïù∏","steam_id":76561198041986461,"connected_time":278000000000,"state":"active","ping":60},{"user_id":24,"name":"Dr. Zoidburg","steam_id":76561198174593497,"connected_time":4289000000000,"state":"active","ping":91},{"user_id":75,"name":"CrazyM3rc","steam_id":76561199025383150,"connected_time":695000000000,"state":"active","ping":100},{"user_id":69,"name":"RazorLime","steam_id":76561198277251223,"connected_time":1357000000000,"state":"active","ping":98},{"user_id":54,"name":"Grand","steam_id":76561198290143399,"connected_time":2594000000000,"state":"active","ping":88},{"user_id":45,"name":"Noponz","steam_id":76561198176891054,"connected_time":3172000000000,"state":"active","ping":105},{"user_id":76,"name":"Streetwise","steam_id":76561197971684268,"connected_time":595000000000,"state":"active","ping":90},{"user_id":81,"name":"Nim","steam_id":76561198053645059,"connected_time":438000000000,"state":"active","ping":78},{"user_id":46,"name":"Boomyz","steam_id":76561198023817706,"connected_time":3162000000000,"state":"active","ping":130},{"user_id":86,"name":"imp","steam_id":76561198046951853,"connected_time":80000000000,"state":"active","ping":46},{"user_id":35,"name":"One Horned Bitch Destroyer","steam_id":76561198045810191,"connected_time":3566000000000,"state":"active","ping":75},{"user_id":71,"name":"wubber","steam_id":76561198286627157,"connected_time":1144000000000,"state":"active","ping":51},{"user_id":77,"name":"Jykle","steam_id":76561198077352807,"connected_time":584000000000,"state":"active","ping":82},{"user_id":67,"name":"spacetoven","steam_id":76561198115821131,"connected_time":1494000000000,"state":"active","ping":58},{"user_id":82,"name":"DOPEam1ne","steam_id":76561198112204774,"connected_time":328000000000,"state":"active","ping":50},{"user_id":87,"name":"bread","steam_id":76561198989769576,"connected_time":56000000000,"state":"active","ping":79},{"user_id":52,"name":"Truffles","steam_id":76561198095868800,"connected_time":2773000000000,"state":"active","ping":98}]},{"server_id":25,"name":"Uncletopia | Los Angeles | 4 | Stopwatch Beta","name_short":"lax-4","host":"lax-1.us.uncletopia.com","port":27045,"enabled":true,"region":"us-west","cc":"us","latitude":33.94279,"longitude":-118.41004,"reserved":0,"last_update":"0001-01-01T00:00:00Z","name_a2s":"Uncletopia | Los Angeles | 4 | Stopwatch Beta","protocol":17,"map":"koth_viaduct","folder":"tf","game":"Team Fortress","app_id":440,"player_count":0,"max_players":24,"Bots":0,"server_type":"Dedicated","server_os":"Linux","password":true,"vac":true,"version":"7882260","steam_id":85568392924510199,"keywords":["cp","nocrits","nodmgspread","uncletopia"],"game_id":440,"stv_port":27046,"stv_name":"Uncletopia | Los Angeles | 4 | Stopwatch Beta | STV","players":null},{"server_id":11,"name":"Uncletopia | London | 1 | All Maps","name_short":"lon-1","host":"lon-1.uk.uncletopia.com","port":27015,"enabled":true,"region":"eu","cc":"gb","latitude":51.509865,"longitude":-0.118092,"reserved":0,"last_update":"0001-01-01T00:00:00Z","name_a2s":"Uncletopia | London | 1 | All Maps","protocol":17,"map":"koth_lakeside_final","folder":"tf","game":"Team Fortress","app_id":440,"player_count":0,"max_players":24,"Bots":0,"server_type":"Dedicated","server_os":"Linux","password":true,"vac":true,"version":"7882260","steam_id":85568392924367362,"keywords":["cp","nocrits","nodmgspread","uncletopia"],"game_id":440,"stv_port":27016,"stv_name":"Uncletopia | London | 1 | All Maps | STV","players":null},{"server_id":114,"name":"Uncletopia | London | 2 | All Maps","name_short":"lon-2","host":"lon-1.uk.uncletopia.com","port":27025,"enabled":true,"region":"eu","cc":"gb","latitude":51.509865,"longitude":-0.118092,"reserved":0,"last_update":"0001-01-01T00:00:00Z","name_a2s":"Uncletopia | London | 2 | All Maps","protocol":17,"map":"pl_upward","folder":"tf","game":"Team Fortress","app_id":440,"player_count":17,"max_players":24,"Bots":0,"server_type":"Dedicated","server_os":"Linux","password":true,"vac":true,"version":"7882260","steam_id":85568392924470941,"keywords":["nocrits","nodmgspread","payload","uncletopia"],"game_id":440,"stv_port":27026,"stv_name":"Uncletopia | London | 2 | All Maps | STV","players":[{"user_id":860,"name":"JJ Chief","steam_id":76561198073277911,"connected_time":1276000000000,"state":"active","ping":69},{"user_id":843,"name":"K1Kozume","steam_id":76561198880203788,"connected_time":2319000000000,"state":"active","ping":55},{"user_id":842,"name":"Constellar Nova","steam_id":76561198868215392,"connected_time":2392000000000,"state":"active","ping":130},{"user_id":825,"name":"Devious","steam_id":76561198035576811,"connected_time":4405000000000,"state":"active","ping":61},{"user_id":865,"name":"Big Dick Dave","steam_id":76561198136404794,"connected_time":1028000000000,"state":"active","ping":42},{"user_id":845,"name":"K.V. #RemoveRandomCrits","steam_id":76561197994832993,"connected_time":2248000000000,"state":"active","ping":81},{"user_id":851,"name":"Moonkey","steam_id":76561199013741389,"connected_time":1903000000000,"state":"active","ping":109},{"user_id":847,"name":"Tryrn","steam_id":76561198075487436,"connected_time":2185000000000,"state":"active","ping":94},{"user_id":875,"name":"idarmed","steam_id":76561198420064361,"connected_time":77000000000,"state":"active","ping":158},{"user_id":872,"name":"–ú—ã —Å –£–∫—Ä–∞–∏–Ω–æ–π","steam_id":76561198022402155,"connected_time":411000000000,"state":"active","ping":46},{"user_id":853,"name":"Jiipeeze","steam_id":76561198316154333,"connected_time":1816000000000,"state":"active","ping":87},{"user_id":856,"name":"Waltuh","steam_id":76561198079334270,"connected_time":1602000000000,"state":"active","ping":82},{"user_id":859,"name":"OREO","steam_id":76561199229118371,"connected_time":1452000000000,"state":"active","ping":104},{"user_id":866,"name":"rik","steam_id":76561198097553819,"connected_time":901000000000,"state":"active","ping":71},{"user_id":858,"name":"Over","steam_id":76561198180917349,"connected_time":1494000000000,"state":"active","ping":74},{"user_id":864,"name":"mer5277","steam_id":76561198192171041,"connected_time":1073000000000,"state":"active","ping":158},{"user_id":867,"name":"Erin in Soup","steam_id":76561198416493306,"connected_time":870000000000,"state":"active","ping":56}]},{"server_id":320,"name":"Uncletopia | London | 3 | All Maps","name_short":"lon-3","host":"lon-1.uk.uncletopia.com","port":27035,"enabled":true,"region":"eu","cc":"gb","latitude":51.509865,"longitude":-0.118092,"reserved":0,"last_update":"0001-01-01T00:00:00Z","name_a2s":"Uncletopia | London | 3 | All Maps","protocol":17,"map":"pl_pier","folder":"tf","game":"Team Fortress","app_id":440,"player_count":0,"max_players":24,"Bots":0,"server_type":"Dedicated","server_os":"Linux","password":true,"vac":true,"version":"7882260","steam_id":85568392924510192,"keywords":["nocrits","nodmgspread","payload","uncletopia"],"game_id":440,"stv_port":27036,"stv_name":"Uncletopia | London | 3 | All Maps | STV","players":null},{"server_id":321,"name":"Uncletopia | London | 4 | All Maps","name_short":"lon-4","host":"lon-1.uk.uncletopia.com","port":27045,"enabled":true,"region":"eu","cc":"gb","latitude":51.509865,"longitude":-0.118092,"reserved":0,"last_update":"0001-01-01T00:00:00Z","name_a2s":"Uncletopia | London | 4 | All Maps","protocol":17,"map":"cp_sunshine","folder":"tf","game":"Team Fortress","app_id":440,"player_count":0,"max_players":24,"Bots":0,"server_type":"Dedicated","server_os":"Linux","password":true,"vac":true,"version":"7882260","steam_id":85568392924510193,"keywords":["cp","nocrits","nodmgspread","uncletopia"],"game_id":440,"stv_port":27046,"stv_name":"Uncletopia | London | 4 | All Maps | STV","players":null},{"server_id":21,"name":"Uncletopia | London | 5 | All Maps","name_short":"lon-5","host":"lon-1.uk.uncletopia.com","port":27055,"enabled":true,"region":"eu","cc":"gb","latitude":51.509865,"longitude":-0.118092,"reserved":0,"last_update":"0001-01-01T00:00:00Z","name_a2s":"Uncletopia | London | 5 | All Maps","protocol":17,"map":"cp_dustbowl","folder":"tf","game":"Team Fortress","app_id":440,"player_count":0,"max_players":24,"Bots":0,"server_type":"Dedicated","server_os":"Linux","password":true,"vac":true,"version":"7882260","steam_id":85568392924742829,"keywords":["cp","nocrits","nodmgspread","uncletopia"],"game_id":440,"stv_port":27056,"stv_name":"Uncletopia | London | 5 | All Maps | STV","players":null},{"server_id":22,"name":"Uncletopia | London | 6 | All Maps","name_short":"lon-6","host":"lon-1.uk.uncletopia.com","port":27065,"enabled":true,"region":"eu","cc":"gb","latitude":51.509865,"longitude":-0.118092,"reserved":0,"last_update":"0001-01-01T00:00:00Z","name_a2s":"Uncletopia | London | 6 | All Maps","protocol":17,"map":"koth_cascade","folder":"tf","game":"Team Fortress","app_id":440,"player_count":0,"max_players":24,"Bots":0,"server_type":"Dedicated","server_os":"Linux","password":true,"vac":true,"version":"7882260","steam_id":85568392924742830,"keywords":["cp","nocrits","nodmgspread","uncletopia"],"game_id":440,"stv_port":27066,"stv_name":"Uncletopia | London | 6 | All Maps | STV","players":null},{"server_id":40,"name":"Uncletopia | London | 7 | No Payload","name_short":"lon-7","host":"lon-1.uk.uncletopia.com","port":27075,"enabled":true,"region":"eu","cc":"gb","latitude":51.509865,"longitude":-0.118092,"reserved":0,"last_update":"0001-01-01T00:00:00Z","name_a2s":"Uncletopia | London | 7 | No Payload","protocol":17,"map":"koth_harvest_final","folder":"tf","game":"Team Fortress","app_id":440,"player_count":0,"max_players":24,"Bots":0,"server_type":"Dedicated","server_os":"Linux","password":true,"vac":true,"version":"7882260","steam_id":85568392924964314,"keywords":["cp","nocrits","nodmgspread","uncletopia"],"game_id":440,"stv_port":27076,"stv_name":"Uncletopia | London | 7 | No Payload | STV","players":null},{"server_id":41,"name":"Uncletopia | London | 8 | Community","name_short":"lon-8","host":"lon-1.uk.uncletopia.com","port":27085,"enabled":true,"region":"eu","cc":"gb","latitude":51.509865,"longitude":-0.118092,"reserved":0,"last_update":"0001-01-01T00:00:00Z","name_a2s":"Uncletopia | London | 8 | Community","protocol":17,"map":"workshop/koth_bagel_rc6.ugc2514036946","folder":"tf","game":"Team Fortress","app_id":440,"player_count":0,"max_players":24,"Bots":0,"server_type":"Dedicated","server_os":"Linux","password":true,"vac":true,"version":"7882260","steam_id":85568392924964315,"keywords":["cp","nocrits","nodmgspread","uncletopia"],"game_id":440,"stv_port":27086,"stv_name":"Uncletopia | London | 8 | Community | STV","players":null},{"server_id":300,"name":"Uncletopia | Montr√©al | 1 | All Maps","name_short":"mtl-1","host":"mtl-1.ca.uncletopia.com","port":27015,"enabled":true,"region":"us-east","cc":"ca","latitude":45.50889,"longitude":-73.56167,"reserved":0,"last_update":"0001-01-01T00:00:00Z","name_a2s":"Uncletopia | Montr√©al | 1 | All Maps","protocol":17,"map":"cp_altitude","folder":"tf","game":"Team Fortress","app_id":440,"player_count":11,"max_players":24,"Bots":0,"server_type":"Dedicated","server_os":"Linux","password":true,"vac":true,"version":"7882260","steam_id":85568392924500087,"keywords":["cp","nocrits","nodmgspread","uncletopia"],"game_id":440,"stv_port":27016,"stv_name":"Uncletopia | Montr√©al | 1 | All Maps | STV","players":[{"user_id":125,"name":"Dog Goggles","steam_id":76561197995233692,"connected_time":2617000000000,"state":"active","ping":77},{"user_id":110,"name":"Spectrilis","steam_id":76561198816047324,"connected_time":3658000000000,"state":"active","ping":88},{"user_id":118,"name":"Bee_Pirate","steam_id":76561199000599111,"connected_time":3189000000000,"state":"active","ping":57},{"user_id":120,"name":"Boter","steam_id":76561198066994093,"connected_time":2829000000000,"state":"active","ping":83},{"user_id":121,"name":"combine gaming","steam_id":76561198143371318,"connected_time":2805000000000,"state":"active","ping":112},{"user_id":75,"name":"concrete_car","steam_id":76561198388207363,"connected_time":7762000000000,"state":"active","ping":72},{"user_id":127,"name":"Player","steam_id":76561199482290132,"connected_time":2585000000000,"state":"active","ping":47},{"user_id":137,"name":"Happy 100 Gaming","steam_id":76561199066576538,"connected_time":1244000000000,"state":"active","ping":55},{"user_id":141,"name":"TheGuyWhoPlays","steam_id":76561198277363002,"connected_time":870000000000,"state":"active","ping":51},{"user_id":124,"name":"sphinxmagoo","steam_id":76561198057001653,"connected_time":2710000000000,"state":"active","ping":62},{"user_id":128,"name":"Donnie Blasto","steam_id":76561198043432005,"connected_time":2570000000000,"state":"active","ping":63}]},{"server_id":301,"name":"Uncletopia | Montr√©al | 2 | All Maps","name_short":"mtl-2","host":"mtl-1.ca.uncletopia.com","port":27025,"enabled":true,"region":"us-east","cc":"ca","latitude":45.50889,"longitude":-73.56167,"reserved":0,"last_update":"0001-01-01T00:00:00Z","name_a2s":"Uncletopia | Montr√©al | 2 | All Maps","protocol":17,"map":"pl_upward","folder":"tf","game":"Team Fortress","app_id":440,"player_count":0,"max_players":24,"Bots":0,"server_type":"Dedicated","server_os":"Linux","password":true,"vac":true,"version":"7882260","steam_id":85568392924500088,"keywords":["nocrits","nodmgspread","payload","uncletopia"],"game_id":440,"stv_port":27026,"stv_name":"Uncletopia | Montr√©al | 2 | All Maps | STV","players":null},{"server_id":302,"name":"Uncletopia | Montr√©al | 3 | All Maps","name_short":"mtl-3","host":"mtl-1.ca.uncletopia.com","port":27035,"enabled":true,"region":"us-east","cc":"ca","latitude":45.50889,"longitude":-73.56167,"reserved":0,"last_update":"0001-01-01T00:00:00Z","name_a2s":"Uncletopia | Montr√©al | 3 | All Maps","protocol":17,"map":"koth_highpass","folder":"tf","game":"Team Fortress","app_id":440,"player_count":0,"max_players":24,"Bots":0,"server_type":"Dedicated","server_os":"Linux","password":true,"vac":true,"version":"7882260","steam_id":85568392924500089,"keywords":["cp","nocrits","nodmgspread","uncletopia"],"game_id":440,"stv_port":27036,"stv_name":"Uncletopia | Montr√©al | 3 | All Maps | STV","players":null},{"server_id":303,"name":"Uncletopia | Montr√©al | 4 | No Payload","name_short":"mtl-4","host":"mtl-1.ca.uncletopia.com","port":27045,"enabled":true,"region":"us-east","cc":"ca","latitude":45.50889,"longitude":-73.56167,"reserved":0,"last_update":"0001-01-01T00:00:00Z","name_a2s":"Uncletopia | Montr√©al | 4 | No Payload","protocol":17,"map":"koth_highpass","folder":"tf","game":"Team Fortress","app_id":440,"player_count":0,"max_players":24,"Bots":0,"server_type":"Dedicated","server_os":"Linux","password":true,"vac":true,"version":"7882260","steam_id":85568392924500090,"keywords":["cp","nocrits","nodmgspread","uncletopia"],"game_id":440,"stv_port":27046,"stv_name":"Uncletopia | Montr√©al | 4 | No Payload | STV","players":null},{"server_id":13,"name":"Uncletopia | New York City | 1 | All Maps","name_short":"nyc-1","host":"nyc-1.us.uncletopia.com","port":27015,"enabled":true,"region":"us-east","cc":"us","latitude":40.73061,"longitude":-73.93524,"reserved":0,"last_update":"0001-01-01T00:00:00Z","name_a2s":"Uncletopia | New York City | 1 | All Maps","protocol":17,"map":"pl_upward","folder":"tf","game":"Team Fortress","app_id":440,"player_count":24,"max_players":24,"Bots":0,"server_type":"Dedicated","server_os":"Linux","password":true,"vac":true,"version":"7882260","steam_id":85568392924469993,"keywords":["nocrits","nodmgspread","payload","uncletopia"],"game_id":440,"stv_port":27016,"stv_name":"Uncletopia | New York City | 1 | All Maps | STV","players":[{"user_id":500,"name":"Fraudulent Tuna","steam_id":76561197972268728,"connected_time":1126000000000,"state":"active","ping":65},{"user_id":487,"name":"SublunarFox","steam_id":76561198886387474,"connected_time":1956000000000,"state":"active","ping":60},{"user_id":480,"name":"PyroEagle","steam_id":76561198296434231,"connected_time":2394000000000,"state":"active","ping":89},{"user_id":494,"name":"CRAZY engineer","steam_id":76561198887937902,"connected_time":1363000000000,"state":"active","ping":52},{"user_id":479,"name":"MistGlow","steam_id":76561198964375610,"connected_time":2495000000000,"state":"active","ping":102},{"user_id":501,"name":"Frank.","steam_id":76561198225910596,"connected_time":1046000000000,"state":"active","ping":73},{"user_id":505,"name":"Fieldrook","steam_id":76561198799005478,"connected_time":518000000000,"state":"active","ping":90},{"user_id":452,"name":"pigfarmer.gov","steam_id":76561199071167548,"connected_time":6417000000000,"state":"active","ping":72},{"user_id":438,"name":"SHADY SWEATER SALESMAN","steam_id":76561198014616865,"connected_time":7884000000000,"state":"active","ping":50},{"user_id":506,"name":"kiv","steam_id":76561198838223023,"connected_time":511000000000,"state":"active","ping":63},{"user_id":408,"name":"Heropon","steam_id":76561198105224481,"connected_time":9591000000000,"state":"active","ping":60},{"user_id":493,"name":"FrostLeaf üíô","steam_id":76561198277045296,"connected_time":1376000000000,"state":"active","ping":47},{"user_id":507,"name":"Taco","steam_id":76561198158621392,"connected_time":497000000000,"state":"active","ping":67},{"user_id":460,"name":"g_shadow09","steam_id":76561199067728816,"connected_time":5697000000000,"state":"active","ping":89},{"user_id":495,"name":"MAXIMUS","steam_id":76561198085809453,"connected_time":1357000000000,"state":"active","ping":85},{"user_id":508,"name":"gnome","steam_id":76561198052978969,"connected_time":470000000000,"state":"active","ping":57},{"user_id":491,"name":"The Land Admiral","steam_id":76561198159356609,"connected_time":1456000000000,"state":"active","ping":55},{"user_id":496,"name":"We believe in you!","steam_id":76561198219252313,"connected_time":1311000000000,"state":"active","ping":69},{"user_id":472,"name":"Urbanzpinapple","steam_id":76561198115426938,"connected_time":4962000000000,"state":"active","ping":84},{"user_id":504,"name":"theghazinator","steam_id":76561198188027695,"connected_time":667000000000,"state":"active","ping":62},{"user_id":477,"name":"chiswola","steam_id":76561198046920142,"connected_time":2988000000000,"state":"active","ping":93},{"user_id":459,"name":"Fishman_200","steam_id":76561198152455167,"connected_time":5702000000000,"state":"active","ping":64},{"user_id":503,"name":"Obelix","steam_id":76561198274715109,"connected_time":691000000000,"state":"active","ping":64}]},{"server_id":14,"name":"Uncletopia | New York City | 2 | All Maps","name_short":"nyc-2","host":"nyc-1.us.uncletopia.com","port":27025,"enabled":true,"region":"us-east","cc":"us","latitude":40.73061,"longitude":-73.93524,"reserved":0,"last_update":"0001-01-01T00:00:00Z","name_a2s":"Uncletopia | New York City | 2 | All Maps","protocol":17,"map":"ctf_landfall","folder":"tf","game":"Team Fortress","app_id":440,"player_count":24,"max_players":24,"Bots":0,"server_type":"Dedicated","server_os":"Linux","password":true,"vac":true,"version":"7882260","steam_id":85568392924469994,"keywords":["ctf","nocrits","nodmgspread","uncletopia"],"game_id":440,"stv_port":27026,"stv_name":"Uncletopia | New York City | 2 | All Maps | STV","players":[{"user_id":379,"name":"Jazzo","steam_id":76561198023019803,"connected_time":2766000000000,"state":"active","ping":58},{"user_id":405,"name":"smuffy","steam_id":76561198091459506,"connected_time":97000000000,"state":"active","ping":52},{"user_id":258,"name":"Pigeon","steam_id":76561199232498885,"connected_time":10272000000000,"state":"active","ping":63},{"user_id":365,"name":"Bip","steam_id":76561199022962204,"connected_time":4140000000000,"state":"active","ping":83},{"user_id":391,"name":"Periculosum PhD in Funny","steam_id":76561198123370914,"connected_time":1571000000000,"state":"active","ping":86},{"user_id":397,"name":"lukethepumpkin","steam_id":76561198204158335,"connected_time":1321000000000,"state":"active","ping":55},{"user_id":373,"name":"Bojo Kojo","steam_id":76561198141703138,"connected_time":3100000000000,"state":"active","ping":109},{"user_id":387,"name":"the real babytron","steam_id":76561197989627918,"connected_time":2202000000000,"state":"active","ping":71},{"user_id":401,"name":"CloudVic","steam_id":76561198118868716,"connected_time":417000000000,"state":"active","ping":98},{"user_id":392,"name":"EmergencyPancake","steam_id":76561198212039509,"connected_time":1516000000000,"state":"active","ping":76},{"user_id":402,"name":"bojack from the show bojack hor","steam_id":76561198053006712,"connected_time":379000000000,"state":"active","ping":44},{"user_id":393,"name":"genuine reaction","steam_id":76561199007703661,"connected_time":1506000000000,"state":"active","ping":112},{"user_id":355,"name":"jay","steam_id":76561199474493516,"connected_time":4502000000000,"state":"active","ping":108},{"user_id":396,"name":"king dedede","steam_id":76561198965562679,"connected_time":1419000000000,"state":"active","ping":73},{"user_id":403,"name":"cereal with water","steam_id":76561198091332884,"connected_time":291000000000,"state":"active","ping":48},{"user_id":404,"name":"ramen with milk","steam_id":76561198119096403,"connected_time":289000000000,"state":"active","ping":47},{"user_id":356,"name":"ClericsRose","steam_id":76561198011013806,"connected_time":4468000000000,"state":"active","ping":72},{"user_id":358,"name":"Ground Control to Majortom","steam_id":76561198065589126,"connected_time":4379000000000,"state":"active","ping":87},{"user_id":395,"name":"Dude, error.","steam_id":76561198046705420,"connected_time":1477000000000,"state":"active","ping":81},{"user_id":390,"name":"ùô¥ ùö° ùöå ùöé ùöï ùöï \ufffd","steam_id":76561198011887958,"connected_time":1869000000000,"state":"active","ping":56},{"user_id":360,"name":"CivilWarMike","steam_id":76561198141188839,"connected_time":4368000000000,"state":"active","ping":78},{"user_id":386,"name":"Viokik","steam_id":76561198408846602,"connected_time":2255000000000,"state":"active","ping":53}]},{"server_id":15,"name":"Uncletopia | New York City | 3 | Stopwatch Beta","name_short":"nyc-3","host":"nyc-1.us.uncletopia.com","port":27035,"enabled":true,"region":"us-east","cc":"us","latitude":40.73061,"longitude":-73.93524,"reserved":0,"last_update":"0001-01-01T00:00:00Z","name_a2s":"Uncletopia | New York City | 3 | Stopwatch Beta","protocol":17,"map":"pl_borneo","folder":"tf","game":"Team Fortress","app_id":440,"player_count":0,"max_players":24,"Bots":0,"server_type":"Dedicated","server_os":"Linux","password":true,"vac":true,"version":"7882260","steam_id":85568392924742820,"keywords":["nocrits","nodmgspread","payload","uncletopia"],"game_id":440,"stv_port":27036,"stv_name":"Uncletopia | New York City | 3 | Stopwatch Beta | STV","players":null},{"server_id":16,"name":"Uncletopia | New York City | 4 | Community","name_short":"nyc-4","host":"nyc-1.us.uncletopia.com","port":27045,"enabled":true,"region":"us-east","cc":"us","latitude":40.73061,"longitude":-73.93524,"reserved":0,"last_update":"0001-01-01T00:00:00Z","name_a2s":"Uncletopia | New York City | 4 | Community","protocol":17,"map":"workshop/koth_trenchfoot_b1a.ugc731436616","folder":"tf","game":"Team Fortress","app_id":440,"player_count":0,"max_players":24,"Bots":0,"server_type":"Dedicated","server_os":"Linux","password":true,"vac":true,"version":"7882260","steam_id":85568392924742821,"keywords":["cp","nocrits","nodmgspread","uncletopia"],"game_id":440,"stv_port":27046,"stv_name":"Uncletopia | New York City | 4 | Community | STV","players":null},{"server_id":142,"name":"Uncletopia | S√£o Paulo | 1 | All Maps","name_short":"sao-1","host":"sao-1.br.uncletopia.com","port":27015,"enabled":true,"region":"sa","cc":"br","latitude":-23.533773,"longitude":-46.62529,"reserved":0,"last_update":"0001-01-01T00:00:00Z","name_a2s":"Uncletopia | S√£o Paulo | 1 | All Maps","protocol":17,"map":"koth_nucleus","folder":"tf","game":"Team Fortress","app_id":440,"player_count":0,"max_players":24,"Bots":0,"server_type":"Dedicated","server_os":"Linux","password":true,"vac":true,"version":"7882260","steam_id":85568392924469996,"keywords":["cp","nocrits","nodmgspread","uncletopia"],"game_id":440,"stv_port":27016,"stv_name":"Uncletopia | S√£o Paulo | 1 | All Maps | STV","players":null},{"server_id":143,"name":"Uncletopia | S√£o Paulo | 2 | All Maps","name_short":"sao-2","host":"sao-2.br.uncletopia.com","port":27015,"enabled":true,"region":"sa","cc":"br","latitude":-23.533773,"longitude":-46.62529,"reserved":0,"last_update":"0001-01-01T00:00:00Z","name_a2s":"Uncletopia | S√£o Paulo | 2 | All Maps","protocol":17,"map":"koth_highpass","folder":"tf","game":"Team Fortress","app_id":440,"player_count":0,"max_players":24,"Bots":0,"server_type":"Dedicated","server_os":"Linux","password":true,"vac":true,"version":"7882260","steam_id":85568392924485349,"keywords":["cp","nocrits","nodmgspread","uncletopia"],"game_id":440,"stv_port":27016,"stv_name":"Uncletopia | S√£o Paulo | 2 | All Maps | STV","players":null},{"server_id":7,"name":"Uncletopia | Seattle | 1 | All Maps","name_short":"sea-1","host":"sea-1.us.uncletopia.com","port":27015,"enabled":true,"region":"us-west","cc":"us","latitude":47.608013,"longitude":-122.33517,"reserved":0,"last_update":"0001-01-01T00:00:00Z","name_a2s":"Uncletopia | Seattle | 1 | All Maps","protocol":17,"map":"pl_barnblitz","folder":"tf","game":"Team Fortress","app_id":440,"player_count":24,"max_players":24,"Bots":0,"server_type":"Dedicated","server_os":"Linux","password":true,"vac":true,"version":"7882260","steam_id":85568392924469997,"keywords":["nocrits","nodmgspread","payload","uncletopia"],"game_id":440,"stv_port":27016,"stv_name":"Uncletopia | Seattle | 1 | All Maps | STV","players":[{"user_id":532,"name":"white muslim dane cook","steam_id":76561198000979872,"connected_time":9725000000000,"state":"active","ping":85},{"user_id":626,"name":"Qas","steam_id":76561198067564482,"connected_time":2041000000000,"state":"active","ping":86},{"user_id":572,"name":"lker","steam_id":76561197976975075,"connected_time":5969000000000,"state":"active","ping":111},{"user_id":638,"name":"ORANGE","steam_id":76561198000401769,"connected_time":421000000000,"state":"active","ping":45},{"user_id":639,"name":"Renota","steam_id":76561198058224488,"connected_time":282000000000,"state":"active","ping":130},{"user_id":598,"name":"a cat plushie","steam_id":76561198080046542,"connected_time":3836000000000,"state":"active","ping":38},{"user_id":599,"name":"far1ne","steam_id":76561198418853168,"connected_time":3670000000000,"state":"active","ping":36},{"user_id":608,"name":"Apollo","steam_id":76561198162364702,"connected_time":3102000000000,"state":"active","ping":52},{"user_id":632,"name":"PopcornBucketGames","steam_id":76561199089562026,"connected_time":1385000000000,"state":"active","ping":46},{"user_id":635,"name":"viciousbeatmaker","steam_id":76561198086876652,"connected_time":979000000000,"state":"active","ping":77},{"user_id":605,"name":"[TrC] Dackstrus","steam_id":76561197973518509,"connected_time":3237000000000,"state":"active","ping":62},{"user_id":629,"name":"cassielee13","steam_id":76561198272718759,"connected_time":1835000000000,"state":"active","ping":68},{"user_id":640,"name":"Puskinti","steam_id":76561198032120688,"connected_time":191000000000,"state":"active","ping":62},{"user_id":628,"name":"[TrC] Nosy","steam_id":76561197978859310,"connected_time":2023000000000,"state":"active","ping":62},{"user_id":637,"name":"evilOlive","steam_id":76561198106222025,"connected_time":532000000000,"state":"active","ping":85},{"user_id":642,"name":"Void","steam_id":76561198308290211,"connected_time":120000000000,"state":"active","ping":169},{"user_id":627,"name":"cheeto dorito","steam_id":76561198107941274,"connected_time":2041000000000,"state":"active","ping":76},{"user_id":547,"name":"aggressive headpatter","steam_id":76561198042913843,"connected_time":8973000000000,"state":"active","ping":60},{"user_id":613,"name":"Jawn","steam_id":76561198424248616,"connected_time":2888000000000,"state":"active","ping":95},{"user_id":564,"name":"Jacobzeba01","steam_id":76561198131808718,"connected_time":6935000000000,"state":"active","ping":65},{"user_id":573,"name":"Tibetan Pop Star","steam_id":76561198844903984,"connected_time":5940000000000,"state":"active","ping":85},{"user_id":641,"name":"femboys who say bruh","steam_id":76561198083289712,"connected_time":181000000000,"state":"active","ping":36},{"user_id":625,"name":"babbage","steam_id":76561198126730687,"connected_time":2136000000000,"state":"active","ping":85},{"user_id":597,"name":"Quarter Cheese","steam_id":76561198115814588,"connected_time":3943000000000,"state":"active","ping":48}]},{"server_id":119,"name":"Uncletopia | Seattle | 2 | All Maps","name_short":"sea-2","host":"sea-1.us.uncletopia.com","port":27025,"enabled":true,"region":"us-west","cc":"us","latitude":47.608013,"longitude":-122.33517,"reserved":0,"last_update":"0001-01-01T00:00:00Z","name_a2s":"Uncletopia | Seattle | 2 | All Maps","protocol":17,"map":"pl_borneo","folder":"tf","game":"Team Fortress","app_id":440,"player_count":20,"max_players":24,"Bots":0,"server_type":"Dedicated","server_os":"Linux","password":true,"vac":true,"version":"7882260","steam_id":85568392924469998,"keywords":["nocrits","nodmgspread","payload","uncletopia"],"game_id":440,"stv_port":27026,"stv_name":"Uncletopia | Seattle | 2 | All Maps | STV","players":[{"user_id":453,"name":"FlamingManiac","steam_id":76561198361996837,"connected_time":978000000000,"state":"active","ping":135},{"user_id":373,"name":"SEGNO","steam_id":76561198102780113,"connected_time":5277000000000,"state":"active","ping":71},{"user_id":446,"name":"Vincent Van Bro","steam_id":76561197966919802,"connected_time":1624000000000,"state":"active","ping":57},{"user_id":438,"name":"litcherally in vents","steam_id":76561199169558959,"connected_time":2217000000000,"state":"active","ping":42},{"user_id":415,"name":"captain red","steam_id":76561198191587983,"connected_time":3059000000000,"state":"active","ping":75},{"user_id":448,"name":"Deathkillsme","steam_id":76561198059468746,"connected_time":1481000000000,"state":"active","ping":45},{"user_id":451,"name":"mannn","steam_id":76561198045964573,"connected_time":1276000000000,"state":"active","ping":62},{"user_id":459,"name":"Fostrel","steam_id":76561198152160601,"connected_time":381000000000,"state":"active","ping":104},{"user_id":460,"name":"Tofu","steam_id":76561198083778611,"connected_time":379000000000,"state":"active","ping":68},{"user_id":443,"name":"Jason Voorhees","steam_id":76561198358987380,"connected_time":2033000000000,"state":"active","ping":45},{"user_id":467,"name":"BlueJayBlues","steam_id":76561198101966116,"connected_time":191000000000,"state":"active","ping":88},{"user_id":457,"name":"SvicidalBug","steam_id":76561198221390504,"connected_time":447000000000,"state":"active","ping":66},{"user_id":409,"name":"//NC Nika","steam_id":76561198050445395,"connected_time":3888000000000,"state":"active","ping":74},{"user_id":447,"name":"KOJAKK","steam_id":76561199060841878,"connected_time":1524000000000,"state":"active","ping":42},{"user_id":462,"name":"Reisen Udongein Inaba","steam_id":76561198051082314,"connected_time":369000000000,"state":"active","ping":76},{"user_id":393,"name":"Pre Pissed Pants","steam_id":76561198042143837,"connected_time":4666000000000,"state":"active","ping":66},{"user_id":464,"name":"lytewerk","steam_id":76561198002819791,"connected_time":351000000000,"state":"active","ping":60},{"user_id":449,"name":"float","steam_id":76561198363371528,"connected_time":1473000000000,"state":"active","ping":53},{"user_id":248,"name":"nori_420 (mute)","steam_id":76561199117134203,"connected_time":14706000000000,"state":"active","ping":87},{"user_id":430,"name":"Ziggie Smalls","steam_id":76561198804592809,"connected_time":2631000000000,"state":"active","ping":50}]},{"server_id":406,"name":"Uncletopia | Seattle | 3 | Stopwatch Beta","name_short":"sea-3","host":"sea-1.us.uncletopia.com","port":27035,"enabled":true,"region":"us-west","cc":"us","latitude":47.608013,"longitude":-122.33517,"reserved":0,"last_update":"0001-01-01T00:00:00Z","name_a2s":"Uncletopia | Seattle | 3 | Stopwatch Beta","protocol":17,"map":"koth_lakeside_final","folder":"tf","game":"Team Fortress","app_id":440,"player_count":7,"max_players":24,"Bots":0,"server_type":"Dedicated","server_os":"Linux","password":true,"vac":true,"version":"7882260","steam_id":85568392924515217,"keywords":["cp","nocrits","nodmgspread","uncletopia"],"game_id":440,"stv_port":27036,"stv_name":"Uncletopia | Seattle | 3 | Stopwatch Beta | STV","players":[{"user_id":32,"name":"A Zillion dollars","steam_id":76561198846276351,"connected_time":528000000000,"state":"active","ping":83},{"user_id":22,"name":"Vagrant","steam_id":76561198242536886,"connected_time":3024000000000,"state":"active","ping":62},{"user_id":24,"name":"Get Goose'd","steam_id":76561198348449233,"connected_time":1898000000000,"state":"active","ping":89},{"user_id":25,"name":"Graves","steam_id":76561198027218505,"connected_time":1898000000000,"state":"active","ping":96},{"user_id":26,"name":"Dosario","steam_id":76561198298095535,"connected_time":1849000000000,"state":"active","ping":50},{"user_id":33,"name":"Lieutenant Glasscock |T-PH|","steam_id":76561198451113167,"connected_time":22000000000,"state":"spawning","ping":125},{"user_id":30,"name":"theMathExists","steam_id":76561199405895104,"connected_time":849000000000,"state":"active","ping":100}]},{"server_id":17,"name":"Uncletopia | San Francisco | 1 | All Maps","name_short":"sfo-1","host":"sfo-1.us.uncletopia.com","port":27015,"enabled":true,"region":"us-west","cc":"us","latitude":37.77397,"longitude":-122.4313,"reserved":0,"last_update":"0001-01-01T00:00:00Z","name_a2s":"Uncletopia | San Francisco | 1 | All Maps","protocol":17,"map":"pl_borneo","folder":"tf","game":"Team Fortress","app_id":440,"player_count":24,"max_players":24,"Bots":0,"server_type":"Dedicated","server_os":"Linux","password":true,"vac":true,"version":"7882260","steam_id":85568392924469999,"keywords":["nocrits","nodmgspread","payload","uncletopia"],"game_id":440,"stv_port":27016,"stv_name":"Uncletopia | San Francisco | 1 | All Maps | STV","players":[{"user_id":595,"name":"Kermit the frog","steam_id":76561199122030809,"connected_time":1643000000000,"state":"active","ping":59},{"user_id":608,"name":"Mustachacre","steam_id":76561198056309992,"connected_time":458000000000,"state":"active","ping":60},{"user_id":619,"name":"carp","steam_id":76561198193144463,"connected_time":68000000000,"state":"active","ping":38},{"user_id":609,"name":"BennBap","steam_id":76561198171881453,"connected_time":433000000000,"state":"active","ping":153},{"user_id":561,"name":"jan Soja","steam_id":76561198039644185,"connected_time":3740000000000,"state":"active","ping":169},{"user_id":610,"name":"okay","steam_id":76561198249946198,"connected_time":427000000000,"state":"active","ping":52},{"user_id":618,"name":"Tank","steam_id":76561198231513484,"connected_time":115000000000,"state":"active","ping":57},{"user_id":600,"name":"JonBoy","steam_id":76561198082052480,"connected_time":1262000000000,"state":"active","ping":76},{"user_id":583,"name":"Ypuoi","steam_id":76561198170203261,"connected_time":2204000000000,"state":"active","ping":64},{"user_id":620,"name":"fart","steam_id":76561198206922028,"connected_time":14000000000,"state":"active","ping":59},{"user_id":489,"name":"Pasta Enthusiast","steam_id":76561198306393090,"connected_time":8153000000000,"state":"active","ping":91},{"user_id":601,"name":"Barack Obama","steam_id":76561199073094399,"connected_time":1209000000000,"state":"active","ping":140},{"user_id":604,"name":"RedCo","steam_id":76561198335366889,"connected_time":1045000000000,"state":"active","ping":96},{"user_id":611,"name":"DragonHunter994","steam_id":76561199076203907,"connected_time":403000000000,"state":"active","ping":100},{"user_id":554,"name":"Doctor D","steam_id":76561198071292991,"connected_time":4579000000000,"state":"active","ping":121},{"user_id":580,"name":"DesertFroggo","steam_id":76561198015607829,"connected_time":2635000000000,"state":"active","ping":95},{"user_id":581,"name":"Sivinus","steam_id":76561198025589541,"connected_time":2606000000000,"state":"active","ping":67},{"user_id":612,"name":"Generator","steam_id":76561198011762257,"connected_time":401000000000,"state":"active","ping":134},{"user_id":616,"name":"Ketubiq","steam_id":76561198932097192,"connected_time":293000000000,"state":"active","ping":93},{"user_id":591,"name":"LiveLongNote","steam_id":76561198138118635,"connected_time":1962000000000,"state":"active","ping":88},{"user_id":607,"name":"Bobby Ray","steam_id":76561198044131188,"connected_time":619000000000,"state":"active","ping":73},{"user_id":592,"name":"BlancaLamb","steam_id":76561198025646073,"connected_time":1924000000000,"state":"active","ping":90},{"user_id":585,"name":"Bot Maxwell","steam_id":76561198040781615,"connected_time":2185000000000,"state":"active","ping":62},{"user_id":614,"name":"Dark_Souls_Fat_Man","steam_id":76561198805567646,"connected_time":396000000000,"state":"active","ping":97}]},{"server_id":18,"name":"Uncletopia | San Francisco | 2 | All Maps","name_short":"sfo-2","host":"sfo-1.us.uncletopia.com","port":27025,"enabled":true,"region":"us-west","cc":"us","latitude":37.77397,"longitude":-122.4313,"reserved":0,"last_update":"0001-01-01T00:00:00Z","name_a2s":"Uncletopia | San Francisco | 2 | All Maps","protocol":17,"map":"pl_badwater","folder":"tf","game":"Team Fortress","app_id":440,"player_count":24,"max_players":24,"Bots":0,"server_type":"Dedicated","server_os":"Linux","password":true,"vac":true,"version":"7882260","steam_id":85568392924470000,"keywords":["nocrits","nodmgspread","payload","uncletopia"],"game_id":440,"stv_port":27026,"stv_name":"Uncletopia | San Francisco | 2 | All Maps | STV","players":[{"user_id":110,"name":"ro","steam_id":76561198935253634,"connected_time":2365000000000,"state":"active","ping":61},{"user_id":134,"name":"Jovo","steam_id":76561197993265970,"connected_time":1067000000000,"state":"active","ping":59},{"user_id":141,"name":"Banana Patrick","steam_id":76561198258067237,"connected_time":332000000000,"state":"active","ping":140},{"user_id":139,"name":"Lord Aben","steam_id":76561198135266770,"connected_time":381000000000,"state":"active","ping":35},{"user_id":142,"name":"MR MODE","steam_id":76561198046775352,"connected_time":331000000000,"state":"active","ping":44},{"user_id":112,"name":"AUSTRALIUM GIBUS","steam_id":76561198111890714,"connected_time":2363000000000,"state":"active","ping":56},{"user_id":145,"name":"Engineer Gaming","steam_id":76561199386119444,"connected_time":152000000000,"state":"active","ping":112},{"user_id":138,"name":"MCman","steam_id":76561198412110305,"connected_time":407000000000,"state":"active","ping":77},{"user_id":75,"name":"CareFree Brie","steam_id":76561198868697407,"connected_time":3623000000000,"state":"active","ping":49},{"user_id":140,"name":"Speedycat","steam_id":76561198024821259,"connected_time":370000000000,"state":"active","ping":55},{"user_id":109,"name":"SquidFurBrains","steam_id":76561198293899688,"connected_time":2380000000000,"state":"active","ping":88},{"user_id":144,"name":"Green_GarBear","steam_id":76561199468912415,"connected_time":290000000000,"state":"active","ping":59},{"user_id":103,"name":"Marvelzombie","steam_id":76561198129951058,"connected_time":2758000000000,"state":"active","ping":128},{"user_id":133,"name":"Rockaedward","steam_id":76561198172090530,"connected_time":1094000000000,"state":"active","ping":69},{"user_id":111,"name":"Surfing Garchomp","steam_id":76561199107236884,"connected_time":2363000000000,"state":"active","ping":69},{"user_id":108,"name":"therajmahal","steam_id":76561199012370396,"connected_time":2416000000000,"state":"active","ping":101},{"user_id":146,"name":"Balengu Deez","steam_id":76561198217680027,"connected_time":146000000000,"state":"active","ping":84},{"user_id":104,"name":"Sidekick","steam_id":76561198392740835,"connected_time":2698000000000,"state":"active","ping":65},{"user_id":125,"name":"Error_404","steam_id":76561198163074047,"connected_time":1897000000000,"state":"active","ping":75},{"user_id":61,"name":"Fuse","steam_id":76561198047018079,"connected_time":4394000000000,"state":"active","ping":112},{"user_id":115,"name":"JJmanepic Loves Bingus","steam_id":76561198387660652,"connected_time":2351000000000,"state":"active","ping":98},{"user_id":122,"name":"Jasmine Rice","steam_id":76561198163163590,"connected_time":2057000000000,"state":"active","ping":74},{"user_id":121,"name":"NaeNaeChungusBozo","steam_id":76561199446407203,"connected_time":2126000000000,"state":"active","ping":107},{"user_id":132,"name":"Anthid","steam_id":76561198074493797,"connected_time":1188000000000,"state":"active","ping":64}]},{"server_id":19,"name":"Uncletopia | San Francisco | 3 | Stopwatch Beta","name_short":"sfo-3","host":"sfo-1.us.uncletopia.com","port":27035,"enabled":true,"region":"us-west","cc":"us","latitude":37.77397,"longitude":-122.4313,"reserved":0,"last_update":"0001-01-01T00:00:00Z","name_a2s":"Uncletopia | San Francisco | 3 | Stopwatch Beta","protocol":17,"map":"pl_snowycoast","folder":"tf","game":"Team Fortress","app_id":440,"player_count":0,"max_players":24,"Bots":0,"server_type":"Dedicated","server_os":"Linux","password":true,"vac":true,"version":"7882260","steam_id":85568392924742824,"keywords":["nocrits","nodmgspread","payload","uncletopia"],"game_id":440,"stv_port":27036,"stv_name":"Uncletopia | San Francisco | 3 | Stopwatch Beta | STV","players":null},{"server_id":20,"name":"Uncletopia | San Francisco | 4 | Community","name_short":"sfo-4","host":"sfo-1.us.uncletopia.com","port":27045,"enabled":true,"region":"us-west","cc":"us","latitude":37.77397,"longitude":-122.4313,"reserved":0,"last_update":"0001-01-01T00:00:00Z","name_a2s":"Uncletopia | San Francisco | 4 | Community","protocol":17,"map":"workshop/koth_bagel_rc6.ugc2514036946","folder":"tf","game":"Team Fortress","app_id":440,"player_count":0,"max_players":24,"Bots":0,"server_type":"Dedicated","server_os":"Linux","password":true,"vac":true,"version":"7882260","steam_id":85568392924742826,"keywords":["cp","nocrits","nodmgspread","uncletopia"],"game_id":440,"stv_port":27046,"stv_name":"Uncletopia | San Francisco | 4 | Community | STV","players":null},{"server_id":141,"name":"Uncletopia | Sydney | 1 | All Maps","name_short":"syd-1","host":"syd-1.au.uncletopia.com","port":27015,"enabled":true,"region":"au","cc":"au","latitude":-33.865143,"longitude":151.2099,"reserved":0,"last_update":"0001-01-01T00:00:00Z","name_a2s":"Uncletopia | Sydney | 1 | All Maps","protocol":17,"map":"pl_barnblitz","folder":"tf","game":"Team Fortress","app_id":440,"player_count":0,"max_players":24,"Bots":0,"server_type":"Dedicated","server_os":"Linux","password":true,"vac":true,"version":"7882260","steam_id":85568392924470001,"keywords":["nocrits","nodmgspread","payload","uncletopia"],"game_id":440,"stv_port":27016,"stv_name":"Uncletopia | Sydney | 1 | All Maps | STV","players":null},{"server_id":123,"name":"Uncletopia | Sydney | 2 | All Maps","name_short":"syd-2","host":"syd-1.au.uncletopia.com","port":27025,"enabled":true,"region":"au","cc":"au","latitude":-33.865143,"longitude":151.2099,"reserved":0,"last_update":"0001-01-01T00:00:00Z","name_a2s":"Uncletopia | Sydney | 2 | All Maps","protocol":17,"map":"koth_viaduct","folder":"tf","game":"Team Fortress","app_id":440,"player_count":0,"max_players":24,"Bots":0,"server_type":"Dedicated","server_os":"Linux","password":true,"vac":true,"version":"7882260","steam_id":85568392924470002,"keywords":["cp","nocrits","nodmgspread","uncletopia"],"game_id":440,"stv_port":27026,"stv_name":"Uncletopia | Sydney | 2 | All Maps | STV","players":null},{"server_id":395,"name":"Uncletopia | Sydney | 3 | All Maps","name_short":"syd-3","host":"syd-1.au.uncletopia.com","port":27035,"enabled":true,"region":"au","cc":"au","latitude":-33.865143,"longitude":151.2099,"reserved":0,"last_update":"0001-01-01T00:00:00Z","name_a2s":"Uncletopia | Sydney | 3 | All Maps","protocol":17,"map":"pl_badwater","folder":"tf","game":"Team Fortress","app_id":440,"player_count":0,"max_players":24,"Bots":0,"server_type":"Dedicated","server_os":"Linux","password":true,"vac":true,"version":"7882260","steam_id":85568392925194467,"keywords":["nocrits","nodmgspread","payload","uncletopia"],"game_id":440,"stv_port":27036,"stv_name":"Uncletopia | Sydney | 3 | All Maps | STV","players":null},{"server_id":396,"name":"Uncletopia | Sydney | 4 | All Maps","name_short":"syd-4","host":"syd-1.au.uncletopia.com","port":27045,"enabled":true,"region":"au","cc":"au","latitude":-33.865143,"longitude":151.2099,"reserved":0,"last_update":"0001-01-01T00:00:00Z","name_a2s":"Uncletopia | Sydney | 4 | All Maps","protocol":17,"map":"cp_altitude","folder":"tf","game":"Team Fortress","app_id":440,"player_count":0,"max_players":24,"Bots":0,"server_type":"Dedicated","server_os":"Linux","password":true,"vac":true,"version":"7882260","steam_id":85568392925397958,"keywords":["cp","nocrits","nodmgspread","uncletopia"],"game_id":440,"stv_port":27046,"stv_name":"Uncletopia | Sydney | 4 | All Maps | STV","players":null},{"server_id":58,"name":"Uncletopia | Sydney | 5 | Stopwatch Beta","name_short":"syd-5","host":"syd-1.au.uncletopia.com","port":27055,"enabled":true,"region":"au","cc":"au","latitude":-33.865143,"longitude":151.2099,"reserved":0,"last_update":"0001-01-01T00:00:00Z","name_a2s":"Uncletopia | Sydney | 5 | Stopwatch Beta","protocol":17,"map":"koth_viaduct","folder":"tf","game":"Team Fortress","app_id":440,"player_count":0,"max_players":24,"Bots":0,"server_type":"Dedicated","server_os":"Linux","password":true,"vac":true,"version":"7882260","steam_id":85568392925397959,"keywords":["cp","nocrits","nodmgspread","uncletopia"],"game_id":440,"stv_port":27056,"stv_name":"Uncletopia | Sydney | 5 | Stopwatch Beta | STV","players":null},{"server_id":59,"name":"Uncletopia | Sydney | 6 | Community","name_short":"syd-6","host":"syd-1.au.uncletopia.com","port":27065,"enabled":true,"region":"au","cc":"au","latitude":-33.865143,"longitude":151.2099,"reserved":0,"last_update":"0001-01-01T00:00:00Z","name_a2s":"Uncletopia | Sydney | 6 | Community","protocol":17,"map":"workshop/pl_vigil_rc9.ugc1266210012","folder":"tf","game":"Team Fortress","app_id":440,"player_count":0,"max_players":24,"Bots":0,"server_type":"Dedicated","server_os":"Linux","password":true,"vac":true,"version":"7882260","steam_id":85568392925397960,"keywords":["nocrits","nodmgspread","payload","uncletopia"],"game_id":440,"stv_port":27066,"stv_name":"Uncletopia | Sydney | 6 | Community | STV","players":null},{"server_id":49,"name":"Uncletopia | Warsaw | 1 | All Maps","name_short":"waw-1","host":"waw-1.pl.uncletopia.com","port":27015,"enabled":true,"region":"eu","cc":"pl","latitude":52.2297,"longitude":21.017532,"reserved":0,"last_update":"0001-01-01T00:00:00Z","name_a2s":"","protocol":0,"map":"","folder":"","game":"","app_id":0,"player_count":0,"max_players":0,"Bots":0,"server_type":"","server_os":"","password":false,"vac":false,"version":"","steam_id":0,"keywords":null,"game_id":0,"stv_port":0,"stv_name":"","players":null},{"server_id":50,"name":"Uncletopia | Warsaw | 2 | All Maps","name_short":"waw-2","host":"waw-1.pl.uncletopia.com","port":27025,"enabled":true,"region":"eu","cc":"pl","latitude":52.2297,"longitude":21.017532,"reserved":0,"last_update":"0001-01-01T00:00:00Z","name_a2s":"Uncletopia | Warsaw | 2 | All Maps","protocol":17,"map":"koth_viaduct","folder":"tf","game":"Team Fortress","app_id":440,"player_count":0,"max_players":24,"Bots":0,"server_type":"Dedicated","server_os":"Linux","password":true,"vac":true,"version":"7882260","steam_id":85568392925397851,"keywords":["cp","nocrits","nodmgspread","uncletopia"],"game_id":440,"stv_port":27026,"stv_name":"Uncletopia | Warsaw | 2 | All Maps | STV","players":null},{"server_id":51,"name":"Uncletopia | Warsaw | 3 | All Maps","name_short":"waw-3","host":"waw-1.pl.uncletopia.com","port":27035,"enabled":true,"region":"eu","cc":"pl","latitude":52.2297,"longitude":21.017532,"reserved":0,"last_update":"0001-01-01T00:00:00Z","name_a2s":"Uncletopia | Warsaw | 3 | All Maps","protocol":17,"map":"cp_process_final","folder":"tf","game":"Team Fortress","app_id":440,"player_count":0,"max_players":24,"Bots":0,"server_type":"Dedicated","server_os":"Linux","password":true,"vac":true,"version":"7882260","steam_id":85568392925397852,"keywords":["cp","nocrits","nodmgspread","uncletopia"],"game_id":440,"stv_port":27036,"stv_name":"Uncletopia | Warsaw | 3 | All Maps | STV","players":null},{"server_id":52,"name":"Uncletopia | Warsaw | 4 | All Maps","name_short":"waw-4","host":"waw-1.pl.uncletopia.com","port":27045,"enabled":true,"region":"eu","cc":"pl","latitude":52.2297,"longitude":21.017532,"reserved":0,"last_update":"0001-01-01T00:00:00Z","name_a2s":"Uncletopia | Warsaw | 4 | All Maps","protocol":17,"map":"cp_process_final","folder":"tf","game":"Team Fortress","app_id":440,"player_count":0,"max_players":24,"Bots":0,"server_type":"Dedicated","server_os":"Linux","password":true,"vac":true,"version":"7882260","steam_id":85568392925397853,"keywords":["cp","nocrits","nodmgspread","uncletopia"],"game_id":440,"stv_port":27046,"stv_name":"Uncletopia | Warsaw | 4 | All Maps | STV","players":null},{"server_id":53,"name":"Uncletopia | Warsaw | 5 | Stopwatch Beta","name_short":"waw-5","host":"waw-1.pl.uncletopia.com","port":27055,"enabled":true,"region":"eu","cc":"pl","latitude":52.2297,"longitude":21.017532,"reserved":0,"last_update":"0001-01-01T00:00:00Z","name_a2s":"Uncletopia | Warsaw | 5 | Stopwatch Beta","protocol":17,"map":"pl_swiftwater_final1","folder":"tf","game":"Team Fortress","app_id":440,"player_count":0,"max_players":24,"Bots":0,"server_type":"Dedicated","server_os":"Linux","password":true,"vac":true,"version":"7882260","steam_id":85568392925397854,"keywords":["nocrits","nodmgspread","payload","uncletopia"],"game_id":440,"stv_port":27056,"stv_name":"Uncletopia | Warsaw | 5 | Stopwatch Beta | STV","players":null},{"server_id":54,"name":"Uncletopia | Warsaw | 6 | Community","name_short":"waw-6","host":"waw-1.pl.uncletopia.com","port":27065,"enabled":true,"region":"eu","cc":"pl","latitude":52.2297,"longitude":21.017532,"reserved":0,"last_update":"0001-01-01T00:00:00Z","name_a2s":"Uncletopia | Warsaw | 6 | Community","protocol":17,"map":"workshop/koth_bagel_rc6.ugc2514036946","folder":"tf","game":"Team Fortress","app_id":440,"player_count":0,"max_players":24,"Bots":0,"server_type":"Dedicated","server_os":"Linux","password":true,"vac":true,"version":"7882260","steam_id":85568392925397856,"keywords":["cp","nocrits","nodmgspread","uncletopia"],"game_id":440,"stv_port":27066,"stv_name":"Uncletopia | Warsaw | 6 | Community | STV","players":null}]}