{"status":true,"message":"","result":[{"server_id":9,"name":"Uncletopia | Atlanta | 1 | All Maps","name_short":"atl-1","host":"atl-1.us.uncletopia.com","port":27015,"enabled":true,"region":"us-east","cc":"us","latitude":33.753746,"longitude":-84.38633,"reserved":0,"last_update":"0001-01-01T00:00:00Z","name_a2s":"Uncletopia | Atlanta | 1 | All Maps","protocol":17,"map":"cp_dustbowl","folder":"tf","game":"Team Fortress","app_id":440,"player_count":24,"max_players":24,"Bots":0,"server_type":"Dedicated","server_os":"Linux","password":true,"vac":true,"version":"7757534","steam_id":85568392924469982,"keywords":["cp","nocrits","nodmgspread","uncletopia"],"game_id":440,"stv_port":27016,"stv_name":"Uncletopia | Atlanta | 1 | All Maps | STV","players":[{"user_id":736,"name":"SovietPanda","steam_id":76561198119348888,"connected_time":3160000000000,"state":"active","ping":151},{"user_id":725,"name":"Gary Gilbert","steam_id":76561198143988056,"connected_time":3796000000000,"state":"active","ping":110},{"user_id":720,"name":"I Vore Friendlies","steam_id":76561198980062131,"connected_time":4568000000000,"state":"active","ping":61},{"user_id":666,"name":"bobbymcbobington","steam_id":76561199089411172,"connected_time":7420000000000,"state":"active","ping":96},{"user_id":764,"name":"morphine","steam_id":76561198072124799,"connected_time":20000000000,"state":"active","ping":102},{"user_id":758,"name":"jordan (the country btw)","steam_id":76561198118212742,"connected_time":355000000000,"state":"active","ping":69},{"user_id":699,"name":"hideyochest","steam_id":76561198090366059,"connected_time":5710000000000,"state":"active","ping":54},{"user_id":698,"name":"Dal","steam_id":76561198114064135,"connected_time":5747000000000,"state":"active","ping":66},{"user_id":762,"name":"Yoloisnotded","steam_id":76561198995043589,"connected_time":123000000000,"state":"active","ping":84},{"user_id":722,"name":"TheRealMud","steam_id":76561198138312993,"connected_time":4012000000000,"state":"active","ping":84},{"user_id":754,"name":".jpegged","steam_id":76561198120078454,"connected_time":850000000000,"state":"active","ping":57},{"user_id":761,"name":"The Rising of the Engineer Hero","steam_id":76561198107199405,"connected_time":251000000000,"state":"active","ping":164},{"user_id":739,"name":"NeoN","steam_id":76561198117608366,"connected_time":3054000000000,"state":"active","ping":55},{"user_id":750,"name":"orangutan","steam_id":76561198927517471,"connected_time":1419000000000,"state":"active","ping":56},{"user_id":755,"name":"eish","steam_id":76561198089463603,"connected_time":742000000000,"state":"active","ping":112},{"user_id":733,"name":"DFR Le4n!!!","steam_id":76561198045522596,"connected_time":3419000000000,"state":"active","ping":72},{"user_id":724,"name":"IloveBacon","steam_id":76561198860703450,"connected_time":3896000000000,"state":"active","ping":72},{"user_id":737,"name":"Aniz","steam_id":76561199226665024,"connected_time":3131000000000,"state":"active","ping":155},{"user_id":716,"name":"Campasrt","steam_id":76561198165410359,"connected_time":5076000000000,"state":"active","ping":65},{"user_id":752,"name":"ATL1 | on my hunting trip","steam_id":76561198315341646,"connected_time":1273000000000,"state":"active","ping":73},{"user_id":756,"name":"La payasa","steam_id":76561198170408057,"connected_time":708000000000,"state":"active","ping":45},{"user_id":735,"name":"Lord Dragon","steam_id":76561198310300373,"connected_time":3310000000000,"state":"active","ping":87},{"user_id":763,"name":"Tyfonic","steam_id":76561198179282774,"connected_time":41000000000,"state":"active","ping":72},{"user_id":749,"name":"rose","steam_id":76561198048882285,"connected_time":1462000000000,"state":"active","ping":60}]},{"server_id":104,"name":"Uncletopia | Atlanta | 2 | All Maps","name_short":"atl-2","host":"atl-1.us.uncletopia.com","port":27025,"enabled":true,"region":"us-east","cc":"us","latitude":33.753746,"longitude":-84.38633,"reserved":0,"last_update":"0001-01-01T00:00:00Z","name_a2s":"Uncletopia | Atlanta | 2 | All Maps","protocol":17,"map":"cp_altitude","folder":"tf","game":"Team Fortress","app_id":440,"player_count":0,"max_players":24,"Bots":0,"server_type":"Dedicated","server_os":"Linux","password":true,"vac":true,"version":"7757534","steam_id":85568392924469983,"keywords":["cp","nocrits","nodmgspread","uncletopia"],"game_id":440,"stv_port":27026,"stv_name":"Uncletopia | Atlanta | 2 | All Maps | STV","players":null},{"server_id":400,"name":"Uncletopia | Atlanta | 3 | Community","name_short":"atl-3","host":"atl-1.us.uncletopia.com","port":27035,"enabled":true,"region":"us-east","cc":"us","latitude":33.753746,"longitude":-84.38633,"reserved":0,"last_update":"0001-01-01T00:00:00Z","name_a2s":"Uncletopia | Atlanta | 3 | Community","protocol":17,"map":"workshop/pl_cashworks_final1.ugc2904065412","folder":"tf","game":"Team Fortress","app_id":440,"player_count":0,"max_players":24,"Bots":0,"server_type":"Dedicated","server_os":"Linux","password":true,"vac":true,"version":"7757534","steam_id":85568392924515187,"keywords":["nocrits","nodmgspread","payload","uncletopia"],"game_id":440,"stv_port":27036,"stv_name":"Uncletopia | Atlanta | 3 | Community | STV","players":null},{"server_id":401,"name":"Uncletopia | Atlanta | 4 | No Payload","name_short":"atl-4","host":"atl-1.us.uncletopia.com","port":27045,"enabled":true,"region":"us-east","cc":"us","latitude":33.753746,"longitude":-84.38633,"reserved":0,"last_update":"0001-01-01T00:00:00Z","name_a2s":"","protocol":0,"map":"","folder":"","game":"","app_id":0,"player_count":0,"max_players":0,"Bots":0,"server_type":"","server_os":"","password":false,"vac":false,"version":"","steam_id":0,"keywords":null,"game_id":0,"stv_port":0,"stv_name":"","players":null},{"server_id":2,"name":"Uncletopia | Chicago | 1 | All Maps","name_short":"chi-1","host":"chi-1.us.uncletopia.com","port":27015,"enabled":true,"region":"us-central","cc":"us","latitude":41.881832,"longitude":-87.62318,"reserved":0,"last_update":"0001-01-01T00:00:00Z","name_a2s":"Uncletopia | Chicago | 1 | All Maps","protocol":17,"map":"pl_barnblitz","folder":"tf","game":"Team Fortress","app_id":440,"player_count":5,"max_players":24,"Bots":0,"server_type":"Dedicated","server_os":"Linux","password":true,"vac":true,"version":"7757534","steam_id":85568392924469984,"keywords":["nocrits","nodmgspread","payload","uncletopia"],"game_id":440,"stv_port":27016,"stv_name":"Uncletopia | Chicago | 1 | All Maps | STV","players":[{"user_id":963,"name":"sonicboom_456","steam_id":76561199237060578,"connected_time":237000000000,"state":"active","ping":77},{"user_id":903,"name":"Dabbin Blackbeard","steam_id":76561198046130846,"connected_time":5574000000000,"state":"active","ping":107},{"user_id":890,"name":"MILK","steam_id":76561198253574099,"connected_time":6287000000000,"state":"active","ping":59},{"user_id":931,"name":"Kng","steam_id":76561198993248203,"connected_time":2398000000000,"state":"active","ping":76},{"user_id":935,"name":"catlovinggreenbean","steam_id":76561198355974740,"connected_time":2325000000000,"state":"active","ping":77}]},{"server_id":106,"name":"Uncletopia | Chicago | 2 | All Maps","name_short":"chi-2","host":"chi-1.us.uncletopia.com","port":27025,"enabled":true,"region":"us-central","cc":"us","latitude":41.881832,"longitude":-87.62318,"reserved":0,"last_update":"0001-01-01T00:00:00Z","name_a2s":"Uncletopia | Chicago | 2 | All Maps","protocol":17,"map":"pl_upward","folder":"tf","game":"Team Fortress","app_id":440,"player_count":19,"max_players":24,"Bots":0,"server_type":"Dedicated","server_os":"Linux","password":true,"vac":true,"version":"7757534","steam_id":85568392924469985,"keywords":["nocrits","nodmgspread","payload","uncletopia"],"game_id":440,"stv_port":27026,"stv_name":"Uncletopia | Chicago | 2 | All Maps | STV","players":[{"user_id":1116,"name":"frank","steam_id":76561198137777483,"connected_time":89000000000,"state":"active","ping":59},{"user_id":1100,"name":"Grimm","steam_id":76561198330178519,"connected_time":2243000000000,"state":"active","ping":61},{"user_id":1079,"name":"Mush","steam_id":76561198393461065,"connected_time":3324000000000,"state":"active","ping":72},{"user_id":1057,"name":"enmgxcltayiqoacx","steam_id":76561197974965536,"connected_time":5377000000000,"state":"active","ping":59},{"user_id":1117,"name":"LostIsFound","steam_id":76561198135396786,"connected_time":63000000000,"state":"active","ping":111},{"user_id":1064,"name":"Clumsy","steam_id":76561198056345245,"connected_time":4907000000000,"state":"active","ping":67},{"user_id":1088,"name":"DoDonPachi","steam_id":76561199085984801,"connected_time":2852000000000,"state":"active","ping":151},{"user_id":1059,"name":"Kurg","steam_id":76561198143381218,"connected_time":5110000000000,"state":"active","ping":40},{"user_id":1105,"name":"bary","steam_id":76561197988317087,"connected_time":1405000000000,"state":"active","ping":55},{"user_id":1118,"name":"Valinov","steam_id":76561197991349953,"connected_time":18000000000,"state":"spawning","ping":42},{"user_id":1061,"name":"Venom","steam_id":76561198067770671,"connected_time":5013000000000,"state":"active","ping":83},{"user_id":1114,"name":"desu","steam_id":76561198270926835,"connected_time":111000000000,"state":"active","ping":99},{"user_id":1115,"name":"Kapitan Bomba","steam_id":76561199102087660,"connected_time":108000000000,"state":"active","ping":70},{"user_id":1052,"name":"Captain Emerald The Changeling","steam_id":76561198320651177,"connected_time":6500000000000,"state":"active","ping":53},{"user_id":1112,"name":"Mondo burger","steam_id":76561198929978049,"connected_time":129000000000,"state":"active","ping":110},{"user_id":1085,"name":"Ace Attorney","steam_id":76561198133011705,"connected_time":2939000000000,"state":"active","ping":55},{"user_id":1108,"name":"Rango","steam_id":76561198067275912,"connected_time":1289000000000,"state":"active","ping":117},{"user_id":1049,"name":"Lucerne★Flower","steam_id":76561198264105406,"connected_time":6915000000000,"state":"active","ping":157},{"user_id":1095,"name":"Dastardly","steam_id":76561198028351509,"connected_time":2604000000000,"state":"active","ping":166}]},{"server_id":402,"name":"Uncletopia | Chicago | 3 | All Maps","name_short":"chi-3","host":"chi-1.us.uncletopia.com","port":27035,"enabled":true,"region":"us-central","cc":"us","latitude":41.881832,"longitude":-87.62318,"reserved":0,"last_update":"0001-01-01T00:00:00Z","name_a2s":"Uncletopia | Chicago | 3 | All Maps","protocol":17,"map":"pl_thundermountain","folder":"tf","game":"Team Fortress","app_id":440,"player_count":11,"max_players":24,"Bots":0,"server_type":"Dedicated","server_os":"Linux","password":true,"vac":true,"version":"7757534","steam_id":85568392924515191,"keywords":["nocrits","nodmgspread","payload","uncletopia"],"game_id":440,"stv_port":27036,"stv_name":"Uncletopia | Chicago | 3 | All Maps | STV","players":[{"user_id":689,"name":"skwah","steam_id":76561198160856084,"connected_time":337000000000,"state":"active","ping":67},{"user_id":690,"name":"Thequirka","steam_id":76561198968058652,"connected_time":311000000000,"state":"active","ping":93},{"user_id":694,"name":"awning","steam_id":76561198202285760,"connected_time":14000000000,"state":"spawning","ping":99},{"user_id":693,"name":"Vanessa","steam_id":76561198020696265,"connected_time":137000000000,"state":"active","ping":59},{"user_id":679,"name":"GuyGoom","steam_id":76561198254522178,"connected_time":1805000000000,"state":"active","ping":52},{"user_id":678,"name":"pizzaaaaaaaaaaaaa","steam_id":76561198000347322,"connected_time":1845000000000,"state":"active","ping":86},{"user_id":667,"name":"Yonkerbonk","steam_id":76561198097628353,"connected_time":3365000000000,"state":"active","ping":59},{"user_id":686,"name":"Onyiun","steam_id":76561199124107338,"connected_time":1009000000000,"state":"active","ping":79},{"user_id":681,"name":"AirSonance","steam_id":76561198064203133,"connected_time":1783000000000,"state":"active","ping":101},{"user_id":685,"name":"LDM","steam_id":76561198843313898,"connected_time":1222000000000,"state":"active","ping":60},{"user_id":677,"name":"Regular Dog","steam_id":76561198042898614,"connected_time":2383000000000,"state":"active","ping":50}]},{"server_id":403,"name":"Uncletopia | Chicago | 4 | All Maps","name_short":"chi-4","host":"chi-1.us.uncletopia.com","port":27045,"enabled":true,"region":"us-central","cc":"us","latitude":41.881832,"longitude":-87.62318,"reserved":0,"last_update":"0001-01-01T00:00:00Z","name_a2s":"Uncletopia | Chicago | 4 | All Maps","protocol":17,"map":"koth_lakeside_final","folder":"tf","game":"Team Fortress","app_id":440,"player_count":0,"max_players":24,"Bots":0,"server_type":"Dedicated","server_os":"Linux","password":true,"vac":true,"version":"7757534","steam_id":85568392924515193,"keywords":["cp","nocrits","nodmgspread","uncletopia"],"game_id":440,"stv_port":27046,"stv_name":"Uncletopia | Chicago | 4 | All Maps | STV","players":null},{"server_id":36,"name":"Uncletopia | Chicago | 5 | All Maps","name_short":"chi-5","host":"chi-2.us.uncletopia.com","port":27015,"enabled":true,"region":"us-central","cc":"us","latitude":41.881832,"longitude":-87.62318,"reserved":0,"last_update":"0001-01-01T00:00:00Z","name_a2s":"Uncletopia | Chicago | 5 | All Maps","protocol":17,"map":"koth_viaduct","folder":"tf","game":"Team Fortress","app_id":440,"player_count":0,"max_players":24,"Bots":0,"server_type":"Dedicated","server_os":"Linux","password":true,"vac":true,"version":"7757534","steam_id":85568392924866362,"keywords":["cp","nocrits","nodmgspread","uncletopia"],"game_id":440,"stv_port":27016,"stv_name":"Uncletopia | Chicago | 5 | All Maps | STV","players":null},{"server_id":37,"name":"Uncletopia | Chicago | 6 | All Maps","name_short":"chi-6","host":"chi-2.us.uncletopia.com","port":27025,"enabled":true,"region":"us-central","cc":"us","latitude":41.881832,"longitude":-87.62318,"reserved":0,"last_update":"0001-01-01T00:00:00Z","name_a2s":"Uncletopia | Chicago | 6 | All Maps","protocol":17,"map":"pl_frontier_final","folder":"tf","game":"Team Fortress","app_id":440,"player_count":24,"max_players":24,"Bots":0,"server_type":"Dedicated","server_os":"Linux","password":true,"vac":true,"version":"7757534","steam_id":85568392924866363,"keywords":["nocrits","nodmgspread","payload","uncletopia"],"game_id":440,"stv_port":27026,"stv_name":"Uncletopia | Chicago | 6 | All Maps | STV","players":[{"user_id":523,"name":"Evenaris","steam_id":76561198087544319,"connected_time":747000000000,"state":"active","ping":89},{"user_id":513,"name":"SirKnight5067","steam_id":76561198377306047,"connected_time":1023000000000,"state":"active","ping":67},{"user_id":514,"name":"laternerds21","steam_id":76561198099249286,"connected_time":978000000000,"state":"active","ping":74},{"user_id":524,"name":"lambmyth","steam_id":76561199215261209,"connected_time":577000000000,"state":"active","ping":112},{"user_id":494,"name":"majorbobfunction","steam_id":76561198042464632,"connected_time":3776000000000,"state":"active","ping":54},{"user_id":495,"name":"Animal Slices","steam_id":76561198137545511,"connected_time":3751000000000,"state":"active","ping":53},{"user_id":525,"name":"lost in spaaaaace","steam_id":76561199085974120,"connected_time":532000000000,"state":"active","ping":78},{"user_id":526,"name":"Fali","steam_id":76561198062070538,"connected_time":530000000000,"state":"active","ping":159},{"user_id":509,"name":"Imugomi","steam_id":76561198141537838,"connected_time":1361000000000,"state":"active","ping":109},{"user_id":510,"name":"Turbot","steam_id":76561198032325267,"connected_time":1345000000000,"state":"active","ping":136},{"user_id":515,"name":"Scratchin Commander","steam_id":76561198076764729,"connected_time":971000000000,"state":"active","ping":83},{"user_id":516,"name":"for here or to go?","steam_id":76561198059116283,"connected_time":968000000000,"state":"active","ping":74},{"user_id":517,"name":"!! BRO IS FLABBERGASTED !!","steam_id":76561198135036396,"connected_time":963000000000,"state":"active","ping":84},{"user_id":518,"name":"69 odd goat","steam_id":76561198116908911,"connected_time":910000000000,"state":"active","ping":74},{"user_id":519,"name":"Leah","steam_id":76561198087616148,"connected_time":868000000000,"state":"active","ping":51},{"user_id":520,"name":"Drift Stick","steam_id":76561198847048304,"connected_time":848000000000,"state":"active","ping":113},{"user_id":527,"name":"Iron","steam_id":76561198247918478,"connected_time":521000000000,"state":"active","ping":65},{"user_id":528,"name":":face_holding_back_tears:","steam_id":76561198164782653,"connected_time":485000000000,"state":"active","ping":67},{"user_id":529,"name":"gerg","steam_id":76561197997127387,"connected_time":482000000000,"state":"active","ping":103},{"user_id":530,"name":"social distance warrior","steam_id":76561198128992994,"connected_time":479000000000,"state":"active","ping":82},{"user_id":531,"name":"Marcy2231","steam_id":76561198202323656,"connected_time":467000000000,"state":"active","ping":72},{"user_id":532,"name":"Phyre112","steam_id":76561198064367510,"connected_time":390000000000,"state":"active","ping":103},{"user_id":535,"name":"Uzi bin Laden","steam_id":76561198218811453,"connected_time":132000000000,"state":"active","ping":81},{"user_id":534,"name":"420snoopy","steam_id":76561198065339248,"connected_time":259000000000,"state":"active","ping":96}]},{"server_id":38,"name":"Uncletopia | Chicago | 7 | Stopwatch Beta","name_short":"chi-7","host":"chi-2.us.uncletopia.com","port":27035,"enabled":true,"region":"us-central","cc":"us","latitude":41.881832,"longitude":-87.62318,"reserved":0,"last_update":"0001-01-01T00:00:00Z","name_a2s":"Uncletopia | Chicago | 7 | Stopwatch Beta","protocol":17,"map":"workshop/pl_badwater_pro_v12.ugc2142942074","folder":"tf","game":"Team Fortress","app_id":440,"player_count":0,"max_players":24,"Bots":0,"server_type":"Dedicated","server_os":"Linux","password":true,"vac":true,"version":"7757534","steam_id":85568392924866364,"keywords":["nocrits","nodmgspread","payload","uncletopia"],"game_id":440,"stv_port":27036,"stv_name":"Uncletopia | Chicago | 7 | Stopwatch Beta | STV","players":null},{"server_id":39,"name":"Uncletopia | Chicago | 8 | Community","name_short":"chi-8","host":"chi-2.us.uncletopia.com","port":27045,"enabled":true,"region":"us-central","cc":"us","latitude":41.881832,"longitude":-87.62318,"reserved":0,"last_update":"0001-01-01T00:00:00Z","name_a2s":"Uncletopia | Chicago | 8 | Community","protocol":17,"map":"workshop/cp_indulge.ugc528106646","folder":"tf","game":"Team Fortress","app_id":440,"player_count":0,"max_players":24,"Bots":0,"server_type":"Dedicated","server_os":"Linux","password":true,"vac":true,"version":"7757534","steam_id":85568392924866365,"keywords":["cp","nocrits","nodmgspread","uncletopia"],"game_id":440,"stv_port":27046,"stv_name":"Uncletopia | Chicago | 8 | Community | STV","players":null},{"server_id":8,"name":"Uncletopia | Dallas | 1 | All Maps","name_short":"dal-1","host":"dal-1.us.uncletopia.com","port":27015,"enabled":true,"region":"us-central","cc":"us","latitude":32.779167,"longitude":-96.80889,"reserved":0,"last_update":"0001-01-01T00:00:00Z","name_a2s":"Uncletopia | Dallas | 1 | All Maps","protocol":17,"map":"cp_snakewater_final1","folder":"tf","game":"Team Fortress","app_id":440,"player_count":18,"max_players":24,"Bots":0,"server_type":"Dedicated","server_os":"Linux","password":true,"vac":true,"version":"7757534","steam_id":85568392924469986,"keywords":["cp","nocrits","nodmgspread","uncletopia"],"game_id":440,"stv_port":27016,"stv_name":"Uncletopia | Dallas | 1 | All Maps | STV","players":[{"user_id":757,"name":"PyroMorphik","steam_id":76561198157628007,"connected_time":367000000000,"state":"active","ping":57},{"user_id":761,"name":"Venom","steam_id":76561198045500779,"connected_time":119000000000,"state":"active","ping":74},{"user_id":703,"name":"Shamrock Shake Oct.10.2020 @8pm","steam_id":76561198833313201,"connected_time":5105000000000,"state":"active","ping":84},{"user_id":760,"name":"Imhotep","steam_id":76561198017542607,"connected_time":185000000000,"state":"active","ping":175},{"user_id":733,"name":"ragnarok","steam_id":76561198273579889,"connected_time":2924000000000,"state":"active","ping":89},{"user_id":762,"name":"Notation","steam_id":76561198119509319,"connected_time":34000000000,"state":"active","ping":60},{"user_id":755,"name":"Nuclear Inquisition","steam_id":76561198093142257,"connected_time":800000000000,"state":"active","ping":75},{"user_id":740,"name":"blue of days","steam_id":76561199113013688,"connected_time":2591000000000,"state":"active","ping":75},{"user_id":746,"name":"qwerg","steam_id":76561198107191794,"connected_time":2073000000000,"state":"active","ping":96},{"user_id":736,"name":"Fiendish Frog","steam_id":76561198029478821,"connected_time":2862000000000,"state":"active","ping":132},{"user_id":758,"name":"mechanicvirus","steam_id":76561198038161480,"connected_time":201000000000,"state":"active","ping":86},{"user_id":763,"name":"Alfie Solomons #Shelby2020","steam_id":76561198061870046,"connected_time":25000000000,"state":"active","ping":108},{"user_id":756,"name":"TheArachnidGamer","steam_id":76561198304986752,"connected_time":787000000000,"state":"active","ping":62},{"user_id":719,"name":"Laska","steam_id":76561199090391912,"connected_time":4149000000000,"state":"active","ping":57},{"user_id":689,"name":"deb","steam_id":76561198414336279,"connected_time":6974000000000,"state":"active","ping":53},{"user_id":752,"name":"squeebo","steam_id":76561198061775121,"connected_time":1523000000000,"state":"active","ping":101},{"user_id":687,"name":"Zero","steam_id":76561199383267408,"connected_time":7394000000000,"state":"active","ping":52},{"user_id":753,"name":"Koffy","steam_id":76561198184386039,"connected_time":1518000000000,"state":"active","ping":123}]},{"server_id":108,"name":"Uncletopia | Dallas | 2 | All Maps","name_short":"dal-2","host":"dal-1.us.uncletopia.com","port":27025,"enabled":true,"region":"us-central","cc":"us","latitude":32.779167,"longitude":-96.80889,"reserved":0,"last_update":"0001-01-01T00:00:00Z","name_a2s":"Uncletopia | Dallas | 2 | All Maps","protocol":17,"map":"pl_borneo","folder":"tf","game":"Team Fortress","app_id":440,"player_count":23,"max_players":24,"Bots":0,"server_type":"Dedicated","server_os":"Linux","password":true,"vac":true,"version":"7757534","steam_id":85568392924469988,"keywords":["nocrits","nodmgspread","payload","uncletopia"],"game_id":440,"stv_port":27026,"stv_name":"Uncletopia | Dallas | 2 | All Maps | STV","players":[{"user_id":588,"name":"DMJanitor","steam_id":76561198058929753,"connected_time":148000000000,"state":"active","ping":99},{"user_id":528,"name":"TomosconesYT","steam_id":76561198813586588,"connected_time":4829000000000,"state":"active","ping":100},{"user_id":570,"name":"Danger McHazard","steam_id":76561198059451274,"connected_time":1235000000000,"state":"active","ping":71},{"user_id":568,"name":"Yonsi","steam_id":76561198047613858,"connected_time":1373000000000,"state":"active","ping":60},{"user_id":571,"name":"Quietsharp","steam_id":76561198277968438,"connected_time":1224000000000,"state":"active","ping":77},{"user_id":572,"name":"Lore","steam_id":76561198098407538,"connected_time":1205000000000,"state":"active","ping":64},{"user_id":590,"name":"AzuriousAlex","steam_id":76561198158026405,"connected_time":3000000000,"state":"spawning","ping":60},{"user_id":573,"name":"TheKees301","steam_id":76561198827506371,"connected_time":1202000000000,"state":"active","ping":179},{"user_id":552,"name":"kleeflord","steam_id":76561198798952432,"connected_time":2967000000000,"state":"active","ping":93},{"user_id":587,"name":"Moop","steam_id":76561198096984681,"connected_time":763000000000,"state":"active","ping":68},{"user_id":547,"name":"patam :)","steam_id":76561199139871691,"connected_time":3204000000000,"state":"active","ping":76},{"user_id":563,"name":"DOUBLE XP WEEKEND","steam_id":76561198078626283,"connected_time":2167000000000,"state":"active","ping":78},{"user_id":575,"name":"Galactamarx","steam_id":76561198028065755,"connected_time":1188000000000,"state":"active","ping":81},{"user_id":533,"name":"Frost","steam_id":76561198083694664,"connected_time":4630000000000,"state":"active","ping":71},{"user_id":530,"name":"MutedSparrow","steam_id":76561199064848240,"connected_time":4745000000000,"state":"active","ping":66},{"user_id":534,"name":"Woozy","steam_id":76561198008220735,"connected_time":4606000000000,"state":"active","ping":83},{"user_id":523,"name":"BADWOLF42","steam_id":76561198055447523,"connected_time":5596000000000,"state":"active","ping":66},{"user_id":531,"name":"loonce119","steam_id":76561198886240696,"connected_time":4736000000000,"state":"active","ping":64},{"user_id":583,"name":"「TUSK ACT 4」","steam_id":76561198146435077,"connected_time":946000000000,"state":"active","ping":86},{"user_id":584,"name":"Tomoko2001","steam_id":76561198047117990,"connected_time":934000000000,"state":"active","ping":64},{"user_id":569,"name":"Bunchie","steam_id":76561198011549808,"connected_time":1271000000000,"state":"active","ping":36},{"user_id":585,"name":"My controller broke","steam_id":76561198157280577,"connected_time":878000000000,"state":"active","ping":46},{"user_id":564,"name":"Superplay64","steam_id":76561198172471162,"connected_time":2145000000000,"state":"active","ping":84}]},{"server_id":5,"name":"Uncletopia | Frankfurt | 1 | All Maps","name_short":"frk-1","host":"frk-1.de.uncletopia.com","port":27015,"enabled":true,"region":"eu","cc":"de","latitude":50.110924,"longitude":8.682127,"reserved":0,"last_update":"0001-01-01T00:00:00Z","name_a2s":"Uncletopia | Frankfurt | 1 | All Maps","protocol":17,"map":"pl_barnblitz","folder":"tf","game":"Team Fortress","app_id":440,"player_count":24,"max_players":24,"Bots":0,"server_type":"Dedicated","server_os":"Linux","password":true,"vac":true,"version":"7757534","steam_id":85568392924469989,"keywords":["nocrits","nodmgspread","payload","uncletopia"],"game_id":440,"stv_port":27016,"stv_name":"Uncletopia | Frankfurt | 1 | All Maps | STV","players":[{"user_id":22,"name":"tempLimit","steam_id":76561199158363470,"connected_time":3721000000000,"state":"active","ping":86},{"user_id":30,"name":"Dim","steam_id":76561198141549249,"connected_time":2959000000000,"state":"active","ping":146},{"user_id":6,"name":"ja","steam_id":76561199228540618,"connected_time":7432000000000,"state":"active","ping":67},{"user_id":40,"name":"delta man","steam_id":76561198204491245,"connected_time":1612000000000,"state":"active","ping":130},{"user_id":8,"name":"Pan Pan","steam_id":76561199074670515,"connected_time":7305000000000,"state":"active","ping":131},{"user_id":14,"name":"Tiainen","steam_id":76561199274711504,"connected_time":5489000000000,"state":"active","ping":93},{"user_id":75,"name":"hud_saytext_time 0","steam_id":76561198010327228,"connected_time":340000000000,"state":"active","ping":66},{"user_id":41,"name":"wicked","steam_id":76561198164376035,"connected_time":1580000000000,"state":"active","ping":72},{"user_id":24,"name":"Rautakaupanmyyjä33","steam_id":76561198101753162,"connected_time":3576000000000,"state":"active","ping":73},{"user_id":25,"name":"babel","steam_id":76561198118412910,"connected_time":3556000000000,"state":"active","ping":103},{"user_id":52,"name":"TeaFlavouredCoffee","steam_id":76561198925306032,"connected_time":919000000000,"state":"active","ping":72},{"user_id":29,"name":"Noxu","steam_id":76561198156299821,"connected_time":3042000000000,"state":"active","ping":70},{"user_id":69,"name":"Loop_Cat","steam_id":76561199045902145,"connected_time":583000000000,"state":"active","ping":121},{"user_id":51,"name":"hatred","steam_id":76561198868196506,"connected_time":927000000000,"state":"active","ping":104},{"user_id":67,"name":"Mercenary","steam_id":76561198965998351,"connected_time":604000000000,"state":"active","ping":68},{"user_id":86,"name":"Pingutaro","steam_id":76561198112803718,"connected_time":10000000000,"state":"active","ping":103},{"user_id":38,"name":"Marky","steam_id":76561199474556920,"connected_time":1891000000000,"state":"active","ping":102},{"user_id":39,"name":"Mr.B","steam_id":76561199204478925,"connected_time":1806000000000,"state":"active","ping":118},{"user_id":42,"name":"Ashref 2","steam_id":76561198424367750,"connected_time":1564000000000,"state":"active","ping":82},{"user_id":43,"name":"Arti","steam_id":76561197983352845,"connected_time":1558000000000,"state":"active","ping":54},{"user_id":44,"name":"саша бургер","steam_id":76561199149307190,"connected_time":1507000000000,"state":"active","ping":83},{"user_id":48,"name":"MAD???","steam_id":76561198201424726,"connected_time":1239000000000,"state":"active","ping":162},{"user_id":71,"name":"fannybaws","steam_id":76561198027033926,"connected_time":477000000000,"state":"active","ping":71},{"user_id":47,"name":"marshmallow","steam_id":76561198120166752,"connected_time":1387000000000,"state":"active","ping":75}]},{"server_id":110,"name":"Uncletopia | Frankfurt | 2 | All Maps","name_short":"frk-2","host":"frk-1.de.uncletopia.com","port":27025,"enabled":true,"region":"eu","cc":"de","latitude":50.110924,"longitude":8.682127,"reserved":0,"last_update":"0001-01-01T00:00:00Z","name_a2s":"Uncletopia | Frankfurt | 2 | All Maps","protocol":17,"map":"cp_dustbowl","folder":"tf","game":"Team Fortress","app_id":440,"player_count":0,"max_players":24,"Bots":0,"server_type":"Dedicated","server_os":"Linux","password":true,"vac":true,"version":"7757534","steam_id":85568392924469990,"keywords":["cp","nocrits","nodmgspread","uncletopia"],"game_id":440,"stv_port":27026,"stv_name":"Uncletopia | Frankfurt | 2 | All Maps | STV","players":null},{"server_id":308,"name":"Uncletopia | Frankfurt | 3 | All Maps","name_short":"frk-3","host":"frk-1.de.uncletopia.com","port":27035,"enabled":true,"region":"eu","cc":"de","latitude":50.110924,"longitude":8.682127,"reserved":0,"last_update":"0001-01-01T00:00:00Z","name_a2s":"Uncletopia | Frankfurt | 3 | All Maps","protocol":17,"map":"pl_swiftwater_final1","folder":"tf","game":"Team Fortress","app_id":440,"player_count":0,"max_players":24,"Bots":0,"server_type":"Dedicated","server_os":"Linux","password":true,"vac":true,"version":"7757534","steam_id":85568392924504274,"keywords":["nocrits","nodmgspread","payload","uncletopia"],"game_id":440,"stv_port":27036,"stv_name":"Uncletopia | Frankfurt | 3 | All Maps | STV","players":null},{"server_id":309,"name":"Uncletopia | Frankfurt | 4 | All Maps","name_short":"frk-4","host":"frk-1.de.uncletopia.com","port":27045,"enabled":true,"region":"eu","cc":"de","latitude":50.110924,"longitude":8.682127,"reserved":0,"last_update":"0001-01-01T00:00:00Z","name_a2s":"Uncletopia | Frankfurt | 4 | All Maps","protocol":17,"map":"koth_viaduct","folder":"tf","game":"Team Fortress","app_id":440,"player_count":0,"max_players":24,"Bots":0,"server_type":"Dedicated","server_os":"Linux","password":true,"vac":true,"version":"7757534","steam_id":85568392924504275,"keywords":["cp","nocrits","nodmgspread","uncletopia"],"game_id":440,"stv_port":27046,"stv_name":"Uncletopia | Frankfurt | 4 | All Maps | STV","players":null},{"server_id":310,"name":"Uncletopia | Frankfurt | 5 | All Maps","name_short":"frk-5","host":"frk-1.de.uncletopia.com","port":27055,"enabled":true,"region":"eu","cc":"de","latitude":50.110924,"longitude":8.682127,"reserved":0,"last_update":"0001-01-01T00:00:00Z","name_a2s":"Uncletopia | Frankfurt | 5 | All Maps","protocol":17,"map":"koth_lakeside_final","folder":"tf","game":"Team Fortress","app_id":440,"player_count":0,"max_players":24,"Bots":0,"server_type":"Dedicated","server_os":"Linux","password":true,"vac":true,"version":"7757534","steam_id":85568392924504277,"keywords":["cp","nocrits","nodmgspread","uncletopia"],"game_id":440,"stv_port":27056,"stv_name":"Uncletopia | Frankfurt | 5 | All Maps | STV","players":null},{"server_id":311,"name":"Uncletopia | Frankfurt | 6 | All Maps","name_short":"frk-6","host":"frk-1.de.uncletopia.com","port":27065,"enabled":true,"region":"eu","cc":"de","latitude":50.110924,"longitude":8.682127,"reserved":0,"last_update":"0001-01-01T00:00:00Z","name_a2s":"Uncletopia | Frankfurt | 6 | All Maps","protocol":17,"map":"pl_frontier_final","folder":"tf","game":"Team Fortress","app_id":440,"player_count":0,"max_players":24,"Bots":0,"server_type":"Dedicated","server_os":"Linux","password":true,"vac":true,"version":"7757534","steam_id":85568392924504278,"keywords":["nocrits","nodmgspread","payload","uncletopia"],"game_id":440,"stv_port":27066,"stv_name":"Uncletopia | Frankfurt | 6 | All Maps | STV","players":null},{"server_id":23,"name":"Uncletopia | Frankfurt | 7 | Stopwatch Beta","name_short":"frk-7","host":"frk-1.de.uncletopia.com","port":27075,"enabled":true,"region":"eu","cc":"de","latitude":50.110924,"longitude":8.682127,"reserved":0,"last_update":"0001-01-01T00:00:00Z","name_a2s":"Uncletopia | Frankfurt | 7 | Stopwatch Beta","protocol":17,"map":"workshop/koth_ramjam_rc1.ugc459778887","folder":"tf","game":"Team Fortress","app_id":440,"player_count":0,"max_players":24,"Bots":0,"server_type":"Dedicated","server_os":"Linux","password":true,"vac":true,"version":"7757534","steam_id":85568392924742827,"keywords":["cp","nocrits","nodmgspread","uncletopia"],"game_id":440,"stv_port":27076,"stv_name":"Uncletopia | Frankfurt | 7 | Stopwatch Beta | STV","players":null},{"server_id":24,"name":"Uncletopia | Frankfurt | 8 | Community","name_short":"frk-8","host":"frk-1.de.uncletopia.com","port":27085,"enabled":true,"region":"eu","cc":"de","latitude":50.110924,"longitude":8.682127,"reserved":0,"last_update":"0001-01-01T00:00:00Z","name_a2s":"Uncletopia | Frankfurt | 8 | Community","protocol":17,"map":"koth_lakeside_final","folder":"tf","game":"Team Fortress","app_id":440,"player_count":0,"max_players":24,"Bots":0,"server_type":"Dedicated","server_os":"Linux","password":true,"vac":true,"version":"7757534","steam_id":85568392924742828,"keywords":["cp","nocrits","nodmgspread","uncletopia"],"game_id":440,"stv_port":27086,"stv_name":"Uncletopia | Frankfurt | 8 | Community | STV","players":null},{"server_id":202,"name":"Uncletopia | Hong Kong | 1 | All Maps","name_short":"hgk-1","host":"hgk-1.hk.uncletopia.com","port":27015,"enabled":true,"region":"asia","cc":"hk","latitude":22.302711,"longitude":114.177216,"reserved":0,"last_update":"0001-01-01T00:00:00Z","name_a2s":"Uncletopia | Hong Kong | 1 | All Maps","protocol":17,"map":"pl_pier","folder":"tf","game":"Team Fortress","app_id":440,"player_count":18,"max_players":24,"Bots":0,"server_type":"Dedicated","server_os":"Linux","password":true,"vac":true,"version":"7757534","steam_id":85568392924494504,"keywords":["nocrits","nodmgspread","payload","uncletopia"],"game_id":440,"stv_port":27016,"stv_name":"Uncletopia | Hong Kong | 1 | All Maps | STV","players":[{"user_id":11,"name":"Vortex Artemisio","steam_id":76561198833527091,"connected_time":3104000000000,"state":"active","ping":87},{"user_id":13,"name":"Ten ★","steam_id":76561198309776684,"connected_time":3027000000000,"state":"active","ping":85},{"user_id":14,"name":"상병 기분좋다","steam_id":76561198024666371,"connected_time":2776000000000,"state":"active","ping":74},{"user_id":15,"name":"Is that a Subaru?","steam_id":76561198420018387,"connected_time":2677000000000,"state":"active","ping":38},{"user_id":25,"name":"Incompertent mercenaries","steam_id":76561198386626651,"connected_time":1356000000000,"state":"active","ping":55},{"user_id":27,"name":"fresh install","steam_id":76561198008307645,"connected_time":973000000000,"state":"active","ping":125},{"user_id":29,"name":"Ivy","steam_id":76561198400698408,"connected_time":888000000000,"state":"active","ping":81},{"user_id":19,"name":"P","steam_id":76561198304514505,"connected_time":2249000000000,"state":"active","ping":74},{"user_id":26,"name":"goob2006","steam_id":76561199101784705,"connected_time":1333000000000,"state":"active","ping":51},{"user_id":21,"name":"brizzard","steam_id":76561198048438653,"connected_time":2054000000000,"state":"active","ping":51},{"user_id":37,"name":"OakLog GM","steam_id":76561199194771375,"connected_time":269000000000,"state":"active","ping":72},{"user_id":28,"name":"Unknown","steam_id":76561199258907381,"connected_time":967000000000,"state":"active","ping":80},{"user_id":30,"name":"yeti park employee","steam_id":76561198110545854,"connected_time":874000000000,"state":"active","ping":149},{"user_id":31,"name":"Puddin","steam_id":76561198140052918,"connected_time":783000000000,"state":"active","ping":100},{"user_id":33,"name":"Creaserg","steam_id":76561198827951097,"connected_time":706000000000,"state":"active","ping":90},{"user_id":35,"name":":uroSmonk:","steam_id":76561198074339034,"connected_time":498000000000,"state":"active","ping":74},{"user_id":38,"name":"애옹쓰","steam_id":76561198057026351,"connected_time":232000000000,"state":"active","ping":85},{"user_id":39,"name":"cube","steam_id":76561198132354269,"connected_time":209000000000,"state":"active","ping":113}]},{"server_id":1,"name":"Uncletopia | Los Angeles | 1 | All Maps","name_short":"lax-1","host":"lax-1.us.uncletopia.com","port":27015,"enabled":true,"region":"us-west","cc":"us","latitude":33.94279,"longitude":-118.41004,"reserved":0,"last_update":"0001-01-01T00:00:00Z","name_a2s":"Uncletopia | Los Angeles | 1 | All Maps","protocol":17,"map":"pl_borneo","folder":"tf","game":"Team Fortress","app_id":440,"player_count":9,"max_players":24,"Bots":0,"server_type":"Dedicated","server_os":"Linux","password":true,"vac":true,"version":"7757534","steam_id":85568392924469991,"keywords":["nocrits","nodmgspread","payload","uncletopia"],"game_id":440,"stv_port":27016,"stv_name":"Uncletopia | Los Angeles | 1 | All Maps | STV","players":[{"user_id":593,"name":"Truemon","steam_id":76561198031880431,"connected_time":360000000000,"state":"active","ping":46},{"user_id":594,"name":"Not Hacking, I swear","steam_id":76561198097586131,"connected_time":281000000000,"state":"active","ping":54},{"user_id":592,"name":"LX-24","steam_id":76561198016168993,"connected_time":599000000000,"state":"active","ping":79},{"user_id":555,"name":"mrthugpug1732","steam_id":76561198881200768,"connected_time":3839000000000,"state":"active","ping":65},{"user_id":581,"name":"Mud","steam_id":76561198356426602,"connected_time":1410000000000,"state":"active","ping":44},{"user_id":591,"name":"Mewysty","steam_id":76561199200480562,"connected_time":606000000000,"state":"active","ping":90},{"user_id":579,"name":"unlucky","steam_id":76561199204822104,"connected_time":1743000000000,"state":"active","ping":55},{"user_id":595,"name":"Chilly","steam_id":76561199028019237,"connected_time":145000000000,"state":"active","ping":60},{"user_id":586,"name":"nori_420","steam_id":76561199117134203,"connected_time":1107000000000,"state":"active","ping":51}]},{"server_id":112,"name":"Uncletopia | Los Angeles | 2 | All Maps","name_short":"lax-2","host":"lax-1.us.uncletopia.com","port":27025,"enabled":true,"region":"us-west","cc":"us","latitude":33.94279,"longitude":-118.41004,"reserved":0,"last_update":"0001-01-01T00:00:00Z","name_a2s":"Uncletopia | Los Angeles | 2 | All Maps","protocol":17,"map":"koth_highpass","folder":"tf","game":"Team Fortress","app_id":440,"player_count":0,"max_players":24,"Bots":0,"server_type":"Dedicated","server_os":"Linux","password":true,"vac":true,"version":"7757534","steam_id":85568392924469992,"keywords":["cp","nocrits","nodmgspread","uncletopia"],"game_id":440,"stv_port":27026,"stv_name":"Uncletopia | Los Angeles | 2 | All Maps | STV","players":null},{"server_id":324,"name":"Uncletopia | Los Angeles | 3 | All Maps","name_short":"lax-3","host":"lax-1.us.uncletopia.com","port":27035,"enabled":true,"region":"us-west","cc":"us","latitude":33.94279,"longitude":-118.41004,"reserved":0,"last_update":"0001-01-01T00:00:00Z","name_a2s":"Uncletopia | Los Angeles | 3 | All Maps","protocol":17,"map":"pl_upward","folder":"tf","game":"Team Fortress","app_id":440,"player_count":5,"max_players":24,"Bots":0,"server_type":"Dedicated","server_os":"Linux","password":true,"vac":true,"version":"7757534","steam_id":85568392924510198,"keywords":["nocrits","nodmgspread","payload","uncletopia"],"game_id":440,"stv_port":27036,"stv_name":"Uncletopia | Los Angeles | 3 | All Maps | STV","players":[{"user_id":486,"name":"Outer","steam_id":76561199121781498,"connected_time":306000000000,"state":"active","ping":89},{"user_id":487,"name":"Zomwashroomz","steam_id":76561198131316167,"connected_time":262000000000,"state":"active","ping":69},{"user_id":488,"name":"Excalibrine","steam_id":76561198129312118,"connected_time":259000000000,"state":"active","ping":60},{"user_id":480,"name":"Cosmic Visor","steam_id":76561197990817172,"connected_time":588000000000,"state":"active","ping":78},{"user_id":463,"name":"Ghoulbreath","steam_id":76561198062517442,"connected_time":2390000000000,"state":"active","ping":57}]},{"server_id":25,"name":"Uncletopia | Los Angeles | 4 | Stopwatch Beta","name_short":"lax-4","host":"lax-1.us.uncletopia.com","port":27045,"enabled":true,"region":"us-west","cc":"us","latitude":33.94279,"longitude":-118.41004,"reserved":0,"last_update":"0001-01-01T00:00:00Z","name_a2s":"Uncletopia | Los Angeles | 4 | Stopwatch Beta","protocol":17,"map":"workshop/koth_bagel_rc6.ugc2514036946","folder":"tf","game":"Team Fortress","app_id":440,"player_count":0,"max_players":24,"Bots":0,"server_type":"Dedicated","server_os":"Linux","password":true,"vac":true,"version":"7757534","steam_id":85568392924510199,"keywords":["cp","nocrits","nodmgspread","uncletopia"],"game_id":440,"stv_port":27046,"stv_name":"Uncletopia | Los Angeles | 4 | Stopwatch Beta | STV","players":null},{"server_id":11,"name":"Uncletopia | London | 1 | All Maps","name_short":"lon-1","host":"lon-1.uk.uncletopia.com","port":27015,"enabled":true,"region":"eu","cc":"gb","latitude":51.509865,"longitude":-0.118092,"reserved":0,"last_update":"0001-01-01T00:00:00Z","name_a2s":"Uncletopia | London | 1 | All Maps","protocol":17,"map":"koth_highpass","folder":"tf","game":"Team Fortress","app_id":440,"player_count":0,"max_players":24,"Bots":0,"server_type":"Dedicated","server_os":"Linux","password":true,"vac":true,"version":"7757534","steam_id":85568392924367362,"keywords":["cp","nocrits","nodmgspread","uncletopia"],"game_id":440,"stv_port":27016,"stv_name":"Uncletopia | London | 1 | All Maps | STV","players":null},{"server_id":114,"name":"Uncletopia | London | 2 | All Maps","name_short":"lon-2","host":"lon-1.uk.uncletopia.com","port":27025,"enabled":true,"region":"eu","cc":"gb","latitude":51.509865,"longitude":-0.118092,"reserved":0,"last_update":"0001-01-01T00:00:00Z","name_a2s":"Uncletopia | London | 2 | All Maps","protocol":17,"map":"koth_viaduct","folder":"tf","game":"Team Fortress","app_id":440,"player_count":0,"max_players":24,"Bots":0,"server_type":"Dedicated","server_os":"Linux","password":true,"vac":true,"version":"7757534","steam_id":85568392924470941,"keywords":["cp","nocrits","nodmgspread","uncletopia"],"game_id":440,"stv_port":27026,"stv_name":"Uncletopia | London | 2 | All Maps | STV","players":null},{"server_id":320,"name":"Uncletopia | London | 3 | All Maps","name_short":"lon-3","host":"lon-1.uk.uncletopia.com","port":27035,"enabled":true,"region":"eu","cc":"gb","latitude":51.509865,"longitude":-0.118092,"reserved":0,"last_update":"0001-01-01T00:00:00Z","name_a2s":"Uncletopia | London | 3 | All Maps","protocol":17,"map":"cp_dustbowl","folder":"tf","game":"Team Fortress","app_id":440,"player_count":0,"max_players":24,"Bots":0,"server_type":"Dedicated","server_os":"Linux","password":true,"vac":true,"version":"7757534","steam_id":85568392924510192,"keywords":["cp","nocrits","nodmgspread","uncletopia"],"game_id":440,"stv_port":27036,"stv_name":"Uncletopia | London | 3 | All Maps | STV","players":null},{"server_id":321,"name":"Uncletopia | London | 4 | All Maps","name_short":"lon-4","host":"lon-1.uk.uncletopia.com","port":27045,"enabled":true,"region":"eu","cc":"gb","latitude":51.509865,"longitude":-0.118092,"reserved":0,"last_update":"0001-01-01T00:00:00Z","name_a2s":"Uncletopia | London | 4 | All Maps","protocol":17,"map":"cp_dustbowl","folder":"tf","game":"Team Fortress","app_id":440,"player_count":0,"max_players":24,"Bots":0,"server_type":"Dedicated","server_os":"Linux","password":true,"vac":true,"version":"7757534","steam_id":85568392924510193,"keywords":["cp","nocrits","nodmgspread","uncletopia"],"game_id":440,"stv_port":27046,"stv_name":"Uncletopia | London | 4 | All Maps | STV","players":null},{"server_id":21,"name":"Uncletopia | London | 5 | All Maps","name_short":"lon-5","host":"lon-1.uk.uncletopia.com","port":27055,"enabled":true,"region":"eu","cc":"gb","latitude":51.509865,"longitude":-0.118092,"reserved":0,"last_update":"0001-01-01T00:00:00Z","name_a2s":"Uncletopia | London | 5 | All Maps","protocol":17,"map":"cp_altitude","folder":"tf","game":"Team Fortress","app_id":440,"player_count":0,"max_players":24,"Bots":0,"server_type":"Dedicated","server_os":"Linux","password":true,"vac":true,"version":"7757534","steam_id":85568392924742829,"keywords":["cp","nocrits","nodmgspread","uncletopia"],"game_id":440,"stv_port":27056,"stv_name":"Uncletopia | London | 5 | All Maps | STV","players":null},{"server_id":22,"name":"Uncletopia | London | 6 | All Maps","name_short":"lon-6","host":"lon-1.uk.uncletopia.com","port":27065,"enabled":true,"region":"eu","cc":"gb","latitude":51.509865,"longitude":-0.118092,"reserved":0,"last_update":"0001-01-01T00:00:00Z","name_a2s":"Uncletopia | London | 6 | All Maps","protocol":17,"map":"cp_mountainlab","folder":"tf","game":"Team Fortress","app_id":440,"player_count":0,"max_players":24,"Bots":0,"server_type":"Dedicated","server_os":"Linux","password":true,"vac":true,"version":"7757534","steam_id":85568392924742830,"keywords":["cp","nocrits","nodmgspread","uncletopia"],"game_id":440,"stv_port":27066,"stv_name":"Uncletopia | London | 6 | All Maps | STV","players":null},{"server_id":40,"name":"Uncletopia | London | 7 | No Payload","name_short":"lon-7","host":"lon-1.uk.uncletopia.com","port":27075,"enabled":true,"region":"eu","cc":"gb","latitude":51.509865,"longitude":-0.118092,"reserved":0,"last_update":"0001-01-01T00:00:00Z","name_a2s":"Uncletopia | London | 7 | No Payload","protocol":17,"map":"pl_badwater","folder":"tf","game":"Team Fortress","app_id":440,"player_count":0,"max_players":24,"Bots":0,"server_type":"Dedicated","server_os":"Linux","password":true,"vac":true,"version":"7757534","steam_id":85568392924964314,"keywords":["nocrits","nodmgspread","payload","uncletopia"],"game_id":440,"stv_port":27076,"stv_name":"Uncletopia | London | 7 | No Payload | STV","players":null},{"server_id":41,"name":"Uncletopia | London | 8 | Community","name_short":"lon-8","host":"lon-1.uk.uncletopia.com","port":27085,"enabled":true,"region":"eu","cc":"gb","latitude":51.509865,"longitude":-0.118092,"reserved":0,"last_update":"0001-01-01T00:00:00Z","name_a2s":"Uncletopia | London | 8 | Community","protocol":17,"map":"pl_barnblitz","folder":"tf","game":"Team Fortress","app_id":440,"player_count":0,"max_players":24,"Bots":0,"server_type":"Dedicated","server_os":"Linux","password":true,"vac":true,"version":"7757534","steam_id":85568392924964315,"keywords":["nocrits","nodmgspread","payload","uncletopia"],"game_id":440,"stv_port":27086,"stv_name":"Uncletopia | London | 8 | Community | STV","players":null},{"server_id":300,"name":"Uncletopia | Montréal | 1 | All Maps","name_short":"mtl-1","host":"mtl-1.ca.uncletopia.com","port":27015,"enabled":true,"region":"us-east","cc":"ca","latitude":45.50889,"longitude":-73.56167,"reserved":0,"last_update":"0001-01-01T00:00:00Z","name_a2s":"Uncletopia | Montréal | 1 | All Maps","protocol":17,"map":"pl_pier","folder":"tf","game":"Team Fortress","app_id":440,"player_count":0,"max_players":24,"Bots":0,"server_type":"Dedicated","server_os":"Linux","password":true,"vac":true,"version":"7757534","steam_id":85568392924500087,"keywords":["nocrits","nodmgspread","payload","uncletopia"],"game_id":440,"stv_port":27016,"stv_name":"Uncletopia | Montréal | 1 | All Maps | STV","players":null},{"server_id":301,"name":"Uncletopia | Montréal | 2 | All Maps","name_short":"mtl-2","host":"mtl-1.ca.uncletopia.com","port":27025,"enabled":true,"region":"us-east","cc":"ca","latitude":45.50889,"longitude":-73.56167,"reserved":0,"last_update":"0001-01-01T00:00:00Z","name_a2s":"Uncletopia | Montréal | 2 | All Maps","protocol":17,"map":"koth_viaduct","folder":"tf","game":"Team Fortress","app_id":440,"player_count":0,"max_players":24,"Bots":0,"server_type":"Dedicated","server_os":"Linux","password":true,"vac":true,"version":"7757534","steam_id":85568392924500088,"keywords":["cp","nocrits","nodmgspread","uncletopia"],"game_id":440,"stv_port":27026,"stv_name":"Uncletopia | Montréal | 2 | All Maps | STV","players":null},{"server_id":302,"name":"Uncletopia | Montréal | 3 | All Maps","name_short":"mtl-3","host":"mtl-1.ca.uncletopia.com","port":27035,"enabled":true,"region":"us-east","cc":"ca","latitude":45.50889,"longitude":-73.56167,"reserved":0,"last_update":"0001-01-01T00:00:00Z","name_a2s":"Uncletopia | Montréal | 3 | All Maps","protocol":17,"map":"pl_snowycoast","folder":"tf","game":"Team Fortress","app_id":440,"player_count":0,"max_players":24,"Bots":0,"server_type":"Dedicated","server_os":"Linux","password":true,"vac":true,"version":"7757534","steam_id":85568392924500089,"keywords":["nocrits","nodmgspread","payload","uncletopia"],"game_id":440,"stv_port":27036,"stv_name":"Uncletopia | Montréal | 3 | All Maps | STV","players":null},{"server_id":303,"name":"Uncletopia | Montréal | 4 | No Payload","name_short":"mtl-4","host":"mtl-1.ca.uncletopia.com","port":27045,"enabled":true,"region":"us-east","cc":"ca","latitude":45.50889,"longitude":-73.56167,"reserved":0,"last_update":"0001-01-01T00:00:00Z","name_a2s":"Uncletopia | Montréal | 4 | No Payload","protocol":17,"map":"ctf_well","folder":"tf","game":"Team Fortress","app_id":440,"player_count":0,"max_players":24,"Bots":0,"server_type":"Dedicated","server_os":"Linux","password":true,"vac":true,"version":"7757534","steam_id":85568392924500090,"keywords":["ctf","nocrits","nodmgspread","uncletopia"],"game_id":440,"stv_port":27046,"stv_name":"Uncletopia | Montréal | 4 | No Payload | STV","players":null},{"server_id":13,"name":"Uncletopia | New York City | 1 | All Maps","name_short":"nyc-1","host":"nyc-1.us.uncletopia.com","port":27015,"enabled":true,"region":"us-east","cc":"us","latitude":40.73061,"longitude":-73.93524,"reserved":0,"last_update":"0001-01-01T00:00:00Z","name_a2s":"Uncletopia | New York City | 1 | All Maps","protocol":17,"map":"cp_process_final","folder":"tf","game":"Team Fortress","app_id":440,"player_count":0,"max_players":24,"Bots":0,"server_type":"Dedicated","server_os":"Linux","password":true,"vac":true,"version":"7757534","steam_id":85568392924469993,"keywords":["cp","nocrits","nodmgspread","uncletopia"],"game_id":440,"stv_port":27016,"stv_name":"Uncletopia | New York City | 1 | All Maps | STV","players":null},{"server_id":14,"name":"Uncletopia | New York City | 2 | All Maps","name_short":"nyc-2","host":"nyc-1.us.uncletopia.com","port":27025,"enabled":true,"region":"us-east","cc":"us","latitude":40.73061,"longitude":-73.93524,"reserved":0,"last_update":"0001-01-01T00:00:00Z","name_a2s":"Uncletopia | New York City | 2 | All Maps","protocol":17,"map":"pl_snowycoast","folder":"tf","game":"Team Fortress","app_id":440,"player_count":2,"max_players":24,"Bots":0,"server_type":"Dedicated","server_os":"Linux","password":true,"vac":true,"version":"7757534","steam_id":85568392924469994,"keywords":["nocrits","nodmgspread","payload","uncletopia"],"game_id":440,"stv_port":27026,"stv_name":"Uncletopia | New York City | 2 | All Maps | STV","players":[{"user_id":1095,"name":"Milkman","steam_id":76561199089290269,"connected_time":351000000000,"state":"active","ping":141},{"user_id":1094,"name":"CatBerryLemonade","steam_id":76561198120932314,"connected_time":668000000000,"state":"active","ping":77}]},{"server_id":15,"name":"Uncletopia | New York City | 3 | Stopwatch Beta","name_short":"nyc-3","host":"nyc-1.us.uncletopia.com","port":27035,"enabled":true,"region":"us-east","cc":"us","latitude":40.73061,"longitude":-73.93524,"reserved":0,"last_update":"0001-01-01T00:00:00Z","name_a2s":"Uncletopia | New York City | 3 | Stopwatch Beta","protocol":17,"map":"pl_upward","folder":"tf","game":"Team Fortress","app_id":440,"player_count":0,"max_players":24,"Bots":0,"server_type":"Dedicated","server_os":"Linux","password":true,"vac":true,"version":"7757534","steam_id":85568392924742820,"keywords":["nocrits","nodmgspread","payload","uncletopia"],"game_id":440,"stv_port":27036,"stv_name":"Uncletopia | New York City | 3 | Stopwatch Beta | STV","players":null},{"server_id":16,"name":"Uncletopia | New York City | 4 | Community","name_short":"nyc-4","host":"nyc-1.us.uncletopia.com","port":27045,"enabled":true,"region":"us-east","cc":"us","latitude":40.73061,"longitude":-73.93524,"reserved":0,"last_update":"0001-01-01T00:00:00Z","name_a2s":"Uncletopia | New York City | 4 | Community","protocol":17,"map":"workshop/cp_glassworks_rc6a.ugc454118349","folder":"tf","game":"Team Fortress","app_id":440,"player_count":0,"max_players":24,"Bots":0,"server_type":"Dedicated","server_os":"Linux","password":true,"vac":true,"version":"7757534","steam_id":85568392924742821,"keywords":["cp","nocrits","nodmgspread","uncletopia"],"game_id":440,"stv_port":27046,"stv_name":"Uncletopia | New York City | 4 | Community | STV","players":null},{"server_id":142,"name":"Uncletopia | São Paulo | 1 | All Maps","name_short":"sao-1","host":"sao-1.br.uncletopia.com","port":27015,"enabled":true,"region":"sa","cc":"br","latitude":-23.533773,"longitude":-46.62529,"reserved":0,"last_update":"0001-01-01T00:00:00Z","name_a2s":"Uncletopia | São Paulo | 1 | All Maps","protocol":17,"map":"cp_sunshine","folder":"tf","game":"Team Fortress","app_id":440,"player_count":0,"max_players":24,"Bots":0,"server_type":"Dedicated","server_os":"Linux","password":true,"vac":true,"version":"7757534","steam_id":85568392924469996,"keywords":["cp","nocrits","nodmgspread","uncletopia"],"game_id":440,"stv_port":27016,"stv_name":"Uncletopia | São Paulo | 1 | All Maps | STV","players":null},{"server_id":143,"name":"Uncletopia | São Paulo | 2 | All Maps","name_short":"sao-2","host":"sao-2.br.uncletopia.com","port":27015,"enabled":true,"region":"sa","cc":"br","latitude":-23.533773,"longitude":-46.62529,"reserved":0,"last_update":"0001-01-01T00:00:00Z","name_a2s":"Uncletopia | São Paulo | 2 | All Maps","protocol":17,"map":"koth_highpass","folder":"tf","game":"Team Fortress","app_id":440,"player_count":0,"max_players":24,"Bots":0,"server_type":"Dedicated","server_os":"Linux","password":true,"vac":true,"version":"7757534","steam_id":85568392924485349,"keywords":["cp","nocrits","nodmgspread","uncletopia"],"game_id":440,"stv_port":27016,"stv_name":"Uncletopia | São Paulo | 2 | All Maps | STV","players":null},{"server_id":7,"name":"Uncletopia | Seattle | 1 | All Maps","name_short":"sea-1","host":"sea-1.us.uncletopia.com","port":27015,"enabled":true,"region":"us-west","cc":"us","latitude":47.608013,"longitude":-122.33517,"reserved":0,"last_update":"0001-01-01T00:00:00Z","name_a2s":"Uncletopia | Seattle | 1 | All Maps","protocol":17,"map":"cp_sunshine","folder":"tf","game":"Team Fortress","app_id":440,"player_count":23,"max_players":24,"Bots":0,"server_type":"Dedicated","server_os":"Linux","password":true,"vac":true,"version":"7757534","steam_id":85568392924469997,"keywords":["cp","nocrits","nodmgspread","uncletopia"],"game_id":440,"stv_port":27016,"stv_name":"Uncletopia | Seattle | 1 | All Maps | STV","players":[{"user_id":701,"name":"Peppy","steam_id":76561198866629645,"connected_time":3328000000000,"state":"active","ping":56},{"user_id":620,"name":"enzo gorlami","steam_id":76561198107941274,"connected_time":10677000000000,"state":"active","ping":74},{"user_id":743,"name":"cracky","steam_id":76561197971365444,"connected_time":339000000000,"state":"active","ping":42},{"user_id":745,"name":"oil","steam_id":76561198099980149,"connected_time":9000000000,"state":"active","ping":90},{"user_id":746,"name":"forest","steam_id":76561198157960257,"connected_time":5000000000,"state":"spawning","ping":40},{"user_id":637,"name":"Cutie Pyro \u003c3","steam_id":76561197997820384,"connected_time":9069000000000,"state":"active","ping":79},{"user_id":714,"name":"AirlessClient","steam_id":76561198334482843,"connected_time":2276000000000,"state":"active","ping":77},{"user_id":718,"name":"Willy Wonker","steam_id":76561198082944789,"connected_time":2128000000000,"state":"active","ping":78},{"user_id":724,"name":"NEЯO","steam_id":76561197965450216,"connected_time":1878000000000,"state":"active","ping":55},{"user_id":571,"name":"♥haunti","steam_id":76561199235580556,"connected_time":16223000000000,"state":"active","ping":45},{"user_id":725,"name":"Fajita Master","steam_id":76561198329150962,"connected_time":1871000000000,"state":"active","ping":69},{"user_id":741,"name":"R3n3gade","steam_id":76561198145984116,"connected_time":687000000000,"state":"active","ping":72},{"user_id":733,"name":"parallax","steam_id":76561198004438881,"connected_time":1714000000000,"state":"active","ping":70},{"user_id":722,"name":"Arsonist Goose","steam_id":76561198147441830,"connected_time":1963000000000,"state":"active","ping":67},{"user_id":739,"name":"pneuma","steam_id":76561198039559023,"connected_time":780000000000,"state":"active","ping":82},{"user_id":683,"name":"Username","steam_id":76561198855586261,"connected_time":5243000000000,"state":"active","ping":61},{"user_id":734,"name":"doozy","steam_id":76561198033106776,"connected_time":1676000000000,"state":"active","ping":85},{"user_id":728,"name":"mango cafe","steam_id":76561198142328193,"connected_time":1811000000000,"state":"active","ping":49},{"user_id":738,"name":"fancyfreak","steam_id":76561198326466375,"connected_time":1045000000000,"state":"active","ping":85},{"user_id":633,"name":"Micro","steam_id":76561198267196099,"connected_time":9470000000000,"state":"active","ping":59},{"user_id":736,"name":"ImmuneToPeas","steam_id":76561198342411594,"connected_time":1221000000000,"state":"active","ping":64},{"user_id":731,"name":"Man Opener","steam_id":76561198133741201,"connected_time":1763000000000,"state":"active","ping":75},{"user_id":737,"name":"jacix3 [gay wolfgirl]{she/it}","steam_id":76561198205004165,"connected_time":1154000000000,"state":"active","ping":64}]},{"server_id":119,"name":"Uncletopia | Seattle | 2 | All Maps","name_short":"sea-2","host":"sea-1.us.uncletopia.com","port":27025,"enabled":true,"region":"us-west","cc":"us","latitude":47.608013,"longitude":-122.33517,"reserved":0,"last_update":"0001-01-01T00:00:00Z","name_a2s":"Uncletopia | Seattle | 2 | All Maps","protocol":17,"map":"pl_frontier_final","folder":"tf","game":"Team Fortress","app_id":440,"player_count":24,"max_players":24,"Bots":0,"server_type":"Dedicated","server_os":"Linux","password":true,"vac":true,"version":"7757534","steam_id":85568392924469998,"keywords":["nocrits","nodmgspread","payload","uncletopia"],"game_id":440,"stv_port":27026,"stv_name":"Uncletopia | Seattle | 2 | All Maps | STV","players":[{"user_id":885,"name":"Deathmagus","steam_id":76561198004626117,"connected_time":789000000000,"state":"active","ping":51},{"user_id":855,"name":"rorywashere /ᐠ - ˕ -マ Ⳋ","steam_id":76561198065825165,"connected_time":3774000000000,"state":"active","ping":97},{"user_id":873,"name":"Denim","steam_id":76561198035786964,"connected_time":1605000000000,"state":"active","ping":69},{"user_id":874,"name":"CatLike Pigeon","steam_id":76561198171716030,"connected_time":1570000000000,"state":"active","ping":114},{"user_id":875,"name":"Yammie","steam_id":76561197987304489,"connected_time":1565000000000,"state":"active","ping":45},{"user_id":886,"name":"Sir Galahad","steam_id":76561198195999859,"connected_time":788000000000,"state":"active","ping":52},{"user_id":887,"name":"Fargo","steam_id":76561198044703931,"connected_time":741000000000,"state":"active","ping":72},{"user_id":869,"name":"Pooter","steam_id":76561198401068571,"connected_time":2859000000000,"state":"active","ping":58},{"user_id":861,"name":"Nolan","steam_id":76561198169648081,"connected_time":3454000000000,"state":"active","ping":113},{"user_id":858,"name":"gorlab","steam_id":76561198025089694,"connected_time":3591000000000,"state":"active","ping":60},{"user_id":859,"name":"R1verz","steam_id":76561198056087178,"connected_time":3548000000000,"state":"active","ping":56},{"user_id":860,"name":"Perri002","steam_id":76561199227901389,"connected_time":3529000000000,"state":"active","ping":87},{"user_id":844,"name":"smeasly","steam_id":76561198028718812,"connected_time":4491000000000,"state":"active","ping":44},{"user_id":843,"name":"resh","steam_id":76561198239598834,"connected_time":4504000000000,"state":"active","ping":123},{"user_id":878,"name":"Spooky","steam_id":76561198030817605,"connected_time":1510000000000,"state":"active","ping":38},{"user_id":879,"name":"jorts","steam_id":76561199041179985,"connected_time":1488000000000,"state":"active","ping":57},{"user_id":835,"name":"Smeagolhoss","steam_id":76561198361514063,"connected_time":5499000000000,"state":"active","ping":91},{"user_id":863,"name":"ShennanÎgans","steam_id":76561198071950354,"connected_time":3380000000000,"state":"active","ping":125},{"user_id":880,"name":"dzcreeper","steam_id":76561198072250723,"connected_time":1485000000000,"state":"active","ping":97},{"user_id":888,"name":"QuesaDiaz","steam_id":76561198355667850,"connected_time":726000000000,"state":"active","ping":68},{"user_id":870,"name":"Nev","steam_id":76561198902830224,"connected_time":2760000000000,"state":"active","ping":65},{"user_id":889,"name":"squash","steam_id":76561198150281353,"connected_time":326000000000,"state":"active","ping":57},{"user_id":872,"name":"RING DONG DORINGOS","steam_id":76561198043558709,"connected_time":2119000000000,"state":"active","ping":45},{"user_id":871,"name":"Fung1hs","steam_id":76561198124613014,"connected_time":2505000000000,"state":"active","ping":54}]},{"server_id":406,"name":"Uncletopia | Seattle | 3 | Stopwatch Beta","name_short":"sea-3","host":"sea-1.us.uncletopia.com","port":27035,"enabled":true,"region":"us-west","cc":"us","latitude":47.608013,"longitude":-122.33517,"reserved":0,"last_update":"0001-01-01T00:00:00Z","name_a2s":"Uncletopia | Seattle | 3 | Stopwatch Beta","protocol":17,"map":"workshop/pl_badwater_pro_v12.ugc2142942074","folder":"tf","game":"Team Fortress","app_id":440,"player_count":0,"max_players":24,"Bots":0,"server_type":"Dedicated","server_os":"Linux","password":true,"vac":true,"version":"7757534","steam_id":85568392924515217,"keywords":["nocrits","nodmgspread","payload","uncletopia"],"game_id":440,"stv_port":27036,"stv_name":"Uncletopia | Seattle | 3 | Stopwatch Beta | STV","players":null},{"server_id":17,"name":"Uncletopia | San Francisco | 1 | All Maps","name_short":"sfo-1","host":"sfo-1.us.uncletopia.com","port":27015,"enabled":true,"region":"us-west","cc":"us","latitude":37.77397,"longitude":-122.4313,"reserved":0,"last_update":"0001-01-01T00:00:00Z","name_a2s":"Uncletopia | San Francisco | 1 | All Maps","protocol":17,"map":"cp_snakewater_final1","folder":"tf","game":"Team Fortress","app_id":440,"player_count":24,"max_players":24,"Bots":0,"server_type":"Dedicated","server_os":"Linux","password":true,"vac":true,"version":"7757534","steam_id":85568392924469999,"keywords":["cp","nocrits","nodmgspread","uncletopia"],"game_id":440,"stv_port":27016,"stv_name":"Uncletopia | San Francisco | 1 | All Maps | STV","players":[{"user_id":595,"name":"Neo Kojiro","steam_id":76561198000967076,"connected_time":163000000000,"state":"active","ping":116},{"user_id":577,"name":"Adam Levine (Real)","steam_id":76561199199257149,"connected_time":561000000000,"state":"active","ping":138},{"user_id":588,"name":"yung lean chunibyo","steam_id":76561198070253839,"connected_time":335000000000,"state":"active","ping":46},{"user_id":583,"name":"Vespen","steam_id":76561198259984019,"connected_time":428000000000,"state":"active","ping":60},{"user_id":578,"name":"bigindarug","steam_id":76561198165784818,"connected_time":532000000000,"state":"active","ping":54},{"user_id":492,"name":"Ghee Buttersnaps","steam_id":76561199225708271,"connected_time":6804000000000,"state":"active","ping":75},{"user_id":411,"name":"Dob Bole","steam_id":76561198056367220,"connected_time":8682000000000,"state":"active","ping":49},{"user_id":569,"name":"Golfbag","steam_id":76561198077974406,"connected_time":696000000000,"state":"active","ping":57},{"user_id":593,"name":"Dr. B Busta","steam_id":76561198206387303,"connected_time":259000000000,"state":"active","ping":49},{"user_id":597,"name":"FriskyDemon","steam_id":76561198043684646,"connected_time":45000000000,"state":"active","ping":84},{"user_id":579,"name":"MORE BOUNCE TO THE OUNCE","steam_id":76561198243399336,"connected_time":526000000000,"state":"active","ping":72},{"user_id":584,"name":"CPTforever","steam_id":76561198237767198,"connected_time":427000000000,"state":"active","ping":45},{"user_id":572,"name":"Pikemen","steam_id":76561198141338432,"connected_time":634000000000,"state":"active","ping":54},{"user_id":587,"name":"The IT Guy","steam_id":76561198071790583,"connected_time":366000000000,"state":"active","ping":99},{"user_id":594,"name":"TeCon","steam_id":76561198049127236,"connected_time":234000000000,"state":"active","ping":63},{"user_id":576,"name":"Scoober","steam_id":76561198100314799,"connected_time":580000000000,"state":"active","ping":82},{"user_id":589,"name":"a chicken","steam_id":76561198313121580,"connected_time":328000000000,"state":"active","ping":52},{"user_id":591,"name":"FLASH ASSANOVA","steam_id":76561197996266992,"connected_time":299000000000,"state":"active","ping":60},{"user_id":596,"name":"bengineer","steam_id":76561198171912174,"connected_time":110000000000,"state":"active","ping":71},{"user_id":559,"name":"700,000 raw papers","steam_id":76561198424248616,"connected_time":1261000000000,"state":"active","ping":94},{"user_id":544,"name":"sunflowerofwar","steam_id":76561198940058271,"connected_time":1883000000000,"state":"active","ping":66},{"user_id":539,"name":"bloodhail","steam_id":76561198121633820,"connected_time":2546000000000,"state":"active","ping":61},{"user_id":562,"name":"yuuko","steam_id":76561198097711389,"connected_time":1231000000000,"state":"active","ping":61},{"user_id":563,"name":"I'mEggscellent","steam_id":76561198119726632,"connected_time":1231000000000,"state":"active","ping":137}]},{"server_id":18,"name":"Uncletopia | San Francisco | 2 | All Maps","name_short":"sfo-2","host":"sfo-1.us.uncletopia.com","port":27025,"enabled":true,"region":"us-west","cc":"us","latitude":37.77397,"longitude":-122.4313,"reserved":0,"last_update":"0001-01-01T00:00:00Z","name_a2s":"Uncletopia | San Francisco | 2 | All Maps","protocol":17,"map":"pl_frontier_final","folder":"tf","game":"Team Fortress","app_id":440,"player_count":22,"max_players":24,"Bots":0,"server_type":"Dedicated","server_os":"Linux","password":true,"vac":true,"version":"7757534","steam_id":85568392924470000,"keywords":["nocrits","nodmgspread","payload","uncletopia"],"game_id":440,"stv_port":27026,"stv_name":"Uncletopia | San Francisco | 2 | All Maps | STV","players":[{"user_id":606,"name":"Soulistice","steam_id":76561199140430046,"connected_time":723000000000,"state":"active","ping":71},{"user_id":608,"name":"heimdall","steam_id":76561198069380992,"connected_time":631000000000,"state":"active","ping":114},{"user_id":609,"name":"jaruz","steam_id":76561198159447698,"connected_time":585000000000,"state":"active","ping":70},{"user_id":618,"name":"HammerHead","steam_id":76561197975668646,"connected_time":501000000000,"state":"active","ping":75},{"user_id":611,"name":"Rafl","steam_id":76561198055222756,"connected_time":565000000000,"state":"active","ping":75},{"user_id":599,"name":"JonBoy","steam_id":76561198082052480,"connected_time":1718000000000,"state":"active","ping":77},{"user_id":582,"name":"gabemaster07","steam_id":76561198289740746,"connected_time":2722000000000,"state":"active","ping":68},{"user_id":607,"name":"ArnoldGamingﾠٴ","steam_id":76561198040140247,"connected_time":720000000000,"state":"active","ping":121},{"user_id":622,"name":"(TPT) Ghost","steam_id":76561198123262873,"connected_time":157000000000,"state":"active","ping":71},{"user_id":559,"name":"Crunchy","steam_id":76561198240523882,"connected_time":5062000000000,"state":"active","ping":59},{"user_id":601,"name":"Matches *♥‧₊˚           ","steam_id":76561198048925904,"connected_time":1706000000000,"state":"active","ping":72},{"user_id":616,"name":"Aircraft Carrier Princess","steam_id":76561198348354629,"connected_time":529000000000,"state":"active","ping":88},{"user_id":614,"name":"HeavyPyro0123","steam_id":76561198840556138,"connected_time":548000000000,"state":"active","ping":125},{"user_id":617,"name":"Artyom","steam_id":76561198152149679,"connected_time":520000000000,"state":"active","ping":60},{"user_id":584,"name":"the biggest bird","steam_id":76561198971743530,"connected_time":2693000000000,"state":"active","ping":50},{"user_id":615,"name":"Puskinti","steam_id":76561198032120688,"connected_time":541000000000,"state":"active","ping":77},{"user_id":558,"name":"Checkered Scones","steam_id":76561198162786894,"connected_time":5100000000000,"state":"active","ping":60},{"user_id":575,"name":"Joshy","steam_id":76561198823350392,"connected_time":3936000000000,"state":"active","ping":70},{"user_id":620,"name":"rjsly","steam_id":76561198036573271,"connected_time":455000000000,"state":"active","ping":117},{"user_id":604,"name":"ghor","steam_id":76561197994547132,"connected_time":1223000000000,"state":"active","ping":54},{"user_id":593,"name":"Butterton","steam_id":76561198833286517,"connected_time":2284000000000,"state":"active","ping":72},{"user_id":621,"name":"The Grim Heaper","steam_id":76561197987759101,"connected_time":183000000000,"state":"active","ping":77}]},{"server_id":19,"name":"Uncletopia | San Francisco | 3 | Stopwatch Beta","name_short":"sfo-3","host":"sfo-1.us.uncletopia.com","port":27035,"enabled":true,"region":"us-west","cc":"us","latitude":37.77397,"longitude":-122.4313,"reserved":0,"last_update":"0001-01-01T00:00:00Z","name_a2s":"Uncletopia | San Francisco | 3 | Stopwatch Beta","protocol":17,"map":"workshop/koth_bagel_rc6.ugc2514036946","folder":"tf","game":"Team Fortress","app_id":440,"player_count":0,"max_players":24,"Bots":0,"server_type":"Dedicated","server_os":"Linux","password":true,"vac":true,"version":"7757534","steam_id":85568392924742824,"keywords":["cp","nocrits","nodmgspread","uncletopia"],"game_id":440,"stv_port":27036,"stv_name":"Uncletopia | San Francisco | 3 | Stopwatch Beta | STV","players":null},{"server_id":20,"name":"Uncletopia | San Francisco | 4 | Community","name_short":"sfo-4","host":"sfo-1.us.uncletopia.com","port":27045,"enabled":true,"region":"us-west","cc":"us","latitude":37.77397,"longitude":-122.4313,"reserved":0,"last_update":"0001-01-01T00:00:00Z","name_a2s":"Uncletopia | San Francisco | 4 | Community","protocol":17,"map":"workshop/cp_glacier_rc6.ugc2905735376","folder":"tf","game":"Team Fortress","app_id":440,"player_count":0,"max_players":24,"Bots":0,"server_type":"Dedicated","server_os":"Linux","password":true,"vac":true,"version":"7757534","steam_id":85568392924742826,"keywords":["cp","nocrits","nodmgspread","uncletopia"],"game_id":440,"stv_port":27046,"stv_name":"Uncletopia | San Francisco | 4 | Community | STV","players":null},{"server_id":141,"name":"Uncletopia | Sydney | 1 | All Maps","name_short":"syd-1","host":"syd-1.au.uncletopia.com","port":27015,"enabled":true,"region":"au","cc":"au","latitude":-33.865143,"longitude":151.2099,"reserved":0,"last_update":"0001-01-01T00:00:00Z","name_a2s":"Uncletopia | Sydney | 1 | All Maps","protocol":17,"map":"pl_upward","folder":"tf","game":"Team Fortress","app_id":440,"player_count":21,"max_players":24,"Bots":0,"server_type":"Dedicated","server_os":"Linux","password":true,"vac":true,"version":"7757534","steam_id":85568392924470001,"keywords":["nocrits","nodmgspread","payload","uncletopia"],"game_id":440,"stv_port":27016,"stv_name":"Uncletopia | Sydney | 1 | All Maps | STV","players":[{"user_id":633,"name":"Livid","steam_id":76561198060024585,"connected_time":1012000000000,"state":"active","ping":33},{"user_id":596,"name":"kez","steam_id":76561198046177980,"connected_time":3511000000000,"state":"active","ping":65},{"user_id":640,"name":"saudi ambassador messi","steam_id":76561198031293430,"connected_time":352000000000,"state":"active","ping":86},{"user_id":637,"name":"alqwnq","steam_id":76561198133867907,"connected_time":760000000000,"state":"active","ping":79},{"user_id":613,"name":"TheDoctor30","steam_id":76561198433686866,"connected_time":2409000000000,"state":"active","ping":103},{"user_id":616,"name":"Lukey","steam_id":76561197999887960,"connected_time":2143000000000,"state":"active","ping":85},{"user_id":630,"name":"alex","steam_id":76561198053382248,"connected_time":1079000000000,"state":"active","ping":44},{"user_id":606,"name":"old chunk of coal","steam_id":76561197990537324,"connected_time":2879000000000,"state":"active","ping":104},{"user_id":631,"name":"shaymii","steam_id":76561198058562392,"connected_time":1061000000000,"state":"active","ping":79},{"user_id":516,"name":"Jodelkönig Franzl Lang","steam_id":76561198007667830,"connected_time":8445000000000,"state":"active","ping":58},{"user_id":641,"name":"Leds","steam_id":76561198015162021,"connected_time":281000000000,"state":"active","ping":61},{"user_id":643,"name":"Mr Doctor","steam_id":76561198081415999,"connected_time":89000000000,"state":"active","ping":64},{"user_id":612,"name":"Sentry Gun (EpicGuy4227)","steam_id":76561198094132328,"connected_time":2434000000000,"state":"active","ping":51},{"user_id":638,"name":"seiran","steam_id":76561198880907232,"connected_time":684000000000,"state":"active","ping":90},{"user_id":634,"name":"ZU TITAN REGIGIGAS ÜN ÜN ÜN","steam_id":76561198067978287,"connected_time":949000000000,"state":"active","ping":90},{"user_id":588,"name":"Snowy","steam_id":76561198255720598,"connected_time":4133000000000,"state":"active","ping":47},{"user_id":621,"name":"Phobia²","steam_id":76561198038833524,"connected_time":1827000000000,"state":"active","ping":58},{"user_id":636,"name":"Nya Unleashed","steam_id":76561199440190709,"connected_time":932000000000,"state":"active","ping":60},{"user_id":646,"name":"MAG ALI","steam_id":76561198353183243,"connected_time":37000000000,"state":"active","ping":348},{"user_id":578,"name":"you have been deemed, Gilbert","steam_id":76561198301282416,"connected_time":5088000000000,"state":"active","ping":55},{"user_id":639,"name":"whiteshaq","steam_id":76561198131988811,"connected_time":671000000000,"state":"active","ping":50}]},{"server_id":123,"name":"Uncletopia | Sydney | 2 | All Maps","name_short":"syd-2","host":"syd-1.au.uncletopia.com","port":27025,"enabled":true,"region":"au","cc":"au","latitude":-33.865143,"longitude":151.2099,"reserved":0,"last_update":"0001-01-01T00:00:00Z","name_a2s":"Uncletopia | Sydney | 2 | All Maps","protocol":17,"map":"pl_pier","folder":"tf","game":"Team Fortress","app_id":440,"player_count":24,"max_players":24,"Bots":0,"server_type":"Dedicated","server_os":"Linux","password":true,"vac":true,"version":"7757534","steam_id":85568392924470002,"keywords":["nocrits","nodmgspread","payload","uncletopia"],"game_id":440,"stv_port":27026,"stv_name":"Uncletopia | Sydney | 2 | All Maps | STV","players":[{"user_id":54,"name":"PieMuncher","steam_id":76561198107221185,"connected_time":2728000000000,"state":"active","ping":76},{"user_id":101,"name":"CrowPBS1 PC","steam_id":76561198943274401,"connected_time":161000000000,"state":"active","ping":86},{"user_id":88,"name":"Bigrichard","steam_id":76561198032092945,"connected_time":1137000000000,"state":"active","ping":77},{"user_id":98,"name":"ToadFungus","steam_id":76561199219667039,"connected_time":530000000000,"state":"active","ping":100},{"user_id":74,"name":"jack","steam_id":76561199442140704,"connected_time":1996000000000,"state":"active","ping":58},{"user_id":35,"name":"DpEpsilon","steam_id":76561198074350078,"connected_time":3566000000000,"state":"active","ping":45},{"user_id":36,"name":"TwilightJericho","steam_id":76561198044875117,"connected_time":3439000000000,"state":"active","ping":68},{"user_id":89,"name":"Fauntleroy","steam_id":76561198116935982,"connected_time":1025000000000,"state":"active","ping":63},{"user_id":96,"name":"o p t i v e","steam_id":76561198131756192,"connected_time":757000000000,"state":"active","ping":75},{"user_id":80,"name":"applepine","steam_id":76561198128399166,"connected_time":1695000000000,"state":"active","ping":71},{"user_id":60,"name":"AMangoYosha","steam_id":76561198870351418,"connected_time":2517000000000,"state":"active","ping":99},{"user_id":97,"name":"Don Cheezel","steam_id":76561198321407264,"connected_time":717000000000,"state":"active","ping":56},{"user_id":71,"name":"goob","steam_id":76561199480479443,"connected_time":2127000000000,"state":"active","ping":86},{"user_id":52,"name":"wakey =)","steam_id":76561198295885039,"connected_time":2767000000000,"state":"active","ping":56},{"user_id":94,"name":"gabe","steam_id":76561198088170040,"connected_time":841000000000,"state":"active","ping":56},{"user_id":63,"name":"Peppermint","steam_id":76561198820630422,"connected_time":2487000000000,"state":"active","ping":76},{"user_id":95,"name":"fishdoctor","steam_id":76561198048156389,"connected_time":834000000000,"state":"active","ping":28},{"user_id":66,"name":"Chiral","steam_id":76561197970873039,"connected_time":2309000000000,"state":"active","ping":57},{"user_id":79,"name":"Cofwee","steam_id":76561198072414195,"connected_time":1751000000000,"state":"active","ping":83},{"user_id":76,"name":"eekynetwo(F2P Piss Sniper)","steam_id":76561198990017441,"connected_time":1913000000000,"state":"active","ping":139},{"user_id":81,"name":"No Keyboard Gaming","steam_id":76561198412979983,"connected_time":1694000000000,"state":"active","ping":78},{"user_id":83,"name":"Drop the trout","steam_id":76561198061515657,"connected_time":1594000000000,"state":"active","ping":62},{"user_id":84,"name":"LET THE INTRUSIVE THOUGHTS WIN","steam_id":76561199174449723,"connected_time":1557000000000,"state":"active","ping":163},{"user_id":85,"name":"Genuline","steam_id":76561198126426787,"connected_time":1545000000000,"state":"active","ping":48}]},{"server_id":395,"name":"Uncletopia | Sydney | 3 | All Maps","name_short":"syd-3","host":"syd-1.au.uncletopia.com","port":27035,"enabled":true,"region":"au","cc":"au","latitude":-33.865143,"longitude":151.2099,"reserved":0,"last_update":"0001-01-01T00:00:00Z","name_a2s":"Uncletopia | Sydney | 3 | All Maps","protocol":17,"map":"pl_pier","folder":"tf","game":"Team Fortress","app_id":440,"player_count":0,"max_players":24,"Bots":0,"server_type":"Dedicated","server_os":"Linux","password":true,"vac":true,"version":"7757534","steam_id":85568392925194467,"keywords":["nocrits","nodmgspread","payload","uncletopia"],"game_id":440,"stv_port":27036,"stv_name":"Uncletopia | Sydney | 3 | All Maps | STV","players":null},{"server_id":396,"name":"Uncletopia | Sydney | 4 | All Maps","name_short":"syd-4","host":"syd-1.au.uncletopia.com","port":27045,"enabled":true,"region":"au","cc":"au","latitude":-33.865143,"longitude":151.2099,"reserved":0,"last_update":"0001-01-01T00:00:00Z","name_a2s":"Uncletopia | Sydney | 4 | All Maps","protocol":17,"map":"pl_frontier_final","folder":"tf","game":"Team Fortress","app_id":440,"player_count":2,"max_players":24,"Bots":0,"server_type":"Dedicated","server_os":"Linux","password":true,"vac":true,"version":"7757534","steam_id":85568392925397958,"keywords":["nocrits","nodmgspread","payload","uncletopia"],"game_id":440,"stv_port":27046,"stv_name":"Uncletopia | Sydney | 4 | All Maps | STV","players":[{"user_id":7,"name":"tigerspirit99","steam_id":76561199092480640,"connected_time":2426000000000,"state":"active","ping":55},{"user_id":10,"name":"val.cataldo","steam_id":76561199212851539,"connected_time":1314000000000,"state":"active","ping":65}]},{"server_id":58,"name":"Uncletopia | Sydney | 5 | Stopwatch Beta","name_short":"syd-5","host":"syd-1.au.uncletopia.com","port":27055,"enabled":true,"region":"au","cc":"au","latitude":-33.865143,"longitude":151.2099,"reserved":0,"last_update":"0001-01-01T00:00:00Z","name_a2s":"Uncletopia | Sydney | 5 | Stopwatch Beta","protocol":17,"map":"workshop/koth_product_final.ugc454272353","folder":"tf","game":"Team Fortress","app_id":440,"player_count":0,"max_players":24,"Bots":0,"server_type":"Dedicated","server_os":"Linux","password":true,"vac":true,"version":"7757534","steam_id":85568392925397959,"keywords":["cp","nocrits","nodmgspread","uncletopia"],"game_id":440,"stv_port":27056,"stv_name":"Uncletopia | Sydney | 5 | Stopwatch Beta | STV","players":null},{"server_id":59,"name":"Uncletopia | Sydney | 6 | Community","name_short":"syd-6","host":"syd-1.au.uncletopia.com","port":27065,"enabled":true,"region":"au","cc":"au","latitude":-33.865143,"longitude":151.2099,"reserved":0,"last_update":"0001-01-01T00:00:00Z","name_a2s":"Uncletopia | Sydney | 6 | Community","protocol":17,"map":"workshop/pl_emerge_rc2.ugc888027758","folder":"tf","game":"Team Fortress","app_id":440,"player_count":0,"max_players":24,"Bots":0,"server_type":"Dedicated","server_os":"Linux","password":true,"vac":true,"version":"7757534","steam_id":85568392925397960,"keywords":["nocrits","nodmgspread","payload","uncletopia"],"game_id":440,"stv_port":27066,"stv_name":"Uncletopia | Sydney | 6 | Community | STV","players":null},{"server_id":49,"name":"Uncletopia | Warsaw | 1 | All Maps","name_short":"waw-1","host":"waw-1.pl.uncletopia.com","port":27015,"enabled":true,"region":"eu","cc":"pl","latitude":52.2297,"longitude":21.017532,"reserved":0,"last_update":"0001-01-01T00:00:00Z","name_a2s":"","protocol":0,"map":"","folder":"","game":"","app_id":0,"player_count":0,"max_players":0,"Bots":0,"server_type":"","server_os":"","password":false,"vac":false,"version":"","steam_id":0,"keywords":null,"game_id":0,"stv_port":0,"stv_name":"","players":null},{"server_id":50,"name":"Uncletopia | Warsaw | 2 | All Maps","name_short":"waw-2","host":"waw-1.pl.uncletopia.com","port":27025,"enabled":true,"region":"eu","cc":"pl","latitude":52.2297,"longitude":21.017532,"reserved":0,"last_update":"0001-01-01T00:00:00Z","name_a2s":"Uncletopia | Warsaw | 2 | All Maps","protocol":17,"map":"koth_viaduct","folder":"tf","game":"Team Fortress","app_id":440,"player_count":0,"max_players":24,"Bots":0,"server_type":"Dedicated","server_os":"Linux","password":true,"vac":true,"version":"7757534","steam_id":85568392925397851,"keywords":["cp","nocrits","nodmgspread","uncletopia"],"game_id":440,"stv_port":27026,"stv_name":"Uncletopia | Warsaw | 2 | All Maps | STV","players":null},{"server_id":51,"name":"Uncletopia | Warsaw | 3 | All Maps","name_short":"waw-3","host":"waw-1.pl.uncletopia.com","port":27035,"enabled":true,"region":"eu","cc":"pl","latitude":52.2297,"longitude":21.017532,"reserved":0,"last_update":"0001-01-01T00:00:00Z","name_a2s":"Uncletopia | Warsaw | 3 | All Maps","protocol":17,"map":"pl_badwater","folder":"tf","game":"Team Fortress","app_id":440,"player_count":0,"max_players":24,"Bots":0,"server_type":"Dedicated","server_os":"Linux","password":true,"vac":true,"version":"7757534","steam_id":85568392925397852,"keywords":["nocrits","nodmgspread","payload","uncletopia"],"game_id":440,"stv_port":27036,"stv_name":"Uncletopia | Warsaw | 3 | All Maps | STV","players":null},{"server_id":52,"name":"Uncletopia | Warsaw | 4 | All Maps","name_short":"waw-4","host":"waw-1.pl.uncletopia.com","port":27045,"enabled":true,"region":"eu","cc":"pl","latitude":52.2297,"longitude":21.017532,"reserved":0,"last_update":"0001-01-01T00:00:00Z","name_a2s":"Uncletopia | Warsaw | 4 | All Maps","protocol":17,"map":"koth_lakeside_final","folder":"tf","game":"Team Fortress","app_id":440,"player_count":0,"max_players":24,"Bots":0,"server_type":"Dedicated","server_os":"Linux","password":true,"vac":true,"version":"7757534","steam_id":85568392925397853,"keywords":["cp","nocrits","nodmgspread","uncletopia"],"game_id":440,"stv_port":27046,"stv_name":"Uncletopia | Warsaw | 4 | All Maps | STV","players":null},{"server_id":53,"name":"Uncletopia | Warsaw | 5 | Stopwatch Beta","name_short":"waw-5","host":"waw-1.pl.uncletopia.com","port":27055,"enabled":true,"region":"eu","cc":"pl","latitude":52.2297,"longitude":21.017532,"reserved":0,"last_update":"0001-01-01T00:00:00Z","name_a2s":"Uncletopia | Warsaw | 5 | Stopwatch Beta","protocol":17,"map":"pl_borneo","folder":"tf","game":"Team Fortress","app_id":440,"player_count":0,"max_players":24,"Bots":0,"server_type":"Dedicated","server_os":"Linux","password":true,"vac":true,"version":"7757534","steam_id":85568392925397854,"keywords":["nocrits","nodmgspread","payload","uncletopia"],"game_id":440,"stv_port":27056,"stv_name":"Uncletopia | Warsaw | 5 | Stopwatch Beta | STV","players":null},{"server_id":54,"name":"Uncletopia | Warsaw | 6 | Community","name_short":"waw-6","host":"waw-1.pl.uncletopia.com","port":27065,"enabled":true,"region":"eu","cc":"pl","latitude":52.2297,"longitude":21.017532,"reserved":0,"last_update":"0001-01-01T00:00:00Z","name_a2s":"Uncletopia | Warsaw | 6 | Community","protocol":17,"map":"koth_lakeside_final","folder":"tf","game":"Team Fortress","app_id":440,"player_count":0,"max_players":24,"Bots":0,"server_type":"Dedicated","server_os":"Linux","password":true,"vac":true,"version":"7757534","steam_id":85568392925397856,"keywords":["cp","nocrits","nodmgspread","uncletopia"],"game_id":440,"stv_port":27066,"stv_name":"Uncletopia | Warsaw | 6 | Community | STV","players":null}]}