{"status":true,"message":"","result":[{"server_id":9,"name":"Uncletopia | Atlanta | 1 | All Maps","name_short":"atl-1","host":"atl-1.us.uncletopia.com","port":27015,"enabled":true,"region":"us-east","cc":"us","latitude":33.753746,"longitude":-84.38633,"reserved":0,"last_update":"0001-01-01T00:00:00Z","name_a2s":"Uncletopia | Atlanta | 1 | All Maps","protocol":17,"map":"pl_upward","folder":"tf","game":"Team Fortress","app_id":440,"player_count":24,"max_players":24,"Bots":0,"server_type":"Dedicated","server_os":"Linux","password":true,"vac":true,"version":"7742253","steam_id":85568392924469982,"keywords":["nocrits","nodmgspread","payload","uncletopia"],"game_id":440,"stv_port":27016,"stv_name":"Uncletopia | Atlanta | 1 | All Maps | STV","players":[{"user_id":650,"name":"MILK MAN","steam_id":76561199012860639,"connected_time":2799000000000,"state":"active","ping":82},{"user_id":623,"name":"Bugaboo","steam_id":76561198056280232,"connected_time":5642000000000,"state":"active","ping":112},{"user_id":673,"name":"Jin","steam_id":76561198119873148,"connected_time":434000000000,"state":"active","ping":74},{"user_id":613,"name":"evil wizard","steam_id":76561198119732242,"connected_time":6003000000000,"state":"active","ping":88},{"user_id":662,"name":"IZISOO","steam_id":76561198970380577,"connected_time":1429000000000,"state":"active","ping":74},{"user_id":647,"name":"1000 Ping","steam_id":76561198098330939,"connected_time":3313000000000,"state":"active","ping":111},{"user_id":643,"name":"design philosophy","steam_id":76561198010482603,"connected_time":3536000000000,"state":"active","ping":75},{"user_id":676,"name":"_Pai","steam_id":76561198108196753,"connected_time":49000000000,"state":"active","ping":92},{"user_id":653,"name":"сливная\u003e_+","steam_id":76561198126358045,"connected_time":2614000000000,"state":"active","ping":73},{"user_id":577,"name":"Re-Crix","steam_id":76561198351895601,"connected_time":8301000000000,"state":"active","ping":109},{"user_id":659,"name":"KTB","steam_id":76561197990744614,"connected_time":1808000000000,"state":"active","ping":56},{"user_id":672,"name":"Teriyaki Jones","steam_id":76561198010282442,"connected_time":731000000000,"state":"active","ping":107},{"user_id":671,"name":"I am the Punishment","steam_id":76561198385646042,"connected_time":851000000000,"state":"active","ping":78},{"user_id":675,"name":"Disco Fever","steam_id":76561198069532215,"connected_time":260000000000,"state":"active","ping":61},{"user_id":641,"name":"ATL1 | Lav4ie [txc]","steam_id":76561198825997674,"connected_time":4094000000000,"state":"active","ping":54},{"user_id":674,"name":"Rudolph Hіtlеr","steam_id":76561199191233882,"connected_time":330000000000,"state":"active","ping":166},{"user_id":665,"name":"jimothy","steam_id":76561198982248872,"connected_time":1349000000000,"state":"active","ping":60},{"user_id":658,"name":"namaste at home dad","steam_id":76561198056971063,"connected_time":2082000000000,"state":"active","ping":31},{"user_id":625,"name":"Nnyllazxz","steam_id":76561198247797436,"connected_time":5595000000000,"state":"active","ping":63},{"user_id":651,"name":"sleepy","steam_id":76561198450003554,"connected_time":2670000000000,"state":"active","ping":75},{"user_id":667,"name":"Jkrep","steam_id":76561198439442146,"connected_time":1316000000000,"state":"active","ping":60},{"user_id":660,"name":"r0ck","steam_id":76561198141716764,"connected_time":1687000000000,"state":"active","ping":70},{"user_id":669,"name":"|Ruco Sama|","steam_id":76561198408593857,"connected_time":1212000000000,"state":"active","ping":64}]},{"server_id":400,"name":"Uncletopia | Atlanta | 3 | Stopwatch Beta","name_short":"atl-3","host":"atl-1.us.uncletopia.com","port":27035,"enabled":true,"region":"us-east","cc":"us","latitude":33.753746,"longitude":-84.38633,"reserved":0,"last_update":"0001-01-01T00:00:00Z","name_a2s":"Uncletopia | Atlanta | 3 | Stopwatch Beta","protocol":17,"map":"pl_pier","folder":"tf","game":"Team Fortress","app_id":440,"player_count":0,"max_players":24,"Bots":0,"server_type":"Dedicated","server_os":"Linux","password":true,"vac":true,"version":"7742253","steam_id":85568392924515187,"keywords":["nocrits","nodmgspread","payload","uncletopia"],"game_id":440,"stv_port":27036,"stv_name":"Uncletopia | Atlanta | 3 | Stopwatch Beta | STV","players":null},{"server_id":401,"name":"Uncletopia | Atlanta | 4 | No Payload","name_short":"atl-4","host":"atl-1.us.uncletopia.com","port":27045,"enabled":true,"region":"us-east","cc":"us","latitude":33.753746,"longitude":-84.38633,"reserved":0,"last_update":"0001-01-01T00:00:00Z","name_a2s":"Uncletopia | Atlanta | 4 | No Payload","protocol":17,"map":"pl_pier","folder":"tf","game":"Team Fortress","app_id":440,"player_count":0,"max_players":24,"Bots":0,"server_type":"Dedicated","server_os":"Linux","password":true,"vac":true,"version":"7723704","steam_id":85568392924515188,"keywords":["nocrits","nodmgspread","payload","uncletopia"],"game_id":440,"stv_port":27046,"stv_name":"Uncletopia | Atlanta | 4 | No Payload | STV","players":null},{"server_id":2,"name":"Uncletopia | Chicago | 1 | All Maps","name_short":"chi-1","host":"chi-1.us.uncletopia.com","port":27015,"enabled":true,"region":"us-central","cc":"us","latitude":41.881832,"longitude":-87.62318,"reserved":0,"last_update":"0001-01-01T00:00:00Z","name_a2s":"Uncletopia | Chicago | 1 | All Maps","protocol":17,"map":"pl_upward","folder":"tf","game":"Team Fortress","app_id":440,"player_count":6,"max_players":24,"Bots":0,"server_type":"Dedicated","server_os":"Linux","password":true,"vac":true,"version":"7742253","steam_id":85568392924469984,"keywords":["nocrits","nodmgspread","payload","uncletopia"],"game_id":440,"stv_port":27016,"stv_name":"Uncletopia | Chicago | 1 | All Maps | STV","players":[{"user_id":682,"name":"bungo","steam_id":76561198065145850,"connected_time":820000000000,"state":"active","ping":77},{"user_id":683,"name":"julianne","steam_id":76561198976383568,"connected_time":812000000000,"state":"active","ping":88},{"user_id":684,"name":"karol.kl","steam_id":76561198840746017,"connected_time":470000000000,"state":"active","ping":185},{"user_id":685,"name":"squig_","steam_id":76561198043726592,"connected_time":450000000000,"state":"active","ping":66},{"user_id":673,"name":"themadlad67","steam_id":76561199309554436,"connected_time":2180000000000,"state":"active","ping":95},{"user_id":687,"name":"Chestnut","steam_id":76561198078198968,"connected_time":104000000000,"state":"active","ping":61}]},{"server_id":106,"name":"Uncletopia | Chicago | 2 | All Maps","name_short":"chi-2","host":"chi-1.us.uncletopia.com","port":27025,"enabled":true,"region":"us-central","cc":"us","latitude":41.881832,"longitude":-87.62318,"reserved":0,"last_update":"0001-01-01T00:00:00Z","name_a2s":"Uncletopia | Chicago | 2 | All Maps","protocol":17,"map":"koth_highpass","folder":"tf","game":"Team Fortress","app_id":440,"player_count":0,"max_players":24,"Bots":0,"server_type":"Dedicated","server_os":"Linux","password":true,"vac":true,"version":"7742253","steam_id":85568392924469985,"keywords":["cp","nocrits","nodmgspread","uncletopia"],"game_id":440,"stv_port":27026,"stv_name":"Uncletopia | Chicago | 2 | All Maps | STV","players":null},{"server_id":402,"name":"Uncletopia | Chicago | 3 | All Maps","name_short":"chi-3","host":"chi-1.us.uncletopia.com","port":27035,"enabled":true,"region":"us-central","cc":"us","latitude":41.881832,"longitude":-87.62318,"reserved":0,"last_update":"0001-01-01T00:00:00Z","name_a2s":"Uncletopia | Chicago | 3 | All Maps","protocol":17,"map":"pl_borneo","folder":"tf","game":"Team Fortress","app_id":440,"player_count":11,"max_players":24,"Bots":0,"server_type":"Dedicated","server_os":"Linux","password":true,"vac":true,"version":"7742253","steam_id":85568392924515191,"keywords":["nocrits","nodmgspread","payload","uncletopia"],"game_id":440,"stv_port":27036,"stv_name":"Uncletopia | Chicago | 3 | All Maps | STV","players":[{"user_id":784,"name":"Bobato Chaps","steam_id":76561198065103552,"connected_time":1856000000000,"state":"active","ping":44},{"user_id":789,"name":"AliCat","steam_id":76561198308360862,"connected_time":1759000000000,"state":"active","ping":134},{"user_id":804,"name":"Sniper Monkey","steam_id":76561198334511480,"connected_time":1047000000000,"state":"active","ping":68},{"user_id":809,"name":"Ubuntu Phone","steam_id":76561198008110407,"connected_time":32000000000,"state":"active","ping":72},{"user_id":755,"name":"aaa","steam_id":76561198090531755,"connected_time":3915000000000,"state":"active","ping":60},{"user_id":808,"name":"Carcino","steam_id":76561198006170253,"connected_time":238000000000,"state":"active","ping":62},{"user_id":805,"name":"CFDv20","steam_id":76561198450073779,"connected_time":680000000000,"state":"active","ping":105},{"user_id":792,"name":"MoonWolf","steam_id":76561198095735033,"connected_time":1657000000000,"state":"active","ping":80},{"user_id":744,"name":"hashmap","steam_id":76561198043794014,"connected_time":4898000000000,"state":"active","ping":45},{"user_id":794,"name":"Echo Gaming","steam_id":76561198242890502,"connected_time":1638000000000,"state":"active","ping":71},{"user_id":777,"name":"who ate the cheese","steam_id":76561198275408467,"connected_time":2143000000000,"state":"active","ping":47}]},{"server_id":403,"name":"Uncletopia | Chicago | 4 | All Maps","name_short":"chi-4","host":"chi-1.us.uncletopia.com","port":27045,"enabled":true,"region":"us-central","cc":"us","latitude":41.881832,"longitude":-87.62318,"reserved":0,"last_update":"0001-01-01T00:00:00Z","name_a2s":"Uncletopia | Chicago | 4 | All Maps","protocol":17,"map":"cp_mountainlab","folder":"tf","game":"Team Fortress","app_id":440,"player_count":0,"max_players":24,"Bots":0,"server_type":"Dedicated","server_os":"Linux","password":true,"vac":true,"version":"7742253","steam_id":85568392924515193,"keywords":["cp","nocrits","nodmgspread","uncletopia"],"game_id":440,"stv_port":27046,"stv_name":"Uncletopia | Chicago | 4 | All Maps | STV","players":null},{"server_id":36,"name":"Uncletopia | Chicago | 5 | All Maps","name_short":"chi-5","host":"chi-2.us.uncletopia.com","port":27015,"enabled":true,"region":"us-central","cc":"us","latitude":41.881832,"longitude":-87.62318,"reserved":0,"last_update":"0001-01-01T00:00:00Z","name_a2s":"Uncletopia | Chicago | 5 | All Maps","protocol":17,"map":"koth_viaduct","folder":"tf","game":"Team Fortress","app_id":440,"player_count":0,"max_players":24,"Bots":0,"server_type":"Dedicated","server_os":"Linux","password":true,"vac":true,"version":"7742253","steam_id":85568392924866362,"keywords":["cp","nocrits","nodmgspread","uncletopia"],"game_id":440,"stv_port":27016,"stv_name":"Uncletopia | Chicago | 5 | All Maps | STV","players":null},{"server_id":37,"name":"Uncletopia | Chicago | 6 | All Maps","name_short":"chi-6","host":"chi-2.us.uncletopia.com","port":27025,"enabled":true,"region":"us-central","cc":"us","latitude":41.881832,"longitude":-87.62318,"reserved":0,"last_update":"0001-01-01T00:00:00Z","name_a2s":"Uncletopia | Chicago | 6 | All Maps","protocol":17,"map":"cp_mountainlab","folder":"tf","game":"Team Fortress","app_id":440,"player_count":0,"max_players":24,"Bots":0,"server_type":"Dedicated","server_os":"Linux","password":true,"vac":true,"version":"7742253","steam_id":85568392924866363,"keywords":["cp","nocrits","nodmgspread","uncletopia"],"game_id":440,"stv_port":27026,"stv_name":"Uncletopia | Chicago | 6 | All Maps | STV","players":null},{"server_id":38,"name":"Uncletopia | Chicago | 7 | Stopwatch Beta","name_short":"chi-7","host":"chi-2.us.uncletopia.com","port":27035,"enabled":true,"region":"us-central","cc":"us","latitude":41.881832,"longitude":-87.62318,"reserved":0,"last_update":"0001-01-01T00:00:00Z","name_a2s":"Uncletopia | Chicago | 7 | Stopwatch Beta","protocol":17,"map":"workshop/pl_barnblitz_pro7.ugc582280235","folder":"tf","game":"Team Fortress","app_id":440,"player_count":0,"max_players":24,"Bots":0,"server_type":"Dedicated","server_os":"Linux","password":true,"vac":true,"version":"7742253","steam_id":85568392924866364,"keywords":["nocrits","nodmgspread","payload","uncletopia"],"game_id":440,"stv_port":27036,"stv_name":"Uncletopia | Chicago | 7 | Stopwatch Beta | STV","players":null},{"server_id":39,"name":"Uncletopia | Chicago | 8 | Community","name_short":"chi-8","host":"chi-2.us.uncletopia.com","port":27045,"enabled":true,"region":"us-central","cc":"us","latitude":41.881832,"longitude":-87.62318,"reserved":0,"last_update":"0001-01-01T00:00:00Z","name_a2s":"Uncletopia | Chicago | 8 | Community","protocol":17,"map":"workshop/cp_reckoner_rc6.ugc674719999","folder":"tf","game":"Team Fortress","app_id":440,"player_count":0,"max_players":24,"Bots":0,"server_type":"Dedicated","server_os":"Linux","password":true,"vac":true,"version":"7742253","steam_id":85568392924866365,"keywords":["cp","nocrits","nodmgspread","uncletopia"],"game_id":440,"stv_port":27046,"stv_name":"Uncletopia | Chicago | 8 | Community | STV","players":null},{"server_id":8,"name":"Uncletopia | Dallas | 1 | All Maps","name_short":"dal-1","host":"dal-1.us.uncletopia.com","port":27015,"enabled":true,"region":"us-central","cc":"us","latitude":32.779167,"longitude":-96.80889,"reserved":0,"last_update":"0001-01-01T00:00:00Z","name_a2s":"Uncletopia | Dallas | 1 | All Maps","protocol":17,"map":"pl_swiftwater_final1","folder":"tf","game":"Team Fortress","app_id":440,"player_count":0,"max_players":24,"Bots":0,"server_type":"Dedicated","server_os":"Linux","password":true,"vac":true,"version":"7742253","steam_id":85568392924469986,"keywords":["nocrits","nodmgspread","payload","uncletopia"],"game_id":440,"stv_port":27016,"stv_name":"Uncletopia | Dallas | 1 | All Maps | STV","players":null},{"server_id":108,"name":"Uncletopia | Dallas | 2 | All Maps","name_short":"dal-2","host":"dal-1.us.uncletopia.com","port":27025,"enabled":true,"region":"us-central","cc":"us","latitude":32.779167,"longitude":-96.80889,"reserved":0,"last_update":"0001-01-01T00:00:00Z","name_a2s":"Uncletopia | Dallas | 2 | All Maps","protocol":17,"map":"pl_borneo","folder":"tf","game":"Team Fortress","app_id":440,"player_count":24,"max_players":24,"Bots":0,"server_type":"Dedicated","server_os":"Linux","password":true,"vac":true,"version":"7742253","steam_id":85568392924469988,"keywords":["nocrits","nodmgspread","payload","uncletopia"],"game_id":440,"stv_port":27026,"stv_name":"Uncletopia | Dallas | 2 | All Maps | STV","players":[{"user_id":448,"name":"Carsen","steam_id":76561198225481404,"connected_time":3094000000000,"state":"active","ping":84},{"user_id":468,"name":"Elizabeth truss","steam_id":76561198058250979,"connected_time":2334000000000,"state":"active","ping":75},{"user_id":456,"name":"Leah","steam_id":76561198087616148,"connected_time":2664000000000,"state":"active","ping":76},{"user_id":486,"name":"Medic","steam_id":76561198067869016,"connected_time":300000000000,"state":"active","ping":85},{"user_id":324,"name":"❤Dumpster Cat❤","steam_id":76561199200969139,"connected_time":13164000000000,"state":"active","ping":109},{"user_id":485,"name":"Moose","steam_id":76561198212779115,"connected_time":617000000000,"state":"active","ping":84},{"user_id":451,"name":"Ctrl And F4","steam_id":76561199367935846,"connected_time":2922000000000,"state":"active","ping":69},{"user_id":478,"name":"[δ] Delta","steam_id":76561198287190116,"connected_time":1844000000000,"state":"active","ping":63},{"user_id":453,"name":"E","steam_id":76561198238236044,"connected_time":2797000000000,"state":"active","ping":67},{"user_id":423,"name":"Lore","steam_id":76561198098407538,"connected_time":4762000000000,"state":"active","ping":75},{"user_id":467,"name":"Randy \"the Man\" Johnson","steam_id":76561198039124445,"connected_time":2472000000000,"state":"active","ping":90},{"user_id":460,"name":"Drift Stick","steam_id":76561198847048304,"connected_time":2569000000000,"state":"active","ping":102},{"user_id":490,"name":"Jesus","steam_id":76561198018890911,"connected_time":187000000000,"state":"active","ping":56},{"user_id":469,"name":"SPACECOWBOY","steam_id":76561199093645953,"connected_time":2273000000000,"state":"active","ping":95},{"user_id":488,"name":"ℓ0ℓO","steam_id":76561198026811744,"connected_time":270000000000,"state":"active","ping":78},{"user_id":427,"name":"Logan601 #savetf2","steam_id":76561198263116731,"connected_time":4681000000000,"state":"active","ping":83},{"user_id":470,"name":"Mr.maxpax","steam_id":76561198209845743,"connected_time":2242000000000,"state":"active","ping":49},{"user_id":457,"name":"HDDizzle","steam_id":76561198114226081,"connected_time":2648000000000,"state":"active","ping":96},{"user_id":472,"name":"Omegalite","steam_id":76561198796787101,"connected_time":2138000000000,"state":"active","ping":61},{"user_id":458,"name":"Female Gamer","steam_id":76561199366482682,"connected_time":2647000000000,"state":"active","ping":128},{"user_id":475,"name":"KARCHOWN","steam_id":76561198973361334,"connected_time":2087000000000,"state":"active","ping":74},{"user_id":489,"name":"Mr. Bixby","steam_id":76561198868839264,"connected_time":262000000000,"state":"active","ping":67},{"user_id":476,"name":"Squiliam","steam_id":76561198025278006,"connected_time":2044000000000,"state":"active","ping":43},{"user_id":480,"name":"Insert_Name_Here","steam_id":76561198089428414,"connected_time":1756000000000,"state":"active","ping":74}]},{"server_id":5,"name":"Uncletopia | Frankfurt | 1 | All Maps","name_short":"frk-1","host":"frk-1.de.uncletopia.com","port":27015,"enabled":true,"region":"eu","cc":"de","latitude":50.110924,"longitude":8.682127,"reserved":0,"last_update":"0001-01-01T00:00:00Z","name_a2s":"Uncletopia | Frankfurt | 1 | All Maps","protocol":17,"map":"pl_borneo","folder":"tf","game":"Team Fortress","app_id":440,"player_count":10,"max_players":24,"Bots":0,"server_type":"Dedicated","server_os":"Linux","password":true,"vac":true,"version":"7742253","steam_id":85568392924469989,"keywords":["nocrits","nodmgspread","payload","uncletopia"],"game_id":440,"stv_port":27016,"stv_name":"Uncletopia | Frankfurt | 1 | All Maps | STV","players":[{"user_id":3,"name":"tealoverr.190","steam_id":76561199028497703,"connected_time":478000000000,"state":"active","ping":94},{"user_id":4,"name":"WO_Zanger","steam_id":76561198870780670,"connected_time":425000000000,"state":"active","ping":62},{"user_id":5,"name":"Jofest1","steam_id":76561198013789719,"connected_time":384000000000,"state":"active","ping":93},{"user_id":6,"name":"demoman boober.","steam_id":76561198831191199,"connected_time":328000000000,"state":"active","ping":104},{"user_id":7,"name":"johncenx","steam_id":76561198366703672,"connected_time":271000000000,"state":"active","ping":64},{"user_id":13,"name":"Creamers","steam_id":76561199158854856,"connected_time":23000000000,"state":"active","ping":52},{"user_id":10,"name":"Mal ★","steam_id":76561198262337669,"connected_time":193000000000,"state":"active","ping":66},{"user_id":11,"name":"Yogurt","steam_id":76561198356902094,"connected_time":175000000000,"state":"active","ping":55},{"user_id":12,"name":"Circular","steam_id":76561198001536710,"connected_time":143000000000,"state":"active","ping":50},{"user_id":14,"name":".::[SerafeTTiN]::.","steam_id":76561198009471724,"connected_time":9000000000,"state":"active","ping":126}]},{"server_id":110,"name":"Uncletopia | Frankfurt | 2 | All Maps","name_short":"frk-2","host":"frk-1.de.uncletopia.com","port":27025,"enabled":true,"region":"eu","cc":"de","latitude":50.110924,"longitude":8.682127,"reserved":0,"last_update":"0001-01-01T00:00:00Z","name_a2s":"Uncletopia | Frankfurt | 2 | All Maps","protocol":17,"map":"pl_swiftwater_final1","folder":"tf","game":"Team Fortress","app_id":440,"player_count":0,"max_players":24,"Bots":0,"server_type":"Dedicated","server_os":"Linux","password":true,"vac":true,"version":"7742253","steam_id":85568392924469990,"keywords":["nocrits","nodmgspread","payload","uncletopia"],"game_id":440,"stv_port":27026,"stv_name":"Uncletopia | Frankfurt | 2 | All Maps | STV","players":null},{"server_id":308,"name":"Uncletopia | Frankfurt | 3 | All Maps","name_short":"frk-3","host":"frk-1.de.uncletopia.com","port":27035,"enabled":true,"region":"eu","cc":"de","latitude":50.110924,"longitude":8.682127,"reserved":0,"last_update":"0001-01-01T00:00:00Z","name_a2s":"Uncletopia | Frankfurt | 3 | All Maps","protocol":17,"map":"cp_dustbowl","folder":"tf","game":"Team Fortress","app_id":440,"player_count":0,"max_players":24,"Bots":0,"server_type":"Dedicated","server_os":"Linux","password":true,"vac":true,"version":"7742253","steam_id":85568392924504274,"keywords":["cp","nocrits","nodmgspread","uncletopia"],"game_id":440,"stv_port":27036,"stv_name":"Uncletopia | Frankfurt | 3 | All Maps | STV","players":null},{"server_id":309,"name":"Uncletopia | Frankfurt | 4 | All Maps","name_short":"frk-4","host":"frk-1.de.uncletopia.com","port":27045,"enabled":true,"region":"eu","cc":"de","latitude":50.110924,"longitude":8.682127,"reserved":0,"last_update":"0001-01-01T00:00:00Z","name_a2s":"Uncletopia | Frankfurt | 4 | All Maps","protocol":17,"map":"cp_sunshine","folder":"tf","game":"Team Fortress","app_id":440,"player_count":0,"max_players":24,"Bots":0,"server_type":"Dedicated","server_os":"Linux","password":true,"vac":true,"version":"7742253","steam_id":85568392924504275,"keywords":["cp","nocrits","nodmgspread","uncletopia"],"game_id":440,"stv_port":27046,"stv_name":"Uncletopia | Frankfurt | 4 | All Maps | STV","players":null},{"server_id":310,"name":"Uncletopia | Frankfurt | 5 | All Maps","name_short":"frk-5","host":"frk-1.de.uncletopia.com","port":27055,"enabled":true,"region":"eu","cc":"de","latitude":50.110924,"longitude":8.682127,"reserved":0,"last_update":"0001-01-01T00:00:00Z","name_a2s":"Uncletopia | Frankfurt | 5 | All Maps","protocol":17,"map":"cp_snakewater_final1","folder":"tf","game":"Team Fortress","app_id":440,"player_count":0,"max_players":24,"Bots":0,"server_type":"Dedicated","server_os":"Linux","password":true,"vac":true,"version":"7742253","steam_id":85568392924504277,"keywords":["cp","nocrits","nodmgspread","uncletopia"],"game_id":440,"stv_port":27056,"stv_name":"Uncletopia | Frankfurt | 5 | All Maps | STV","players":null},{"server_id":311,"name":"Uncletopia | Frankfurt | 6 | All Maps","name_short":"frk-6","host":"frk-1.de.uncletopia.com","port":27065,"enabled":true,"region":"eu","cc":"de","latitude":50.110924,"longitude":8.682127,"reserved":0,"last_update":"0001-01-01T00:00:00Z","name_a2s":"Uncletopia | Frankfurt | 6 | All Maps","protocol":17,"map":"koth_lakeside_final","folder":"tf","game":"Team Fortress","app_id":440,"player_count":0,"max_players":24,"Bots":0,"server_type":"Dedicated","server_os":"Linux","password":true,"vac":true,"version":"7742253","steam_id":85568392924504278,"keywords":["cp","nocrits","nodmgspread","uncletopia"],"game_id":440,"stv_port":27066,"stv_name":"Uncletopia | Frankfurt | 6 | All Maps | STV","players":null},{"server_id":23,"name":"Uncletopia | Frankfurt | 7 | Stopwatch Beta","name_short":"frk-7","host":"frk-1.de.uncletopia.com","port":27075,"enabled":true,"region":"eu","cc":"de","latitude":50.110924,"longitude":8.682127,"reserved":0,"last_update":"0001-01-01T00:00:00Z","name_a2s":"Uncletopia | Frankfurt | 7 | Stopwatch Beta","protocol":17,"map":"pl_badwater","folder":"tf","game":"Team Fortress","app_id":440,"player_count":0,"max_players":24,"Bots":0,"server_type":"Dedicated","server_os":"Linux","password":true,"vac":true,"version":"7742253","steam_id":85568392924742827,"keywords":["nocrits","nodmgspread","payload","uncletopia"],"game_id":440,"stv_port":27076,"stv_name":"Uncletopia | Frankfurt | 7 | Stopwatch Beta | STV","players":null},{"server_id":24,"name":"Uncletopia | Frankfurt | 8 | Community","name_short":"frk-8","host":"frk-1.de.uncletopia.com","port":27085,"enabled":true,"region":"eu","cc":"de","latitude":50.110924,"longitude":8.682127,"reserved":0,"last_update":"0001-01-01T00:00:00Z","name_a2s":"Uncletopia | Frankfurt | 8 | Community","protocol":17,"map":"koth_cascade","folder":"tf","game":"Team Fortress","app_id":440,"player_count":0,"max_players":24,"Bots":0,"server_type":"Dedicated","server_os":"Linux","password":true,"vac":true,"version":"7742253","steam_id":85568392924742828,"keywords":["cp","nocrits","nodmgspread","uncletopia"],"game_id":440,"stv_port":27086,"stv_name":"Uncletopia | Frankfurt | 8 | Community | STV","players":null},{"server_id":202,"name":"Uncletopia | Hong Kong | 1 | All Maps","name_short":"hgk-1","host":"hgk-1.hk.uncletopia.com","port":27015,"enabled":true,"region":"asia","cc":"hk","latitude":22.302711,"longitude":114.177216,"reserved":0,"last_update":"0001-01-01T00:00:00Z","name_a2s":"Uncletopia | Hong Kong | 1 | All Maps","protocol":17,"map":"cp_altitude","folder":"tf","game":"Team Fortress","app_id":440,"player_count":22,"max_players":24,"Bots":0,"server_type":"Dedicated","server_os":"Linux","password":true,"vac":true,"version":"7742253","steam_id":85568392924494504,"keywords":["cp","nocrits","nodmgspread","uncletopia"],"game_id":440,"stv_port":27016,"stv_name":"Uncletopia | Hong Kong | 1 | All Maps | STV","players":[{"user_id":683,"name":"cherenn","steam_id":76561198320532821,"connected_time":2231000000000,"state":"active","ping":62},{"user_id":710,"name":"Arys","steam_id":76561198088743596,"connected_time":704000000000,"state":"spawning","ping":124},{"user_id":526,"name":"Urotsuki","steam_id":76561198074339034,"connected_time":8947000000000,"state":"active","ping":73},{"user_id":706,"name":"Degenerate With Standards","steam_id":76561199174449723,"connected_time":987000000000,"state":"active","ping":122},{"user_id":713,"name":"derek.patriarca30","steam_id":76561199427230206,"connected_time":34000000000,"state":"active","ping":61},{"user_id":708,"name":"ocha","steam_id":76561199224096189,"connected_time":925000000000,"state":"active","ping":89},{"user_id":698,"name":"Noyour","steam_id":76561198323259830,"connected_time":1415000000000,"state":"active","ping":113},{"user_id":696,"name":"Du57Y","steam_id":76561198120973476,"connected_time":1445000000000,"state":"active","ping":84},{"user_id":18,"name":"lillalune","steam_id":76561198230213828,"connected_time":22739000000000,"state":"active","ping":70},{"user_id":685,"name":"diss","steam_id":76561199085668965,"connected_time":2099000000000,"state":"active","ping":154},{"user_id":645,"name":"煙海 | Enkai","steam_id":76561198050460825,"connected_time":5923000000000,"state":"active","ping":75},{"user_id":661,"name":"u/Plencers2","steam_id":76561198311052198,"connected_time":4810000000000,"state":"active","ping":78},{"user_id":678,"name":"ScaldingCoffee","steam_id":76561199053910995,"connected_time":2903000000000,"state":"active","ping":78},{"user_id":709,"name":"Waysub","steam_id":76561199289743676,"connected_time":822000000000,"state":"active","ping":181},{"user_id":699,"name":"Puddin","steam_id":76561198140052918,"connected_time":1379000000000,"state":"active","ping":88},{"user_id":701,"name":"Someone's Son","steam_id":76561198154999005,"connected_time":1247000000000,"state":"active","ping":61},{"user_id":712,"name":"zsb","steam_id":76561198073857914,"connected_time":60000000000,"state":"active","ping":64},{"user_id":679,"name":"moguizhong","steam_id":76561198152588681,"connected_time":2890000000000,"state":"active","ping":92},{"user_id":686,"name":"AlsoKaede","steam_id":76561198824426143,"connected_time":1999000000000,"state":"active","ping":95},{"user_id":702,"name":"KHMaster","steam_id":76561199198453345,"connected_time":1235000000000,"state":"active","ping":55},{"user_id":691,"name":"defultbot(jk)","steam_id":76561199216945880,"connected_time":1767000000000,"state":"active","ping":135},{"user_id":183,"name":"Bertengkar","steam_id":76561198213031155,"connected_time":17071000000000,"state":"active","ping":90}]},{"server_id":1,"name":"Uncletopia | Los Angeles | 1 | All Maps","name_short":"lax-1","host":"lax-1.us.uncletopia.com","port":27015,"enabled":true,"region":"us-west","cc":"us","latitude":33.94279,"longitude":-118.41004,"reserved":0,"last_update":"0001-01-01T00:00:00Z","name_a2s":"Uncletopia | Los Angeles | 1 | All Maps","protocol":17,"map":"koth_lakeside_final","folder":"tf","game":"Team Fortress","app_id":440,"player_count":0,"max_players":24,"Bots":0,"server_type":"Dedicated","server_os":"Linux","password":true,"vac":true,"version":"7742253","steam_id":85568392924469991,"keywords":["cp","nocrits","nodmgspread","uncletopia"],"game_id":440,"stv_port":27016,"stv_name":"Uncletopia | Los Angeles | 1 | All Maps | STV","players":null},{"server_id":112,"name":"Uncletopia | Los Angeles | 2 | All Maps","name_short":"lax-2","host":"lax-1.us.uncletopia.com","port":27025,"enabled":true,"region":"us-west","cc":"us","latitude":33.94279,"longitude":-118.41004,"reserved":0,"last_update":"0001-01-01T00:00:00Z","name_a2s":"Uncletopia | Los Angeles | 2 | All Maps","protocol":17,"map":"pl_badwater","folder":"tf","game":"Team Fortress","app_id":440,"player_count":0,"max_players":24,"Bots":0,"server_type":"Dedicated","server_os":"Linux","password":true,"vac":true,"version":"7742253","steam_id":85568392924469992,"keywords":["nocrits","nodmgspread","payload","uncletopia"],"game_id":440,"stv_port":27026,"stv_name":"Uncletopia | Los Angeles | 2 | All Maps | STV","players":null},{"server_id":324,"name":"Uncletopia | Los Angeles | 3 | All Maps","name_short":"lax-3","host":"lax-1.us.uncletopia.com","port":27035,"enabled":true,"region":"us-west","cc":"us","latitude":33.94279,"longitude":-118.41004,"reserved":0,"last_update":"0001-01-01T00:00:00Z","name_a2s":"Uncletopia | Los Angeles | 3 | All Maps","protocol":17,"map":"koth_lakeside_final","folder":"tf","game":"Team Fortress","app_id":440,"player_count":0,"max_players":24,"Bots":0,"server_type":"Dedicated","server_os":"Linux","password":true,"vac":true,"version":"7742253","steam_id":85568392924510198,"keywords":["cp","nocrits","nodmgspread","uncletopia"],"game_id":440,"stv_port":27036,"stv_name":"Uncletopia | Los Angeles | 3 | All Maps | STV","players":null},{"server_id":25,"name":"Uncletopia | Los Angeles | 4 | Stopwatch Beta","name_short":"lax-4","host":"lax-1.us.uncletopia.com","port":27045,"enabled":true,"region":"us-west","cc":"us","latitude":33.94279,"longitude":-118.41004,"reserved":0,"last_update":"0001-01-01T00:00:00Z","name_a2s":"Uncletopia | Los Angeles | 4 | Stopwatch Beta","protocol":17,"map":"koth_lakeside_final","folder":"tf","game":"Team Fortress","app_id":440,"player_count":0,"max_players":24,"Bots":0,"server_type":"Dedicated","server_os":"Linux","password":true,"vac":true,"version":"7742253","steam_id":85568392924510199,"keywords":["cp","nocrits","nodmgspread","uncletopia"],"game_id":440,"stv_port":27046,"stv_name":"Uncletopia | Los Angeles | 4 | Stopwatch Beta | STV","players":null},{"server_id":11,"name":"Uncletopia | London | 1 | All Maps","name_short":"lon-1","host":"lon-1.uk.uncletopia.com","port":27015,"enabled":true,"region":"eu","cc":"gb","latitude":51.509865,"longitude":-0.118092,"reserved":0,"last_update":"0001-01-01T00:00:00Z","name_a2s":"Uncletopia | London | 1 | All Maps","protocol":17,"map":"koth_highpass","folder":"tf","game":"Team Fortress","app_id":440,"player_count":0,"max_players":24,"Bots":0,"server_type":"Dedicated","server_os":"Linux","password":true,"vac":true,"version":"7742253","steam_id":85568392924367362,"keywords":["cp","nocrits","nodmgspread","uncletopia"],"game_id":440,"stv_port":27016,"stv_name":"Uncletopia | London | 1 | All Maps | STV","players":null},{"server_id":114,"name":"Uncletopia | London | 2 | All Maps","name_short":"lon-2","host":"lon-1.uk.uncletopia.com","port":27025,"enabled":true,"region":"eu","cc":"gb","latitude":51.509865,"longitude":-0.118092,"reserved":0,"last_update":"0001-01-01T00:00:00Z","name_a2s":"Uncletopia | London | 2 | All Maps","protocol":17,"map":"pl_swiftwater_final1","folder":"tf","game":"Team Fortress","app_id":440,"player_count":0,"max_players":24,"Bots":0,"server_type":"Dedicated","server_os":"Linux","password":true,"vac":true,"version":"7742253","steam_id":85568392924470941,"keywords":["nocrits","nodmgspread","payload","uncletopia"],"game_id":440,"stv_port":27026,"stv_name":"Uncletopia | London | 2 | All Maps | STV","players":null},{"server_id":320,"name":"Uncletopia | London | 3 | All Maps","name_short":"lon-3","host":"lon-1.uk.uncletopia.com","port":27035,"enabled":true,"region":"eu","cc":"gb","latitude":51.509865,"longitude":-0.118092,"reserved":0,"last_update":"0001-01-01T00:00:00Z","name_a2s":"Uncletopia | London | 3 | All Maps","protocol":17,"map":"pl_upward","folder":"tf","game":"Team Fortress","app_id":440,"player_count":0,"max_players":24,"Bots":0,"server_type":"Dedicated","server_os":"Linux","password":true,"vac":true,"version":"7742253","steam_id":85568392924510192,"keywords":["nocrits","nodmgspread","payload","uncletopia"],"game_id":440,"stv_port":27036,"stv_name":"Uncletopia | London | 3 | All Maps | STV","players":null},{"server_id":321,"name":"Uncletopia | London | 4 | All Maps","name_short":"lon-4","host":"lon-1.uk.uncletopia.com","port":27045,"enabled":true,"region":"eu","cc":"gb","latitude":51.509865,"longitude":-0.118092,"reserved":0,"last_update":"0001-01-01T00:00:00Z","name_a2s":"Uncletopia | London | 4 | All Maps","protocol":17,"map":"koth_highpass","folder":"tf","game":"Team Fortress","app_id":440,"player_count":0,"max_players":24,"Bots":0,"server_type":"Dedicated","server_os":"Linux","password":true,"vac":true,"version":"7742253","steam_id":85568392924510193,"keywords":["cp","nocrits","nodmgspread","uncletopia"],"game_id":440,"stv_port":27046,"stv_name":"Uncletopia | London | 4 | All Maps | STV","players":null},{"server_id":21,"name":"Uncletopia | London | 5 | All Maps","name_short":"lon-5","host":"lon-1.uk.uncletopia.com","port":27055,"enabled":true,"region":"eu","cc":"gb","latitude":51.509865,"longitude":-0.118092,"reserved":0,"last_update":"0001-01-01T00:00:00Z","name_a2s":"Uncletopia | London | 5 | All Maps","protocol":17,"map":"pl_frontier_final","folder":"tf","game":"Team Fortress","app_id":440,"player_count":0,"max_players":24,"Bots":0,"server_type":"Dedicated","server_os":"Linux","password":true,"vac":true,"version":"7742253","steam_id":85568392924742829,"keywords":["nocrits","nodmgspread","payload","uncletopia"],"game_id":440,"stv_port":27056,"stv_name":"Uncletopia | London | 5 | All Maps | STV","players":null},{"server_id":22,"name":"Uncletopia | London | 6 | All Maps","name_short":"lon-6","host":"lon-1.uk.uncletopia.com","port":27065,"enabled":true,"region":"eu","cc":"gb","latitude":51.509865,"longitude":-0.118092,"reserved":0,"last_update":"0001-01-01T00:00:00Z","name_a2s":"Uncletopia | London | 6 | All Maps","protocol":17,"map":"pl_borneo","folder":"tf","game":"Team Fortress","app_id":440,"player_count":0,"max_players":24,"Bots":0,"server_type":"Dedicated","server_os":"Linux","password":true,"vac":true,"version":"7742253","steam_id":85568392924742830,"keywords":["nocrits","nodmgspread","payload","uncletopia"],"game_id":440,"stv_port":27066,"stv_name":"Uncletopia | London | 6 | All Maps | STV","players":null},{"server_id":40,"name":"Uncletopia | London | 7 | No Payload","name_short":"lon-7","host":"lon-1.uk.uncletopia.com","port":27075,"enabled":true,"region":"eu","cc":"gb","latitude":51.509865,"longitude":-0.118092,"reserved":0,"last_update":"0001-01-01T00:00:00Z","name_a2s":"Uncletopia | London | 7 | No Payload","protocol":17,"map":"koth_viaduct","folder":"tf","game":"Team Fortress","app_id":440,"player_count":0,"max_players":24,"Bots":0,"server_type":"Dedicated","server_os":"Linux","password":true,"vac":true,"version":"7742253","steam_id":85568392924964314,"keywords":["cp","nocrits","nodmgspread","uncletopia"],"game_id":440,"stv_port":27076,"stv_name":"Uncletopia | London | 7 | No Payload | STV","players":null},{"server_id":41,"name":"Uncletopia | London | 8 | Community","name_short":"lon-8","host":"lon-1.uk.uncletopia.com","port":27085,"enabled":true,"region":"eu","cc":"gb","latitude":51.509865,"longitude":-0.118092,"reserved":0,"last_update":"0001-01-01T00:00:00Z","name_a2s":"Uncletopia | London | 8 | Community","protocol":17,"map":"cp_altitude","folder":"tf","game":"Team Fortress","app_id":440,"player_count":0,"max_players":24,"Bots":0,"server_type":"Dedicated","server_os":"Linux","password":true,"vac":true,"version":"7742253","steam_id":85568392924964315,"keywords":["cp","nocrits","nodmgspread","uncletopia"],"game_id":440,"stv_port":27086,"stv_name":"Uncletopia | London | 8 | Community | STV","players":null},{"server_id":300,"name":"Uncletopia | Montréal | 1 | All Maps","name_short":"mtl-1","host":"mtl-1.ca.uncletopia.com","port":27015,"enabled":true,"region":"us-east","cc":"ca","latitude":45.50889,"longitude":-73.56167,"reserved":0,"last_update":"0001-01-01T00:00:00Z","name_a2s":"Uncletopia | Montréal | 1 | All Maps","protocol":17,"map":"koth_cascade","folder":"tf","game":"Team Fortress","app_id":440,"player_count":0,"max_players":24,"Bots":0,"server_type":"Dedicated","server_os":"Linux","password":true,"vac":true,"version":"7742253","steam_id":85568392924500087,"keywords":["cp","nocrits","nodmgspread","uncletopia"],"game_id":440,"stv_port":27016,"stv_name":"Uncletopia | Montréal | 1 | All Maps | STV","players":null},{"server_id":301,"name":"Uncletopia | Montréal | 2 | All Maps","name_short":"mtl-2","host":"mtl-1.ca.uncletopia.com","port":27025,"enabled":true,"region":"us-east","cc":"ca","latitude":45.50889,"longitude":-73.56167,"reserved":0,"last_update":"0001-01-01T00:00:00Z","name_a2s":"Uncletopia | Montréal | 2 | All Maps","protocol":17,"map":"koth_lakeside_final","folder":"tf","game":"Team Fortress","app_id":440,"player_count":0,"max_players":24,"Bots":0,"server_type":"Dedicated","server_os":"Linux","password":true,"vac":true,"version":"7742253","steam_id":85568392924500088,"keywords":["cp","nocrits","nodmgspread","uncletopia"],"game_id":440,"stv_port":27026,"stv_name":"Uncletopia | Montréal | 2 | All Maps | STV","players":null},{"server_id":302,"name":"Uncletopia | Montréal | 3 | All Maps","name_short":"mtl-3","host":"mtl-1.ca.uncletopia.com","port":27035,"enabled":true,"region":"us-east","cc":"ca","latitude":45.50889,"longitude":-73.56167,"reserved":0,"last_update":"0001-01-01T00:00:00Z","name_a2s":"Uncletopia | Montréal | 3 | All Maps","protocol":17,"map":"pl_frontier_final","folder":"tf","game":"Team Fortress","app_id":440,"player_count":0,"max_players":24,"Bots":0,"server_type":"Dedicated","server_os":"Linux","password":true,"vac":true,"version":"7742253","steam_id":85568392924500089,"keywords":["nocrits","nodmgspread","payload","uncletopia"],"game_id":440,"stv_port":27036,"stv_name":"Uncletopia | Montréal | 3 | All Maps | STV","players":null},{"server_id":303,"name":"Uncletopia | Montréal | 4 | No Payload","name_short":"mtl-4","host":"mtl-1.ca.uncletopia.com","port":27045,"enabled":true,"region":"us-east","cc":"ca","latitude":45.50889,"longitude":-73.56167,"reserved":0,"last_update":"0001-01-01T00:00:00Z","name_a2s":"Uncletopia | Montréal | 4 | No Payload","protocol":17,"map":"cp_mountainlab","folder":"tf","game":"Team Fortress","app_id":440,"player_count":0,"max_players":24,"Bots":0,"server_type":"Dedicated","server_os":"Linux","password":true,"vac":true,"version":"7742253","steam_id":85568392924500090,"keywords":["cp","nocrits","nodmgspread","uncletopia"],"game_id":440,"stv_port":27046,"stv_name":"Uncletopia | Montréal | 4 | No Payload | STV","players":null},{"server_id":13,"name":"Uncletopia | New York City | 1 | All Maps","name_short":"nyc-1","host":"nyc-1.us.uncletopia.com","port":27015,"enabled":true,"region":"us-east","cc":"us","latitude":40.73061,"longitude":-73.93524,"reserved":0,"last_update":"0001-01-01T00:00:00Z","name_a2s":"Uncletopia | New York City | 1 | All Maps","protocol":17,"map":"koth_cascade","folder":"tf","game":"Team Fortress","app_id":440,"player_count":0,"max_players":24,"Bots":0,"server_type":"Dedicated","server_os":"Linux","password":true,"vac":true,"version":"7742253","steam_id":85568392924469993,"keywords":["cp","nocrits","nodmgspread","uncletopia"],"game_id":440,"stv_port":27016,"stv_name":"Uncletopia | New York City | 1 | All Maps | STV","players":null},{"server_id":14,"name":"Uncletopia | New York City | 2 | All Maps","name_short":"nyc-2","host":"nyc-1.us.uncletopia.com","port":27025,"enabled":true,"region":"us-east","cc":"us","latitude":40.73061,"longitude":-73.93524,"reserved":0,"last_update":"0001-01-01T00:00:00Z","name_a2s":"Uncletopia | New York City | 2 | All Maps","protocol":17,"map":"cp_sunshine","folder":"tf","game":"Team Fortress","app_id":440,"player_count":0,"max_players":24,"Bots":0,"server_type":"Dedicated","server_os":"Linux","password":true,"vac":true,"version":"7742253","steam_id":85568392924469994,"keywords":["cp","nocrits","nodmgspread","uncletopia"],"game_id":440,"stv_port":27026,"stv_name":"Uncletopia | New York City | 2 | All Maps | STV","players":null},{"server_id":15,"name":"Uncletopia | New York City | 3 | Stopwatch Beta","name_short":"nyc-3","host":"nyc-1.us.uncletopia.com","port":27035,"enabled":true,"region":"us-east","cc":"us","latitude":40.73061,"longitude":-73.93524,"reserved":0,"last_update":"0001-01-01T00:00:00Z","name_a2s":"Uncletopia | New York City | 3 | Stopwatch Beta","protocol":17,"map":"pl_pier","folder":"tf","game":"Team Fortress","app_id":440,"player_count":0,"max_players":24,"Bots":0,"server_type":"Dedicated","server_os":"Linux","password":true,"vac":true,"version":"7742253","steam_id":85568392924742820,"keywords":["nocrits","nodmgspread","payload","uncletopia"],"game_id":440,"stv_port":27036,"stv_name":"Uncletopia | New York City | 3 | Stopwatch Beta | STV","players":null},{"server_id":16,"name":"Uncletopia | New York City | 4 | Community","name_short":"nyc-4","host":"nyc-1.us.uncletopia.com","port":27045,"enabled":true,"region":"us-east","cc":"us","latitude":40.73061,"longitude":-73.93524,"reserved":0,"last_update":"0001-01-01T00:00:00Z","name_a2s":"Uncletopia | New York City | 4 | Community","protocol":17,"map":"workshop/pl_vigil_rc9.ugc1266210012","folder":"tf","game":"Team Fortress","app_id":440,"player_count":0,"max_players":24,"Bots":0,"server_type":"Dedicated","server_os":"Linux","password":true,"vac":true,"version":"7742253","steam_id":85568392924742821,"keywords":["nocrits","nodmgspread","payload","uncletopia"],"game_id":440,"stv_port":27046,"stv_name":"Uncletopia | New York City | 4 | Community | STV","players":null},{"server_id":142,"name":"Uncletopia | São Paulo | 1 | All Maps","name_short":"sao-1","host":"sao-1.br.uncletopia.com","port":27015,"enabled":true,"region":"sa","cc":"br","latitude":-23.533773,"longitude":-46.62529,"reserved":0,"last_update":"0001-01-01T00:00:00Z","name_a2s":"Uncletopia | São Paulo | 1 | All Maps","protocol":17,"map":"koth_lakeside_final","folder":"tf","game":"Team Fortress","app_id":440,"player_count":0,"max_players":24,"Bots":0,"server_type":"Dedicated","server_os":"Linux","password":true,"vac":true,"version":"7742253","steam_id":85568392924469996,"keywords":["cp","nocrits","nodmgspread","uncletopia"],"game_id":440,"stv_port":27016,"stv_name":"Uncletopia | São Paulo | 1 | All Maps | STV","players":null},{"server_id":143,"name":"Uncletopia | São Paulo | 2 | All Maps","name_short":"sao-2","host":"sao-2.br.uncletopia.com","port":27015,"enabled":true,"region":"sa","cc":"br","latitude":-23.533773,"longitude":-46.62529,"reserved":0,"last_update":"0001-01-01T00:00:00Z","name_a2s":"Uncletopia | São Paulo | 2 | All Maps","protocol":17,"map":"koth_cascade","folder":"tf","game":"Team Fortress","app_id":440,"player_count":0,"max_players":24,"Bots":0,"server_type":"Dedicated","server_os":"Linux","password":true,"vac":true,"version":"7742253","steam_id":85568392924485349,"keywords":["cp","nocrits","nodmgspread","uncletopia"],"game_id":440,"stv_port":27016,"stv_name":"Uncletopia | São Paulo | 2 | All Maps | STV","players":null},{"server_id":7,"name":"Uncletopia | Seattle | 1 | All Maps","name_short":"sea-1","host":"sea-1.us.uncletopia.com","port":27015,"enabled":true,"region":"us-west","cc":"us","latitude":47.608013,"longitude":-122.33517,"reserved":0,"last_update":"0001-01-01T00:00:00Z","name_a2s":"Uncletopia | Seattle | 1 | All Maps","protocol":17,"map":"koth_harvest_final","folder":"tf","game":"Team Fortress","app_id":440,"player_count":21,"max_players":24,"Bots":0,"server_type":"Dedicated","server_os":"Linux","password":true,"vac":true,"version":"7742253","steam_id":85568392924469997,"keywords":["cp","nocrits","nodmgspread","uncletopia"],"game_id":440,"stv_port":27016,"stv_name":"Uncletopia | Seattle | 1 | All Maps | STV","players":[{"user_id":622,"name":"yopyop","steam_id":76561198034305343,"connected_time":902000000000,"state":"active","ping":60},{"user_id":624,"name":"ROGUE-PLANET","steam_id":76561198116023052,"connected_time":897000000000,"state":"active","ping":69},{"user_id":620,"name":"TV","steam_id":76561198177326926,"connected_time":1202000000000,"state":"active","ping":133},{"user_id":627,"name":"roryisonamobilehotspot","steam_id":76561198065825165,"connected_time":86000000000,"state":"active","ping":104},{"user_id":628,"name":"moronkey","steam_id":76561199009904316,"connected_time":64000000000,"state":"active","ping":91},{"user_id":606,"name":"Google","steam_id":76561198857237473,"connected_time":2543000000000,"state":"active","ping":50},{"user_id":615,"name":"viciousbellringer","steam_id":76561198086876652,"connected_time":1710000000000,"state":"active","ping":78},{"user_id":609,"name":"rock gaming","steam_id":76561199402868311,"connected_time":2390000000000,"state":"active","ping":76},{"user_id":612,"name":"saltymelons","steam_id":76561198169755734,"connected_time":1805000000000,"state":"active","ping":64},{"user_id":611,"name":"Len","steam_id":76561199141913673,"connected_time":2312000000000,"state":"active","ping":68},{"user_id":594,"name":"smeasly","steam_id":76561198028718812,"connected_time":3265000000000,"state":"active","ping":39},{"user_id":541,"name":"social distance warrior","steam_id":76561198128992994,"connected_time":6805000000000,"state":"active","ping":44},{"user_id":545,"name":"gerg","steam_id":76561197997127387,"connected_time":6747000000000,"state":"active","ping":61},{"user_id":589,"name":"[TrC] Nosy","steam_id":76561197978859310,"connected_time":3593000000000,"state":"active","ping":59},{"user_id":621,"name":"jmaxie13","steam_id":76561199094836957,"connected_time":1137000000000,"state":"active","ping":52},{"user_id":588,"name":"[TrC] Dackstrus","steam_id":76561197973518509,"connected_time":3622000000000,"state":"active","ping":53},{"user_id":591,"name":"p9HIGHjorts","steam_id":76561199041179985,"connected_time":3514000000000,"state":"active","ping":46},{"user_id":544,"name":"Chiaki Nanami","steam_id":76561198164782653,"connected_time":6757000000000,"state":"active","ping":120},{"user_id":465,"name":"Savant","steam_id":76561197969881916,"connected_time":9905000000000,"state":"active","ping":41},{"user_id":630,"name":"tophawkyy","steam_id":76561199075934685,"connected_time":62000000000,"state":"active","ping":74},{"user_id":565,"name":"John Calibur","steam_id":76561197999986606,"connected_time":5556000000000,"state":"active","ping":70}]},{"server_id":119,"name":"Uncletopia | Seattle | 2 | All Maps","name_short":"sea-2","host":"sea-1.us.uncletopia.com","port":27025,"enabled":true,"region":"us-west","cc":"us","latitude":47.608013,"longitude":-122.33517,"reserved":0,"last_update":"0001-01-01T00:00:00Z","name_a2s":"Uncletopia | Seattle | 2 | All Maps","protocol":17,"map":"cp_altitude","folder":"tf","game":"Team Fortress","app_id":440,"player_count":24,"max_players":24,"Bots":0,"server_type":"Dedicated","server_os":"Linux","password":true,"vac":true,"version":"7742253","steam_id":85568392924469998,"keywords":["cp","nocrits","nodmgspread","uncletopia"],"game_id":440,"stv_port":27026,"stv_name":"Uncletopia | Seattle | 2 | All Maps | STV","players":[{"user_id":573,"name":"Best Bleach","steam_id":76561198090216348,"connected_time":748000000000,"state":"active","ping":65},{"user_id":582,"name":"king ink's stink boot","steam_id":76561198325306660,"connected_time":203000000000,"state":"active","ping":46},{"user_id":459,"name":"mooney","steam_id":76561199110622484,"connected_time":10938000000000,"state":"active","ping":58},{"user_id":500,"name":"rat gets the cheese","steam_id":76561198031234032,"connected_time":8439000000000,"state":"active","ping":98},{"user_id":584,"name":"Elias","steam_id":76561198106431732,"connected_time":36000000000,"state":"active","ping":103},{"user_id":560,"name":"Watatsuki no Yorihime","steam_id":76561198063315650,"connected_time":1843000000000,"state":"active","ping":113},{"user_id":561,"name":"sara","steam_id":76561198283462369,"connected_time":1819000000000,"state":"active","ping":89},{"user_id":563,"name":"Mr.Rumdum","steam_id":76561198030084677,"connected_time":1605000000000,"state":"active","ping":63},{"user_id":427,"name":"THE NUT","steam_id":76561198067813626,"connected_time":13076000000000,"state":"active","ping":49},{"user_id":566,"name":":3 | ph0va_ \u003c3 sab","steam_id":76561198309010627,"connected_time":1571000000000,"state":"active","ping":85},{"user_id":575,"name":"finman","steam_id":76561198127639913,"connected_time":683000000000,"state":"active","ping":75},{"user_id":569,"name":"ami","steam_id":76561198072781633,"connected_time":1382000000000,"state":"active","ping":75},{"user_id":568,"name":"LeafyGreens","steam_id":76561198253185600,"connected_time":1492000000000,"state":"active","ping":60},{"user_id":543,"name":"lamadre07","steam_id":76561198067337453,"connected_time":3486000000000,"state":"active","ping":116},{"user_id":576,"name":"TurboRaspberry","steam_id":76561199215360629,"connected_time":676000000000,"state":"active","ping":47},{"user_id":542,"name":"The Population of Sweden","steam_id":76561198202201644,"connected_time":3499000000000,"state":"active","ping":49},{"user_id":553,"name":"fruit brute fiend","steam_id":76561198811500361,"connected_time":2419000000000,"state":"active","ping":53},{"user_id":557,"name":"Hameas","steam_id":76561198195620918,"connected_time":2011000000000,"state":"active","ping":79},{"user_id":585,"name":"Wafflemuscle","steam_id":76561198868628982,"connected_time":31000000000,"state":"active","ping":43},{"user_id":503,"name":"i am splatoon (ALL)","steam_id":76561198035698704,"connected_time":7598000000000,"state":"active","ping":73},{"user_id":577,"name":"Finkly","steam_id":76561198049828110,"connected_time":671000000000,"state":"active","ping":46},{"user_id":583,"name":"Leviathan","steam_id":76561197997528907,"connected_time":152000000000,"state":"active","ping":120},{"user_id":567,"name":"Mikidy","steam_id":76561197972958970,"connected_time":1562000000000,"state":"active","ping":75},{"user_id":544,"name":"Patio","steam_id":76561197986082608,"connected_time":3448000000000,"state":"active","ping":51}]},{"server_id":406,"name":"Uncletopia | Seattle | 3 | Stopwatch Beta","name_short":"sea-3","host":"sea-1.us.uncletopia.com","port":27035,"enabled":true,"region":"us-west","cc":"us","latitude":47.608013,"longitude":-122.33517,"reserved":0,"last_update":"0001-01-01T00:00:00Z","name_a2s":"Uncletopia | Seattle | 3 | Stopwatch Beta","protocol":17,"map":"workshop/pl_summercoast_rc8e.ugc1761528829","folder":"tf","game":"Team Fortress","app_id":440,"player_count":0,"max_players":24,"Bots":0,"server_type":"Dedicated","server_os":"Linux","password":true,"vac":true,"version":"7742253","steam_id":85568392924515217,"keywords":["nocrits","nodmgspread","payload","uncletopia"],"game_id":440,"stv_port":27036,"stv_name":"Uncletopia | Seattle | 3 | Stopwatch Beta | STV","players":null},{"server_id":17,"name":"Uncletopia | San Francisco | 1 | All Maps","name_short":"sfo-1","host":"sfo-1.us.uncletopia.com","port":27015,"enabled":true,"region":"us-west","cc":"us","latitude":37.77397,"longitude":-122.4313,"reserved":0,"last_update":"0001-01-01T00:00:00Z","name_a2s":"Uncletopia | San Francisco | 1 | All Maps","protocol":17,"map":"pl_badwater","folder":"tf","game":"Team Fortress","app_id":440,"player_count":25,"max_players":24,"Bots":0,"server_type":"Dedicated","server_os":"Linux","password":true,"vac":true,"version":"7742253","steam_id":85568392924469999,"keywords":["nocrits","nodmgspread","payload","uncletopia"],"game_id":440,"stv_port":27016,"stv_name":"Uncletopia | San Francisco | 1 | All Maps | STV","players":[{"user_id":558,"name":"the \"prawn\" bay","steam_id":76561198075544930,"connected_time":74000000000,"state":"active","ping":63},{"user_id":555,"name":"The Horselords and Animal Gods","steam_id":76561197975094050,"connected_time":189000000000,"state":"active","ping":55},{"user_id":536,"name":"Anthid","steam_id":76561198074493797,"connected_time":911000000000,"state":"active","ping":61},{"user_id":547,"name":"Taste Of Pancakes","steam_id":76561198158784641,"connected_time":455000000000,"state":"active","ping":60},{"user_id":537,"name":"Testosterone Dan","steam_id":76561197995058890,"connected_time":904000000000,"state":"active","ping":91},{"user_id":458,"name":"Frongus","steam_id":76561197979056451,"connected_time":7505000000000,"state":"active","ping":70},{"user_id":502,"name":"Maid 'n' China","steam_id":76561198423392976,"connected_time":4370000000000,"state":"active","ping":44},{"user_id":561,"name":"Omoro","steam_id":76561199127971250,"connected_time":32000000000,"state":"active","ping":115},{"user_id":534,"name":"888✟ (。\u003e︿\u003c)_θハック99","steam_id":76561199089196165,"connected_time":962000000000,"state":"active","ping":119},{"user_id":516,"name":"self sufficient kitten","steam_id":76561197960592612,"connected_time":3401000000000,"state":"active","ping":62},{"user_id":539,"name":"yiwes","steam_id":76561198254867052,"connected_time":809000000000,"state":"active","ping":175},{"user_id":552,"name":"Frank","steam_id":76561198126681511,"connected_time":369000000000,"state":"active","ping":60},{"user_id":528,"name":"Ediot","steam_id":76561199349494096,"connected_time":2027000000000,"state":"active","ping":131},{"user_id":531,"name":"Testicular Torsion","steam_id":76561197968179862,"connected_time":1521000000000,"state":"active","ping":59},{"user_id":540,"name":"mechanicvirus","steam_id":76561198038161480,"connected_time":776000000000,"state":"active","ping":55},{"user_id":545,"name":"zack1stplayer","steam_id":76561198120369004,"connected_time":526000000000,"state":"active","ping":46},{"user_id":556,"name":"Maj","steam_id":76561198128811267,"connected_time":183000000000,"state":"active","ping":81},{"user_id":525,"name":"butt3r_","steam_id":76561198156374792,"connected_time":2480000000000,"state":"active","ping":63},{"user_id":543,"name":"im using tilt controls!","steam_id":76561198295690725,"connected_time":592000000000,"state":"active","ping":100},{"user_id":560,"name":"Florist","steam_id":76561198009121060,"connected_time":51000000000,"state":"active","ping":60},{"user_id":529,"name":"ChuChu","steam_id":76561199443647976,"connected_time":2023000000000,"state":"active","ping":111},{"user_id":562,"name":"Star_Mann_Jr.","steam_id":76561198071148924,"connected_time":31000000000,"state":"active","ping":69},{"user_id":499,"name":"Protoshake","steam_id":76561198840276176,"connected_time":4808000000000,"state":"active","ping":76},{"user_id":563,"name":"tren","steam_id":76561198107493673,"connected_time":28000000000,"state":"active","ping":63},{"user_id":564,"name":"Honda CR-V","steam_id":76561197981239654,"connected_time":5000000000,"state":"spawning","ping":90}]},{"server_id":18,"name":"Uncletopia | San Francisco | 2 | All Maps","name_short":"sfo-2","host":"sfo-1.us.uncletopia.com","port":27025,"enabled":true,"region":"us-west","cc":"us","latitude":37.77397,"longitude":-122.4313,"reserved":0,"last_update":"0001-01-01T00:00:00Z","name_a2s":"Uncletopia | San Francisco | 2 | All Maps","protocol":17,"map":"pl_snowycoast","folder":"tf","game":"Team Fortress","app_id":440,"player_count":23,"max_players":24,"Bots":0,"server_type":"Dedicated","server_os":"Linux","password":true,"vac":true,"version":"7742253","steam_id":85568392924470000,"keywords":["nocrits","nodmgspread","payload","uncletopia"],"game_id":440,"stv_port":27026,"stv_name":"Uncletopia | San Francisco | 2 | All Maps | STV","players":[{"user_id":413,"name":"Killerofzombie23","steam_id":76561198799173778,"connected_time":1139000000000,"state":"active","ping":73},{"user_id":434,"name":"Scoron","steam_id":76561198062099305,"connected_time":97000000000,"state":"active","ping":56},{"user_id":414,"name":"🐺-Iwky-🦊","steam_id":76561198185616311,"connected_time":1104000000000,"state":"active","ping":83},{"user_id":416,"name":"KingOfLewd","steam_id":76561198180034311,"connected_time":1079000000000,"state":"active","ping":59},{"user_id":417,"name":"little hog","steam_id":76561199230929836,"connected_time":1054000000000,"state":"active","ping":94},{"user_id":418,"name":"Clubs","steam_id":76561198271133942,"connected_time":1049000000000,"state":"active","ping":96},{"user_id":419,"name":"_Goats4Prez_","steam_id":76561198434194341,"connected_time":1041000000000,"state":"active","ping":128},{"user_id":342,"name":"Van","steam_id":76561198073518712,"connected_time":5410000000000,"state":"active","ping":89},{"user_id":427,"name":"existential dread","steam_id":76561198041907345,"connected_time":458000000000,"state":"active","ping":61},{"user_id":422,"name":"witch_doctor","steam_id":76561198103515747,"connected_time":978000000000,"state":"active","ping":45},{"user_id":408,"name":"donutbodega17","steam_id":76561199211254746,"connected_time":1636000000000,"state":"active","ping":98},{"user_id":395,"name":"Neuvo","steam_id":76561198015030141,"connected_time":2451000000000,"state":"active","ping":105},{"user_id":409,"name":"The Caretaker","steam_id":76561198125241411,"connected_time":1349000000000,"state":"active","ping":79},{"user_id":425,"name":"gyroFSnoob","steam_id":76561198158404683,"connected_time":564000000000,"state":"active","ping":83},{"user_id":426,"name":"E-Spliff","steam_id":76561199093733603,"connected_time":500000000000,"state":"active","ping":60},{"user_id":432,"name":"The Funny Cat-Heaby","steam_id":76561198439978112,"connected_time":169000000000,"state":"active","ping":237},{"user_id":423,"name":"SuaveFrenchman","steam_id":76561198043762683,"connected_time":963000000000,"state":"active","ping":48},{"user_id":403,"name":"jon pickle water","steam_id":76561199036212135,"connected_time":2087000000000,"state":"active","ping":76},{"user_id":411,"name":"doobiebob","steam_id":76561198071963742,"connected_time":1246000000000,"state":"active","ping":54},{"user_id":433,"name":"kezia","steam_id":76561198059815894,"connected_time":120000000000,"state":"active","ping":104},{"user_id":374,"name":"wordyhook830","steam_id":76561198086538218,"connected_time":3800000000000,"state":"active","ping":84},{"user_id":375,"name":"WolfManx500","steam_id":76561198411929693,"connected_time":3791000000000,"state":"active","ping":93},{"user_id":424,"name":"HEFTY HOG","steam_id":76561198079923652,"connected_time":952000000000,"state":"active","ping":102}]},{"server_id":19,"name":"Uncletopia | San Francisco | 3 | Stopwatch Beta","name_short":"sfo-3","host":"sfo-1.us.uncletopia.com","port":27035,"enabled":true,"region":"us-west","cc":"us","latitude":37.77397,"longitude":-122.4313,"reserved":0,"last_update":"0001-01-01T00:00:00Z","name_a2s":"Uncletopia | San Francisco | 3 | Stopwatch Beta","protocol":17,"map":"koth_lakeside_final","folder":"tf","game":"Team Fortress","app_id":440,"player_count":0,"max_players":24,"Bots":0,"server_type":"Dedicated","server_os":"Linux","password":true,"vac":true,"version":"7742253","steam_id":85568392924742824,"keywords":["cp","nocrits","nodmgspread","uncletopia"],"game_id":440,"stv_port":27036,"stv_name":"Uncletopia | San Francisco | 3 | Stopwatch Beta | STV","players":null},{"server_id":20,"name":"Uncletopia | San Francisco | 4 | Community","name_short":"sfo-4","host":"sfo-1.us.uncletopia.com","port":27045,"enabled":true,"region":"us-west","cc":"us","latitude":37.77397,"longitude":-122.4313,"reserved":0,"last_update":"0001-01-01T00:00:00Z","name_a2s":"Uncletopia | San Francisco | 4 | Community","protocol":17,"map":"workshop/koth_bagel_rc5.ugc2514036946","folder":"tf","game":"Team Fortress","app_id":440,"player_count":0,"max_players":24,"Bots":0,"server_type":"Dedicated","server_os":"Linux","password":true,"vac":true,"version":"7742253","steam_id":85568392924742826,"keywords":["cp","nocrits","nodmgspread","uncletopia"],"game_id":440,"stv_port":27046,"stv_name":"Uncletopia | San Francisco | 4 | Community | STV","players":null},{"server_id":141,"name":"Uncletopia | Sydney | 1 | All Maps","name_short":"syd-1","host":"syd-1.au.uncletopia.com","port":27015,"enabled":true,"region":"au","cc":"au","latitude":-33.865143,"longitude":151.2099,"reserved":0,"last_update":"0001-01-01T00:00:00Z","name_a2s":"Uncletopia | Sydney | 1 | All Maps","protocol":17,"map":"pl_borneo","folder":"tf","game":"Team Fortress","app_id":440,"player_count":24,"max_players":24,"Bots":0,"server_type":"Dedicated","server_os":"Linux","password":true,"vac":true,"version":"7742253","steam_id":85568392924470001,"keywords":["nocrits","nodmgspread","payload","uncletopia"],"game_id":440,"stv_port":27016,"stv_name":"Uncletopia | Sydney | 1 | All Maps | STV","players":[{"user_id":64,"name":"Jambi","steam_id":76561198310550094,"connected_time":1254000000000,"state":"active","ping":57},{"user_id":73,"name":"tool","steam_id":76561198061254604,"connected_time":1001000000000,"state":"active","ping":59},{"user_id":76,"name":"abcdef","steam_id":76561198083700749,"connected_time":886000000000,"state":"active","ping":41},{"user_id":63,"name":"SaltierThanYou","steam_id":76561198444395188,"connected_time":1302000000000,"state":"active","ping":75},{"user_id":74,"name":"firefoot","steam_id":76561197971744774,"connected_time":984000000000,"state":"active","ping":41},{"user_id":46,"name":"KillerBlow","steam_id":76561198930232832,"connected_time":2431000000000,"state":"active","ping":131},{"user_id":24,"name":"monocrumb","steam_id":76561199126588682,"connected_time":3232000000000,"state":"active","ping":65},{"user_id":65,"name":"Atlas","steam_id":76561198069332870,"connected_time":1254000000000,"state":"active","ping":56},{"user_id":38,"name":"zen","steam_id":76561198302670452,"connected_time":2751000000000,"state":"active","ping":67},{"user_id":62,"name":"ben","steam_id":76561198223331996,"connected_time":1432000000000,"state":"active","ping":70},{"user_id":77,"name":"Solidmozza","steam_id":76561197976650325,"connected_time":754000000000,"state":"active","ping":48},{"user_id":36,"name":"ree boy","steam_id":76561199024189820,"connected_time":2788000000000,"state":"active","ping":76},{"user_id":31,"name":"The_Green_Jelly","steam_id":76561198381061704,"connected_time":2967000000000,"state":"active","ping":79},{"user_id":68,"name":"eekynetwo(F2P Piss Sniper)","steam_id":76561198990017441,"connected_time":1189000000000,"state":"active","ping":133},{"user_id":55,"name":"Tnttoad","steam_id":76561198297360775,"connected_time":1895000000000,"state":"active","ping":45},{"user_id":78,"name":"Easel (any/all)","steam_id":76561198049213583,"connected_time":649000000000,"state":"active","ping":61},{"user_id":42,"name":"nojnosbod11","steam_id":76561199176012151,"connected_time":2495000000000,"state":"active","ping":59},{"user_id":44,"name":"ultra rare cabbage eating cat","steam_id":76561198376383989,"connected_time":2463000000000,"state":"active","ping":52},{"user_id":45,"name":"knucklehead","steam_id":76561198359906605,"connected_time":2461000000000,"state":"active","ping":64},{"user_id":58,"name":"old chunk of coal","steam_id":76561197990537324,"connected_time":1654000000000,"state":"active","ping":106},{"user_id":48,"name":"ziah","steam_id":76561198159375596,"connected_time":2379000000000,"state":"active","ping":54},{"user_id":70,"name":"tweedie","steam_id":76561198063425523,"connected_time":1165000000000,"state":"active","ping":59},{"user_id":79,"name":"Locker633","steam_id":76561198132624042,"connected_time":537000000000,"state":"active","ping":90},{"user_id":57,"name":"speed bomb","steam_id":76561198277363788,"connected_time":1667000000000,"state":"active","ping":73}]},{"server_id":123,"name":"Uncletopia | Sydney | 2 | All Maps","name_short":"syd-2","host":"syd-1.au.uncletopia.com","port":27025,"enabled":true,"region":"au","cc":"au","latitude":-33.865143,"longitude":151.2099,"reserved":0,"last_update":"0001-01-01T00:00:00Z","name_a2s":"Uncletopia | Sydney | 2 | All Maps","protocol":17,"map":"koth_cascade","folder":"tf","game":"Team Fortress","app_id":440,"player_count":0,"max_players":24,"Bots":0,"server_type":"Dedicated","server_os":"Linux","password":true,"vac":true,"version":"7742253","steam_id":85568392924470002,"keywords":["cp","nocrits","nodmgspread","uncletopia"],"game_id":440,"stv_port":27026,"stv_name":"Uncletopia | Sydney | 2 | All Maps | STV","players":null},{"server_id":395,"name":"Uncletopia | Sydney | 3 | All Maps","name_short":"syd-3","host":"syd-1.au.uncletopia.com","port":27035,"enabled":true,"region":"au","cc":"au","latitude":-33.865143,"longitude":151.2099,"reserved":0,"last_update":"0001-01-01T00:00:00Z","name_a2s":"Uncletopia | Sydney | 3 | All Maps","protocol":17,"map":"cp_mountainlab","folder":"tf","game":"Team Fortress","app_id":440,"player_count":0,"max_players":24,"Bots":0,"server_type":"Dedicated","server_os":"Linux","password":true,"vac":true,"version":"7742253","steam_id":85568392925194467,"keywords":["cp","nocrits","nodmgspread","uncletopia"],"game_id":440,"stv_port":27036,"stv_name":"Uncletopia | Sydney | 3 | All Maps | STV","players":null},{"server_id":396,"name":"Uncletopia | Sydney | 4 | All Maps","name_short":"syd-4","host":"syd-1.au.uncletopia.com","port":27045,"enabled":true,"region":"au","cc":"au","latitude":-33.865143,"longitude":151.2099,"reserved":0,"last_update":"0001-01-01T00:00:00Z","name_a2s":"Uncletopia | Sydney | 4 | All Maps","protocol":17,"map":"cp_altitude","folder":"tf","game":"Team Fortress","app_id":440,"player_count":0,"max_players":24,"Bots":0,"server_type":"Dedicated","server_os":"Linux","password":true,"vac":true,"version":"7742253","steam_id":85568392925397958,"keywords":["cp","nocrits","nodmgspread","uncletopia"],"game_id":440,"stv_port":27046,"stv_name":"Uncletopia | Sydney | 4 | All Maps | STV","players":null},{"server_id":58,"name":"Uncletopia | Sydney | 5 | Stopwatch Beta","name_short":"syd-5","host":"syd-1.au.uncletopia.com","port":27055,"enabled":true,"region":"au","cc":"au","latitude":-33.865143,"longitude":151.2099,"reserved":0,"last_update":"0001-01-01T00:00:00Z","name_a2s":"Uncletopia | Sydney | 5 | Stopwatch Beta","protocol":17,"map":"pl_borneo","folder":"tf","game":"Team Fortress","app_id":440,"player_count":0,"max_players":24,"Bots":0,"server_type":"Dedicated","server_os":"Linux","password":true,"vac":true,"version":"7742253","steam_id":85568392925397959,"keywords":["nocrits","nodmgspread","payload","uncletopia"],"game_id":440,"stv_port":27056,"stv_name":"Uncletopia | Sydney | 5 | Stopwatch Beta | STV","players":null},{"server_id":59,"name":"Uncletopia | Sydney | 6 | Community","name_short":"syd-6","host":"syd-1.au.uncletopia.com","port":27065,"enabled":true,"region":"au","cc":"au","latitude":-33.865143,"longitude":151.2099,"reserved":0,"last_update":"0001-01-01T00:00:00Z","name_a2s":"Uncletopia | Sydney | 6 | Community","protocol":17,"map":"workshop/koth_synthetic_rc6a.ugc1549817316","folder":"tf","game":"Team Fortress","app_id":440,"player_count":1,"max_players":24,"Bots":0,"server_type":"Dedicated","server_os":"Linux","password":true,"vac":true,"version":"7742253","steam_id":85568392925397960,"keywords":["cp","nocrits","nodmgspread","uncletopia"],"game_id":440,"stv_port":27066,"stv_name":"Uncletopia | Sydney | 6 | Community | STV","players":[{"user_id":14,"name":"Pickled Cow","steam_id":76561198292517991,"connected_time":29000000000,"state":"active","ping":38}]},{"server_id":49,"name":"Uncletopia | Warsaw | 1 | All Maps","name_short":"waw-1","host":"waw-1.pl.uncletopia.com","port":27015,"enabled":true,"region":"eu","cc":"pl","latitude":52.2297,"longitude":21.017532,"reserved":0,"last_update":"0001-01-01T00:00:00Z","name_a2s":"","protocol":0,"map":"","folder":"","game":"","app_id":0,"player_count":0,"max_players":0,"Bots":0,"server_type":"","server_os":"","password":false,"vac":false,"version":"","steam_id":0,"keywords":null,"game_id":0,"stv_port":0,"stv_name":"","players":null},{"server_id":50,"name":"Uncletopia | Warsaw | 2 | All Maps","name_short":"waw-2","host":"waw-1.pl.uncletopia.com","port":27025,"enabled":true,"region":"eu","cc":"pl","latitude":52.2297,"longitude":21.017532,"reserved":0,"last_update":"0001-01-01T00:00:00Z","name_a2s":"Uncletopia | Warsaw | 2 | All Maps","protocol":17,"map":"pl_upward","folder":"tf","game":"Team Fortress","app_id":440,"player_count":0,"max_players":24,"Bots":0,"server_type":"Dedicated","server_os":"Linux","password":true,"vac":true,"version":"7742253","steam_id":85568392925397851,"keywords":["nocrits","nodmgspread","payload","uncletopia"],"game_id":440,"stv_port":27026,"stv_name":"Uncletopia | Warsaw | 2 | All Maps | STV","players":null},{"server_id":51,"name":"Uncletopia | Warsaw | 3 | All Maps","name_short":"waw-3","host":"waw-1.pl.uncletopia.com","port":27035,"enabled":true,"region":"eu","cc":"pl","latitude":52.2297,"longitude":21.017532,"reserved":0,"last_update":"0001-01-01T00:00:00Z","name_a2s":"Uncletopia | Warsaw | 3 | All Maps","protocol":17,"map":"koth_lakeside_final","folder":"tf","game":"Team Fortress","app_id":440,"player_count":0,"max_players":24,"Bots":0,"server_type":"Dedicated","server_os":"Linux","password":true,"vac":true,"version":"7742253","steam_id":85568392925397852,"keywords":["cp","nocrits","nodmgspread","uncletopia"],"game_id":440,"stv_port":27036,"stv_name":"Uncletopia | Warsaw | 3 | All Maps | STV","players":null},{"server_id":52,"name":"Uncletopia | Warsaw | 4 | All Maps","name_short":"waw-4","host":"waw-1.pl.uncletopia.com","port":27045,"enabled":true,"region":"eu","cc":"pl","latitude":52.2297,"longitude":21.017532,"reserved":0,"last_update":"0001-01-01T00:00:00Z","name_a2s":"Uncletopia | Warsaw | 4 | All Maps","protocol":17,"map":"pl_upward","folder":"tf","game":"Team Fortress","app_id":440,"player_count":0,"max_players":24,"Bots":0,"server_type":"Dedicated","server_os":"Linux","password":true,"vac":true,"version":"7742253","steam_id":85568392925397853,"keywords":["nocrits","nodmgspread","payload","uncletopia"],"game_id":440,"stv_port":27046,"stv_name":"Uncletopia | Warsaw | 4 | All Maps | STV","players":null},{"server_id":53,"name":"Uncletopia | Warsaw | 5 | Stopwatch Beta","name_short":"waw-5","host":"waw-1.pl.uncletopia.com","port":27055,"enabled":true,"region":"eu","cc":"pl","latitude":52.2297,"longitude":21.017532,"reserved":0,"last_update":"0001-01-01T00:00:00Z","name_a2s":"Uncletopia | Warsaw | 5 | Stopwatch Beta","protocol":17,"map":"pl_swiftwater_final1","folder":"tf","game":"Team Fortress","app_id":440,"player_count":0,"max_players":24,"Bots":0,"server_type":"Dedicated","server_os":"Linux","password":true,"vac":true,"version":"7742253","steam_id":85568392925397854,"keywords":["nocrits","nodmgspread","payload","uncletopia"],"game_id":440,"stv_port":27056,"stv_name":"Uncletopia | Warsaw | 5 | Stopwatch Beta | STV","players":null},{"server_id":54,"name":"Uncletopia | Warsaw | 6 | Community","name_short":"waw-6","host":"waw-1.pl.uncletopia.com","port":27065,"enabled":true,"region":"eu","cc":"pl","latitude":52.2297,"longitude":21.017532,"reserved":0,"last_update":"0001-01-01T00:00:00Z","name_a2s":"Uncletopia | Warsaw | 6 | Community","protocol":17,"map":"koth_highpass","folder":"tf","game":"Team Fortress","app_id":440,"player_count":0,"max_players":24,"Bots":0,"server_type":"Dedicated","server_os":"Linux","password":true,"vac":true,"version":"7742253","steam_id":85568392925397856,"keywords":["cp","nocrits","nodmgspread","uncletopia"],"game_id":440,"stv_port":27066,"stv_name":"Uncletopia | Warsaw | 6 | Community | STV","players":null}]}