{"status":true,"message":"","result":[{"server_id":9,"name":"Uncletopia | Atlanta | 1 | All Maps","name_short":"atl-1","host":"atl-1.us.uncletopia.com","port":27015,"enabled":true,"region":"us-east","cc":"us","latitude":33.753746,"longitude":-84.38633,"reserved":0,"last_update":"0001-01-01T00:00:00Z","name_a2s":"Uncletopia | Atlanta | 1 | All Maps","protocol":17,"map":"pl_borneo","folder":"tf","game":"Team Fortress","app_id":440,"player_count":24,"max_players":24,"Bots":0,"server_type":"Dedicated","server_os":"Linux","password":true,"vac":true,"version":"7961495","steam_id":85568392924469982,"keywords":["nocrits","nodmgspread","payload","uncletopia"],"game_id":440,"stv_port":27016,"stv_name":"Uncletopia | Atlanta | 1 | All Maps | STV","players":null},{"server_id":104,"name":"Uncletopia | Atlanta | 2 | All Maps","name_short":"atl-2","host":"atl-1.us.uncletopia.com","port":27025,"enabled":true,"region":"us-east","cc":"us","latitude":33.753746,"longitude":-84.38633,"reserved":0,"last_update":"0001-01-01T00:00:00Z","name_a2s":"Uncletopia | Atlanta | 2 | All Maps","protocol":17,"map":"koth_cascade","folder":"tf","game":"Team Fortress","app_id":440,"player_count":0,"max_players":24,"Bots":0,"server_type":"Dedicated","server_os":"Linux","password":true,"vac":true,"version":"7961495","steam_id":85568392924469983,"keywords":["cp","nocrits","nodmgspread","uncletopia"],"game_id":440,"stv_port":27026,"stv_name":"Uncletopia | Atlanta | 2 | All Maps | STV","players":null},{"server_id":400,"name":"Uncletopia | Atlanta | 3 | Stopwatch","name_short":"atl-3","host":"atl-1.us.uncletopia.com","port":27035,"enabled":true,"region":"us-east","cc":"us","latitude":33.753746,"longitude":-84.38633,"reserved":0,"last_update":"0001-01-01T00:00:00Z","name_a2s":"Uncletopia | Atlanta | 3 | Stopwatch","protocol":17,"map":"koth_clearcut_b15","folder":"tf","game":"Team Fortress","app_id":440,"player_count":0,"max_players":24,"Bots":0,"server_type":"Dedicated","server_os":"Linux","password":true,"vac":true,"version":"7961495","steam_id":85568392924515187,"keywords":["cp","nocrits","nodmgspread","uncletopia"],"game_id":440,"stv_port":27036,"stv_name":"Uncletopia | Atlanta | 3 | Stopwatch | STV","players":null},{"server_id":401,"name":"Uncletopia | Atlanta | 4 | Community","name_short":"atl-4","host":"atl-1.us.uncletopia.com","port":27045,"enabled":true,"region":"us-east","cc":"us","latitude":33.753746,"longitude":-84.38633,"reserved":0,"last_update":"0001-01-01T00:00:00Z","name_a2s":"Uncletopia | Atlanta | 4 | Community","protocol":17,"map":"pl_cactuscanyon_redux_final2","folder":"tf","game":"Team Fortress","app_id":440,"player_count":0,"max_players":24,"Bots":0,"server_type":"Dedicated","server_os":"Linux","password":true,"vac":true,"version":"7961495","steam_id":85568392924515188,"keywords":["nocrits","nodmgspread","payload","uncletopia"],"game_id":440,"stv_port":27046,"stv_name":"Uncletopia | Atlanta | 4 | Community | STV","players":null},{"server_id":2,"name":"Uncletopia | Chicago | 1 | All Maps","name_short":"chi-1","host":"chi-1.us.uncletopia.com","port":27015,"enabled":true,"region":"us-central","cc":"us","latitude":41.881832,"longitude":-87.62318,"reserved":0,"last_update":"0001-01-01T00:00:00Z","name_a2s":"Uncletopia | Chicago | 1 | All Maps","protocol":17,"map":"koth_viaduct","folder":"tf","game":"Team Fortress","app_id":440,"player_count":24,"max_players":24,"Bots":0,"server_type":"Dedicated","server_os":"Linux","password":true,"vac":true,"version":"7961495","steam_id":85568392924469984,"keywords":["cp","nocrits","nodmgspread","uncletopia"],"game_id":440,"stv_port":27016,"stv_name":"Uncletopia | Chicago | 1 | All Maps | STV","players":[{"user_id":186,"name":"Hoovy","steam_id":76561198409907417,"connected_time":1187000000000,"state":"active","ping":112},{"user_id":175,"name":"SearingGustav #tG","steam_id":76561198040560786,"connected_time":2666000000000,"state":"active","ping":146},{"user_id":185,"name":"Window Licker #pride","steam_id":76561198386717007,"connected_time":1222000000000,"state":"active","ping":52},{"user_id":182,"name":"majima construction employee","steam_id":76561198441246401,"connected_time":2066000000000,"state":"active","ping":58},{"user_id":197,"name":"monstertimescary","steam_id":76561198079303767,"connected_time":237000000000,"state":"active","ping":63},{"user_id":192,"name":"speedy","steam_id":76561197974493959,"connected_time":520000000000,"state":"active","ping":71},{"user_id":172,"name":"vv","steam_id":76561198134813102,"connected_time":2879000000000,"state":"active","ping":67},{"user_id":174,"name":"wavlog0124","steam_id":76561199079614516,"connected_time":2706000000000,"state":"active","ping":48},{"user_id":201,"name":"Hylic","steam_id":76561199051314589,"connected_time":131000000000,"state":"active","ping":61},{"user_id":195,"name":"pussyclapper69 (Ape)","steam_id":76561198237827742,"connected_time":328000000000,"state":"active","ping":60},{"user_id":194,"name":"Major Woody","steam_id":76561198835541533,"connected_time":484000000000,"state":"active","ping":78},{"user_id":24,"name":"fuck it, we mald","steam_id":76561198083276946,"connected_time":8672000000000,"state":"active","ping":67},{"user_id":200,"name":"poorman #1 sniper","steam_id":76561198447884169,"connected_time":206000000000,"state":"active","ping":48},{"user_id":158,"name":"dobby","steam_id":76561198012274834,"connected_time":3226000000000,"state":"active","ping":88},{"user_id":164,"name":"феечка интим","steam_id":76561198854151466,"connected_time":3139000000000,"state":"active","ping":190},{"user_id":190,"name":"SpotDragon72","steam_id":76561198281496089,"connected_time":945000000000,"state":"active","ping":95},{"user_id":202,"name":"cuddles","steam_id":76561199471390987,"connected_time":127000000000,"state":"active","ping":84},{"user_id":169,"name":"greg","steam_id":76561198041643833,"connected_time":2975000000000,"state":"active","ping":86},{"user_id":150,"name":"KingCrawful","steam_id":76561198104291657,"connected_time":4544000000000,"state":"active","ping":77},{"user_id":191,"name":"kratomSnorter.1quarter","steam_id":76561198946987511,"connected_time":791000000000,"state":"active","ping":85},{"user_id":198,"name":"Terry Crews from Brooklyn 99","steam_id":76561198357806819,"connected_time":237000000000,"state":"active","ping":83},{"user_id":188,"name":"PowerGem3000","steam_id":76561198944644691,"connected_time":1091000000000,"state":"active","ping":108},{"user_id":179,"name":"Dapeople","steam_id":76561197987101008,"connected_time":2455000000000,"state":"active","ping":103},{"user_id":71,"name":"Lexi uwu","steam_id":76561198003037190,"connected_time":6418000000000,"state":"active","ping":69}]},{"server_id":106,"name":"Uncletopia | Chicago | 2 | All Maps","name_short":"chi-2","host":"chi-1.us.uncletopia.com","port":27025,"enabled":true,"region":"us-central","cc":"us","latitude":41.881832,"longitude":-87.62318,"reserved":0,"last_update":"0001-01-01T00:00:00Z","name_a2s":"Uncletopia | Chicago | 2 | All Maps","protocol":17,"map":"pl_borneo","folder":"tf","game":"Team Fortress","app_id":440,"player_count":24,"max_players":24,"Bots":0,"server_type":"Dedicated","server_os":"Linux","password":true,"vac":true,"version":"7961495","steam_id":85568392924469985,"keywords":["nocrits","nodmgspread","payload","uncletopia"],"game_id":440,"stv_port":27026,"stv_name":"Uncletopia | Chicago | 2 | All Maps | STV","players":[{"user_id":134,"name":"Scuff1e","steam_id":76561198272995728,"connected_time":293000000000,"state":"active","ping":76},{"user_id":132,"name":"Chicanery","steam_id":76561199132214008,"connected_time":555000000000,"state":"active","ping":102},{"user_id":47,"name":"BRUCE U","steam_id":76561198420252121,"connected_time":4719000000000,"state":"active","ping":62},{"user_id":126,"name":"atomic clarence","steam_id":76561198156538484,"connected_time":751000000000,"state":"active","ping":129},{"user_id":131,"name":"a","steam_id":76561198131245396,"connected_time":643000000000,"state":"active","ping":67},{"user_id":45,"name":"gnoll filth","steam_id":76561198066123607,"connected_time":4858000000000,"state":"active","ping":44},{"user_id":127,"name":"Level 1 Crook","steam_id":76561198441098132,"connected_time":750000000000,"state":"active","ping":44},{"user_id":128,"name":"Klip","steam_id":76561198316254429,"connected_time":735000000000,"state":"active","ping":78},{"user_id":106,"name":"Freestyle Brapper#savehiphop","steam_id":76561198090074621,"connected_time":1458000000000,"state":"active","ping":44},{"user_id":88,"name":"Sinta","steam_id":76561198098398841,"connected_time":2401000000000,"state":"active","ping":62},{"user_id":74,"name":"PoisonIvy","steam_id":76561198072384574,"connected_time":3986000000000,"state":"active","ping":47},{"user_id":122,"name":"Schmupp","steam_id":76561198150928115,"connected_time":811000000000,"state":"active","ping":90},{"user_id":98,"name":"FIJI","steam_id":76561198126087725,"connected_time":1970000000000,"state":"active","ping":73},{"user_id":99,"name":"bro pyro chill with the taunts","steam_id":76561199169445769,"connected_time":1936000000000,"state":"active","ping":67},{"user_id":119,"name":"Nasatron7","steam_id":76561198217185169,"connected_time":973000000000,"state":"active","ping":85},{"user_id":129,"name":"Grasshopper506","steam_id":76561198111633418,"connected_time":729000000000,"state":"active","ping":69},{"user_id":58,"name":"Rornir","steam_id":76561198081829615,"connected_time":4261000000000,"state":"active","ping":35},{"user_id":110,"name":"ThatGamingKiwi","steam_id":76561199170522237,"connected_time":1413000000000,"state":"active","ping":82},{"user_id":135,"name":"Rein","steam_id":76561198300340427,"connected_time":242000000000,"state":"active","ping":60},{"user_id":111,"name":"Owl Pacino","steam_id":76561197979970666,"connected_time":1381000000000,"state":"active","ping":55},{"user_id":112,"name":"Jebecky","steam_id":76561198093727162,"connected_time":1381000000000,"state":"active","ping":86},{"user_id":133,"name":"Ras","steam_id":76561198123546775,"connected_time":516000000000,"state":"active","ping":72},{"user_id":71,"name":"bear","steam_id":76561198909415646,"connected_time":4059000000000,"state":"active","ping":77},{"user_id":105,"name":"hussein","steam_id":76561199061380038,"connected_time":1541000000000,"state":"active","ping":74}]},{"server_id":402,"name":"Uncletopia | Chicago | 3 | All Maps","name_short":"chi-3","host":"chi-1.us.uncletopia.com","port":27035,"enabled":true,"region":"us-central","cc":"us","latitude":41.881832,"longitude":-87.62318,"reserved":0,"last_update":"0001-01-01T00:00:00Z","name_a2s":"Uncletopia | Chicago | 3 | All Maps","protocol":17,"map":"pl_badwater","folder":"tf","game":"Team Fortress","app_id":440,"player_count":24,"max_players":24,"Bots":0,"server_type":"Dedicated","server_os":"Linux","password":true,"vac":true,"version":"7961495","steam_id":85568392924515191,"keywords":["nocrits","nodmgspread","payload","uncletopia"],"game_id":440,"stv_port":27036,"stv_name":"Uncletopia | Chicago | 3 | All Maps | STV","players":[{"user_id":94,"name":"PiolaCat","steam_id":76561199100535345,"connected_time":11544000000000,"state":"active","ping":137},{"user_id":245,"name":"FlameShake","steam_id":76561198084021005,"connected_time":320000000000,"state":"active","ping":68},{"user_id":244,"name":"Rennsellaer","steam_id":76561198096207580,"connected_time":444000000000,"state":"active","ping":104},{"user_id":214,"name":"DeezNoodlez","steam_id":76561198246700372,"connected_time":3287000000000,"state":"active","ping":74},{"user_id":243,"name":"GENOCIDE","steam_id":76561198190587246,"connected_time":614000000000,"state":"active","ping":71},{"user_id":226,"name":"Jonah Hill from 21 Jump Street","steam_id":76561198811130843,"connected_time":1931000000000,"state":"active","ping":78},{"user_id":238,"name":"ISlamHooker","steam_id":76561198050136796,"connected_time":975000000000,"state":"active","ping":88},{"user_id":208,"name":"Mirai Asamii","steam_id":76561198272673386,"connected_time":3560000000000,"state":"active","ping":93},{"user_id":207,"name":"lynt","steam_id":76561198988333976,"connected_time":3641000000000,"state":"active","ping":70},{"user_id":235,"name":"Bobby","steam_id":76561198037803087,"connected_time":1127000000000,"state":"active","ping":87},{"user_id":227,"name":"QuarticalPhysics","steam_id":76561198061386266,"connected_time":1863000000000,"state":"active","ping":70},{"user_id":247,"name":"APOTATO","steam_id":76561198118199858,"connected_time":303000000000,"state":"active","ping":90},{"user_id":246,"name":"OrangeShoes","steam_id":76561197971249940,"connected_time":313000000000,"state":"active","ping":84},{"user_id":248,"name":"rach9411","steam_id":76561198256535721,"connected_time":301000000000,"state":"active","ping":125},{"user_id":249,"name":"TheSmokingMan","steam_id":76561198032652995,"connected_time":291000000000,"state":"active","ping":82},{"user_id":223,"name":"Kuyumiester","steam_id":76561198126835302,"connected_time":2137000000000,"state":"active","ping":62},{"user_id":250,"name":"housy","steam_id":76561198080008210,"connected_time":290000000000,"state":"active","ping":150},{"user_id":251,"name":"TheWhoman","steam_id":76561198103921750,"connected_time":289000000000,"state":"active","ping":94},{"user_id":221,"name":"Captain Buggy","steam_id":76561198024444448,"connected_time":2474000000000,"state":"active","ping":96},{"user_id":224,"name":"Crystal Mech","steam_id":76561198018283079,"connected_time":2131000000000,"state":"active","ping":57},{"user_id":229,"name":"ghostmike","steam_id":76561198344139050,"connected_time":1842000000000,"state":"active","ping":84},{"user_id":203,"name":"Primal","steam_id":76561197983118203,"connected_time":4133000000000,"state":"active","ping":74},{"user_id":231,"name":"+03e","steam_id":76561198147970180,"connected_time":1464000000000,"state":"active","ping":45},{"user_id":241,"name":"WaldyrH","steam_id":76561199185989504,"connected_time":914000000000,"state":"active","ping":185}]},{"server_id":403,"name":"Uncletopia | Chicago | 4 | All Maps","name_short":"chi-4","host":"chi-1.us.uncletopia.com","port":27045,"enabled":true,"region":"us-central","cc":"us","latitude":41.881832,"longitude":-87.62318,"reserved":0,"last_update":"0001-01-01T00:00:00Z","name_a2s":"Uncletopia | Chicago | 4 | All Maps","protocol":17,"map":"koth_cascade","folder":"tf","game":"Team Fortress","app_id":440,"player_count":0,"max_players":24,"Bots":0,"server_type":"Dedicated","server_os":"Linux","password":true,"vac":true,"version":"7961495","steam_id":85568392924515193,"keywords":["cp","nocrits","nodmgspread","uncletopia"],"game_id":440,"stv_port":27046,"stv_name":"Uncletopia | Chicago | 4 | All Maps | STV","players":null},{"server_id":36,"name":"Uncletopia | Chicago | 5 | All Maps","name_short":"chi-5","host":"chi-2.us.uncletopia.com","port":27015,"enabled":true,"region":"us-central","cc":"us","latitude":41.881832,"longitude":-87.62318,"reserved":0,"last_update":"0001-01-01T00:00:00Z","name_a2s":"Uncletopia | Chicago | 5 | All Maps","protocol":17,"map":"koth_viaduct","folder":"tf","game":"Team Fortress","app_id":440,"player_count":0,"max_players":24,"Bots":0,"server_type":"Dedicated","server_os":"Linux","password":true,"vac":true,"version":"7961495","steam_id":85568392924866362,"keywords":["cp","nocrits","nodmgspread","uncletopia"],"game_id":440,"stv_port":27016,"stv_name":"Uncletopia | Chicago | 5 | All Maps | STV","players":null},{"server_id":37,"name":"Uncletopia | Chicago | 6 | All Maps","name_short":"chi-6","host":"chi-2.us.uncletopia.com","port":27025,"enabled":true,"region":"us-central","cc":"us","latitude":41.881832,"longitude":-87.62318,"reserved":0,"last_update":"0001-01-01T00:00:00Z","name_a2s":"Uncletopia | Chicago | 6 | All Maps","protocol":17,"map":"pl_pier","folder":"tf","game":"Team Fortress","app_id":440,"player_count":0,"max_players":24,"Bots":0,"server_type":"Dedicated","server_os":"Linux","password":true,"vac":true,"version":"7961495","steam_id":85568392924866363,"keywords":["nocrits","nodmgspread","payload","uncletopia"],"game_id":440,"stv_port":27026,"stv_name":"Uncletopia | Chicago | 6 | All Maps | STV","players":null},{"server_id":38,"name":"Uncletopia | Chicago | 7 | Stopwatch","name_short":"chi-7","host":"chi-2.us.uncletopia.com","port":27035,"enabled":true,"region":"us-central","cc":"us","latitude":41.881832,"longitude":-87.62318,"reserved":0,"last_update":"0001-01-01T00:00:00Z","name_a2s":"Uncletopia | Chicago | 7 | Stopwatch","protocol":17,"map":"pl_borneo","folder":"tf","game":"Team Fortress","app_id":440,"player_count":0,"max_players":24,"Bots":0,"server_type":"Dedicated","server_os":"Linux","password":true,"vac":true,"version":"7961495","steam_id":85568392924866364,"keywords":["nocrits","nodmgspread","payload","uncletopia"],"game_id":440,"stv_port":27036,"stv_name":"Uncletopia | Chicago | 7 | Stopwatch | STV","players":null},{"server_id":39,"name":"Uncletopia | Chicago | 8 | Community","name_short":"chi-8","host":"chi-2.us.uncletopia.com","port":27045,"enabled":true,"region":"us-central","cc":"us","latitude":41.881832,"longitude":-87.62318,"reserved":0,"last_update":"0001-01-01T00:00:00Z","name_a2s":"Uncletopia | Chicago | 8 | Community","protocol":17,"map":"pl_pier","folder":"tf","game":"Team Fortress","app_id":440,"player_count":0,"max_players":24,"Bots":0,"server_type":"Dedicated","server_os":"Linux","password":true,"vac":true,"version":"7961495","steam_id":85568392924866365,"keywords":["nocrits","nodmgspread","payload","uncletopia"],"game_id":440,"stv_port":27046,"stv_name":"Uncletopia | Chicago | 8 | Community | STV","players":null},{"server_id":8,"name":"Uncletopia | Dallas | 1 | All Maps","name_short":"dal-1","host":"dal-1.us.uncletopia.com","port":27015,"enabled":true,"region":"us-central","cc":"us","latitude":32.779167,"longitude":-96.80889,"reserved":0,"last_update":"0001-01-01T00:00:00Z","name_a2s":"Uncletopia | Dallas | 1 | All Maps","protocol":17,"map":"ctf_2fort","folder":"tf","game":"Team Fortress","app_id":440,"player_count":22,"max_players":24,"Bots":0,"server_type":"Dedicated","server_os":"Linux","password":true,"vac":true,"version":"7961495","steam_id":85568392924469986,"keywords":["ctf","nocrits","nodmgspread","uncletopia"],"game_id":440,"stv_port":27016,"stv_name":"Uncletopia | Dallas | 1 | All Maps | STV","players":[{"user_id":46,"name":"sunsetEclipse985","steam_id":76561199499168272,"connected_time":685000000000,"state":"active","ping":56},{"user_id":69,"name":"Sinanmay","steam_id":76561199073020043,"connected_time":30000000000,"state":"active","ping":163},{"user_id":47,"name":"JimmySquid","steam_id":76561198254242530,"connected_time":651000000000,"state":"active","ping":66},{"user_id":48,"name":"Gary Busey","steam_id":76561197970096950,"connected_time":622000000000,"state":"active","ping":39},{"user_id":61,"name":"ඞ","steam_id":76561199365672047,"connected_time":268000000000,"state":"active","ping":100},{"user_id":62,"name":"Jodi Engwyrn","steam_id":76561198131833567,"connected_time":267000000000,"state":"active","ping":99},{"user_id":21,"name":"small meth pouch","steam_id":76561198130412963,"connected_time":1793000000000,"state":"active","ping":63},{"user_id":27,"name":"pretzel","steam_id":76561198885041703,"connected_time":1449000000000,"state":"active","ping":93},{"user_id":70,"name":"albiononline e um mmorpg","steam_id":76561199091376644,"connected_time":24000000000,"state":"active","ping":196},{"user_id":29,"name":"Tawny Autumn","steam_id":76561198254016347,"connected_time":1431000000000,"state":"active","ping":94},{"user_id":64,"name":"Gul'dan","steam_id":76561198240466940,"connected_time":201000000000,"state":"active","ping":182},{"user_id":50,"name":"the soldier","steam_id":76561199046667189,"connected_time":555000000000,"state":"active","ping":84},{"user_id":33,"name":"double xp weekend","steam_id":76561198052950547,"connected_time":1297000000000,"state":"active","ping":59},{"user_id":71,"name":"Stryder","steam_id":76561199387418697,"connected_time":22000000000,"state":"active","ping":65},{"user_id":65,"name":"Transgender Spider Priestess","steam_id":76561198111286397,"connected_time":132000000000,"state":"active","ping":98},{"user_id":53,"name":"KillerGodzilla","steam_id":76561198049361161,"connected_time":502000000000,"state":"active","ping":55},{"user_id":54,"name":"FearMeisterMedusa","steam_id":76561198330311673,"connected_time":443000000000,"state":"active","ping":73},{"user_id":38,"name":"izzydex","steam_id":76561199101531034,"connected_time":1088000000000,"state":"active","ping":83},{"user_id":42,"name":"Soy King","steam_id":76561198263025614,"connected_time":917000000000,"state":"active","ping":131},{"user_id":63,"name":"schmuck","steam_id":76561198143789773,"connected_time":221000000000,"state":"active","ping":53},{"user_id":58,"name":"Satori Komeiji","steam_id":76561198158211423,"connected_time":409000000000,"state":"active","ping":80},{"user_id":59,"name":"elaine","steam_id":76561198864260756,"connected_time":381000000000,"state":"active","ping":98}]},{"server_id":108,"name":"Uncletopia | Dallas | 2 | All Maps","name_short":"dal-2","host":"dal-1.us.uncletopia.com","port":27025,"enabled":true,"region":"us-central","cc":"us","latitude":32.779167,"longitude":-96.80889,"reserved":0,"last_update":"0001-01-01T00:00:00Z","name_a2s":"Uncletopia | Dallas | 2 | All Maps","protocol":17,"map":"pl_badwater","folder":"tf","game":"Team Fortress","app_id":440,"player_count":0,"max_players":24,"Bots":0,"server_type":"Dedicated","server_os":"Linux","password":true,"vac":true,"version":"7961495","steam_id":85568392924469988,"keywords":["nocrits","nodmgspread","payload","uncletopia"],"game_id":440,"stv_port":27026,"stv_name":"Uncletopia | Dallas | 2 | All Maps | STV","players":null},{"server_id":404,"name":"Uncletopia | Dallas | 3 | All Maps","name_short":"dal-3","host":"dal-1.us.uncletopia.com","port":27035,"enabled":true,"region":"us-central","cc":"us","latitude":32.779167,"longitude":-96.80889,"reserved":0,"last_update":"0001-01-01T00:00:00Z","name_a2s":"Uncletopia | Dallas | 3 | All Maps","protocol":17,"map":"pl_badwater","folder":"tf","game":"Team Fortress","app_id":440,"player_count":0,"max_players":24,"Bots":0,"server_type":"Dedicated","server_os":"Linux","password":true,"vac":true,"version":"7961495","steam_id":85568392924515219,"keywords":["nocrits","nodmgspread","payload","uncletopia"],"game_id":440,"stv_port":27036,"stv_name":"Uncletopia | Dallas | 3 | All Maps | STV","players":null},{"server_id":405,"name":"Uncletopia | Dallas | 4 | Community","name_short":"dal-4","host":"dal-1.us.uncletopia.com","port":27045,"enabled":true,"region":"us-central","cc":"us","latitude":32.779167,"longitude":-96.80889,"reserved":0,"last_update":"0001-01-01T00:00:00Z","name_a2s":"Uncletopia | Dallas | 4 | Community","protocol":17,"map":"workshop/cp_sulfur_rc2.ugc619869471","folder":"tf","game":"Team Fortress","app_id":440,"player_count":0,"max_players":24,"Bots":0,"server_type":"Dedicated","server_os":"Linux","password":true,"vac":true,"version":"7961495","steam_id":85568392924515220,"keywords":["cp","nocrits","nodmgspread","uncletopia"],"game_id":440,"stv_port":27046,"stv_name":"Uncletopia | Dallas | 4 | Community | STV","players":null},{"server_id":5,"name":"Uncletopia | Frankfurt | 1 | All Maps","name_short":"frk-1","host":"frk-1.de.uncletopia.com","port":27015,"enabled":true,"region":"eu","cc":"de","latitude":50.110924,"longitude":8.682127,"reserved":0,"last_update":"0001-01-01T00:00:00Z","name_a2s":"Uncletopia | Frankfurt | 1 | All Maps","protocol":17,"map":"pl_pier","folder":"tf","game":"Team Fortress","app_id":440,"player_count":19,"max_players":24,"Bots":0,"server_type":"Dedicated","server_os":"Linux","password":true,"vac":true,"version":"7961495","steam_id":85568392924469989,"keywords":["nocrits","nodmgspread","payload","uncletopia"],"game_id":440,"stv_port":27016,"stv_name":"Uncletopia | Frankfurt | 1 | All Maps | STV","players":[{"user_id":318,"name":"selkie","steam_id":76561198329321007,"connected_time":878000000000,"state":"active","ping":104},{"user_id":316,"name":"джегеми хэпкингс","steam_id":76561198131531394,"connected_time":936000000000,"state":"active","ping":87},{"user_id":320,"name":"You know i had to do it to em","steam_id":76561198023884216,"connected_time":830000000000,"state":"active","ping":64},{"user_id":327,"name":"Poppy Stingray","steam_id":76561198049673783,"connected_time":418000000000,"state":"active","ping":62},{"user_id":311,"name":"☛☚Frigot☛☚ #SAVETF2","steam_id":76561198113296687,"connected_time":1242000000000,"state":"active","ping":68},{"user_id":313,"name":"Iroh had enough","steam_id":76561198114083188,"connected_time":1051000000000,"state":"active","ping":59},{"user_id":314,"name":"вaфeльнoe мoрoжeнoe","steam_id":76561199074883856,"connected_time":1020000000000,"state":"active","ping":58},{"user_id":332,"name":"imveryhungry","steam_id":76561199289596889,"connected_time":148000000000,"state":"active","ping":67},{"user_id":336,"name":"Huggetz with cheese","steam_id":76561198144599511,"connected_time":6000000000,"state":"spawning","ping":120},{"user_id":334,"name":"Vidrox #savetf2","steam_id":76561199217854983,"connected_time":59000000000,"state":"active","ping":84},{"user_id":317,"name":"Alexandrovich","steam_id":76561199386822589,"connected_time":916000000000,"state":"active","ping":60},{"user_id":263,"name":"Average Trader","steam_id":76561199179702903,"connected_time":5185000000000,"state":"spawning","ping":163},{"user_id":331,"name":"Joejee","steam_id":76561199122423976,"connected_time":236000000000,"state":"active","ping":72},{"user_id":303,"name":"NutSmasherKazimir87","steam_id":76561199116240875,"connected_time":1756000000000,"state":"active","ping":74},{"user_id":326,"name":"Cojanco","steam_id":76561198803271320,"connected_time":431000000000,"state":"active","ping":57},{"user_id":335,"name":"Ballistic Bees","steam_id":76561198116870575,"connected_time":54000000000,"state":"active","ping":133},{"user_id":328,"name":"EndZR0","steam_id":76561198207649880,"connected_time":353000000000,"state":"active","ping":93},{"user_id":322,"name":"PLSNO (RYAN)","steam_id":76561198086542505,"connected_time":812000000000,"state":"active","ping":75},{"user_id":324,"name":"Finnish Farmer","steam_id":76561198205366043,"connected_time":779000000000,"state":"active","ping":83}]},{"server_id":110,"name":"Uncletopia | Frankfurt | 2 | All Maps","name_short":"frk-2","host":"frk-1.de.uncletopia.com","port":27025,"enabled":true,"region":"eu","cc":"de","latitude":50.110924,"longitude":8.682127,"reserved":0,"last_update":"0001-01-01T00:00:00Z","name_a2s":"Uncletopia | Frankfurt | 2 | All Maps","protocol":17,"map":"pl_pier","folder":"tf","game":"Team Fortress","app_id":440,"player_count":24,"max_players":24,"Bots":0,"server_type":"Dedicated","server_os":"Linux","password":true,"vac":true,"version":"7961495","steam_id":85568392924469990,"keywords":["nocrits","nodmgspread","payload","uncletopia"],"game_id":440,"stv_port":27026,"stv_name":"Uncletopia | Frankfurt | 2 | All Maps | STV","players":[{"user_id":114,"name":"CzechMate #SaveTF2","steam_id":76561198012687703,"connected_time":5681000000000,"state":"active","ping":45},{"user_id":196,"name":"Maksim:)","steam_id":76561198816061842,"connected_time":729000000000,"state":"active","ping":71},{"user_id":197,"name":"aa","steam_id":76561198039254055,"connected_time":708000000000,"state":"active","ping":134},{"user_id":162,"name":"le epic potato","steam_id":76561198053088822,"connected_time":1760000000000,"state":"active","ping":38},{"user_id":159,"name":"Vischan but worse","steam_id":76561199371650805,"connected_time":2101000000000,"state":"active","ping":101},{"user_id":174,"name":"G-Man (aka Gangsta Man)","steam_id":76561198871991529,"connected_time":1292000000000,"state":"active","ping":80},{"user_id":205,"name":"The CEO of Sex Inc.","steam_id":76561198385989487,"connected_time":225000000000,"state":"active","ping":100},{"user_id":199,"name":"pretty boy","steam_id":76561198345972230,"connected_time":652000000000,"state":"active","ping":77},{"user_id":177,"name":"DelT","steam_id":76561198204007537,"connected_time":1202000000000,"state":"active","ping":45},{"user_id":137,"name":"maxtea084","steam_id":76561199333951195,"connected_time":3925000000000,"state":"active","ping":170},{"user_id":207,"name":"PinkSakir お酒","steam_id":76561198057927939,"connected_time":1000000000,"state":"spawning","ping":61},{"user_id":189,"name":"independent Freak","steam_id":76561198066656865,"connected_time":964000000000,"state":"active","ping":49},{"user_id":165,"name":"galaxy","steam_id":76561198164819022,"connected_time":1700000000000,"state":"active","ping":66},{"user_id":201,"name":"Rezzarezz","steam_id":76561198092020043,"connected_time":585000000000,"state":"active","ping":60},{"user_id":190,"name":"Apollo","steam_id":76561198866054007,"connected_time":959000000000,"state":"active","ping":85},{"user_id":204,"name":"gemm","steam_id":76561198054949885,"connected_time":306000000000,"state":"active","ping":50},{"user_id":180,"name":"lisivi","steam_id":76561198365503306,"connected_time":1171000000000,"state":"active","ping":59},{"user_id":191,"name":"Francis","steam_id":76561198987134265,"connected_time":953000000000,"state":"active","ping":72},{"user_id":182,"name":"azzy","steam_id":76561198061293740,"connected_time":1168000000000,"state":"active","ping":79},{"user_id":136,"name":"cult","steam_id":76561198188647690,"connected_time":4011000000000,"state":"active","ping":70},{"user_id":198,"name":"Marius","steam_id":76561198253530198,"connected_time":688000000000,"state":"active","ping":57},{"user_id":147,"name":"sokige","steam_id":76561198167112371,"connected_time":3042000000000,"state":"active","ping":96},{"user_id":185,"name":"Vexu","steam_id":76561198113145846,"connected_time":1064000000000,"state":"active","ping":103},{"user_id":200,"name":"ghost","steam_id":76561199250012772,"connected_time":651000000000,"state":"active","ping":79}]},{"server_id":308,"name":"Uncletopia | Frankfurt | 3 | All Maps","name_short":"frk-3","host":"frk-1.de.uncletopia.com","port":27035,"enabled":true,"region":"eu","cc":"de","latitude":50.110924,"longitude":8.682127,"reserved":0,"last_update":"0001-01-01T00:00:00Z","name_a2s":"Uncletopia | Frankfurt | 3 | All Maps","protocol":17,"map":"cp_dustbowl","folder":"tf","game":"Team Fortress","app_id":440,"player_count":19,"max_players":24,"Bots":0,"server_type":"Dedicated","server_os":"Linux","password":true,"vac":true,"version":"7961495","steam_id":85568392924504274,"keywords":["cp","nocrits","nodmgspread","uncletopia"],"game_id":440,"stv_port":27036,"stv_name":"Uncletopia | Frankfurt | 3 | All Maps | STV","players":[{"user_id":236,"name":"Archive","steam_id":76561198071255385,"connected_time":261000000000,"state":"active","ping":82},{"user_id":215,"name":"Don Camillo","steam_id":76561198057707263,"connected_time":1399000000000,"state":"active","ping":57},{"user_id":238,"name":"Shelly1052","steam_id":76561199043551053,"connected_time":29000000000,"state":"active","ping":739},{"user_id":230,"name":"Black Tom","steam_id":76561198335730273,"connected_time":522000000000,"state":"active","ping":70},{"user_id":211,"name":"Pighead_08","steam_id":76561199060466647,"connected_time":1761000000000,"state":"active","ping":105},{"user_id":237,"name":"snowball","steam_id":76561198026525289,"connected_time":242000000000,"state":"active","ping":82},{"user_id":223,"name":"Toasty5050","steam_id":76561198073540881,"connected_time":978000000000,"state":"active","ping":43},{"user_id":222,"name":"Rimx","steam_id":76561198053034840,"connected_time":1088000000000,"state":"active","ping":88},{"user_id":231,"name":"Tuosan","steam_id":76561198062611429,"connected_time":497000000000,"state":"active","ping":73},{"user_id":187,"name":"Blar","steam_id":76561198042438229,"connected_time":3626000000000,"state":"active","ping":71},{"user_id":202,"name":"Shlyk","steam_id":76561198333387103,"connected_time":2067000000000,"state":"active","ping":100},{"user_id":232,"name":"jona3838","steam_id":76561199097658195,"connected_time":423000000000,"state":"active","ping":101},{"user_id":224,"name":"invertO","steam_id":76561198142244174,"connected_time":893000000000,"state":"active","ping":87},{"user_id":226,"name":"segg","steam_id":76561198130024780,"connected_time":791000000000,"state":"active","ping":61},{"user_id":190,"name":"JGV","steam_id":76561198094654971,"connected_time":3430000000000,"state":"active","ping":82},{"user_id":212,"name":"Tekky☻","steam_id":76561197990987315,"connected_time":1746000000000,"state":"active","ping":54},{"user_id":193,"name":"grylasverre","steam_id":76561199230434396,"connected_time":2762000000000,"state":"active","ping":68},{"user_id":186,"name":"TsunaYT","steam_id":76561198086087727,"connected_time":3675000000000,"state":"active","ping":52},{"user_id":235,"name":"HASAN58","steam_id":76561199053508683,"connected_time":389000000000,"state":"active","ping":96}]},{"server_id":309,"name":"Uncletopia | Frankfurt | 4 | All Maps","name_short":"frk-4","host":"frk-1.de.uncletopia.com","port":27045,"enabled":true,"region":"eu","cc":"de","latitude":50.110924,"longitude":8.682127,"reserved":0,"last_update":"0001-01-01T00:00:00Z","name_a2s":"Uncletopia | Frankfurt | 4 | All Maps","protocol":17,"map":"pl_badwater","folder":"tf","game":"Team Fortress","app_id":440,"player_count":24,"max_players":24,"Bots":0,"server_type":"Dedicated","server_os":"Linux","password":true,"vac":true,"version":"7961495","steam_id":85568392924504275,"keywords":["nocrits","nodmgspread","payload","uncletopia"],"game_id":440,"stv_port":27046,"stv_name":"Uncletopia | Frankfurt | 4 | All Maps | STV","players":[{"user_id":243,"name":"Haghehog","steam_id":76561198075729793,"connected_time":3890000000000,"state":"active","ping":115},{"user_id":278,"name":"Tri-","steam_id":76561198133524794,"connected_time":1344000000000,"state":"active","ping":55},{"user_id":249,"name":"RudiPrico4","steam_id":76561199014381495,"connected_time":3718000000000,"state":"active","ping":48},{"user_id":272,"name":"DwarfInYou","steam_id":76561198966341795,"connected_time":1865000000000,"state":"active","ping":55},{"user_id":284,"name":"Bobo","steam_id":76561198052308399,"connected_time":821000000000,"state":"active","ping":57},{"user_id":238,"name":"Hexakosioihexekontahexaphobia","steam_id":76561198070805240,"connected_time":3968000000000,"state":"active","ping":111},{"user_id":207,"name":"Dogdigger","steam_id":76561198032893130,"connected_time":5960000000000,"state":"active","ping":93},{"user_id":274,"name":"XYQ NA JIVIQ","steam_id":76561198210840028,"connected_time":1721000000000,"state":"active","ping":70},{"user_id":280,"name":"VIN WEASEL","steam_id":76561198014387066,"connected_time":937000000000,"state":"active","ping":46},{"user_id":281,"name":"rets_","steam_id":76561198061551392,"connected_time":918000000000,"state":"active","ping":48},{"user_id":254,"name":"Nick","steam_id":76561198036109469,"connected_time":3317000000000,"state":"active","ping":88},{"user_id":262,"name":"Ple3venged","steam_id":76561199128528323,"connected_time":2309000000000,"state":"active","ping":45},{"user_id":270,"name":"Doriian","steam_id":76561198071438810,"connected_time":2138000000000,"state":"active","ping":77},{"user_id":287,"name":"♠Anti_BOI♠","steam_id":76561198274593231,"connected_time":516000000000,"state":"active","ping":56},{"user_id":288,"name":"Pyrolander","steam_id":76561198050785450,"connected_time":470000000000,"state":"active","ping":46},{"user_id":264,"name":"thekoolest88","steam_id":76561199022415672,"connected_time":2291000000000,"state":"active","ping":142},{"user_id":244,"name":"❖ RazzorBee","steam_id":76561198092493838,"connected_time":3888000000000,"state":"active","ping":101},{"user_id":266,"name":"󠀡󠀡","steam_id":76561198399390201,"connected_time":2268000000000,"state":"active","ping":76},{"user_id":169,"name":"Aspartus","steam_id":76561198101385763,"connected_time":8337000000000,"state":"active","ping":46},{"user_id":271,"name":"DonkHappy","steam_id":76561197989948420,"connected_time":1933000000000,"state":"active","ping":63},{"user_id":277,"name":"magnos62564","steam_id":76561198356968225,"connected_time":1563000000000,"state":"active","ping":62},{"user_id":285,"name":"Strix","steam_id":76561198015322735,"connected_time":816000000000,"state":"active","ping":97},{"user_id":286,"name":"The legendery balls","steam_id":76561199139344747,"connected_time":582000000000,"state":"active","ping":104},{"user_id":282,"name":"Woman (Real)","steam_id":76561199151823932,"connected_time":913000000000,"state":"active","ping":82}]},{"server_id":310,"name":"Uncletopia | Frankfurt | 5 | All Maps","name_short":"frk-5","host":"frk-1.de.uncletopia.com","port":27055,"enabled":true,"region":"eu","cc":"de","latitude":50.110924,"longitude":8.682127,"reserved":0,"last_update":"0001-01-01T00:00:00Z","name_a2s":"Uncletopia | Frankfurt | 5 | All Maps","protocol":17,"map":"plr_hightower","folder":"tf","game":"Team Fortress","app_id":440,"player_count":0,"max_players":24,"Bots":0,"server_type":"Dedicated","server_os":"Linux","password":true,"vac":true,"version":"7961495","steam_id":85568392924504277,"keywords":["nocrits","nodmgspread","payload","uncletopia"],"game_id":440,"stv_port":27056,"stv_name":"Uncletopia | Frankfurt | 5 | All Maps | STV","players":null},{"server_id":311,"name":"Uncletopia | Frankfurt | 6 | All Maps","name_short":"frk-6","host":"frk-1.de.uncletopia.com","port":27065,"enabled":true,"region":"eu","cc":"de","latitude":50.110924,"longitude":8.682127,"reserved":0,"last_update":"0001-01-01T00:00:00Z","name_a2s":"Uncletopia | Frankfurt | 6 | All Maps","protocol":17,"map":"koth_lakeside_final","folder":"tf","game":"Team Fortress","app_id":440,"player_count":0,"max_players":24,"Bots":0,"server_type":"Dedicated","server_os":"Linux","password":true,"vac":true,"version":"7961495","steam_id":85568392924504278,"keywords":["cp","nocrits","nodmgspread","uncletopia"],"game_id":440,"stv_port":27066,"stv_name":"Uncletopia | Frankfurt | 6 | All Maps | STV","players":null},{"server_id":23,"name":"Uncletopia | Frankfurt | 7 | Stopwatch","name_short":"frk-7","host":"frk-1.de.uncletopia.com","port":27075,"enabled":true,"region":"eu","cc":"de","latitude":50.110924,"longitude":8.682127,"reserved":0,"last_update":"0001-01-01T00:00:00Z","name_a2s":"Uncletopia | Frankfurt | 7 | Stopwatch","protocol":17,"map":"workshop/koth_ramjam_rc1.ugc459778887","folder":"tf","game":"Team Fortress","app_id":440,"player_count":18,"max_players":24,"Bots":0,"server_type":"Dedicated","server_os":"Linux","password":true,"vac":true,"version":"7961495","steam_id":85568392924742827,"keywords":["cp","nocrits","nodmgspread","uncletopia"],"game_id":440,"stv_port":27076,"stv_name":"Uncletopia | Frankfurt | 7 | Stopwatch | STV","players":[{"user_id":49,"name":"lugge","steam_id":76561197963937453,"connected_time":865000000000,"state":"active","ping":58},{"user_id":12,"name":"stefanbejenari","steam_id":76561199466718294,"connected_time":2920000000000,"state":"active","ping":78},{"user_id":58,"name":"akakez","steam_id":76561198095432821,"connected_time":441000000000,"state":"active","ping":113},{"user_id":43,"name":"[ahoy-polka]","steam_id":76561199063624073,"connected_time":1041000000000,"state":"active","ping":99},{"user_id":61,"name":"the beesknees;-;","steam_id":76561198924118328,"connected_time":203000000000,"state":"active","ping":39},{"user_id":51,"name":"elmstJP ₪ F4.exe","steam_id":76561197997909480,"connected_time":624000000000,"state":"active","ping":70},{"user_id":57,"name":"Remyie","steam_id":76561198131031404,"connected_time":457000000000,"state":"active","ping":102},{"user_id":64,"name":"very lil nice boy","steam_id":76561198046860581,"connected_time":100000000000,"state":"active","ping":110},{"user_id":52,"name":"Der ewige Boomer","steam_id":76561198254812703,"connected_time":600000000000,"state":"active","ping":71},{"user_id":22,"name":"Miloleopard","steam_id":76561199196616680,"connected_time":1841000000000,"state":"active","ping":74},{"user_id":60,"name":"spl .davi","steam_id":76561198029015952,"connected_time":365000000000,"state":"active","ping":53},{"user_id":25,"name":"Jov","steam_id":76561199110881856,"connected_time":1502000000000,"state":"active","ping":88},{"user_id":27,"name":"_Shkoot","steam_id":76561198318170398,"connected_time":1392000000000,"state":"active","ping":49},{"user_id":33,"name":"Doomcraft282","steam_id":76561198380330197,"connected_time":1274000000000,"state":"active","ping":115},{"user_id":55,"name":"BRM","steam_id":76561198453041505,"connected_time":495000000000,"state":"active","ping":91},{"user_id":56,"name":"snideblade","steam_id":76561198808651869,"connected_time":492000000000,"state":"active","ping":64},{"user_id":65,"name":"hey STUPID! I'm over here...","steam_id":76561198056388702,"connected_time":100000000000,"state":"active","ping":85},{"user_id":50,"name":"kilo","steam_id":76561198015641339,"connected_time":800000000000,"state":"active","ping":69}]},{"server_id":24,"name":"Uncletopia | Frankfurt | 8 | Community","name_short":"frk-8","host":"frk-1.de.uncletopia.com","port":27085,"enabled":true,"region":"eu","cc":"de","latitude":50.110924,"longitude":8.682127,"reserved":0,"last_update":"0001-01-01T00:00:00Z","name_a2s":"Uncletopia | Frankfurt | 8 | Community","protocol":17,"map":"workshop/koth_slaughter_rc1.ugc1712845210","folder":"tf","game":"Team Fortress","app_id":440,"player_count":1,"max_players":24,"Bots":0,"server_type":"Dedicated","server_os":"Linux","password":true,"vac":true,"version":"7961495","steam_id":85568392924742828,"keywords":["cp","nocrits","nodmgspread","uncletopia"],"game_id":440,"stv_port":27086,"stv_name":"Uncletopia | Frankfurt | 8 | Community | STV","players":[{"user_id":523,"name":"mfede","steam_id":76561197992653595,"connected_time":3363000000000,"state":"active","ping":56}]},{"server_id":202,"name":"Uncletopia | Hong Kong | 1 | All Maps","name_short":"hgk-1","host":"hgk-1.hk.uncletopia.com","port":27015,"enabled":true,"region":"asia","cc":"hk","latitude":22.302711,"longitude":114.177216,"reserved":0,"last_update":"0001-01-01T00:00:00Z","name_a2s":"Uncletopia | Hong Kong | 1 | All Maps","protocol":17,"map":"cp_snakewater_final1","folder":"tf","game":"Team Fortress","app_id":440,"player_count":0,"max_players":24,"Bots":0,"server_type":"Dedicated","server_os":"Linux","password":true,"vac":true,"version":"7961495","steam_id":85568392924494504,"keywords":["cp","nocrits","nodmgspread","uncletopia"],"game_id":440,"stv_port":27016,"stv_name":"Uncletopia | Hong Kong | 1 | All Maps | STV","players":null},{"server_id":1,"name":"Uncletopia | Los Angeles | 1 | All Maps","name_short":"lax-1","host":"lax-1.us.uncletopia.com","port":27015,"enabled":true,"region":"us-west","cc":"us","latitude":33.94279,"longitude":-118.41004,"reserved":0,"last_update":"0001-01-01T00:00:00Z","name_a2s":"Uncletopia | Los Angeles | 1 | All Maps","protocol":17,"map":"pl_snowycoast","folder":"tf","game":"Team Fortress","app_id":440,"player_count":0,"max_players":24,"Bots":0,"server_type":"Dedicated","server_os":"Linux","password":true,"vac":true,"version":"7961495","steam_id":85568392924469991,"keywords":["nocrits","nodmgspread","payload","uncletopia"],"game_id":440,"stv_port":27016,"stv_name":"Uncletopia | Los Angeles | 1 | All Maps | STV","players":null},{"server_id":112,"name":"Uncletopia | Los Angeles | 2 | All Maps","name_short":"lax-2","host":"lax-1.us.uncletopia.com","port":27025,"enabled":true,"region":"us-west","cc":"us","latitude":33.94279,"longitude":-118.41004,"reserved":0,"last_update":"0001-01-01T00:00:00Z","name_a2s":"Uncletopia | Los Angeles | 2 | All Maps","protocol":17,"map":"koth_cascade","folder":"tf","game":"Team Fortress","app_id":440,"player_count":0,"max_players":24,"Bots":0,"server_type":"Dedicated","server_os":"Linux","password":true,"vac":true,"version":"7961495","steam_id":85568392924469992,"keywords":["cp","nocrits","nodmgspread","uncletopia"],"game_id":440,"stv_port":27026,"stv_name":"Uncletopia | Los Angeles | 2 | All Maps | STV","players":null},{"server_id":324,"name":"Uncletopia | Los Angeles | 3 | All Maps","name_short":"lax-3","host":"lax-1.us.uncletopia.com","port":27035,"enabled":true,"region":"us-west","cc":"us","latitude":33.94279,"longitude":-118.41004,"reserved":0,"last_update":"0001-01-01T00:00:00Z","name_a2s":"Uncletopia | Los Angeles | 3 | All Maps","protocol":17,"map":"pl_frontier_final","folder":"tf","game":"Team Fortress","app_id":440,"player_count":0,"max_players":24,"Bots":0,"server_type":"Dedicated","server_os":"Linux","password":true,"vac":true,"version":"7961495","steam_id":85568392924510198,"keywords":["nocrits","nodmgspread","payload","uncletopia"],"game_id":440,"stv_port":27036,"stv_name":"Uncletopia | Los Angeles | 3 | All Maps | STV","players":null},{"server_id":25,"name":"Uncletopia | Los Angeles | 4 | Stopwatch","name_short":"lax-4","host":"lax-1.us.uncletopia.com","port":27045,"enabled":true,"region":"us-west","cc":"us","latitude":33.94279,"longitude":-118.41004,"reserved":0,"last_update":"0001-01-01T00:00:00Z","name_a2s":"Uncletopia | Los Angeles | 4 | Stopwatch","protocol":17,"map":"pl_barnblitz","folder":"tf","game":"Team Fortress","app_id":440,"player_count":0,"max_players":24,"Bots":0,"server_type":"Dedicated","server_os":"Linux","password":true,"vac":true,"version":"7961495","steam_id":85568392924510199,"keywords":["nocrits","nodmgspread","payload","uncletopia"],"game_id":440,"stv_port":27046,"stv_name":"Uncletopia | Los Angeles | 4 | Stopwatch | STV","players":null},{"server_id":11,"name":"Uncletopia | London | 1 | All Maps","name_short":"lon-1","host":"lon-1.uk.uncletopia.com","port":27015,"enabled":true,"region":"eu","cc":"gb","latitude":51.509865,"longitude":-0.118092,"reserved":0,"last_update":"0001-01-01T00:00:00Z","name_a2s":"Uncletopia | London | 1 | All Maps","protocol":17,"map":"cp_steel","folder":"tf","game":"Team Fortress","app_id":440,"player_count":24,"max_players":24,"Bots":0,"server_type":"Dedicated","server_os":"Linux","password":true,"vac":true,"version":"7961495","steam_id":85568392924367362,"keywords":["cp","nocrits","nodmgspread","uncletopia"],"game_id":440,"stv_port":27016,"stv_name":"Uncletopia | London | 1 | All Maps | STV","players":[{"user_id":509,"name":"shooer!","steam_id":76561198110531281,"connected_time":8942000000000,"state":"active","ping":70},{"user_id":601,"name":"helps me helps me why7 yuo no h","steam_id":76561198190583242,"connected_time":1326000000000,"state":"active","ping":84},{"user_id":624,"name":"Sorry","steam_id":76561198040722720,"connected_time":189000000000,"state":"active","ping":130},{"user_id":604,"name":"wilahl3","steam_id":76561198363415199,"connected_time":1190000000000,"state":"active","ping":85},{"user_id":599,"name":"jimmy bob","steam_id":76561198319583692,"connected_time":1826000000000,"state":"active","ping":57},{"user_id":621,"name":"Gelo","steam_id":76561198082274576,"connected_time":682000000000,"state":"active","ping":85},{"user_id":607,"name":"Caruzon - Obismal","steam_id":76561198036211170,"connected_time":1054000000000,"state":"active","ping":80},{"user_id":602,"name":"crummy bottom boy","steam_id":76561198106049954,"connected_time":1243000000000,"state":"active","ping":82},{"user_id":608,"name":"DHD - Obismal","steam_id":76561198000356530,"connected_time":1048000000000,"state":"active","ping":76},{"user_id":600,"name":"Minimi","steam_id":76561198873850443,"connected_time":1357000000000,"state":"active","ping":44},{"user_id":609,"name":"R8N - Obismal","steam_id":76561198007482714,"connected_time":1035000000000,"state":"active","ping":82},{"user_id":568,"name":"testing","steam_id":76561199383437138,"connected_time":4493000000000,"state":"active","ping":123},{"user_id":622,"name":"im jelqing","steam_id":76561198236015392,"connected_time":421000000000,"state":"active","ping":116},{"user_id":611,"name":"BigDikNRJ - Obismal","steam_id":76561198055309521,"connected_time":998000000000,"state":"active","ping":71},{"user_id":612,"name":"Elemant","steam_id":76561198112990658,"connected_time":993000000000,"state":"active","ping":61},{"user_id":545,"name":"⸸aura⸸","steam_id":76561198066258544,"connected_time":6376000000000,"state":"active","ping":65},{"user_id":566,"name":"gibb (official)","steam_id":76561198074097655,"connected_time":4637000000000,"state":"active","ping":60},{"user_id":614,"name":"shh.... tiny carrots r sleeping","steam_id":76561198069649097,"connected_time":948000000000,"state":"active","ping":59},{"user_id":623,"name":"Loading....","steam_id":76561198063874351,"connected_time":349000000000,"state":"active","ping":55},{"user_id":615,"name":"Kahvi","steam_id":76561198723244199,"connected_time":918000000000,"state":"active","ping":89},{"user_id":625,"name":"Alexandre","steam_id":76561198121784446,"connected_time":66000000000,"state":"active","ping":40},{"user_id":617,"name":"clunk","steam_id":76561198836460767,"connected_time":772000000000,"state":"active","ping":75},{"user_id":618,"name":"max.b1110","steam_id":76561199454065196,"connected_time":763000000000,"state":"active","ping":54},{"user_id":619,"name":"jekk.97","steam_id":76561198146961838,"connected_time":750000000000,"state":"active","ping":115}]},{"server_id":114,"name":"Uncletopia | London | 2 | All Maps","name_short":"lon-2","host":"lon-1.uk.uncletopia.com","port":27025,"enabled":true,"region":"eu","cc":"gb","latitude":51.509865,"longitude":-0.118092,"reserved":0,"last_update":"0001-01-01T00:00:00Z","name_a2s":"Uncletopia | London | 2 | All Maps","protocol":17,"map":"cp_process_final","folder":"tf","game":"Team Fortress","app_id":440,"player_count":24,"max_players":24,"Bots":0,"server_type":"Dedicated","server_os":"Linux","password":true,"vac":true,"version":"7961495","steam_id":85568392924470941,"keywords":["cp","nocrits","nodmgspread","uncletopia"],"game_id":440,"stv_port":27026,"stv_name":"Uncletopia | London | 2 | All Maps | STV","players":[{"user_id":411,"name":"\u003e\u003c\u003e","steam_id":76561198152392309,"connected_time":3509000000000,"state":"active","ping":44},{"user_id":413,"name":"d u k k i","steam_id":76561198071807437,"connected_time":3375000000000,"state":"active","ping":93},{"user_id":462,"name":"Aeinzalot","steam_id":76561198195288449,"connected_time":399000000000,"state":"active","ping":44},{"user_id":452,"name":"dash.","steam_id":76561198084796149,"connected_time":619000000000,"state":"active","ping":48},{"user_id":453,"name":"A4cleaningshelf","steam_id":76561198388315598,"connected_time":613000000000,"state":"active","ping":54},{"user_id":442,"name":"Vzzzzzt! Rahrahrahrah!","steam_id":76561197980736364,"connected_time":1190000000000,"state":"active","ping":83},{"user_id":416,"name":"Onbeheerde_Jongeheer","steam_id":76561198051685232,"connected_time":3060000000000,"state":"active","ping":44},{"user_id":454,"name":"Kamanie","steam_id":76561198135448255,"connected_time":588000000000,"state":"active","ping":60},{"user_id":444,"name":"Aaron Cahill","steam_id":76561198132831088,"connected_time":1157000000000,"state":"active","ping":70},{"user_id":463,"name":"Bun","steam_id":76561197989239999,"connected_time":258000000000,"state":"active","ping":50},{"user_id":455,"name":"BadFemboy","steam_id":76561198072320671,"connected_time":568000000000,"state":"active","ping":44},{"user_id":446,"name":"hananamanna","steam_id":76561198006570285,"connected_time":1026000000000,"state":"active","ping":119},{"user_id":456,"name":"Javier dorsaless","steam_id":76561198179324075,"connected_time":561000000000,"state":"active","ping":77},{"user_id":457,"name":"Tattletails","steam_id":76561198055690341,"connected_time":552000000000,"state":"active","ping":68},{"user_id":407,"name":"mendako","steam_id":76561198295305088,"connected_time":3567000000000,"state":"active","ping":63},{"user_id":338,"name":"Fat Pigeon","steam_id":76561198817940142,"connected_time":9524000000000,"state":"active","ping":46},{"user_id":386,"name":"cister0","steam_id":76561198130195469,"connected_time":6436000000000,"state":"active","ping":88},{"user_id":436,"name":"mt","steam_id":76561197961319303,"connected_time":1771000000000,"state":"active","ping":59},{"user_id":435,"name":"Mega Man Legends 3","steam_id":76561198014110199,"connected_time":2032000000000,"state":"active","ping":44},{"user_id":459,"name":"Brian","steam_id":76561198077756206,"connected_time":491000000000,"state":"active","ping":42},{"user_id":374,"name":"finbar","steam_id":76561198056812396,"connected_time":7006000000000,"state":"active","ping":77},{"user_id":438,"name":"HarMala","steam_id":76561198055298143,"connected_time":1718000000000,"state":"active","ping":76},{"user_id":458,"name":"Stage 5 Autism","steam_id":76561198370485227,"connected_time":552000000000,"state":"active","ping":67},{"user_id":461,"name":"robyn","steam_id":76561199388526903,"connected_time":459000000000,"state":"active","ping":67}]},{"server_id":320,"name":"Uncletopia | London | 3 | All Maps","name_short":"lon-3","host":"lon-1.uk.uncletopia.com","port":27035,"enabled":true,"region":"eu","cc":"gb","latitude":51.509865,"longitude":-0.118092,"reserved":0,"last_update":"0001-01-01T00:00:00Z","name_a2s":"Uncletopia | London | 3 | All Maps","protocol":17,"map":"pl_upward","folder":"tf","game":"Team Fortress","app_id":440,"player_count":21,"max_players":24,"Bots":0,"server_type":"Dedicated","server_os":"Linux","password":true,"vac":true,"version":"7961495","steam_id":85568392924510192,"keywords":["nocrits","nodmgspread","payload","uncletopia"],"game_id":440,"stv_port":27036,"stv_name":"Uncletopia | London | 3 | All Maps | STV","players":[{"user_id":18,"name":"Ixsus\u003c3","steam_id":76561198094756869,"connected_time":5174000000000,"state":"active","ping":62},{"user_id":105,"name":"No Status","steam_id":76561198119526557,"connected_time":684000000000,"state":"active","ping":39},{"user_id":98,"name":"Balls","steam_id":76561198086400484,"connected_time":1099000000000,"state":"active","ping":67},{"user_id":106,"name":"Jeffrey Harpen","steam_id":76561199073314677,"connected_time":626000000000,"state":"active","ping":79},{"user_id":88,"name":"torn","steam_id":76561198223003236,"connected_time":1516000000000,"state":"active","ping":39},{"user_id":27,"name":"ornithology 1:1","steam_id":76561198097239850,"connected_time":4936000000000,"state":"active","ping":64},{"user_id":102,"name":"PocketTieAMPLFY","steam_id":76561199080485881,"connected_time":984000000000,"state":"active","ping":181},{"user_id":52,"name":"Realuser30","steam_id":76561198077550318,"connected_time":4026000000000,"state":"active","ping":67},{"user_id":83,"name":"r^f nyanezt","steam_id":76561198253734265,"connected_time":1677000000000,"state":"active","ping":110},{"user_id":60,"name":"Mury","steam_id":76561198069743049,"connected_time":2855000000000,"state":"active","ping":131},{"user_id":96,"name":"Ralph The Frog","steam_id":76561198074526577,"connected_time":1186000000000,"state":"active","ping":116},{"user_id":45,"name":"BRICK TOP","steam_id":76561198014366715,"connected_time":4455000000000,"state":"active","ping":38},{"user_id":97,"name":"laza's","steam_id":76561199074095198,"connected_time":1150000000000,"state":"active","ping":110},{"user_id":99,"name":"skai","steam_id":76561198184881255,"connected_time":1089000000000,"state":"active","ping":75},{"user_id":63,"name":"GunGuy","steam_id":76561198124510978,"connected_time":2770000000000,"state":"active","ping":40},{"user_id":108,"name":"Arc21Flames","steam_id":76561199105131558,"connected_time":452000000000,"state":"active","ping":101},{"user_id":110,"name":"emperor","steam_id":76561198136959681,"connected_time":174000000000,"state":"active","ping":46},{"user_id":78,"name":"yodel","steam_id":76561198138777659,"connected_time":1902000000000,"state":"active","ping":52},{"user_id":92,"name":"Dr. Funkenstein","steam_id":76561197977816210,"connected_time":1381000000000,"state":"active","ping":61},{"user_id":73,"name":"Vilmukas","steam_id":76561199106648396,"connected_time":2424000000000,"state":"active","ping":70},{"user_id":54,"name":"Ullr","steam_id":76561198140547483,"connected_time":3466000000000,"state":"active","ping":40}]},{"server_id":321,"name":"Uncletopia | London | 4 | All Maps","name_short":"lon-4","host":"lon-1.uk.uncletopia.com","port":27045,"enabled":true,"region":"eu","cc":"gb","latitude":51.509865,"longitude":-0.118092,"reserved":0,"last_update":"0001-01-01T00:00:00Z","name_a2s":"Uncletopia | London | 4 | All Maps","protocol":17,"map":"pl_barnblitz","folder":"tf","game":"Team Fortress","app_id":440,"player_count":24,"max_players":24,"Bots":0,"server_type":"Dedicated","server_os":"Linux","password":true,"vac":true,"version":"7961495","steam_id":85568392924510193,"keywords":["nocrits","nodmgspread","payload","uncletopia"],"game_id":440,"stv_port":27046,"stv_name":"Uncletopia | London | 4 | All Maps | STV","players":[{"user_id":169,"name":"MrRoAndrei","steam_id":76561198205282000,"connected_time":1358000000000,"state":"active","ping":64},{"user_id":181,"name":"I have no duck and I must quack","steam_id":76561198061920656,"connected_time":622000000000,"state":"active","ping":76},{"user_id":157,"name":"Scarlet","steam_id":76561198075966579,"connected_time":2367000000000,"state":"active","ping":36},{"user_id":176,"name":"White [C-42]","steam_id":76561197987924531,"connected_time":873000000000,"state":"active","ping":71},{"user_id":177,"name":"ice cream","steam_id":76561198087718730,"connected_time":868000000000,"state":"active","ping":56},{"user_id":152,"name":"Gentlemann Co.","steam_id":76561197997142921,"connected_time":2879000000000,"state":"active","ping":49},{"user_id":120,"name":"Procra Stinator","steam_id":76561198039326848,"connected_time":5550000000000,"state":"active","ping":60},{"user_id":153,"name":"twscsvl","steam_id":76561198045304929,"connected_time":2821000000000,"state":"active","ping":90},{"user_id":184,"name":"LordTrap.exe","steam_id":76561198318089716,"connected_time":185000000000,"state":"active","ping":65},{"user_id":111,"name":"lillunya ♡","steam_id":76561198330418866,"connected_time":5900000000000,"state":"active","ping":73},{"user_id":185,"name":"night.s","steam_id":76561198326287823,"connected_time":120000000000,"state":"active","ping":85},{"user_id":161,"name":"ScampSixteen","steam_id":76561198021771000,"connected_time":1964000000000,"state":"active","ping":52},{"user_id":132,"name":"Abdul2091","steam_id":76561198073781577,"connected_time":4452000000000,"state":"active","ping":74},{"user_id":175,"name":"Sandvich","steam_id":76561199079493666,"connected_time":927000000000,"state":"active","ping":106},{"user_id":139,"name":"ₔkacper2010sₔ","steam_id":76561199074731477,"connected_time":3728000000000,"state":"active","ping":108},{"user_id":180,"name":"Jnet","steam_id":76561198001282720,"connected_time":663000000000,"state":"active","ping":93},{"user_id":183,"name":"golfmastr","steam_id":76561198993144124,"connected_time":207000000000,"state":"active","ping":83},{"user_id":154,"name":"RocketBoy08","steam_id":76561198833978944,"connected_time":2811000000000,"state":"active","ping":104},{"user_id":179,"name":"guru{Hari}","steam_id":76561197997001681,"connected_time":741000000000,"state":"active","ping":76},{"user_id":151,"name":"piper","steam_id":76561198112687349,"connected_time":2885000000000,"state":"active","ping":44},{"user_id":166,"name":"panda","steam_id":76561199042470246,"connected_time":1752000000000,"state":"active","ping":74},{"user_id":170,"name":"It's a me Malario","steam_id":76561198176546013,"connected_time":1317000000000,"state":"active","ping":53},{"user_id":105,"name":"randem_","steam_id":76561198338793755,"connected_time":6233000000000,"state":"active","ping":38},{"user_id":186,"name":"GigaСhad Pyro","steam_id":76561198140742485,"connected_time":96000000000,"state":"active","ping":106}]},{"server_id":21,"name":"Uncletopia | London | 5 | All Maps","name_short":"lon-5","host":"lon-1.uk.uncletopia.com","port":27055,"enabled":true,"region":"eu","cc":"gb","latitude":51.509865,"longitude":-0.118092,"reserved":0,"last_update":"0001-01-01T00:00:00Z","name_a2s":"Uncletopia | London | 5 | All Maps","protocol":17,"map":"pl_upward","folder":"tf","game":"Team Fortress","app_id":440,"player_count":23,"max_players":24,"Bots":0,"server_type":"Dedicated","server_os":"Linux","password":true,"vac":true,"version":"7961495","steam_id":85568392924742829,"keywords":["nocrits","nodmgspread","payload","uncletopia"],"game_id":440,"stv_port":27056,"stv_name":"Uncletopia | London | 5 | All Maps | STV","players":[{"user_id":207,"name":"sAmasam","steam_id":76561198114953928,"connected_time":8604000000000,"state":"active","ping":60},{"user_id":315,"name":"Senior","steam_id":76561198065014164,"connected_time":53000000000,"state":"active","ping":52},{"user_id":208,"name":"t0ksi","steam_id":76561198107240798,"connected_time":8572000000000,"state":"active","ping":77},{"user_id":317,"name":"glass of drink","steam_id":76561198881074696,"connected_time":31000000000,"state":"active","ping":98},{"user_id":296,"name":"Penis Contortionist","steam_id":76561198073663784,"connected_time":2067000000000,"state":"active","ping":35},{"user_id":312,"name":"Chris","steam_id":76561198179791702,"connected_time":394000000000,"state":"active","ping":180},{"user_id":239,"name":"Dangerous Andrew","steam_id":76561198067218981,"connected_time":5834000000000,"state":"active","ping":99},{"user_id":302,"name":"alpha","steam_id":76561198250491640,"connected_time":1143000000000,"state":"active","ping":46},{"user_id":316,"name":"Stroz","steam_id":76561198146444213,"connected_time":43000000000,"state":"active","ping":70},{"user_id":255,"name":"miika?","steam_id":76561198206027675,"connected_time":4970000000000,"state":"active","ping":90},{"user_id":306,"name":"wheelie bin","steam_id":76561198040040328,"connected_time":1079000000000,"state":"active","ping":45},{"user_id":295,"name":"engie?","steam_id":76561198331852832,"connected_time":2088000000000,"state":"active","ping":141},{"user_id":291,"name":"Kraftlos","steam_id":76561198074350350,"connected_time":2508000000000,"state":"active","ping":129},{"user_id":230,"name":"Duke Skywalker","steam_id":76561199231296521,"connected_time":6874000000000,"state":"active","ping":129},{"user_id":304,"name":"flave","steam_id":76561198056372101,"connected_time":1122000000000,"state":"active","ping":76},{"user_id":318,"name":"(1)Alpha","steam_id":76561198133229149,"connected_time":25000000000,"state":"active","ping":98},{"user_id":293,"name":"Dakeyras","steam_id":76561198057069564,"connected_time":2251000000000,"state":"active","ping":100},{"user_id":305,"name":"ofri30","steam_id":76561198809151509,"connected_time":1115000000000,"state":"active","ping":101},{"user_id":287,"name":"Mr. Cobbweb","steam_id":76561198215079953,"connected_time":3393000000000,"state":"active","ping":74},{"user_id":314,"name":"-RRAZALAS","steam_id":76561198043604364,"connected_time":249000000000,"state":"active","ping":62},{"user_id":292,"name":"Tort","steam_id":76561198329646769,"connected_time":2480000000000,"state":"active","ping":59},{"user_id":313,"name":"Cpt_frost","steam_id":76561198218034817,"connected_time":270000000000,"state":"active","ping":53},{"user_id":300,"name":"Ezekiel","steam_id":76561198094758336,"connected_time":1537000000000,"state":"active","ping":47}]},{"server_id":22,"name":"Uncletopia | London | 6 | All Maps","name_short":"lon-6","host":"lon-1.uk.uncletopia.com","port":27065,"enabled":true,"region":"eu","cc":"gb","latitude":51.509865,"longitude":-0.118092,"reserved":0,"last_update":"0001-01-01T00:00:00Z","name_a2s":"Uncletopia | London | 6 | All Maps","protocol":17,"map":"koth_highpass","folder":"tf","game":"Team Fortress","app_id":440,"player_count":24,"max_players":24,"Bots":0,"server_type":"Dedicated","server_os":"Linux","password":true,"vac":true,"version":"7961495","steam_id":85568392924742830,"keywords":["cp","nocrits","nodmgspread","uncletopia"],"game_id":440,"stv_port":27066,"stv_name":"Uncletopia | London | 6 | All Maps | STV","players":[{"user_id":118,"name":"skilltissues","steam_id":76561198025828664,"connected_time":260000000000,"state":"active","ping":51},{"user_id":81,"name":"verysexy_säkki","steam_id":76561198857771381,"connected_time":3331000000000,"state":"active","ping":106},{"user_id":124,"name":"Luigi","steam_id":76561198196910287,"connected_time":41000000000,"state":"spawning","ping":46},{"user_id":116,"name":"Cosmo","steam_id":76561198078378048,"connected_time":302000000000,"state":"active","ping":48},{"user_id":117,"name":"Max Andrew","steam_id":76561198158955194,"connected_time":286000000000,"state":"active","ping":69},{"user_id":107,"name":"morbius (a lenda da marvel)","steam_id":76561198156198125,"connected_time":723000000000,"state":"active","ping":87},{"user_id":95,"name":"dochris.2","steam_id":76561198026478625,"connected_time":1663000000000,"state":"active","ping":59},{"user_id":119,"name":"KarlRanzeier","steam_id":76561198066281337,"connected_time":236000000000,"state":"active","ping":63},{"user_id":43,"name":"sareena","steam_id":76561198810194062,"connected_time":5831000000000,"state":"active","ping":74},{"user_id":21,"name":"55555","steam_id":76561199060683386,"connected_time":6406000000000,"state":"active","ping":60},{"user_id":22,"name":"slow learner","steam_id":76561198036730191,"connected_time":6394000000000,"state":"active","ping":33},{"user_id":103,"name":"goop","steam_id":76561198190073005,"connected_time":1346000000000,"state":"active","ping":44},{"user_id":120,"name":"RLCrazyCat3","steam_id":76561197983757878,"connected_time":223000000000,"state":"active","ping":62},{"user_id":75,"name":"Mike","steam_id":76561198228455736,"connected_time":3926000000000,"state":"active","ping":51},{"user_id":63,"name":"snert","steam_id":76561198451550309,"connected_time":4652000000000,"state":"active","ping":50},{"user_id":92,"name":"Solymr ibn Wali Barad","steam_id":76561198044008976,"connected_time":1898000000000,"state":"active","ping":77},{"user_id":121,"name":"Marl Karx","steam_id":76561198396797516,"connected_time":211000000000,"state":"active","ping":65},{"user_id":110,"name":"Logic Not Found","steam_id":76561198273025576,"connected_time":651000000000,"state":"active","ping":41},{"user_id":93,"name":"ASSEMBLE FROYO BROS","steam_id":76561198116223995,"connected_time":1830000000000,"state":"active","ping":60},{"user_id":115,"name":"_Asbestos_","steam_id":76561199164605532,"connected_time":316000000000,"state":"active","ping":70},{"user_id":122,"name":"$t@lker_Tim","steam_id":76561198963658042,"connected_time":197000000000,"state":"active","ping":118},{"user_id":76,"name":"GoatLord1","steam_id":76561198157964544,"connected_time":3840000000000,"state":"active","ping":51},{"user_id":125,"name":"powej","steam_id":76561198056381418,"connected_time":34000000000,"state":"active","ping":30},{"user_id":114,"name":"Chish n' Fips","steam_id":76561198012300440,"connected_time":325000000000,"state":"active","ping":45}]},{"server_id":40,"name":"Uncletopia | London | 7 | Stopwatch","name_short":"lon-7","host":"lon-1.uk.uncletopia.com","port":27075,"enabled":true,"region":"eu","cc":"gb","latitude":51.509865,"longitude":-0.118092,"reserved":0,"last_update":"0001-01-01T00:00:00Z","name_a2s":"Uncletopia | London | 7 | Stopwatch","protocol":17,"map":"workshop/koth_product_final.ugc454272353","folder":"tf","game":"Team Fortress","app_id":440,"player_count":0,"max_players":24,"Bots":0,"server_type":"Dedicated","server_os":"Linux","password":true,"vac":true,"version":"7961495","steam_id":85568392924964314,"keywords":["cp","nocrits","nodmgspread","uncletopia"],"game_id":440,"stv_port":27076,"stv_name":"Uncletopia | London | 7 | Stopwatch | STV","players":null},{"server_id":41,"name":"Uncletopia | London | 8 | Community","name_short":"lon-8","host":"lon-1.uk.uncletopia.com","port":27085,"enabled":true,"region":"eu","cc":"gb","latitude":51.509865,"longitude":-0.118092,"reserved":0,"last_update":"0001-01-01T00:00:00Z","name_a2s":"Uncletopia | London | 8 | Community","protocol":17,"map":"workshop/pl_fifthcurve_rc1.ugc648227046","folder":"tf","game":"Team Fortress","app_id":440,"player_count":0,"max_players":24,"Bots":0,"server_type":"Dedicated","server_os":"Linux","password":true,"vac":true,"version":"7961495","steam_id":85568392924964315,"keywords":["nocrits","nodmgspread","payload","uncletopia"],"game_id":440,"stv_port":27086,"stv_name":"Uncletopia | London | 8 | Community | STV","players":null},{"server_id":300,"name":"Uncletopia | Montréal | 1 | One Thousand Uncles","name_short":"mtl-1","host":"mtl-1.ca.uncletopia.com","port":27015,"enabled":true,"region":"us-east","cc":"ca","latitude":45.50889,"longitude":-73.56167,"reserved":0,"last_update":"0001-01-01T00:00:00Z","name_a2s":"","protocol":0,"map":"","folder":"","game":"","app_id":0,"player_count":0,"max_players":0,"Bots":0,"server_type":"","server_os":"","password":false,"vac":false,"version":"","steam_id":0,"keywords":null,"game_id":0,"stv_port":0,"stv_name":"","players":null},{"server_id":301,"name":"Uncletopia | Montréal | 2 | One Thousand Uncles","name_short":"mtl-2","host":"mtl-1.ca.uncletopia.com","port":27025,"enabled":true,"region":"us-east","cc":"ca","latitude":45.50889,"longitude":-73.56167,"reserved":0,"last_update":"0001-01-01T00:00:00Z","name_a2s":"","protocol":0,"map":"","folder":"","game":"","app_id":0,"player_count":4,"max_players":0,"Bots":0,"server_type":"","server_os":"","password":false,"vac":false,"version":"","steam_id":0,"keywords":null,"game_id":0,"stv_port":0,"stv_name":"","players":[{"user_id":71,"name":"MuchoSexo123","steam_id":76561199096630569,"connected_time":2947000000000,"state":"active","ping":170},{"user_id":88,"name":"BinaryBitGamer[They/Them]","steam_id":76561198140761006,"connected_time":1694000000000,"state":"active","ping":57},{"user_id":89,"name":"MintyGhoul666","steam_id":76561198232417796,"connected_time":1038000000000,"state":"active","ping":55},{"user_id":106,"name":"BIGGEST MAC","steam_id":76561198847517098,"connected_time":190000000000,"state":"active","ping":74}]},{"server_id":302,"name":"Uncletopia | Montréal | 3 | One Thousand Uncles","name_short":"mtl-3","host":"mtl-1.ca.uncletopia.com","port":27035,"enabled":true,"region":"us-east","cc":"ca","latitude":45.50889,"longitude":-73.56167,"reserved":0,"last_update":"0001-01-01T00:00:00Z","name_a2s":"","protocol":0,"map":"","folder":"","game":"","app_id":0,"player_count":2,"max_players":0,"Bots":0,"server_type":"","server_os":"","password":false,"vac":false,"version":"","steam_id":0,"keywords":null,"game_id":0,"stv_port":0,"stv_name":"","players":[{"user_id":71,"name":"KeinNameVorhanden","steam_id":76561199028307677,"connected_time":704000000000,"state":"active","ping":150},{"user_id":88,"name":".FRUCADE","steam_id":76561198415785034,"connected_time":661000000000,"state":"active","ping":142}]},{"server_id":13,"name":"Uncletopia | New York City | 1 | All Maps","name_short":"nyc-1","host":"nyc-1.us.uncletopia.com","port":27015,"enabled":true,"region":"us-east","cc":"us","latitude":40.73061,"longitude":-73.93524,"reserved":0,"last_update":"0001-01-01T00:00:00Z","name_a2s":"Uncletopia | New York City | 1 | All Maps","protocol":17,"map":"pl_swiftwater_final1","folder":"tf","game":"Team Fortress","app_id":440,"player_count":25,"max_players":24,"Bots":0,"server_type":"Dedicated","server_os":"Linux","password":true,"vac":true,"version":"7961495","steam_id":85568392924469993,"keywords":["nocrits","nodmgspread","payload","uncletopia"],"game_id":440,"stv_port":27016,"stv_name":"Uncletopia | New York City | 1 | All Maps | STV","players":[{"user_id":271,"name":"Ebro","steam_id":76561198282515057,"connected_time":1906000000000,"state":"active","ping":91},{"user_id":235,"name":"Sergeant Joker #savetf2","steam_id":76561198854616604,"connected_time":5082000000000,"state":"active","ping":51},{"user_id":208,"name":"SpaceSanctum","steam_id":76561198805242305,"connected_time":6944000000000,"state":"active","ping":45},{"user_id":227,"name":"spaghetti","steam_id":76561198069600113,"connected_time":5278000000000,"state":"active","ping":45},{"user_id":274,"name":"Carl, Good to see you","steam_id":76561198070574075,"connected_time":1531000000000,"state":"active","ping":79},{"user_id":249,"name":"The Cavalry Is Almost Here","steam_id":76561198044856349,"connected_time":3667000000000,"state":"active","ping":62},{"user_id":272,"name":"get scrongled, idiot","steam_id":76561198115874625,"connected_time":1800000000000,"state":"active","ping":93},{"user_id":253,"name":"Sir Quacksalot","steam_id":76561198048942777,"connected_time":3332000000000,"state":"active","ping":102},{"user_id":270,"name":"Perpul","steam_id":76561198075458738,"connected_time":1926000000000,"state":"active","ping":70},{"user_id":281,"name":"pnut","steam_id":76561198043862737,"connected_time":494000000000,"state":"active","ping":45},{"user_id":275,"name":"EpitapH","steam_id":76561198211642559,"connected_time":1507000000000,"state":"active","ping":63},{"user_id":286,"name":"Hawkborne","steam_id":76561198107249245,"connected_time":67000000000,"state":"active","ping":89},{"user_id":261,"name":"BLØRG","steam_id":76561198036126673,"connected_time":2881000000000,"state":"active","ping":93},{"user_id":218,"name":"Psychobells","steam_id":76561197995620232,"connected_time":6074000000000,"state":"active","ping":41},{"user_id":252,"name":"Braamklauw","steam_id":76561198283287697,"connected_time":3397000000000,"state":"active","ping":134},{"user_id":285,"name":"Harven Cosset","steam_id":76561198399526024,"connected_time":112000000000,"state":"active","ping":69},{"user_id":287,"name":"Jin Mu-Won","steam_id":76561198414122318,"connected_time":34000000000,"state":"active","ping":77},{"user_id":266,"name":"fart shitson","steam_id":76561198986534519,"connected_time":2374000000000,"state":"active","ping":109},{"user_id":278,"name":"SHADY SWEATER SALESMAN","steam_id":76561198014616865,"connected_time":1084000000000,"state":"active","ping":47},{"user_id":263,"name":"Outlier","steam_id":76561199093787770,"connected_time":2837000000000,"state":"active","ping":82},{"user_id":233,"name":"the keebler","steam_id":76561199486326945,"connected_time":5160000000000,"state":"active","ping":72},{"user_id":273,"name":"Mojave Mo'Problem","steam_id":76561198021706593,"connected_time":1542000000000,"state":"active","ping":67},{"user_id":276,"name":"Piggypot","steam_id":76561199106826976,"connected_time":1474000000000,"state":"active","ping":71},{"user_id":288,"name":"totally not a pile of beans","steam_id":76561198119851931,"connected_time":20000000000,"state":"active","ping":79},{"user_id":289,"name":"Keymaster","steam_id":76561198881514228,"connected_time":1000000000,"state":"spawning","ping":51}]},{"server_id":14,"name":"Uncletopia | New York City | 2 | All Maps","name_short":"nyc-2","host":"nyc-1.us.uncletopia.com","port":27025,"enabled":true,"region":"us-east","cc":"us","latitude":40.73061,"longitude":-73.93524,"reserved":0,"last_update":"0001-01-01T00:00:00Z","name_a2s":"Uncletopia | New York City | 2 | All Maps","protocol":17,"map":"pl_frontier_final","folder":"tf","game":"Team Fortress","app_id":440,"player_count":0,"max_players":24,"Bots":0,"server_type":"Dedicated","server_os":"Linux","password":true,"vac":true,"version":"7961495","steam_id":85568392924469994,"keywords":["nocrits","nodmgspread","payload","uncletopia"],"game_id":440,"stv_port":27026,"stv_name":"Uncletopia | New York City | 2 | All Maps | STV","players":null},{"server_id":15,"name":"Uncletopia | New York City | 3 | Stopwatch","name_short":"nyc-3","host":"nyc-1.us.uncletopia.com","port":27035,"enabled":true,"region":"us-east","cc":"us","latitude":40.73061,"longitude":-73.93524,"reserved":0,"last_update":"0001-01-01T00:00:00Z","name_a2s":"Uncletopia | New York City | 3 | Stopwatch","protocol":17,"map":"workshop/koth_product_final.ugc454272353","folder":"tf","game":"Team Fortress","app_id":440,"player_count":0,"max_players":24,"Bots":0,"server_type":"Dedicated","server_os":"Linux","password":true,"vac":true,"version":"7961495","steam_id":85568392924742820,"keywords":["cp","nocrits","nodmgspread","uncletopia"],"game_id":440,"stv_port":27036,"stv_name":"Uncletopia | New York City | 3 | Stopwatch | STV","players":null},{"server_id":16,"name":"Uncletopia | New York City | 4 | Community","name_short":"nyc-4","host":"nyc-1.us.uncletopia.com","port":27045,"enabled":true,"region":"us-east","cc":"us","latitude":40.73061,"longitude":-73.93524,"reserved":0,"last_update":"0001-01-01T00:00:00Z","name_a2s":"Uncletopia | New York City | 4 | Community","protocol":17,"map":"cp_altitude","folder":"tf","game":"Team Fortress","app_id":440,"player_count":0,"max_players":24,"Bots":0,"server_type":"Dedicated","server_os":"Linux","password":true,"vac":true,"version":"7961495","steam_id":85568392924742821,"keywords":["cp","nocrits","nodmgspread","uncletopia"],"game_id":440,"stv_port":27046,"stv_name":"Uncletopia | New York City | 4 | Community | STV","players":null},{"server_id":142,"name":"Uncletopia | São Paulo | 1 | All Maps","name_short":"sao-1","host":"sao-1.br.uncletopia.com","port":27015,"enabled":true,"region":"sa","cc":"br","latitude":-23.533773,"longitude":-46.62529,"reserved":0,"last_update":"0001-01-01T00:00:00Z","name_a2s":"Uncletopia | São Paulo | 1 | All Maps","protocol":17,"map":"cp_process_final","folder":"tf","game":"Team Fortress","app_id":440,"player_count":1,"max_players":24,"Bots":0,"server_type":"Dedicated","server_os":"Linux","password":true,"vac":true,"version":"7961495","steam_id":85568392924469996,"keywords":["cp","nocrits","nodmgspread","uncletopia"],"game_id":440,"stv_port":27016,"stv_name":"Uncletopia | São Paulo | 1 | All Maps | STV","players":[{"user_id":4,"name":"Secun","steam_id":76561199071990794,"connected_time":302000000000,"state":"active","ping":29}]},{"server_id":143,"name":"Uncletopia | São Paulo | 2 | Community","name_short":"sao-2","host":"sao-2.br.uncletopia.com","port":27015,"enabled":true,"region":"sa","cc":"br","latitude":-23.533773,"longitude":-46.62529,"reserved":0,"last_update":"0001-01-01T00:00:00Z","name_a2s":"Uncletopia | São Paulo | 2 | Community","protocol":17,"map":"workshop/cp_hazyfort_rc6.ugc1365963729","folder":"tf","game":"Team Fortress","app_id":440,"player_count":0,"max_players":24,"Bots":0,"server_type":"Dedicated","server_os":"Linux","password":true,"vac":true,"version":"7961495","steam_id":85568392924485349,"keywords":["cp","nocrits","nodmgspread","uncletopia"],"game_id":440,"stv_port":27016,"stv_name":"Uncletopia | São Paulo | 2 | Community | STV","players":null},{"server_id":7,"name":"Uncletopia | Seattle | 1 | All Maps","name_short":"sea-1","host":"sea-1.us.uncletopia.com","port":27015,"enabled":true,"region":"us-west","cc":"us","latitude":47.608013,"longitude":-122.33517,"reserved":0,"last_update":"0001-01-01T00:00:00Z","name_a2s":"Uncletopia | Seattle | 1 | All Maps","protocol":17,"map":"cp_steel","folder":"tf","game":"Team Fortress","app_id":440,"player_count":24,"max_players":24,"Bots":0,"server_type":"Dedicated","server_os":"Linux","password":true,"vac":true,"version":"7961495","steam_id":85568392924469997,"keywords":["cp","nocrits","nodmgspread","uncletopia"],"game_id":440,"stv_port":27016,"stv_name":"Uncletopia | Seattle | 1 | All Maps | STV","players":[{"user_id":144,"name":"box","steam_id":76561198049531483,"connected_time":997000000000,"state":"active","ping":134},{"user_id":14,"name":"slushy :))","steam_id":76561198135281802,"connected_time":7097000000000,"state":"active","ping":30},{"user_id":119,"name":"GotDip","steam_id":76561198012764949,"connected_time":1479000000000,"state":"active","ping":75},{"user_id":151,"name":"Pim","steam_id":76561198046050375,"connected_time":728000000000,"state":"active","ping":81},{"user_id":67,"name":"[TF2Apples] Intense Green Apple","steam_id":76561198803561622,"connected_time":4064000000000,"state":"active","ping":123},{"user_id":68,"name":"Lamb","steam_id":76561198330819554,"connected_time":4032000000000,"state":"active","ping":69},{"user_id":143,"name":"River Rat","steam_id":76561198116383976,"connected_time":1004000000000,"state":"active","ping":56},{"user_id":23,"name":"The Great Eagle Scourge of 1822","steam_id":76561198325086209,"connected_time":6186000000000,"state":"active","ping":74},{"user_id":25,"name":"toes","steam_id":76561198221151676,"connected_time":6135000000000,"state":"active","ping":59},{"user_id":63,"name":"CantaloupeKing","steam_id":76561198041949472,"connected_time":4580000000000,"state":"active","ping":63},{"user_id":149,"name":"H.","steam_id":76561198074951179,"connected_time":808000000000,"state":"active","ping":81},{"user_id":147,"name":"Charlie","steam_id":76561198798127908,"connected_time":966000000000,"state":"active","ping":104},{"user_id":146,"name":"mrow","steam_id":76561198171840525,"connected_time":985000000000,"state":"active","ping":46},{"user_id":40,"name":"8bitprick","steam_id":76561199474825993,"connected_time":5530000000000,"state":"active","ping":110},{"user_id":152,"name":"Retesaurus","steam_id":76561198045189319,"connected_time":462000000000,"state":"active","ping":46},{"user_id":150,"name":"Translucent૮₍ • ᴥ •","steam_id":76561199212057076,"connected_time":742000000000,"state":"active","ping":75},{"user_id":76,"name":"Silverman_Cam","steam_id":76561198936168937,"connected_time":2714000000000,"state":"active","ping":78},{"user_id":66,"name":"Vincent Van Bro","steam_id":76561197966919802,"connected_time":4299000000000,"state":"active","ping":47},{"user_id":145,"name":"Shark Sandwich","steam_id":76561198025007938,"connected_time":992000000000,"state":"active","ping":47},{"user_id":60,"name":"smeasly","steam_id":76561198028718812,"connected_time":4763000000000,"state":"active","ping":45},{"user_id":72,"name":"goofy goober","steam_id":76561199024079388,"connected_time":3533000000000,"state":"active","ping":45},{"user_id":53,"name":"hog cranker","steam_id":76561198073587145,"connected_time":5242000000000,"state":"active","ping":104},{"user_id":78,"name":"Toaster (Hamilton Beach)","steam_id":76561198039891934,"connected_time":2686000000000,"state":"active","ping":67},{"user_id":154,"name":"Nibotshooter","steam_id":76561199284825579,"connected_time":302000000000,"state":"active","ping":76}]},{"server_id":119,"name":"Uncletopia | Seattle | 2 | All Maps","name_short":"sea-2","host":"sea-1.us.uncletopia.com","port":27025,"enabled":true,"region":"us-west","cc":"us","latitude":47.608013,"longitude":-122.33517,"reserved":0,"last_update":"0001-01-01T00:00:00Z","name_a2s":"Uncletopia | Seattle | 2 | All Maps","protocol":17,"map":"pl_badwater","folder":"tf","game":"Team Fortress","app_id":440,"player_count":0,"max_players":24,"Bots":0,"server_type":"Dedicated","server_os":"Linux","password":true,"vac":true,"version":"7961495","steam_id":85568392924469998,"keywords":["nocrits","nodmgspread","payload","uncletopia"],"game_id":440,"stv_port":27026,"stv_name":"Uncletopia | Seattle | 2 | All Maps | STV","players":null},{"server_id":406,"name":"Uncletopia | Seattle | 3 | Stopwatch","name_short":"sea-3","host":"sea-1.us.uncletopia.com","port":27035,"enabled":true,"region":"us-west","cc":"us","latitude":47.608013,"longitude":-122.33517,"reserved":0,"last_update":"0001-01-01T00:00:00Z","name_a2s":"Uncletopia | Seattle | 3 | Stopwatch","protocol":17,"map":"pl_pier","folder":"tf","game":"Team Fortress","app_id":440,"player_count":0,"max_players":24,"Bots":0,"server_type":"Dedicated","server_os":"Linux","password":true,"vac":true,"version":"7961495","steam_id":85568392924515217,"keywords":["nocrits","nodmgspread","payload","uncletopia"],"game_id":440,"stv_port":27036,"stv_name":"Uncletopia | Seattle | 3 | Stopwatch | STV","players":null},{"server_id":17,"name":"Uncletopia | San Francisco | 1 | All Maps","name_short":"sfo-1","host":"sfo-1.us.uncletopia.com","port":27015,"enabled":true,"region":"us-west","cc":"us","latitude":37.77397,"longitude":-122.4313,"reserved":0,"last_update":"0001-01-01T00:00:00Z","name_a2s":"Uncletopia | San Francisco | 1 | All Maps","protocol":17,"map":"koth_cascade","folder":"tf","game":"Team Fortress","app_id":440,"player_count":0,"max_players":24,"Bots":0,"server_type":"Dedicated","server_os":"Linux","password":true,"vac":true,"version":"7961495","steam_id":85568392924469999,"keywords":["cp","nocrits","nodmgspread","uncletopia"],"game_id":440,"stv_port":27016,"stv_name":"Uncletopia | San Francisco | 1 | All Maps | STV","players":null},{"server_id":18,"name":"Uncletopia | San Francisco | 2 | All Maps","name_short":"sfo-2","host":"sfo-1.us.uncletopia.com","port":27025,"enabled":true,"region":"us-west","cc":"us","latitude":37.77397,"longitude":-122.4313,"reserved":0,"last_update":"0001-01-01T00:00:00Z","name_a2s":"Uncletopia | San Francisco | 2 | All Maps","protocol":17,"map":"pl_frontier_final","folder":"tf","game":"Team Fortress","app_id":440,"player_count":0,"max_players":24,"Bots":0,"server_type":"Dedicated","server_os":"Linux","password":true,"vac":true,"version":"7961495","steam_id":85568392924470000,"keywords":["nocrits","nodmgspread","payload","uncletopia"],"game_id":440,"stv_port":27026,"stv_name":"Uncletopia | San Francisco | 2 | All Maps | STV","players":null},{"server_id":19,"name":"Uncletopia | San Francisco | 3 | Stopwatch","name_short":"sfo-3","host":"sfo-1.us.uncletopia.com","port":27035,"enabled":true,"region":"us-west","cc":"us","latitude":37.77397,"longitude":-122.4313,"reserved":0,"last_update":"0001-01-01T00:00:00Z","name_a2s":"Uncletopia | San Francisco | 3 | Stopwatch","protocol":17,"map":"pl_pier","folder":"tf","game":"Team Fortress","app_id":440,"player_count":0,"max_players":24,"Bots":0,"server_type":"Dedicated","server_os":"Linux","password":true,"vac":true,"version":"7961495","steam_id":85568392924742824,"keywords":["nocrits","nodmgspread","payload","uncletopia"],"game_id":440,"stv_port":27036,"stv_name":"Uncletopia | San Francisco | 3 | Stopwatch | STV","players":null},{"server_id":20,"name":"Uncletopia | San Francisco | 4 | Community","name_short":"sfo-4","host":"sfo-1.us.uncletopia.com","port":27045,"enabled":true,"region":"us-west","cc":"us","latitude":37.77397,"longitude":-122.4313,"reserved":0,"last_update":"0001-01-01T00:00:00Z","name_a2s":"Uncletopia | San Francisco | 4 | Community","protocol":17,"map":"pl_pier","folder":"tf","game":"Team Fortress","app_id":440,"player_count":0,"max_players":24,"Bots":0,"server_type":"Dedicated","server_os":"Linux","password":true,"vac":true,"version":"7961495","steam_id":85568392924742826,"keywords":["nocrits","nodmgspread","payload","uncletopia"],"game_id":440,"stv_port":27046,"stv_name":"Uncletopia | San Francisco | 4 | Community | STV","players":null},{"server_id":141,"name":"Uncletopia | Sydney | 1 | All Maps","name_short":"syd-1","host":"syd-1.au.uncletopia.com","port":27015,"enabled":true,"region":"au","cc":"au","latitude":-33.865143,"longitude":151.2099,"reserved":0,"last_update":"0001-01-01T00:00:00Z","name_a2s":"Uncletopia | Sydney | 1 | All Maps","protocol":17,"map":"cp_dustbowl","folder":"tf","game":"Team Fortress","app_id":440,"player_count":2,"max_players":24,"Bots":0,"server_type":"Dedicated","server_os":"Linux","password":true,"vac":true,"version":"7961495","steam_id":85568392924470001,"keywords":["cp","nocrits","nodmgspread","uncletopia"],"game_id":440,"stv_port":27016,"stv_name":"Uncletopia | Sydney | 1 | All Maps | STV","players":[{"user_id":508,"name":"BIGNATE","steam_id":76561199207791519,"connected_time":1974000000000,"state":"active","ping":140},{"user_id":496,"name":"Turret","steam_id":76561198054728921,"connected_time":8115000000000,"state":"active","ping":127}]},{"server_id":123,"name":"Uncletopia | Sydney | 2 | All Maps","name_short":"syd-2","host":"syd-1.au.uncletopia.com","port":27025,"enabled":true,"region":"au","cc":"au","latitude":-33.865143,"longitude":151.2099,"reserved":0,"last_update":"0001-01-01T00:00:00Z","name_a2s":"Uncletopia | Sydney | 2 | All Maps","protocol":17,"map":"koth_cascade","folder":"tf","game":"Team Fortress","app_id":440,"player_count":0,"max_players":24,"Bots":0,"server_type":"Dedicated","server_os":"Linux","password":true,"vac":true,"version":"7961495","steam_id":85568392924470002,"keywords":["cp","nocrits","nodmgspread","uncletopia"],"game_id":440,"stv_port":27026,"stv_name":"Uncletopia | Sydney | 2 | All Maps | STV","players":null},{"server_id":395,"name":"Uncletopia | Sydney | 3 | All Maps","name_short":"syd-3","host":"syd-1.au.uncletopia.com","port":27035,"enabled":true,"region":"au","cc":"au","latitude":-33.865143,"longitude":151.2099,"reserved":0,"last_update":"0001-01-01T00:00:00Z","name_a2s":"Uncletopia | Sydney | 3 | All Maps","protocol":17,"map":"koth_viaduct","folder":"tf","game":"Team Fortress","app_id":440,"player_count":0,"max_players":24,"Bots":0,"server_type":"Dedicated","server_os":"Linux","password":true,"vac":true,"version":"7961495","steam_id":85568392925194467,"keywords":["cp","nocrits","nodmgspread","uncletopia"],"game_id":440,"stv_port":27036,"stv_name":"Uncletopia | Sydney | 3 | All Maps | STV","players":null},{"server_id":396,"name":"Uncletopia | Sydney | 4 | All Maps","name_short":"syd-4","host":"syd-1.au.uncletopia.com","port":27045,"enabled":true,"region":"au","cc":"au","latitude":-33.865143,"longitude":151.2099,"reserved":0,"last_update":"0001-01-01T00:00:00Z","name_a2s":"Uncletopia | Sydney | 4 | All Maps","protocol":17,"map":"koth_lakeside_final","folder":"tf","game":"Team Fortress","app_id":440,"player_count":0,"max_players":24,"Bots":0,"server_type":"Dedicated","server_os":"Linux","password":true,"vac":true,"version":"7961495","steam_id":85568392925397958,"keywords":["cp","nocrits","nodmgspread","uncletopia"],"game_id":440,"stv_port":27046,"stv_name":"Uncletopia | Sydney | 4 | All Maps | STV","players":null},{"server_id":58,"name":"Uncletopia | Sydney | 5 | Stopwatch","name_short":"syd-5","host":"syd-1.au.uncletopia.com","port":27055,"enabled":true,"region":"au","cc":"au","latitude":-33.865143,"longitude":151.2099,"reserved":0,"last_update":"0001-01-01T00:00:00Z","name_a2s":"Uncletopia | Sydney | 5 | Stopwatch","protocol":17,"map":"pl_frontier_final","folder":"tf","game":"Team Fortress","app_id":440,"player_count":0,"max_players":24,"Bots":0,"server_type":"Dedicated","server_os":"Linux","password":true,"vac":true,"version":"7961495","steam_id":85568392925397959,"keywords":["nocrits","nodmgspread","payload","uncletopia"],"game_id":440,"stv_port":27056,"stv_name":"Uncletopia | Sydney | 5 | Stopwatch | STV","players":null},{"server_id":59,"name":"Uncletopia | Sydney | 6 | Community","name_short":"syd-6","host":"syd-1.au.uncletopia.com","port":27065,"enabled":true,"region":"au","cc":"au","latitude":-33.865143,"longitude":151.2099,"reserved":0,"last_update":"0001-01-01T00:00:00Z","name_a2s":"Uncletopia | Sydney | 6 | Community","protocol":17,"map":"workshop/rd_asteroid_redux_b1.ugc2154902912","folder":"tf","game":"Team Fortress","app_id":440,"player_count":0,"max_players":24,"Bots":0,"server_type":"Dedicated","server_os":"Linux","password":true,"vac":true,"version":"7961495","steam_id":85568392925397960,"keywords":["beta","nocrits","nodmgspread","rd","uncletopia"],"game_id":440,"stv_port":27066,"stv_name":"Uncletopia | Sydney | 6 | Community | STV","players":null},{"server_id":49,"name":"Uncletopia | Warsaw | 1 | One Thousand Uncles","name_short":"waw-1","host":"waw-1.pl.uncletopia.com","port":27015,"enabled":true,"region":"eu","cc":"pl","latitude":52.2297,"longitude":21.017532,"reserved":0,"last_update":"0001-01-01T00:00:00Z","name_a2s":"Uncletopia | Warsaw | 1 | One Thousand Uncles","protocol":17,"map":"cp_dustbowl","folder":"tf","game":"Team Fortress","app_id":440,"player_count":20,"max_players":32,"Bots":16,"server_type":"Dedicated","server_os":"Linux","password":true,"vac":true,"version":"7961495","steam_id":85568392925397850,"keywords":["alltalk","bots","cp","danepve","increased_maxplayers","nocrits","norespawntime","uncletopia"],"game_id":440,"stv_port":0,"stv_name":"","players":[{"user_id":290,"name":"venus","steam_id":76561199491520050,"connected_time":1775000000000,"state":"active","ping":54},{"user_id":285,"name":"^1MARAMA PALEX","steam_id":76561198311372563,"connected_time":2569000000000,"state":"active","ping":90},{"user_id":295,"name":"The","steam_id":76561198359311605,"connected_time":276000000000,"state":"active","ping":41},{"user_id":294,"name":"P00TIS","steam_id":76561199239780769,"connected_time":642000000000,"state":"active","ping":68}]},{"server_id":50,"name":"Uncletopia | Warsaw | 2 | One Thousand Uncles","name_short":"waw-2","host":"waw-1.pl.uncletopia.com","port":27025,"enabled":true,"region":"eu","cc":"pl","latitude":52.2297,"longitude":21.017532,"reserved":0,"last_update":"0001-01-01T00:00:00Z","name_a2s":"Uncletopia | Warsaw | 2 | One Thousand Uncles","protocol":17,"map":"pl_chilly","folder":"tf","game":"Team Fortress","app_id":440,"player_count":30,"max_players":32,"Bots":16,"server_type":"Dedicated","server_os":"Linux","password":true,"vac":true,"version":"7961495","steam_id":85568392925397851,"keywords":["alltalk","bots","danepve","increased_maxplayers","nocrits","norespawntime","payload","uncletopia"],"game_id":440,"stv_port":0,"stv_name":"","players":[{"user_id":552,"name":"bartek768","steam_id":76561198975189044,"connected_time":2437000000000,"state":"active","ping":54},{"user_id":532,"name":"klim01112010","steam_id":76561199401455959,"connected_time":3555000000000,"state":"active","ping":53},{"user_id":586,"name":"Loo32","steam_id":76561199094568704,"connected_time":390000000000,"state":"active","ping":71},{"user_id":445,"name":"adv6","steam_id":76561198029789989,"connected_time":9121000000000,"state":"active","ping":85},{"user_id":562,"name":"Gusvenga","steam_id":76561199350840589,"connected_time":1422000000000,"state":"active","ping":56},{"user_id":585,"name":"bryophyta","steam_id":76561197968945306,"connected_time":642000000000,"state":"active","ping":101},{"user_id":567,"name":"Cynical","steam_id":76561198077084694,"connected_time":925000000000,"state":"active","ping":75},{"user_id":587,"name":"Kekkonen","steam_id":76561198944072942,"connected_time":377000000000,"state":"active","ping":104},{"user_id":588,"name":"liv1g","steam_id":76561199010213479,"connected_time":371000000000,"state":"active","ping":75},{"user_id":589,"name":"Riky95","steam_id":76561198095289436,"connected_time":299000000000,"state":"active","ping":60},{"user_id":563,"name":"Ziemniaczki z koperkiem","steam_id":76561198829123464,"connected_time":1363000000000,"state":"active","ping":45},{"user_id":559,"name":"bp","steam_id":76561197988192258,"connected_time":1907000000000,"state":"active","ping":61},{"user_id":568,"name":"Lukas","steam_id":76561198009118452,"connected_time":921000000000,"state":"active","ping":67},{"user_id":592,"name":"ⒿⒺⒺⓏⓄ","steam_id":76561198123592400,"connected_time":64000000000,"state":"active","ping":84}]},{"server_id":51,"name":"Uncletopia | Warsaw | 3 | All Maps","name_short":"waw-3","host":"waw-1.pl.uncletopia.com","port":27035,"enabled":true,"region":"eu","cc":"pl","latitude":52.2297,"longitude":21.017532,"reserved":0,"last_update":"0001-01-01T00:00:00Z","name_a2s":"Uncletopia | Warsaw | 3 | All Maps","protocol":17,"map":"plr_pipeline","folder":"tf","game":"Team Fortress","app_id":440,"player_count":0,"max_players":24,"Bots":0,"server_type":"Dedicated","server_os":"Linux","password":true,"vac":true,"version":"7961495","steam_id":85568392925397852,"keywords":["nocrits","nodmgspread","payload","uncletopia"],"game_id":440,"stv_port":27036,"stv_name":"Uncletopia | Warsaw | 3 | All Maps | STV","players":null},{"server_id":52,"name":"Uncletopia | Warsaw | 4 | All Maps","name_short":"waw-4","host":"waw-1.pl.uncletopia.com","port":27045,"enabled":true,"region":"eu","cc":"pl","latitude":52.2297,"longitude":21.017532,"reserved":0,"last_update":"0001-01-01T00:00:00Z","name_a2s":"Uncletopia | Warsaw | 4 | All Maps","protocol":17,"map":"koth_viaduct","folder":"tf","game":"Team Fortress","app_id":440,"player_count":0,"max_players":24,"Bots":0,"server_type":"Dedicated","server_os":"Linux","password":true,"vac":true,"version":"7961495","steam_id":85568392925397853,"keywords":["cp","nocrits","nodmgspread","uncletopia"],"game_id":440,"stv_port":27046,"stv_name":"Uncletopia | Warsaw | 4 | All Maps | STV","players":null},{"server_id":53,"name":"Uncletopia | Warsaw | 5 | Stopwatch","name_short":"waw-5","host":"waw-1.pl.uncletopia.com","port":27055,"enabled":true,"region":"eu","cc":"pl","latitude":52.2297,"longitude":21.017532,"reserved":0,"last_update":"0001-01-01T00:00:00Z","name_a2s":"Uncletopia | Warsaw | 5 | Stopwatch","protocol":17,"map":"workshop/cp_reckoner_rc6.ugc674719999","folder":"tf","game":"Team Fortress","app_id":440,"player_count":0,"max_players":24,"Bots":0,"server_type":"Dedicated","server_os":"Linux","password":true,"vac":true,"version":"7961495","steam_id":85568392925397854,"keywords":["cp","nocrits","nodmgspread","uncletopia"],"game_id":440,"stv_port":27056,"stv_name":"Uncletopia | Warsaw | 5 | Stopwatch | STV","players":null},{"server_id":54,"name":"Uncletopia | Warsaw | 6 | Community","name_short":"waw-6","host":"waw-1.pl.uncletopia.com","port":27065,"enabled":true,"region":"eu","cc":"pl","latitude":52.2297,"longitude":21.017532,"reserved":0,"last_update":"0001-01-01T00:00:00Z","name_a2s":"Uncletopia | Warsaw | 6 | Community","protocol":17,"map":"workshop/pl_badwater_pro_v12.ugc2142942074","folder":"tf","game":"Team Fortress","app_id":440,"player_count":0,"max_players":24,"Bots":0,"server_type":"Dedicated","server_os":"Linux","password":true,"vac":true,"version":"7961495","steam_id":85568392925397856,"keywords":["nocrits","nodmgspread","payload","uncletopia"],"game_id":440,"stv_port":27066,"stv_name":"Uncletopia | Warsaw | 6 | Community | STV","players":null}]}