{"status":true,"message":"","result":[{"server_id":9,"name":"Uncletopia | Atlanta | 1 | All Maps","name_short":"atl-1","host":"atl-1.us.uncletopia.com","port":27015,"enabled":true,"region":"us-east","cc":"us","latitude":33.753746,"longitude":-84.38633,"reserved":0,"last_update":"0001-01-01T00:00:00Z","name_a2s":"Uncletopia | Atlanta | 1 | All Maps","protocol":17,"map":"cp_dustbowl","folder":"tf","game":"Team Fortress","app_id":440,"player_count":24,"max_players":24,"Bots":0,"server_type":"Dedicated","server_os":"Linux","password":true,"vac":true,"version":"7961495","steam_id":85568392924469982,"keywords":["cp","nocrits","nodmgspread","uncletopia"],"game_id":440,"stv_port":27016,"stv_name":"Uncletopia | Atlanta | 1 | All Maps | STV","players":null},{"server_id":104,"name":"Uncletopia | Atlanta | 2 | All Maps","name_short":"atl-2","host":"atl-1.us.uncletopia.com","port":27025,"enabled":true,"region":"us-east","cc":"us","latitude":33.753746,"longitude":-84.38633,"reserved":0,"last_update":"0001-01-01T00:00:00Z","name_a2s":"Uncletopia | Atlanta | 2 | All Maps","protocol":17,"map":"cp_sunshine","folder":"tf","game":"Team Fortress","app_id":440,"player_count":24,"max_players":24,"Bots":0,"server_type":"Dedicated","server_os":"Linux","password":true,"vac":true,"version":"7961495","steam_id":85568392924469983,"keywords":["cp","nocrits","nodmgspread","uncletopia"],"game_id":440,"stv_port":27026,"stv_name":"Uncletopia | Atlanta | 2 | All Maps | STV","players":null},{"server_id":400,"name":"Uncletopia | Atlanta | 3 | Stopwatch","name_short":"atl-3","host":"atl-1.us.uncletopia.com","port":27035,"enabled":true,"region":"us-east","cc":"us","latitude":33.753746,"longitude":-84.38633,"reserved":0,"last_update":"0001-01-01T00:00:00Z","name_a2s":"Uncletopia | Atlanta | 3 | Stopwatch","protocol":17,"map":"cp_reckoner_rc6","folder":"tf","game":"Team Fortress","app_id":440,"player_count":0,"max_players":24,"Bots":0,"server_type":"Dedicated","server_os":"Linux","password":true,"vac":true,"version":"7961495","steam_id":85568392924515187,"keywords":["cp","nocrits","nodmgspread","uncletopia"],"game_id":440,"stv_port":27036,"stv_name":"Uncletopia | Atlanta | 3 | Stopwatch | STV","players":null},{"server_id":401,"name":"Uncletopia | Atlanta | 4 | Community","name_short":"atl-4","host":"atl-1.us.uncletopia.com","port":27045,"enabled":true,"region":"us-east","cc":"us","latitude":33.753746,"longitude":-84.38633,"reserved":0,"last_update":"0001-01-01T00:00:00Z","name_a2s":"Uncletopia | Atlanta | 4 | Community","protocol":17,"map":"koth_ramjam_rc1","folder":"tf","game":"Team Fortress","app_id":440,"player_count":0,"max_players":24,"Bots":0,"server_type":"Dedicated","server_os":"Linux","password":true,"vac":true,"version":"7961495","steam_id":85568392924515188,"keywords":["cp","nocrits","nodmgspread","uncletopia"],"game_id":440,"stv_port":27046,"stv_name":"Uncletopia | Atlanta | 4 | Community | STV","players":null},{"server_id":2,"name":"Uncletopia | Chicago | 1 | All Maps","name_short":"chi-1","host":"chi-1.us.uncletopia.com","port":27015,"enabled":true,"region":"us-central","cc":"us","latitude":41.881832,"longitude":-87.62318,"reserved":0,"last_update":"0001-01-01T00:00:00Z","name_a2s":"Uncletopia | Chicago | 1 | All Maps","protocol":17,"map":"plr_nightfall_final","folder":"tf","game":"Team Fortress","app_id":440,"player_count":25,"max_players":24,"Bots":0,"server_type":"Dedicated","server_os":"Linux","password":true,"vac":true,"version":"7961495","steam_id":85568392924469984,"keywords":["nocrits","nodmgspread","payload","uncletopia"],"game_id":440,"stv_port":27016,"stv_name":"Uncletopia | Chicago | 1 | All Maps | STV","players":[{"user_id":401,"name":"loscemo","steam_id":76561197994884609,"connected_time":734000000000,"state":"active","ping":70},{"user_id":395,"name":"Digit","steam_id":76561198156589157,"connected_time":1002000000000,"state":"active","ping":73},{"user_id":394,"name":"The_Swan101","steam_id":76561198255629546,"connected_time":1013000000000,"state":"active","ping":83},{"user_id":377,"name":"Boxpipe","steam_id":76561197964501915,"connected_time":2268000000000,"state":"active","ping":45},{"user_id":410,"name":"Snom","steam_id":76561198333827920,"connected_time":117000000000,"state":"active","ping":95},{"user_id":412,"name":"rat eater","steam_id":76561199216874750,"connected_time":108000000000,"state":"active","ping":53},{"user_id":383,"name":"Wafflez","steam_id":76561198081611996,"connected_time":1963000000000,"state":"active","ping":56},{"user_id":373,"name":"Ras","steam_id":76561198123546775,"connected_time":2422000000000,"state":"active","ping":59},{"user_id":287,"name":"Rex","steam_id":76561198138365053,"connected_time":8454000000000,"state":"active","ping":147},{"user_id":407,"name":"Hexadecatrack","steam_id":76561198044480181,"connected_time":149000000000,"state":"active","ping":47},{"user_id":405,"name":"Astoriae!","steam_id":76561199090168858,"connected_time":496000000000,"state":"active","ping":67},{"user_id":343,"name":"thecal","steam_id":76561198307893384,"connected_time":4890000000000,"state":"active","ping":57},{"user_id":396,"name":"Praise_to_the_Flashlight!","steam_id":76561199001728789,"connected_time":1001000000000,"state":"active","ping":64},{"user_id":397,"name":"Wilhelmktx","steam_id":76561198158102295,"connected_time":999000000000,"state":"active","ping":45},{"user_id":387,"name":"exile ace","steam_id":76561198058814369,"connected_time":1406000000000,"state":"active","ping":69},{"user_id":411,"name":"Ok then","steam_id":76561198891914787,"connected_time":117000000000,"state":"active","ping":114},{"user_id":375,"name":"Drew P. Sack","steam_id":76561198036201738,"connected_time":2350000000000,"state":"active","ping":55},{"user_id":413,"name":"JtsRes","steam_id":76561197994809241,"connected_time":95000000000,"state":"active","ping":61},{"user_id":346,"name":"gale","steam_id":76561198250068972,"connected_time":4815000000000,"state":"active","ping":96},{"user_id":408,"name":"DinkleBerg","steam_id":76561198891626233,"connected_time":148000000000,"state":"active","ping":64},{"user_id":386,"name":"onionman0106","steam_id":76561199067766868,"connected_time":1623000000000,"state":"active","ping":109},{"user_id":409,"name":"TheOneZoot","steam_id":76561198121944243,"connected_time":147000000000,"state":"connecting","ping":0},{"user_id":325,"name":"orangeboi","steam_id":76561198871657171,"connected_time":5861000000000,"state":"active","ping":116},{"user_id":352,"name":"MikeLovesRabbit","steam_id":76561197997742625,"connected_time":4493000000000,"state":"active","ping":66},{"user_id":365,"name":"PaperJamming","steam_id":76561198042335495,"connected_time":2968000000000,"state":"active","ping":74}]},{"server_id":106,"name":"Uncletopia | Chicago | 2 | All Maps","name_short":"chi-2","host":"chi-1.us.uncletopia.com","port":27025,"enabled":true,"region":"us-central","cc":"us","latitude":41.881832,"longitude":-87.62318,"reserved":0,"last_update":"0001-01-01T00:00:00Z","name_a2s":"Uncletopia | Chicago | 2 | All Maps","protocol":17,"map":"pl_frontier_final","folder":"tf","game":"Team Fortress","app_id":440,"player_count":25,"max_players":24,"Bots":0,"server_type":"Dedicated","server_os":"Linux","password":true,"vac":true,"version":"7961495","steam_id":85568392924469985,"keywords":["nocrits","nodmgspread","payload","uncletopia"],"game_id":440,"stv_port":27026,"stv_name":"Uncletopia | Chicago | 2 | All Maps | STV","players":[{"user_id":251,"name":"blunder","steam_id":76561198838223023,"connected_time":2213000000000,"state":"active","ping":50},{"user_id":101,"name":"Rappy \u003c3","steam_id":76561198105613110,"connected_time":5247000000000,"state":"active","ping":57},{"user_id":382,"name":"RagunCagun","steam_id":76561198132848008,"connected_time":781000000000,"state":"active","ping":45},{"user_id":250,"name":"Dirtbike rider","steam_id":76561198030457066,"connected_time":2224000000000,"state":"active","ping":82},{"user_id":420,"name":"Rornir","steam_id":76561198081829615,"connected_time":185000000000,"state":"active","ping":34},{"user_id":95,"name":"chunk","steam_id":76561198134775401,"connected_time":5872000000000,"state":"active","ping":58},{"user_id":432,"name":"Yongle","steam_id":76561198068591156,"connected_time":4000000000,"state":"spawning","ping":44},{"user_id":205,"name":"can of Heinz Beans","steam_id":76561198806423231,"connected_time":2722000000000,"state":"active","ping":107},{"user_id":252,"name":"Leonardo DiCaprio","steam_id":76561198121886765,"connected_time":2208000000000,"state":"active","ping":62},{"user_id":308,"name":"Captain Pothead","steam_id":76561198123331910,"connected_time":1376000000000,"state":"active","ping":66},{"user_id":87,"name":"‚ô•Gothie‚ô•","steam_id":76561198166814648,"connected_time":6860000000000,"state":"active","ping":121},{"user_id":388,"name":"kasuraq","steam_id":76561199215184828,"connected_time":747000000000,"state":"active","ping":68},{"user_id":142,"name":"y0","steam_id":76561198143894333,"connected_time":3918000000000,"state":"active","ping":49},{"user_id":239,"name":"yeet ape","steam_id":76561198151368930,"connected_time":2323000000000,"state":"active","ping":57},{"user_id":255,"name":"Yam Jazzy Jim","steam_id":76561198000788950,"connected_time":2174000000000,"state":"active","ping":74},{"user_id":415,"name":"indyjacob","steam_id":76561198065158713,"connected_time":265000000000,"state":"active","ping":118},{"user_id":411,"name":"Mr. Tickle","steam_id":76561198126684647,"connected_time":300000000000,"state":"active","ping":61},{"user_id":413,"name":"Gremlin","steam_id":76561198435061144,"connected_time":279000000000,"state":"active","ping":62},{"user_id":393,"name":"brains","steam_id":76561198197388678,"connected_time":685000000000,"state":"active","ping":60},{"user_id":403,"name":"SGA","steam_id":76561198832172648,"connected_time":497000000000,"state":"active","ping":60},{"user_id":389,"name":"‚ù§Womp‚ù§","steam_id":76561198167488304,"connected_time":743000000000,"state":"active","ping":48},{"user_id":384,"name":"Borked","steam_id":76561197984964095,"connected_time":771000000000,"state":"active","ping":109},{"user_id":345,"name":"Uwu Micster","steam_id":76561198843890616,"connected_time":1197000000000,"state":"active","ping":82},{"user_id":362,"name":"Goober","steam_id":76561198105930089,"connected_time":1050000000000,"state":"active","ping":64},{"user_id":421,"name":"Hulkster","steam_id":76561198278156353,"connected_time":184000000000,"state":"active","ping":120}]},{"server_id":402,"name":"Uncletopia | Chicago | 3 | All Maps","name_short":"chi-3","host":"chi-1.us.uncletopia.com","port":27035,"enabled":true,"region":"us-central","cc":"us","latitude":41.881832,"longitude":-87.62318,"reserved":0,"last_update":"0001-01-01T00:00:00Z","name_a2s":"Uncletopia | Chicago | 3 | All Maps","protocol":17,"map":"pl_barnblitz","folder":"tf","game":"Team Fortress","app_id":440,"player_count":24,"max_players":24,"Bots":0,"server_type":"Dedicated","server_os":"Linux","password":true,"vac":true,"version":"7961495","steam_id":85568392924515191,"keywords":["nocrits","nodmgspread","payload","uncletopia"],"game_id":440,"stv_port":27036,"stv_name":"Uncletopia | Chicago | 3 | All Maps | STV","players":[{"user_id":192,"name":"Shrimp Fried Rice","steam_id":76561198247688228,"connected_time":2274000000000,"state":"active","ping":103},{"user_id":210,"name":"(1)Crisp","steam_id":76561198132644084,"connected_time":622000000000,"state":"active","ping":64},{"user_id":175,"name":"‚òªüêÑ","steam_id":76561198076200544,"connected_time":3008000000000,"state":"active","ping":98},{"user_id":207,"name":"rickyrickyricky","steam_id":76561198041765918,"connected_time":1030000000000,"state":"active","ping":79},{"user_id":164,"name":"crisp","steam_id":76561198084230569,"connected_time":3423000000000,"state":"active","ping":45},{"user_id":194,"name":"Splnter","steam_id":76561198874186629,"connected_time":2199000000000,"state":"active","ping":72},{"user_id":203,"name":"Demonica","steam_id":76561198841858340,"connected_time":1917000000000,"state":"active","ping":69},{"user_id":208,"name":"subdromeda","steam_id":76561198884351860,"connected_time":910000000000,"state":"active","ping":70},{"user_id":211,"name":"cuddles","steam_id":76561199471390987,"connected_time":535000000000,"state":"active","ping":76},{"user_id":143,"name":"caption cool","steam_id":76561197990612056,"connected_time":4522000000000,"state":"active","ping":44},{"user_id":198,"name":"Wendy's Brand Trash","steam_id":76561198328346670,"connected_time":2123000000000,"state":"active","ping":41},{"user_id":209,"name":"Dick Grimes","steam_id":76561198157414556,"connected_time":625000000000,"state":"active","ping":82},{"user_id":202,"name":"vepis","steam_id":76561198015884720,"connected_time":1931000000000,"state":"active","ping":60},{"user_id":190,"name":"LerN","steam_id":76561198083463877,"connected_time":2400000000000,"state":"active","ping":58},{"user_id":168,"name":"Sunflower","steam_id":76561198081223793,"connected_time":3339000000000,"state":"active","ping":62},{"user_id":199,"name":"Grilled Jizo","steam_id":76561199250875340,"connected_time":2047000000000,"state":"active","ping":75},{"user_id":171,"name":"Captain Malarkey","steam_id":76561198869924281,"connected_time":3228000000000,"state":"active","ping":47},{"user_id":155,"name":"Mer","steam_id":76561198192171041,"connected_time":3939000000000,"state":"active","ping":117},{"user_id":173,"name":"Carton","steam_id":76561198989473391,"connected_time":3131000000000,"state":"active","ping":80},{"user_id":176,"name":"Sexual Villain","steam_id":76561198106217716,"connected_time":2943000000000,"state":"active","ping":99},{"user_id":185,"name":"dree says relax!","steam_id":76561198079178866,"connected_time":2649000000000,"state":"active","ping":68},{"user_id":144,"name":"nhbiker","steam_id":76561198081277675,"connected_time":4518000000000,"state":"active","ping":54},{"user_id":167,"name":"hrdurdur","steam_id":76561199204815638,"connected_time":3392000000000,"state":"active","ping":84},{"user_id":206,"name":"Melody","steam_id":76561198407789232,"connected_time":1161000000000,"state":"active","ping":117}]},{"server_id":403,"name":"Uncletopia | Chicago | 4 | All Maps","name_short":"chi-4","host":"chi-1.us.uncletopia.com","port":27045,"enabled":true,"region":"us-central","cc":"us","latitude":41.881832,"longitude":-87.62318,"reserved":0,"last_update":"0001-01-01T00:00:00Z","name_a2s":"Uncletopia | Chicago | 4 | All Maps","protocol":17,"map":"koth_nucleus","folder":"tf","game":"Team Fortress","app_id":440,"player_count":24,"max_players":24,"Bots":0,"server_type":"Dedicated","server_os":"Linux","password":true,"vac":true,"version":"7961495","steam_id":85568392924515193,"keywords":["cp","nocrits","nodmgspread","uncletopia"],"game_id":440,"stv_port":27046,"stv_name":"Uncletopia | Chicago | 4 | All Maps | STV","players":[{"user_id":574,"name":"gulch","steam_id":76561199227946025,"connected_time":288000000000,"state":"active","ping":69},{"user_id":571,"name":"Magee","steam_id":76561199059131762,"connected_time":339000000000,"state":"active","ping":91},{"user_id":572,"name":"Grimm - (RIP Rick May/Kitty0706","steam_id":76561199050642411,"connected_time":330000000000,"state":"active","ping":90},{"user_id":570,"name":"cilvia demo listener 86","steam_id":76561198017539604,"connected_time":349000000000,"state":"active","ping":65},{"user_id":538,"name":"wunkem","steam_id":76561198055948497,"connected_time":2699000000000,"state":"active","ping":59},{"user_id":524,"name":"VisciousPotato","steam_id":76561198992859414,"connected_time":3652000000000,"state":"active","ping":69},{"user_id":563,"name":"She Pegs Me","steam_id":76561198099770390,"connected_time":964000000000,"state":"active","ping":55},{"user_id":418,"name":"CDBeans","steam_id":76561198046990367,"connected_time":9656000000000,"state":"active","ping":100},{"user_id":577,"name":"BRUH NATOR","steam_id":76561199094694437,"connected_time":209000000000,"state":"active","ping":84},{"user_id":554,"name":"‚ä∞Aero‚ä±","steam_id":76561198084648457,"connected_time":2032000000000,"state":"active","ping":54},{"user_id":555,"name":"jimmyfnaf172198yay","steam_id":76561198311446636,"connected_time":1865000000000,"state":"active","ping":59},{"user_id":559,"name":"‚ú®‚ú® BOILING PIZZA ‚ú®‚ú®","steam_id":76561198354108114,"connected_time":1732000000000,"state":"active","ping":267},{"user_id":579,"name":"[NAME-REDACTED]","steam_id":76561198035682975,"connected_time":159000000000,"state":"active","ping":72},{"user_id":569,"name":"Orakcaj","steam_id":76561198080563935,"connected_time":396000000000,"state":"active","ping":43},{"user_id":573,"name":"‚ù§Ô∏èShady","steam_id":76561198125947844,"connected_time":322000000000,"state":"active","ping":98},{"user_id":556,"name":"jimmz","steam_id":76561199076776118,"connected_time":1859000000000,"state":"active","ping":69},{"user_id":578,"name":"Faze Booger","steam_id":76561198501423864,"connected_time":178000000000,"state":"active","ping":75},{"user_id":565,"name":"Xlander","steam_id":76561199345823430,"connected_time":827000000000,"state":"active","ping":62},{"user_id":566,"name":"wheresgeorge","steam_id":76561198986281248,"connected_time":823000000000,"state":"active","ping":86},{"user_id":537,"name":"Gamering_funy","steam_id":76561199006503777,"connected_time":2954000000000,"state":"active","ping":53},{"user_id":510,"name":"Candy Sparkles","steam_id":76561198126871264,"connected_time":3958000000000,"state":"active","ping":85},{"user_id":553,"name":"RandomRainbow","steam_id":76561199107573588,"connected_time":2104000000000,"state":"active","ping":46},{"user_id":576,"name":"Madeline","steam_id":76561198002123006,"connected_time":253000000000,"state":"active","ping":79},{"user_id":567,"name":"DiamondEpsilon","steam_id":76561198203883311,"connected_time":548000000000,"state":"active","ping":79}]},{"server_id":36,"name":"Uncletopia | Chicago | 5 | All Maps","name_short":"chi-5","host":"chi-2.us.uncletopia.com","port":27015,"enabled":true,"region":"us-central","cc":"us","latitude":41.881832,"longitude":-87.62318,"reserved":0,"last_update":"0001-01-01T00:00:00Z","name_a2s":"Uncletopia | Chicago | 5 | All Maps","protocol":17,"map":"koth_highpass","folder":"tf","game":"Team Fortress","app_id":440,"player_count":9,"max_players":24,"Bots":0,"server_type":"Dedicated","server_os":"Linux","password":true,"vac":true,"version":"7961495","steam_id":85568392924866362,"keywords":["cp","nocrits","nodmgspread","uncletopia"],"game_id":440,"stv_port":27016,"stv_name":"Uncletopia | Chicago | 5 | All Maps | STV","players":[{"user_id":35,"name":"‚ôÇ I R O N ‚ôÇ M I K E ‚ôÇ","steam_id":76561199405378993,"connected_time":804000000000,"state":"active","ping":67},{"user_id":36,"name":"Inpeed","steam_id":76561199073182279,"connected_time":668000000000,"state":"active","ping":59},{"user_id":43,"name":"tasty","steam_id":76561198083839061,"connected_time":193000000000,"state":"active","ping":46},{"user_id":38,"name":"Ashified21","steam_id":76561199357672686,"connected_time":546000000000,"state":"active","ping":126},{"user_id":42,"name":"Smoky Haus","steam_id":76561199040586542,"connected_time":291000000000,"state":"active","ping":80},{"user_id":41,"name":"Eiss","steam_id":76561198343183806,"connected_time":444000000000,"state":"active","ping":68},{"user_id":44,"name":"silly feller","steam_id":76561199118569153,"connected_time":189000000000,"state":"active","ping":51},{"user_id":46,"name":"Morbid Pistachio","steam_id":76561198315852398,"connected_time":149000000000,"state":"active","ping":80},{"user_id":47,"name":"Jane_s2020","steam_id":76561198823376452,"connected_time":18000000000,"state":"active","ping":85}]},{"server_id":37,"name":"Uncletopia | Chicago | 6 | All Maps","name_short":"chi-6","host":"chi-2.us.uncletopia.com","port":27025,"enabled":true,"region":"us-central","cc":"us","latitude":41.881832,"longitude":-87.62318,"reserved":0,"last_update":"0001-01-01T00:00:00Z","name_a2s":"Uncletopia | Chicago | 6 | All Maps","protocol":17,"map":"koth_lakeside_final","folder":"tf","game":"Team Fortress","app_id":440,"player_count":24,"max_players":24,"Bots":0,"server_type":"Dedicated","server_os":"Linux","password":true,"vac":true,"version":"7961495","steam_id":85568392924866363,"keywords":["cp","nocrits","nodmgspread","uncletopia"],"game_id":440,"stv_port":27026,"stv_name":"Uncletopia | Chicago | 6 | All Maps | STV","players":[{"user_id":161,"name":"SilverLife25","steam_id":76561198392015722,"connected_time":4378000000000,"state":"active","ping":86},{"user_id":241,"name":"Scut","steam_id":76561198973734291,"connected_time":111000000000,"state":"active","ping":96},{"user_id":232,"name":"crispylego_","steam_id":76561199453679719,"connected_time":587000000000,"state":"active","ping":146},{"user_id":239,"name":"bingle","steam_id":76561198359413453,"connected_time":368000000000,"state":"active","ping":75},{"user_id":243,"name":"‚ô• alixei! ‚ô•","steam_id":76561198014557455,"connected_time":91000000000,"state":"active","ping":54},{"user_id":231,"name":"k3ramb1t","steam_id":76561198097880352,"connected_time":702000000000,"state":"active","ping":74},{"user_id":202,"name":"Bostonstapler","steam_id":76561197996334971,"connected_time":2931000000000,"state":"active","ping":61},{"user_id":237,"name":"the bone zone","steam_id":76561198022141048,"connected_time":448000000000,"state":"active","ping":61},{"user_id":167,"name":"mariopasta6","steam_id":76561199073184183,"connected_time":4301000000000,"state":"active","ping":72},{"user_id":228,"name":"[82DK] Ike","steam_id":76561198135256526,"connected_time":785000000000,"state":"active","ping":99},{"user_id":220,"name":"oppenheimer style","steam_id":76561198026664629,"connected_time":2001000000000,"state":"active","ping":59},{"user_id":189,"name":"BarrowBaron","steam_id":76561198013633236,"connected_time":3741000000000,"state":"active","ping":72},{"user_id":212,"name":"pup","steam_id":76561198145921847,"connected_time":2102000000000,"state":"active","ping":60},{"user_id":206,"name":"soarinlauren","steam_id":76561199482944619,"connected_time":2762000000000,"state":"active","ping":71},{"user_id":240,"name":"Hobo Joe","steam_id":76561198021453917,"connected_time":175000000000,"state":"active","ping":66},{"user_id":214,"name":"sock_vendor","steam_id":76561198059103865,"connected_time":2098000000000,"state":"active","ping":79},{"user_id":203,"name":"shitass (Reaping and Sowing)","steam_id":76561198210572481,"connected_time":2909000000000,"state":"active","ping":78},{"user_id":227,"name":"Mortal Flame","steam_id":76561198130698418,"connected_time":938000000000,"state":"active","ping":83},{"user_id":222,"name":"Amazingamerhawk","steam_id":76561199064935924,"connected_time":1845000000000,"state":"active","ping":78},{"user_id":225,"name":"Astrocircuit","steam_id":76561198014437544,"connected_time":1070000000000,"state":"active","ping":69},{"user_id":244,"name":"The local hobo","steam_id":76561198289650060,"connected_time":84000000000,"state":"active","ping":93},{"user_id":198,"name":"Grandpapi Yolpapi","steam_id":76561198010748612,"connected_time":3248000000000,"state":"active","ping":78},{"user_id":238,"name":"ceres","steam_id":76561198291976960,"connected_time":436000000000,"state":"active","ping":105},{"user_id":184,"name":"H0wlr","steam_id":76561198012332824,"connected_time":4153000000000,"state":"active","ping":59}]},{"server_id":38,"name":"Uncletopia | Chicago | 7 | Stopwatch","name_short":"chi-7","host":"chi-2.us.uncletopia.com","port":27035,"enabled":true,"region":"us-central","cc":"us","latitude":41.881832,"longitude":-87.62318,"reserved":0,"last_update":"0001-01-01T00:00:00Z","name_a2s":"Uncletopia | Chicago | 7 | Stopwatch","protocol":17,"map":"koth_highpass","folder":"tf","game":"Team Fortress","app_id":440,"player_count":0,"max_players":24,"Bots":0,"server_type":"Dedicated","server_os":"Linux","password":true,"vac":true,"version":"7961495","steam_id":85568392924866364,"keywords":["cp","nocrits","nodmgspread","uncletopia"],"game_id":440,"stv_port":27036,"stv_name":"Uncletopia | Chicago | 7 | Stopwatch | STV","players":null},{"server_id":39,"name":"Uncletopia | Chicago | 8 | Community","name_short":"chi-8","host":"chi-2.us.uncletopia.com","port":27045,"enabled":true,"region":"us-central","cc":"us","latitude":41.881832,"longitude":-87.62318,"reserved":0,"last_update":"0001-01-01T00:00:00Z","name_a2s":"Uncletopia | Chicago | 8 | Community","protocol":17,"map":"workshop/cp_logjam_rc12.ugc454812035","folder":"tf","game":"Team Fortress","app_id":440,"player_count":0,"max_players":24,"Bots":0,"server_type":"Dedicated","server_os":"Linux","password":true,"vac":true,"version":"7961495","steam_id":85568392924866365,"keywords":["cp","nocrits","nodmgspread","uncletopia"],"game_id":440,"stv_port":27046,"stv_name":"Uncletopia | Chicago | 8 | Community | STV","players":null},{"server_id":8,"name":"Uncletopia | Dallas | 1 | All Maps","name_short":"dal-1","host":"dal-1.us.uncletopia.com","port":27015,"enabled":true,"region":"us-central","cc":"us","latitude":32.779167,"longitude":-96.80889,"reserved":0,"last_update":"0001-01-01T00:00:00Z","name_a2s":"Uncletopia | Dallas | 1 | All Maps","protocol":17,"map":"cp_powerhouse","folder":"tf","game":"Team Fortress","app_id":440,"player_count":24,"max_players":24,"Bots":0,"server_type":"Dedicated","server_os":"Linux","password":true,"vac":true,"version":"7961495","steam_id":85568392924469986,"keywords":["cp","nocrits","nodmgspread","uncletopia"],"game_id":440,"stv_port":27016,"stv_name":"Uncletopia | Dallas | 1 | All Maps | STV","players":[{"user_id":332,"name":"RunAwayMoose","steam_id":76561198875439183,"connected_time":787000000000,"state":"active","ping":78},{"user_id":327,"name":"kid named weezer","steam_id":76561198813566335,"connected_time":1186000000000,"state":"active","ping":88},{"user_id":320,"name":"cringeass nae-nae girl","steam_id":76561198108753857,"connected_time":1665000000000,"state":"active","ping":69},{"user_id":343,"name":"ReDiculous22","steam_id":76561198038391383,"connected_time":451000000000,"state":"active","ping":44},{"user_id":331,"name":"Gabagool","steam_id":76561198365935179,"connected_time":798000000000,"state":"active","ping":106},{"user_id":317,"name":"webaline  =Ôºæ‚óè ‚ãè ‚óèÔºæ=","steam_id":76561199052450127,"connected_time":2368000000000,"state":"active","ping":77},{"user_id":321,"name":"Imrgrim","steam_id":76561198135866481,"connected_time":1599000000000,"state":"active","ping":61},{"user_id":286,"name":"sobaka","steam_id":76561198116008934,"connected_time":4396000000000,"state":"active","ping":88},{"user_id":330,"name":"soymilksteak","steam_id":76561198001488041,"connected_time":994000000000,"state":"active","ping":66},{"user_id":333,"name":"Locomotive","steam_id":76561199152926930,"connected_time":767000000000,"state":"active","ping":71},{"user_id":344,"name":"Darling","steam_id":76561198127525888,"connected_time":307000000000,"state":"active","ping":49},{"user_id":274,"name":"Vapor Man","steam_id":76561198210173112,"connected_time":4659000000000,"state":"active","ping":120},{"user_id":345,"name":"BurnN8or101","steam_id":76561198132668224,"connected_time":56000000000,"state":"active","ping":75},{"user_id":312,"name":"Sup m8","steam_id":76561198081659121,"connected_time":2701000000000,"state":"active","ping":45},{"user_id":338,"name":".Jake","steam_id":76561198044360108,"connected_time":644000000000,"state":"active","ping":77},{"user_id":296,"name":"Draco6257","steam_id":76561199147322448,"connected_time":3780000000000,"state":"active","ping":79},{"user_id":341,"name":"Peckett","steam_id":76561198433962127,"connected_time":564000000000,"state":"active","ping":52},{"user_id":318,"name":"mkl","steam_id":76561197986401685,"connected_time":1938000000000,"state":"active","ping":58},{"user_id":326,"name":"Gibby","steam_id":76561199044322783,"connected_time":1192000000000,"state":"active","ping":117},{"user_id":346,"name":"Ewan303","steam_id":76561198246769118,"connected_time":51000000000,"state":"active","ping":57},{"user_id":248,"name":"Da Policia","steam_id":76561198012762789,"connected_time":6926000000000,"state":"active","ping":45},{"user_id":340,"name":"Legit_Jaxer","steam_id":76561198172234053,"connected_time":630000000000,"state":"active","ping":111},{"user_id":307,"name":"sixsin","steam_id":76561199215821942,"connected_time":3564000000000,"state":"active","ping":45},{"user_id":347,"name":"Tired","steam_id":76561198072620682,"connected_time":51000000000,"state":"active","ping":118}]},{"server_id":108,"name":"Uncletopia | Dallas | 2 | All Maps","name_short":"dal-2","host":"dal-1.us.uncletopia.com","port":27025,"enabled":true,"region":"us-central","cc":"us","latitude":32.779167,"longitude":-96.80889,"reserved":0,"last_update":"0001-01-01T00:00:00Z","name_a2s":"Uncletopia | Dallas | 2 | All Maps","protocol":17,"map":"pl_frontier_final","folder":"tf","game":"Team Fortress","app_id":440,"player_count":24,"max_players":24,"Bots":0,"server_type":"Dedicated","server_os":"Linux","password":true,"vac":true,"version":"7961495","steam_id":85568392924469988,"keywords":["nocrits","nodmgspread","payload","uncletopia"],"game_id":440,"stv_port":27026,"stv_name":"Uncletopia | Dallas | 2 | All Maps | STV","players":[{"user_id":678,"name":"Satori Komeiji","steam_id":76561198158211423,"connected_time":3209000000000,"state":"active","ping":78},{"user_id":686,"name":"squinch","steam_id":76561198151135298,"connected_time":3089000000000,"state":"active","ping":71},{"user_id":713,"name":"Call me the sleeps","steam_id":76561198121245586,"connected_time":766000000000,"state":"active","ping":111},{"user_id":706,"name":"ihave80hp","steam_id":76561199251621911,"connected_time":1185000000000,"state":"active","ping":99},{"user_id":717,"name":"Asbestos McFlave","steam_id":76561198001136560,"connected_time":292000000000,"state":"active","ping":91},{"user_id":679,"name":"Daddy‚Äôs Special Boy!","steam_id":76561198152454725,"connected_time":3206000000000,"state":"active","ping":66},{"user_id":709,"name":"KaijuCowBelle","steam_id":76561198191619439,"connected_time":1161000000000,"state":"active","ping":83},{"user_id":612,"name":"aoefjwoef","steam_id":76561198046948758,"connected_time":8381000000000,"state":"active","ping":75},{"user_id":718,"name":"antoniov00gaming","steam_id":76561198364632073,"connected_time":286000000000,"state":"active","ping":85},{"user_id":691,"name":"Hindmost","steam_id":76561199081837220,"connected_time":2478000000000,"state":"active","ping":72},{"user_id":700,"name":"Jango","steam_id":76561198084589742,"connected_time":1534000000000,"state":"active","ping":79},{"user_id":720,"name":"Mellou","steam_id":76561198212048740,"connected_time":160000000000,"state":"active","ping":88},{"user_id":708,"name":"Quandarious Barnacle Jones","steam_id":76561198987012745,"connected_time":1173000000000,"state":"active","ping":96},{"user_id":682,"name":"riSygneD","steam_id":76561198331618687,"connected_time":3182000000000,"state":"active","ping":72},{"user_id":710,"name":"Cl(here)?","steam_id":76561198069735882,"connected_time":1150000000000,"state":"active","ping":98},{"user_id":675,"name":"spacetoven","steam_id":76561198115821131,"connected_time":3732000000000,"state":"active","ping":91},{"user_id":625,"name":"HollyBlocky","steam_id":76561198030156100,"connected_time":7842000000000,"state":"active","ping":91},{"user_id":711,"name":"boo_thefeared","steam_id":76561198127967685,"connected_time":1147000000000,"state":"active","ping":169},{"user_id":672,"name":"Mick","steam_id":76561198972619900,"connected_time":3769000000000,"state":"active","ping":54},{"user_id":688,"name":"Sweet Tooth","steam_id":76561198830158092,"connected_time":2627000000000,"state":"active","ping":90},{"user_id":719,"name":"Primal","steam_id":76561197983118203,"connected_time":239000000000,"state":"active","ping":108},{"user_id":701,"name":"Heartgold","steam_id":76561199062592062,"connected_time":1321000000000,"state":"active","ping":88},{"user_id":722,"name":"Karma","steam_id":76561198320530905,"connected_time":78000000000,"state":"active","ping":57},{"user_id":715,"name":"ÿßŸÑŸÑŸá ÿ£ŸÉÿ®ÿ±","steam_id":76561197980471844,"connected_time":639000000000,"state":"active","ping":113}]},{"server_id":404,"name":"Uncletopia | Dallas | 3 | All Maps","name_short":"dal-3","host":"dal-1.us.uncletopia.com","port":27035,"enabled":true,"region":"us-central","cc":"us","latitude":32.779167,"longitude":-96.80889,"reserved":0,"last_update":"0001-01-01T00:00:00Z","name_a2s":"Uncletopia | Dallas | 3 | All Maps","protocol":17,"map":"pl_upward","folder":"tf","game":"Team Fortress","app_id":440,"player_count":24,"max_players":24,"Bots":0,"server_type":"Dedicated","server_os":"Linux","password":true,"vac":true,"version":"7961495","steam_id":85568392924515219,"keywords":["nocrits","nodmgspread","payload","uncletopia"],"game_id":440,"stv_port":27036,"stv_name":"Uncletopia | Dallas | 3 | All Maps | STV","players":[{"user_id":54,"name":"heck","steam_id":76561198308547958,"connected_time":1203000000000,"state":"active","ping":80},{"user_id":28,"name":"Observer","steam_id":76561198326814067,"connected_time":1927000000000,"state":"active","ping":75},{"user_id":26,"name":"King Cotton","steam_id":76561198292444376,"connected_time":2123000000000,"state":"active","ping":62},{"user_id":62,"name":"Cam","steam_id":76561198139174433,"connected_time":256000000000,"state":"active","ping":68},{"user_id":60,"name":"Chromosome_dog","steam_id":76561198965031894,"connected_time":368000000000,"state":"active","ping":62},{"user_id":29,"name":"Drained","steam_id":76561198081974528,"connected_time":1781000000000,"state":"active","ping":70},{"user_id":30,"name":"Pal The Palm","steam_id":76561198191507485,"connected_time":1771000000000,"state":"active","ping":76},{"user_id":33,"name":"Silver","steam_id":76561198170144481,"connected_time":1664000000000,"state":"active","ping":68},{"user_id":39,"name":"L to the OG","steam_id":76561199215811448,"connected_time":1467000000000,"state":"active","ping":95},{"user_id":36,"name":"deadass1215","steam_id":76561199052886723,"connected_time":1517000000000,"state":"active","ping":133},{"user_id":37,"name":"Mi cara","steam_id":76561198190771759,"connected_time":1506000000000,"state":"active","ping":83},{"user_id":38,"name":"KeithStone","steam_id":76561197986083582,"connected_time":1491000000000,"state":"active","ping":71},{"user_id":65,"name":"GuyGoom","steam_id":76561198254522178,"connected_time":171000000000,"state":"active","ping":72},{"user_id":63,"name":"Cash MoneyBlue","steam_id":76561198934825927,"connected_time":242000000000,"state":"active","ping":90},{"user_id":55,"name":"Bucket of Chestnuts","steam_id":76561198115079427,"connected_time":1192000000000,"state":"active","ping":98},{"user_id":64,"name":"misterjozo","steam_id":76561198012300755,"connected_time":239000000000,"state":"active","ping":115},{"user_id":56,"name":"Fyr","steam_id":76561198048507556,"connected_time":939000000000,"state":"active","ping":46},{"user_id":47,"name":"Willy","steam_id":76561198046508940,"connected_time":1353000000000,"state":"active","ping":89},{"user_id":48,"name":"Minin","steam_id":76561198018819047,"connected_time":1350000000000,"state":"active","ping":70},{"user_id":49,"name":"Five","steam_id":76561198026640473,"connected_time":1342000000000,"state":"active","ping":60},{"user_id":50,"name":"4 life","steam_id":76561198175961598,"connected_time":1339000000000,"state":"active","ping":99},{"user_id":53,"name":"Grunt420","steam_id":76561199407313140,"connected_time":1315000000000,"state":"active","ping":188},{"user_id":52,"name":"H2OBourne","steam_id":76561198396293109,"connected_time":1332000000000,"state":"active","ping":66},{"user_id":59,"name":"merlin","steam_id":76561198334511480,"connected_time":615000000000,"state":"active","ping":70}]},{"server_id":405,"name":"Uncletopia | Dallas | 4 | Community","name_short":"dal-4","host":"dal-1.us.uncletopia.com","port":27045,"enabled":true,"region":"us-central","cc":"us","latitude":32.779167,"longitude":-96.80889,"reserved":0,"last_update":"0001-01-01T00:00:00Z","name_a2s":"Uncletopia | Dallas | 4 | Community","protocol":17,"map":"workshop/pl_cashworks_final1.ugc2904065412","folder":"tf","game":"Team Fortress","app_id":440,"player_count":0,"max_players":24,"Bots":0,"server_type":"Dedicated","server_os":"Linux","password":true,"vac":true,"version":"7961495","steam_id":85568392924515220,"keywords":["nocrits","nodmgspread","payload","uncletopia"],"game_id":440,"stv_port":27046,"stv_name":"Uncletopia | Dallas | 4 | Community | STV","players":null},{"server_id":5,"name":"Uncletopia | Frankfurt | 1 | All Maps","name_short":"frk-1","host":"frk-1.de.uncletopia.com","port":27015,"enabled":true,"region":"eu","cc":"de","latitude":50.110924,"longitude":8.682127,"reserved":0,"last_update":"0001-01-01T00:00:00Z","name_a2s":"Uncletopia | Frankfurt | 1 | All Maps","protocol":17,"map":"cp_dustbowl","folder":"tf","game":"Team Fortress","app_id":440,"player_count":24,"max_players":24,"Bots":0,"server_type":"Dedicated","server_os":"Linux","password":true,"vac":true,"version":"7961495","steam_id":85568392924469989,"keywords":["cp","nocrits","nodmgspread","uncletopia"],"game_id":440,"stv_port":27016,"stv_name":"Uncletopia | Frankfurt | 1 | All Maps | STV","players":[{"user_id":541,"name":"say gex","steam_id":76561198265479349,"connected_time":4059000000000,"state":"active","ping":57},{"user_id":572,"name":"Fr√∂gg-K√§t","steam_id":76561198263561004,"connected_time":1604000000000,"state":"active","ping":60},{"user_id":577,"name":"Mourning","steam_id":76561198156343940,"connected_time":1377000000000,"state":"active","ping":45},{"user_id":573,"name":"QtazeQ","steam_id":76561198183634667,"connected_time":1599000000000,"state":"active","ping":71},{"user_id":564,"name":"ChPerette üéÆ","steam_id":76561198060004887,"connected_time":1842000000000,"state":"active","ping":45},{"user_id":555,"name":"Meodur","steam_id":76561199094592508,"connected_time":2899000000000,"state":"active","ping":55},{"user_id":520,"name":"Medo","steam_id":76561198047894250,"connected_time":4623000000000,"state":"active","ping":58},{"user_id":569,"name":"Timelybog0038","steam_id":76561198805944040,"connected_time":1712000000000,"state":"active","ping":172},{"user_id":568,"name":"i pity the drool.","steam_id":76561199330937686,"connected_time":1736000000000,"state":"active","ping":64},{"user_id":508,"name":"Killbasa","steam_id":76561198064868400,"connected_time":5051000000000,"state":"active","ping":134},{"user_id":584,"name":"trebblebob","steam_id":76561198148178960,"connected_time":119000000000,"state":"active","ping":60},{"user_id":567,"name":"Moon","steam_id":76561198331676455,"connected_time":1786000000000,"state":"active","ping":142},{"user_id":582,"name":"Marxeline","steam_id":76561198315098896,"connected_time":888000000000,"state":"active","ping":45},{"user_id":556,"name":"Tichy‚òÜ","steam_id":76561198026218934,"connected_time":2816000000000,"state":"active","ping":50},{"user_id":510,"name":"Finem Belli","steam_id":76561198227177976,"connected_time":4987000000000,"state":"active","ping":48},{"user_id":513,"name":"Aku+","steam_id":76561198813782795,"connected_time":4901000000000,"state":"active","ping":74},{"user_id":557,"name":"·¥±·µõ·µÉ","steam_id":76561198102894698,"connected_time":2789000000000,"state":"active","ping":60},{"user_id":586,"name":"Incel #DefundThePolice ^_^*","steam_id":76561198076525851,"connected_time":111000000000,"state":"active","ping":47},{"user_id":583,"name":"Sultan Mohammad S√ºleyman II.","steam_id":76561198124568025,"connected_time":409000000000,"state":"active","ping":57},{"user_id":543,"name":"Sputnik","steam_id":76561198138660241,"connected_time":3952000000000,"state":"active","ping":71},{"user_id":579,"name":"froglids","steam_id":76561198045466919,"connected_time":1264000000000,"state":"active","ping":60},{"user_id":580,"name":"üÉî Katarina","steam_id":76561198065652251,"connected_time":1260000000000,"state":"active","ping":36},{"user_id":576,"name":"Stefman","steam_id":76561199025104038,"connected_time":1484000000000,"state":"active","ping":47},{"user_id":533,"name":"Hyperion","steam_id":76561198043716162,"connected_time":4257000000000,"state":"active","ping":70}]},{"server_id":110,"name":"Uncletopia | Frankfurt | 2 | All Maps","name_short":"frk-2","host":"frk-1.de.uncletopia.com","port":27025,"enabled":true,"region":"eu","cc":"de","latitude":50.110924,"longitude":8.682127,"reserved":0,"last_update":"0001-01-01T00:00:00Z","name_a2s":"Uncletopia | Frankfurt | 2 | All Maps","protocol":17,"map":"cp_sunshine","folder":"tf","game":"Team Fortress","app_id":440,"player_count":0,"max_players":24,"Bots":0,"server_type":"Dedicated","server_os":"Linux","password":true,"vac":true,"version":"7961495","steam_id":85568392924469990,"keywords":["cp","nocrits","nodmgspread","uncletopia"],"game_id":440,"stv_port":27026,"stv_name":"Uncletopia | Frankfurt | 2 | All Maps | STV","players":null},{"server_id":308,"name":"Uncletopia | Frankfurt | 3 | All Maps","name_short":"frk-3","host":"frk-1.de.uncletopia.com","port":27035,"enabled":true,"region":"eu","cc":"de","latitude":50.110924,"longitude":8.682127,"reserved":0,"last_update":"0001-01-01T00:00:00Z","name_a2s":"Uncletopia | Frankfurt | 3 | All Maps","protocol":17,"map":"cp_snakewater_final1","folder":"tf","game":"Team Fortress","app_id":440,"player_count":0,"max_players":24,"Bots":0,"server_type":"Dedicated","server_os":"Linux","password":true,"vac":true,"version":"7961495","steam_id":85568392924504274,"keywords":["cp","nocrits","nodmgspread","uncletopia"],"game_id":440,"stv_port":27036,"stv_name":"Uncletopia | Frankfurt | 3 | All Maps | STV","players":null},{"server_id":309,"name":"Uncletopia | Frankfurt | 4 | All Maps","name_short":"frk-4","host":"frk-1.de.uncletopia.com","port":27045,"enabled":true,"region":"eu","cc":"de","latitude":50.110924,"longitude":8.682127,"reserved":0,"last_update":"0001-01-01T00:00:00Z","name_a2s":"Uncletopia | Frankfurt | 4 | All Maps","protocol":17,"map":"pl_frontier_final","folder":"tf","game":"Team Fortress","app_id":440,"player_count":0,"max_players":24,"Bots":0,"server_type":"Dedicated","server_os":"Linux","password":true,"vac":true,"version":"7961495","steam_id":85568392924504275,"keywords":["nocrits","nodmgspread","payload","uncletopia"],"game_id":440,"stv_port":27046,"stv_name":"Uncletopia | Frankfurt | 4 | All Maps | STV","players":null},{"server_id":310,"name":"Uncletopia | Frankfurt | 5 | All Maps","name_short":"frk-5","host":"frk-1.de.uncletopia.com","port":27055,"enabled":true,"region":"eu","cc":"de","latitude":50.110924,"longitude":8.682127,"reserved":0,"last_update":"0001-01-01T00:00:00Z","name_a2s":"Uncletopia | Frankfurt | 5 | All Maps","protocol":17,"map":"cp_snakewater_final1","folder":"tf","game":"Team Fortress","app_id":440,"player_count":0,"max_players":24,"Bots":0,"server_type":"Dedicated","server_os":"Linux","password":true,"vac":true,"version":"7961495","steam_id":85568392924504277,"keywords":["cp","nocrits","nodmgspread","uncletopia"],"game_id":440,"stv_port":27056,"stv_name":"Uncletopia | Frankfurt | 5 | All Maps | STV","players":null},{"server_id":311,"name":"Uncletopia | Frankfurt | 6 | All Maps","name_short":"frk-6","host":"frk-1.de.uncletopia.com","port":27065,"enabled":true,"region":"eu","cc":"de","latitude":50.110924,"longitude":8.682127,"reserved":0,"last_update":"0001-01-01T00:00:00Z","name_a2s":"Uncletopia | Frankfurt | 6 | All Maps","protocol":17,"map":"pl_frontier_final","folder":"tf","game":"Team Fortress","app_id":440,"player_count":4,"max_players":24,"Bots":0,"server_type":"Dedicated","server_os":"Linux","password":true,"vac":true,"version":"7961495","steam_id":85568392924504278,"keywords":["nocrits","nodmgspread","payload","uncletopia"],"game_id":440,"stv_port":27066,"stv_name":"Uncletopia | Frankfurt | 6 | All Maps | STV","players":[{"user_id":567,"name":"DALIX","steam_id":76561198137361645,"connected_time":900000000000,"state":"active","ping":63},{"user_id":558,"name":"Ozzie","steam_id":76561197992915315,"connected_time":5777000000000,"state":"active","ping":75},{"user_id":560,"name":"randem_","steam_id":76561198338793755,"connected_time":3020000000000,"state":"active","ping":53},{"user_id":551,"name":"CarbonPan","steam_id":76561198072169983,"connected_time":6328000000000,"state":"active","ping":87}]},{"server_id":23,"name":"Uncletopia | Frankfurt | 7 | Stopwatch","name_short":"frk-7","host":"frk-1.de.uncletopia.com","port":27075,"enabled":true,"region":"eu","cc":"de","latitude":50.110924,"longitude":8.682127,"reserved":0,"last_update":"0001-01-01T00:00:00Z","name_a2s":"Uncletopia | Frankfurt | 7 | Stopwatch","protocol":17,"map":"workshop/koth_product_final.ugc454272353","folder":"tf","game":"Team Fortress","app_id":440,"player_count":0,"max_players":24,"Bots":0,"server_type":"Dedicated","server_os":"Linux","password":true,"vac":true,"version":"7961495","steam_id":85568392924742827,"keywords":["cp","nocrits","nodmgspread","uncletopia"],"game_id":440,"stv_port":27076,"stv_name":"Uncletopia | Frankfurt | 7 | Stopwatch | STV","players":null},{"server_id":24,"name":"Uncletopia | Frankfurt | 8 | Community","name_short":"frk-8","host":"frk-1.de.uncletopia.com","port":27085,"enabled":true,"region":"eu","cc":"de","latitude":50.110924,"longitude":8.682127,"reserved":0,"last_update":"0001-01-01T00:00:00Z","name_a2s":"Uncletopia | Frankfurt | 8 | Community","protocol":17,"map":"workshop/pl_corrode_rc2.ugc546577989","folder":"tf","game":"Team Fortress","app_id":440,"player_count":0,"max_players":24,"Bots":0,"server_type":"Dedicated","server_os":"Linux","password":true,"vac":true,"version":"7961495","steam_id":85568392924742828,"keywords":["nocrits","nodmgspread","payload","uncletopia"],"game_id":440,"stv_port":27086,"stv_name":"Uncletopia | Frankfurt | 8 | Community | STV","players":null},{"server_id":202,"name":"Uncletopia | Hong Kong | 1 | All Maps","name_short":"hgk-1","host":"hgk-1.hk.uncletopia.com","port":27015,"enabled":true,"region":"asia","cc":"hk","latitude":22.302711,"longitude":114.177216,"reserved":0,"last_update":"0001-01-01T00:00:00Z","name_a2s":"Uncletopia | Hong Kong | 1 | All Maps","protocol":17,"map":"pl_frontier_final","folder":"tf","game":"Team Fortress","app_id":440,"player_count":0,"max_players":24,"Bots":0,"server_type":"Dedicated","server_os":"Linux","password":true,"vac":true,"version":"7961495","steam_id":85568392924494504,"keywords":["nocrits","nodmgspread","payload","uncletopia"],"game_id":440,"stv_port":27016,"stv_name":"Uncletopia | Hong Kong | 1 | All Maps | STV","players":null},{"server_id":1,"name":"Uncletopia | Los Angeles | 1 | All Maps","name_short":"lax-1","host":"lax-1.us.uncletopia.com","port":27015,"enabled":true,"region":"us-west","cc":"us","latitude":33.94279,"longitude":-118.41004,"reserved":0,"last_update":"0001-01-01T00:00:00Z","name_a2s":"Uncletopia | Los Angeles | 1 | All Maps","protocol":17,"map":"pl_badwater","folder":"tf","game":"Team Fortress","app_id":440,"player_count":24,"max_players":24,"Bots":0,"server_type":"Dedicated","server_os":"Linux","password":true,"vac":true,"version":"7961495","steam_id":85568392924469991,"keywords":["nocrits","nodmgspread","payload","uncletopia"],"game_id":440,"stv_port":27016,"stv_name":"Uncletopia | Los Angeles | 1 | All Maps | STV","players":[{"user_id":59,"name":"[chef] iron","steam_id":76561197970888616,"connected_time":306000000000,"state":"active","ping":90},{"user_id":15,"name":"fallingtree123","steam_id":76561198937414442,"connected_time":3138000000000,"state":"active","ping":88},{"user_id":72,"name":"MR MODE","steam_id":76561198046775352,"connected_time":17000000000,"state":"spawning","ping":88},{"user_id":44,"name":"altpuppy","steam_id":76561198325643231,"connected_time":1952000000000,"state":"active","ping":45},{"user_id":69,"name":"Phoysh","steam_id":76561198137111021,"connected_time":98000000000,"state":"active","ping":80},{"user_id":71,"name":"Kiss Master","steam_id":76561198289572271,"connected_time":56000000000,"state":"active","ping":101},{"user_id":25,"name":"Flea103","steam_id":76561198085863864,"connected_time":2444000000000,"state":"active","ping":152},{"user_id":29,"name":"you just got dyked on","steam_id":76561198018977723,"connected_time":2326000000000,"state":"active","ping":92},{"user_id":56,"name":"TTV/ChadMorningWood","steam_id":76561198139832291,"connected_time":626000000000,"state":"active","ping":48},{"user_id":24,"name":"xXx AM3N xXx","steam_id":76561198947149283,"connected_time":2488000000000,"state":"active","ping":60},{"user_id":52,"name":"Mob Boss Baby","steam_id":76561199127590316,"connected_time":1014000000000,"state":"active","ping":64},{"user_id":28,"name":"The Mandawhorian","steam_id":76561198294955546,"connected_time":2371000000000,"state":"active","ping":105},{"user_id":70,"name":"summerlis","steam_id":76561198165324438,"connected_time":77000000000,"state":"active","ping":41},{"user_id":32,"name":"chicken on quack","steam_id":76561199235538552,"connected_time":2286000000000,"state":"active","ping":68},{"user_id":60,"name":"Gins N Tonic","steam_id":76561198081364536,"connected_time":299000000000,"state":"active","ping":118},{"user_id":65,"name":"ShadowZiki","steam_id":76561198145930013,"connected_time":206000000000,"state":"active","ping":45},{"user_id":35,"name":"Rhutebeer","steam_id":76561198018302761,"connected_time":2267000000000,"state":"active","ping":115},{"user_id":54,"name":"Gerbias","steam_id":76561198001002427,"connected_time":937000000000,"state":"active","ping":61},{"user_id":66,"name":"SneakySneak","steam_id":76561198064847921,"connected_time":199000000000,"state":"active","ping":101},{"user_id":39,"name":"Lrd shwag","steam_id":76561198841016072,"connected_time":2170000000000,"state":"active","ping":90},{"user_id":40,"name":"Rodrick Knee","steam_id":76561198283021062,"connected_time":2144000000000,"state":"active","ping":130},{"user_id":48,"name":"FunnyGoomba","steam_id":76561198279865229,"connected_time":1417000000000,"state":"active","ping":78},{"user_id":67,"name":"Gaming","steam_id":76561198327632113,"connected_time":175000000000,"state":"active","ping":80},{"user_id":43,"name":"d4ngerd4n","steam_id":76561198043758735,"connected_time":2084000000000,"state":"active","ping":57}]},{"server_id":112,"name":"Uncletopia | Los Angeles | 2 | All Maps","name_short":"lax-2","host":"lax-1.us.uncletopia.com","port":27025,"enabled":true,"region":"us-west","cc":"us","latitude":33.94279,"longitude":-118.41004,"reserved":0,"last_update":"0001-01-01T00:00:00Z","name_a2s":"Uncletopia | Los Angeles | 2 | All Maps","protocol":17,"map":"koth_lakeside_final","folder":"tf","game":"Team Fortress","app_id":440,"player_count":0,"max_players":24,"Bots":0,"server_type":"Dedicated","server_os":"Linux","password":true,"vac":true,"version":"7961495","steam_id":85568392924469992,"keywords":["cp","nocrits","nodmgspread","uncletopia"],"game_id":440,"stv_port":27026,"stv_name":"Uncletopia | Los Angeles | 2 | All Maps | STV","players":null},{"server_id":324,"name":"Uncletopia | Los Angeles | 3 | All Maps","name_short":"lax-3","host":"lax-1.us.uncletopia.com","port":27035,"enabled":true,"region":"us-west","cc":"us","latitude":33.94279,"longitude":-118.41004,"reserved":0,"last_update":"0001-01-01T00:00:00Z","name_a2s":"Uncletopia | Los Angeles | 3 | All Maps","protocol":17,"map":"cp_snakewater_final1","folder":"tf","game":"Team Fortress","app_id":440,"player_count":0,"max_players":24,"Bots":0,"server_type":"Dedicated","server_os":"Linux","password":true,"vac":true,"version":"7961495","steam_id":85568392924510198,"keywords":["cp","nocrits","nodmgspread","uncletopia"],"game_id":440,"stv_port":27036,"stv_name":"Uncletopia | Los Angeles | 3 | All Maps | STV","players":null},{"server_id":25,"name":"Uncletopia | Los Angeles | 4 | Stopwatch","name_short":"lax-4","host":"lax-1.us.uncletopia.com","port":27045,"enabled":true,"region":"us-west","cc":"us","latitude":33.94279,"longitude":-118.41004,"reserved":0,"last_update":"0001-01-01T00:00:00Z","name_a2s":"Uncletopia | Los Angeles | 4 | Stopwatch","protocol":17,"map":"pl_barnblitz","folder":"tf","game":"Team Fortress","app_id":440,"player_count":0,"max_players":24,"Bots":0,"server_type":"Dedicated","server_os":"Linux","password":true,"vac":true,"version":"7961495","steam_id":85568392924510199,"keywords":["nocrits","nodmgspread","payload","uncletopia"],"game_id":440,"stv_port":27046,"stv_name":"Uncletopia | Los Angeles | 4 | Stopwatch | STV","players":null},{"server_id":11,"name":"Uncletopia | London | 1 | All Maps","name_short":"lon-1","host":"lon-1.uk.uncletopia.com","port":27015,"enabled":true,"region":"eu","cc":"gb","latitude":51.509865,"longitude":-0.118092,"reserved":0,"last_update":"0001-01-01T00:00:00Z","name_a2s":"Uncletopia | London | 1 | All Maps","protocol":17,"map":"pl_frontier_final","folder":"tf","game":"Team Fortress","app_id":440,"player_count":24,"max_players":24,"Bots":0,"server_type":"Dedicated","server_os":"Linux","password":true,"vac":true,"version":"7961495","steam_id":85568392924367362,"keywords":["nocrits","nodmgspread","payload","uncletopia"],"game_id":440,"stv_port":27016,"stv_name":"Uncletopia | London | 1 | All Maps | STV","players":[{"user_id":520,"name":"helps me helps me why7 yuo no h","steam_id":76561198190583242,"connected_time":5950000000000,"state":"active","ping":74},{"user_id":592,"name":"Portal2Player","steam_id":76561198062870114,"connected_time":251000000000,"state":"active","ping":133},{"user_id":550,"name":"rigel_","steam_id":76561198148640847,"connected_time":3670000000000,"state":"active","ping":85},{"user_id":574,"name":"Zedifo","steam_id":76561198044032070,"connected_time":1568000000000,"state":"active","ping":47},{"user_id":584,"name":"REN","steam_id":76561198000596385,"connected_time":478000000000,"state":"active","ping":75},{"user_id":586,"name":"A Succulent Chinese Meal","steam_id":76561198069472440,"connected_time":393000000000,"state":"active","ping":71},{"user_id":581,"name":"Maya","steam_id":76561198128616615,"connected_time":681000000000,"state":"active","ping":75},{"user_id":577,"name":"DarthMurloc_OW","steam_id":76561198075577711,"connected_time":1421000000000,"state":"active","ping":87},{"user_id":594,"name":"aja","steam_id":76561198972253395,"connected_time":223000000000,"state":"active","ping":59},{"user_id":569,"name":"Mr. Fox","steam_id":76561198803610709,"connected_time":1747000000000,"state":"active","ping":110},{"user_id":571,"name":"peeka","steam_id":76561198221122068,"connected_time":1663000000000,"state":"active","ping":51},{"user_id":582,"name":"leminsc8","steam_id":76561198825084995,"connected_time":507000000000,"state":"active","ping":54},{"user_id":579,"name":"SuperBob103","steam_id":76561199175360012,"connected_time":1017000000000,"state":"active","ping":49},{"user_id":544,"name":"LuCroGi","steam_id":76561198057283891,"connected_time":4590000000000,"state":"active","ping":65},{"user_id":587,"name":"7amas","steam_id":76561199057953617,"connected_time":378000000000,"state":"active","ping":68},{"user_id":588,"name":"meistjr","steam_id":76561198077240093,"connected_time":356000000000,"state":"active","ping":57},{"user_id":589,"name":"ratot","steam_id":76561198063132645,"connected_time":349000000000,"state":"active","ping":44},{"user_id":572,"name":"xTheDarkLight","steam_id":76561198239128298,"connected_time":1643000000000,"state":"active","ping":63},{"user_id":575,"name":"Phalcon","steam_id":76561197987051394,"connected_time":1555000000000,"state":"active","ping":83},{"user_id":590,"name":"Gryoss","steam_id":76561197999837111,"connected_time":322000000000,"state":"active","ping":118},{"user_id":596,"name":"breakfast burrito","steam_id":76561198148606969,"connected_time":137000000000,"state":"active","ping":75},{"user_id":599,"name":"Dapper Pan Man","steam_id":76561197981874399,"connected_time":38000000000,"state":"active","ping":97},{"user_id":434,"name":"reddit fortress","steam_id":76561198074917015,"connected_time":16712000000000,"state":"active","ping":89},{"user_id":562,"name":"RIBS GROW BACK","steam_id":76561198123659806,"connected_time":2212000000000,"state":"active","ping":96}]},{"server_id":114,"name":"Uncletopia | London | 2 | All Maps","name_short":"lon-2","host":"lon-1.uk.uncletopia.com","port":27025,"enabled":true,"region":"eu","cc":"gb","latitude":51.509865,"longitude":-0.118092,"reserved":0,"last_update":"0001-01-01T00:00:00Z","name_a2s":"Uncletopia | London | 2 | All Maps","protocol":17,"map":"pl_upward","folder":"tf","game":"Team Fortress","app_id":440,"player_count":0,"max_players":24,"Bots":0,"server_type":"Dedicated","server_os":"Linux","password":true,"vac":true,"version":"7961495","steam_id":85568392924470941,"keywords":["nocrits","nodmgspread","payload","uncletopia"],"game_id":440,"stv_port":27026,"stv_name":"Uncletopia | London | 2 | All Maps | STV","players":null},{"server_id":320,"name":"Uncletopia | London | 3 | All Maps","name_short":"lon-3","host":"lon-1.uk.uncletopia.com","port":27035,"enabled":true,"region":"eu","cc":"gb","latitude":51.509865,"longitude":-0.118092,"reserved":0,"last_update":"0001-01-01T00:00:00Z","name_a2s":"Uncletopia | London | 3 | All Maps","protocol":17,"map":"pl_goldrush","folder":"tf","game":"Team Fortress","app_id":440,"player_count":23,"max_players":24,"Bots":0,"server_type":"Dedicated","server_os":"Linux","password":true,"vac":true,"version":"7961495","steam_id":85568392924510192,"keywords":["nocrits","nodmgspread","payload","uncletopia"],"game_id":440,"stv_port":27036,"stv_name":"Uncletopia | London | 3 | All Maps | STV","players":[{"user_id":220,"name":"\u003e\u003c\u003e","steam_id":76561198152392309,"connected_time":580000000000,"state":"active","ping":44},{"user_id":228,"name":"Your Drunken Fat Step-Dad","steam_id":76561199231892104,"connected_time":61000000000,"state":"active","ping":72},{"user_id":189,"name":"Toby Flynt","steam_id":76561198099140763,"connected_time":3973000000000,"state":"active","ping":47},{"user_id":193,"name":"TreatFly","steam_id":76561198069707362,"connected_time":3011000000000,"state":"active","ping":53},{"user_id":162,"name":"free back real estate","steam_id":76561197999437155,"connected_time":4595000000000,"state":"active","ping":51},{"user_id":192,"name":"Macross","steam_id":76561198236834916,"connected_time":3942000000000,"state":"active","ping":53},{"user_id":226,"name":"‚ìà ‚òÖ","steam_id":76561198001235783,"connected_time":122000000000,"state":"active","ping":73},{"user_id":194,"name":"CreepyYellowDuck","steam_id":76561198000479387,"connected_time":3010000000000,"state":"active","ping":40},{"user_id":212,"name":"TW1STaL1CKY","steam_id":76561198026479532,"connected_time":792000000000,"state":"active","ping":43},{"user_id":101,"name":"lillunya ‚ô°","steam_id":76561198330418866,"connected_time":9524000000000,"state":"active","ping":69},{"user_id":224,"name":"calum92","steam_id":76561197992188760,"connected_time":468000000000,"state":"active","ping":68},{"user_id":215,"name":"Krow","steam_id":76561198817864089,"connected_time":698000000000,"state":"active","ping":73},{"user_id":206,"name":"Aaronbill3","steam_id":76561198014056212,"connected_time":1200000000000,"state":"active","ping":73},{"user_id":176,"name":"GGlut","steam_id":76561198034281473,"connected_time":4288000000000,"state":"active","ping":46},{"user_id":209,"name":"Immortalyes","steam_id":76561198050800698,"connected_time":833000000000,"state":"active","ping":69},{"user_id":227,"name":"Megumi","steam_id":76561198833900348,"connected_time":99000000000,"state":"active","ping":101},{"user_id":196,"name":"Level 1 Noob","steam_id":76561198088586340,"connected_time":2906000000000,"state":"active","ping":53},{"user_id":229,"name":"Heisenberg","steam_id":76561198046755238,"connected_time":2000000000,"state":"spawning","ping":40},{"user_id":208,"name":"snowycoast","steam_id":76561198346638308,"connected_time":984000000000,"state":"active","ping":59},{"user_id":218,"name":"long crab","steam_id":76561198136239861,"connected_time":689000000000,"state":"active","ping":47},{"user_id":221,"name":"im practicing airshots","steam_id":76561198388318978,"connected_time":556000000000,"state":"active","ping":86},{"user_id":222,"name":"icy_spicy","steam_id":76561199481524657,"connected_time":538000000000,"state":"active","ping":74},{"user_id":201,"name":"Donac Dum","steam_id":76561198064089294,"connected_time":2751000000000,"state":"active","ping":54}]},{"server_id":321,"name":"Uncletopia | London | 4 | All Maps","name_short":"lon-4","host":"lon-1.uk.uncletopia.com","port":27045,"enabled":true,"region":"eu","cc":"gb","latitude":51.509865,"longitude":-0.118092,"reserved":0,"last_update":"0001-01-01T00:00:00Z","name_a2s":"Uncletopia | London | 4 | All Maps","protocol":17,"map":"koth_cascade","folder":"tf","game":"Team Fortress","app_id":440,"player_count":0,"max_players":24,"Bots":0,"server_type":"Dedicated","server_os":"Linux","password":true,"vac":true,"version":"7961495","steam_id":85568392924510193,"keywords":["cp","nocrits","nodmgspread","uncletopia"],"game_id":440,"stv_port":27046,"stv_name":"Uncletopia | London | 4 | All Maps | STV","players":null},{"server_id":21,"name":"Uncletopia | London | 5 | All Maps","name_short":"lon-5","host":"lon-1.uk.uncletopia.com","port":27055,"enabled":true,"region":"eu","cc":"gb","latitude":51.509865,"longitude":-0.118092,"reserved":0,"last_update":"0001-01-01T00:00:00Z","name_a2s":"Uncletopia | London | 5 | All Maps","protocol":17,"map":"pl_upward","folder":"tf","game":"Team Fortress","app_id":440,"player_count":23,"max_players":24,"Bots":0,"server_type":"Dedicated","server_os":"Linux","password":true,"vac":true,"version":"7961495","steam_id":85568392924742829,"keywords":["nocrits","nodmgspread","payload","uncletopia"],"game_id":440,"stv_port":27056,"stv_name":"Uncletopia | London | 5 | All Maps | STV","players":[{"user_id":963,"name":"SadBambino","steam_id":76561198101989931,"connected_time":2060000000000,"state":"active","ping":55},{"user_id":986,"name":"Ridley","steam_id":76561198248615662,"connected_time":967000000000,"state":"active","ping":173},{"user_id":974,"name":"Bajas","steam_id":76561198179339326,"connected_time":1294000000000,"state":"active","ping":74},{"user_id":967,"name":"RahanJahan","steam_id":76561198098165389,"connected_time":1941000000000,"state":"active","ping":44},{"user_id":968,"name":"King Goomba","steam_id":76561198146467813,"connected_time":1939000000000,"state":"active","ping":62},{"user_id":972,"name":"Pyro","steam_id":76561198104785078,"connected_time":1461000000000,"state":"active","ping":51},{"user_id":965,"name":"Registered Sex Defender","steam_id":76561198023609460,"connected_time":2044000000000,"state":"active","ping":78},{"user_id":973,"name":"DJ Sheeve","steam_id":76561198095910139,"connected_time":1363000000000,"state":"active","ping":161},{"user_id":975,"name":"flr","steam_id":76561198249327786,"connected_time":1283000000000,"state":"active","ping":60},{"user_id":995,"name":"Sych06","steam_id":76561198798979302,"connected_time":553000000000,"state":"active","ping":105},{"user_id":979,"name":"aKENTich","steam_id":76561198062861198,"connected_time":1062000000000,"state":"active","ping":124},{"user_id":1000,"name":"TMC","steam_id":76561198077956157,"connected_time":12000000000,"state":"spawning","ping":45},{"user_id":950,"name":"Doctor Marijuana","steam_id":76561198288289879,"connected_time":3191000000000,"state":"active","ping":47},{"user_id":982,"name":"PixelVader","steam_id":76561198034195553,"connected_time":1048000000000,"state":"active","ping":59},{"user_id":993,"name":"a chimp with a keyboard","steam_id":76561198060270322,"connected_time":567000000000,"state":"active","ping":90},{"user_id":951,"name":"ScampSixteen","steam_id":76561198021771000,"connected_time":3190000000000,"state":"active","ping":56},{"user_id":984,"name":"RuneShine","steam_id":76561198007098323,"connected_time":1031000000000,"state":"active","ping":41},{"user_id":985,"name":"Jack Fox","steam_id":76561198132826595,"connected_time":1006000000000,"state":"active","ping":75},{"user_id":998,"name":"shadowness‚ô¶","steam_id":76561198176790002,"connected_time":158000000000,"state":"active","ping":74},{"user_id":954,"name":"Roboolet","steam_id":76561198107353953,"connected_time":3122000000000,"state":"active","ping":49},{"user_id":994,"name":"Atomix","steam_id":76561198127352880,"connected_time":565000000000,"state":"active","ping":55},{"user_id":952,"name":"sloppy transgirl toppy","steam_id":76561198057092208,"connected_time":3188000000000,"state":"active","ping":70},{"user_id":992,"name":"Kotun","steam_id":76561198399057257,"connected_time":743000000000,"state":"active","ping":62}]},{"server_id":22,"name":"Uncletopia | London | 6 | All Maps","name_short":"lon-6","host":"lon-1.uk.uncletopia.com","port":27065,"enabled":true,"region":"eu","cc":"gb","latitude":51.509865,"longitude":-0.118092,"reserved":0,"last_update":"0001-01-01T00:00:00Z","name_a2s":"Uncletopia | London | 6 | All Maps","protocol":17,"map":"cp_process_final","folder":"tf","game":"Team Fortress","app_id":440,"player_count":24,"max_players":24,"Bots":0,"server_type":"Dedicated","server_os":"Linux","password":true,"vac":true,"version":"7961495","steam_id":85568392924742830,"keywords":["cp","nocrits","nodmgspread","uncletopia"],"game_id":440,"stv_port":27066,"stv_name":"Uncletopia | London | 6 | All Maps | STV","players":[{"user_id":580,"name":"ÿ±ÿßŸäŸÜ","steam_id":76561199167206295,"connected_time":240000000000,"state":"active","ping":88},{"user_id":540,"name":"Deuderp","steam_id":76561199055175414,"connected_time":3625000000000,"state":"active","ping":154},{"user_id":533,"name":"torn","steam_id":76561198223003236,"connected_time":3903000000000,"state":"active","ping":32},{"user_id":551,"name":"Bill Carr","steam_id":76561198110033943,"connected_time":2621000000000,"state":"active","ping":36},{"user_id":522,"name":"Borat","steam_id":76561198122226417,"connected_time":4102000000000,"state":"active","ping":45},{"user_id":573,"name":"Laz","steam_id":76561199035531550,"connected_time":867000000000,"state":"active","ping":54},{"user_id":562,"name":"Purps","steam_id":76561198053886680,"connected_time":2148000000000,"state":"active","ping":43},{"user_id":574,"name":"-NivRabinek-","steam_id":76561199172294623,"connected_time":864000000000,"state":"active","ping":114},{"user_id":538,"name":"Glitch","steam_id":76561198081895538,"connected_time":3728000000000,"state":"active","ping":56},{"user_id":536,"name":"etc","steam_id":76561197998394797,"connected_time":3773000000000,"state":"active","ping":46},{"user_id":563,"name":"jjkun786","steam_id":76561199438517484,"connected_time":2116000000000,"state":"active","ping":75},{"user_id":561,"name":"remi, she wrote.","steam_id":76561198044045655,"connected_time":2384000000000,"state":"active","ping":70},{"user_id":564,"name":"nug","steam_id":76561198055396568,"connected_time":2109000000000,"state":"active","ping":55},{"user_id":579,"name":"NaokiP","steam_id":76561198002788698,"connected_time":317000000000,"state":"active","ping":88},{"user_id":581,"name":"neet","steam_id":76561197968115168,"connected_time":217000000000,"state":"active","ping":118},{"user_id":554,"name":"frosty","steam_id":76561198094560834,"connected_time":2593000000000,"state":"active","ping":49},{"user_id":529,"name":"Kernel Panic","steam_id":76561198215811047,"connected_time":3955000000000,"state":"active","ping":43},{"user_id":530,"name":"waffle toaster","steam_id":76561198799089628,"connected_time":3946000000000,"state":"active","ping":45},{"user_id":577,"name":"foot man","steam_id":76561199033690613,"connected_time":422000000000,"state":"active","ping":166},{"user_id":570,"name":"Bobirulez","steam_id":76561198009125458,"connected_time":1705000000000,"state":"active","ping":75},{"user_id":568,"name":"Bijeli Walter","steam_id":76561198096093342,"connected_time":1900000000000,"state":"active","ping":82},{"user_id":571,"name":"Arthur","steam_id":76561198066109166,"connected_time":1668000000000,"state":"active","ping":90},{"user_id":582,"name":"Summer ‚ô•","steam_id":76561198047723907,"connected_time":172000000000,"state":"active","ping":37},{"user_id":583,"name":"Incoming","steam_id":76561199062581310,"connected_time":124000000000,"state":"active","ping":141}]},{"server_id":40,"name":"Uncletopia | London | 7 | Stopwatch","name_short":"lon-7","host":"lon-1.uk.uncletopia.com","port":27075,"enabled":true,"region":"eu","cc":"gb","latitude":51.509865,"longitude":-0.118092,"reserved":0,"last_update":"0001-01-01T00:00:00Z","name_a2s":"Uncletopia | London | 7 | Stopwatch","protocol":17,"map":"workshop/koth_clearcut_b15.ugc2107050255","folder":"tf","game":"Team Fortress","app_id":440,"player_count":0,"max_players":24,"Bots":0,"server_type":"Dedicated","server_os":"Linux","password":true,"vac":true,"version":"7961495","steam_id":85568392924964314,"keywords":["cp","nocrits","nodmgspread","uncletopia"],"game_id":440,"stv_port":27076,"stv_name":"Uncletopia | London | 7 | Stopwatch | STV","players":null},{"server_id":41,"name":"Uncletopia | London | 8 | Community","name_short":"lon-8","host":"lon-1.uk.uncletopia.com","port":27085,"enabled":true,"region":"eu","cc":"gb","latitude":51.509865,"longitude":-0.118092,"reserved":0,"last_update":"0001-01-01T00:00:00Z","name_a2s":"Uncletopia | London | 8 | Community","protocol":17,"map":"workshop/koth_slaughter_rc1.ugc1712845210","folder":"tf","game":"Team Fortress","app_id":440,"player_count":0,"max_players":24,"Bots":0,"server_type":"Dedicated","server_os":"Linux","password":true,"vac":true,"version":"7961495","steam_id":85568392924964315,"keywords":["cp","nocrits","nodmgspread","uncletopia"],"game_id":440,"stv_port":27086,"stv_name":"Uncletopia | London | 8 | Community | STV","players":null},{"server_id":300,"name":"Uncletopia | Montr√©al | 1 | One Thousand Uncles","name_short":"mtl-1","host":"mtl-1.ca.uncletopia.com","port":27015,"enabled":true,"region":"us-east","cc":"ca","latitude":45.50889,"longitude":-73.56167,"reserved":0,"last_update":"0001-01-01T00:00:00Z","name_a2s":"","protocol":0,"map":"","folder":"","game":"","app_id":0,"player_count":9,"max_players":0,"Bots":0,"server_type":"","server_os":"","password":false,"vac":false,"version":"","steam_id":0,"keywords":null,"game_id":0,"stv_port":0,"stv_name":"","players":[{"user_id":176,"name":"DrMisteryous2","steam_id":76561198336307012,"connected_time":2758000000000,"state":"active","ping":159},{"user_id":193,"name":"Hanselpup","steam_id":76561198165480226,"connected_time":2275000000000,"state":"active","ping":85},{"user_id":194,"name":"‡πáPericulosum PhD in Funny","steam_id":76561198123370914,"connected_time":1410000000000,"state":"active","ping":75},{"user_id":195,"name":"carforcarsale","steam_id":76561199474572231,"connected_time":1066000000000,"state":"active","ping":46},{"user_id":197,"name":"Spiderfight1","steam_id":76561199189991528,"connected_time":449000000000,"state":"active","ping":90},{"user_id":198,"name":"two sentient corn cobs kissing","steam_id":76561198238842076,"connected_time":430000000000,"state":"active","ping":83},{"user_id":199,"name":"Thai","steam_id":76561198302397245,"connected_time":368000000000,"state":"active","ping":46},{"user_id":200,"name":"„ãõ countblanc","steam_id":76561197993171771,"connected_time":222000000000,"state":"active","ping":74},{"user_id":202,"name":"Dr Madness The Octoling","steam_id":76561198065407703,"connected_time":96000000000,"state":"active","ping":56}]},{"server_id":301,"name":"Uncletopia | Montr√©al | 2 | One Thousand Uncles","name_short":"mtl-2","host":"mtl-1.ca.uncletopia.com","port":27025,"enabled":true,"region":"us-east","cc":"ca","latitude":45.50889,"longitude":-73.56167,"reserved":0,"last_update":"0001-01-01T00:00:00Z","name_a2s":"","protocol":0,"map":"","folder":"","game":"","app_id":0,"player_count":0,"max_players":0,"Bots":0,"server_type":"","server_os":"","password":false,"vac":false,"version":"","steam_id":0,"keywords":null,"game_id":0,"stv_port":0,"stv_name":"","players":null},{"server_id":302,"name":"Uncletopia | Montr√©al | 3 | One Thousand Uncles","name_short":"mtl-3","host":"mtl-1.ca.uncletopia.com","port":27035,"enabled":true,"region":"us-east","cc":"ca","latitude":45.50889,"longitude":-73.56167,"reserved":0,"last_update":"0001-01-01T00:00:00Z","name_a2s":"","protocol":0,"map":"","folder":"","game":"","app_id":0,"player_count":11,"max_players":0,"Bots":0,"server_type":"","server_os":"","password":false,"vac":false,"version":"","steam_id":0,"keywords":null,"game_id":0,"stv_port":0,"stv_name":"","players":[{"user_id":216,"name":"SiltyStar85","steam_id":76561198309175923,"connected_time":1669000000000,"state":"active","ping":74},{"user_id":240,"name":"lasagna","steam_id":76561199138154899,"connected_time":1027000000000,"state":"active","ping":102},{"user_id":239,"name":"Ranyz","steam_id":76561199180548561,"connected_time":1106000000000,"state":"active","ping":47},{"user_id":203,"name":"Tom Dude","steam_id":76561198093913484,"connected_time":2571000000000,"state":"active","ping":74},{"user_id":185,"name":"yuhboiZ #savetf2","steam_id":76561198192643775,"connected_time":3874000000000,"state":"active","ping":144},{"user_id":245,"name":"i eat glue","steam_id":76561198827026673,"connected_time":886000000000,"state":"active","ping":52},{"user_id":215,"name":"Jamie Hyneman","steam_id":76561199196036481,"connected_time":1760000000000,"state":"active","ping":92},{"user_id":244,"name":"mush","steam_id":76561198310089797,"connected_time":954000000000,"state":"active","ping":66},{"user_id":190,"name":"BIG LION","steam_id":76561198091880358,"connected_time":3634000000000,"state":"active","ping":63},{"user_id":207,"name":"flange","steam_id":76561198040182692,"connected_time":2341000000000,"state":"active","ping":119},{"user_id":249,"name":"smoke crack","steam_id":76561199494303414,"connected_time":813000000000,"state":"active","ping":72}]},{"server_id":13,"name":"Uncletopia | New York City | 1 | All Maps","name_short":"nyc-1","host":"nyc-1.us.uncletopia.com","port":27015,"enabled":true,"region":"us-east","cc":"us","latitude":40.73061,"longitude":-73.93524,"reserved":0,"last_update":"0001-01-01T00:00:00Z","name_a2s":"Uncletopia | New York City | 1 | All Maps","protocol":17,"map":"pl_badwater","folder":"tf","game":"Team Fortress","app_id":440,"player_count":24,"max_players":24,"Bots":0,"server_type":"Dedicated","server_os":"Linux","password":true,"vac":true,"version":"7961495","steam_id":85568392924469993,"keywords":["nocrits","nodmgspread","payload","uncletopia"],"game_id":440,"stv_port":27016,"stv_name":"Uncletopia | New York City | 1 | All Maps | STV","players":[{"user_id":309,"name":"St. Michael","steam_id":76561198037611052,"connected_time":370000000000,"state":"active","ping":68},{"user_id":289,"name":"flamingcookies","steam_id":76561198280864779,"connected_time":1535000000000,"state":"active","ping":70},{"user_id":305,"name":"ash","steam_id":76561198127890645,"connected_time":613000000000,"state":"active","ping":79},{"user_id":297,"name":"epsilene","steam_id":76561198027468624,"connected_time":949000000000,"state":"active","ping":41},{"user_id":269,"name":"triple_range_merge","steam_id":76561198991225026,"connected_time":2739000000000,"state":"active","ping":64},{"user_id":301,"name":"TheAlmightyCatDoge","steam_id":76561198192417666,"connected_time":929000000000,"state":"active","ping":78},{"user_id":250,"name":"prospike","steam_id":76561199491903111,"connected_time":3209000000000,"state":"active","ping":70},{"user_id":270,"name":"nav","steam_id":76561198872608266,"connected_time":2673000000000,"state":"active","ping":68},{"user_id":254,"name":"Sully","steam_id":76561198310784589,"connected_time":3107000000000,"state":"active","ping":55},{"user_id":310,"name":"Neacrock","steam_id":76561199178338856,"connected_time":169000000000,"state":"active","ping":54},{"user_id":302,"name":"Mars","steam_id":76561198052436353,"connected_time":929000000000,"state":"active","ping":107},{"user_id":277,"name":"Forced2Wipe","steam_id":76561198170390298,"connected_time":2546000000000,"state":"active","ping":83},{"user_id":304,"name":"Daeps","steam_id":76561198106325779,"connected_time":852000000000,"state":"active","ping":74},{"user_id":259,"name":"rudy","steam_id":76561198088712799,"connected_time":2960000000000,"state":"active","ping":88},{"user_id":300,"name":"CherryPieRed2023","steam_id":76561198998007496,"connected_time":934000000000,"state":"active","ping":137},{"user_id":306,"name":"76561198079603532","steam_id":76561198079603532,"connected_time":559000000000,"state":"active","ping":62},{"user_id":272,"name":"Can't Get Right","steam_id":76561198060185301,"connected_time":2661000000000,"state":"active","ping":77},{"user_id":288,"name":"Parth Makeo","steam_id":76561198002516581,"connected_time":1557000000000,"state":"active","ping":46},{"user_id":308,"name":"mio","steam_id":76561198239286750,"connected_time":497000000000,"state":"active","ping":58},{"user_id":268,"name":"Aviid‚Ñ¢","steam_id":76561198065846452,"connected_time":2758000000000,"state":"active","ping":81},{"user_id":287,"name":"JustLooking","steam_id":76561198207877387,"connected_time":1843000000000,"state":"active","ping":53},{"user_id":293,"name":"creeeeeee","steam_id":76561198392539722,"connected_time":1258000000000,"state":"active","ping":84},{"user_id":274,"name":"Mr. TOASTAR","steam_id":76561198437283283,"connected_time":2625000000000,"state":"active","ping":118},{"user_id":294,"name":"freyja","steam_id":76561198249206656,"connected_time":996000000000,"state":"active","ping":75}]},{"server_id":14,"name":"Uncletopia | New York City | 2 | All Maps","name_short":"nyc-2","host":"nyc-1.us.uncletopia.com","port":27025,"enabled":true,"region":"us-east","cc":"us","latitude":40.73061,"longitude":-73.93524,"reserved":0,"last_update":"0001-01-01T00:00:00Z","name_a2s":"Uncletopia | New York City | 2 | All Maps","protocol":17,"map":"pl_badwater","folder":"tf","game":"Team Fortress","app_id":440,"player_count":24,"max_players":24,"Bots":0,"server_type":"Dedicated","server_os":"Linux","password":true,"vac":true,"version":"7961495","steam_id":85568392924469994,"keywords":["nocrits","nodmgspread","payload","uncletopia"],"game_id":440,"stv_port":27026,"stv_name":"Uncletopia | New York City | 2 | All Maps | STV","players":[{"user_id":72,"name":"Likeia #Savetf2","steam_id":76561198005214207,"connected_time":543000000000,"state":"active","ping":59},{"user_id":75,"name":"maxwell.cat","steam_id":76561199164582237,"connected_time":308000000000,"state":"active","ping":117},{"user_id":29,"name":"BeerPowder","steam_id":76561198058129400,"connected_time":3265000000000,"state":"active","ping":46},{"user_id":78,"name":"Berb","steam_id":76561198193911899,"connected_time":82000000000,"state":"active","ping":90},{"user_id":67,"name":"Drapph","steam_id":76561199384213314,"connected_time":736000000000,"state":"active","ping":82},{"user_id":73,"name":"Dragus","steam_id":76561198032967285,"connected_time":536000000000,"state":"active","ping":70},{"user_id":54,"name":"Park","steam_id":76561198057222814,"connected_time":2180000000000,"state":"active","ping":45},{"user_id":58,"name":"sixsimiansswingingscissors","steam_id":76561197972601902,"connected_time":1634000000000,"state":"active","ping":103},{"user_id":21,"name":"ilhamadepressiva","steam_id":76561199489241111,"connected_time":3714000000000,"state":"active","ping":171},{"user_id":77,"name":"._.","steam_id":76561198300316801,"connected_time":103000000000,"state":"active","ping":33},{"user_id":25,"name":"Arkh","steam_id":76561198862003669,"connected_time":3465000000000,"state":"active","ping":69},{"user_id":43,"name":"Cat on Your Porch","steam_id":76561197979078330,"connected_time":3064000000000,"state":"active","ping":67},{"user_id":57,"name":"ZYNTERLINKED","steam_id":76561198241948526,"connected_time":1737000000000,"state":"active","ping":61},{"user_id":63,"name":"space creep","steam_id":76561198025668545,"connected_time":1322000000000,"state":"active","ping":46},{"user_id":74,"name":"carrot cake","steam_id":76561198055174915,"connected_time":530000000000,"state":"active","ping":71},{"user_id":45,"name":"D.T. Katze","steam_id":76561198002280813,"connected_time":2941000000000,"state":"active","ping":76},{"user_id":65,"name":"flappyflap2","steam_id":76561198285048973,"connected_time":938000000000,"state":"active","ping":45},{"user_id":64,"name":"DolphiN | RGL.gg","steam_id":76561198048614515,"connected_time":1166000000000,"state":"active","ping":44},{"user_id":70,"name":"Vocalwerx","steam_id":76561198069526089,"connected_time":566000000000,"state":"active","ping":88},{"user_id":79,"name":"Low Moth","steam_id":76561198271971274,"connected_time":80000000000,"state":"active","ping":63},{"user_id":55,"name":"Mr.Bobert","steam_id":76561198347270194,"connected_time":1975000000000,"state":"active","ping":58},{"user_id":40,"name":"Fuzzy Toast","steam_id":76561198028067781,"connected_time":3101000000000,"state":"active","ping":59},{"user_id":71,"name":"jonpall","steam_id":76561198284054020,"connected_time":564000000000,"state":"active","ping":111},{"user_id":69,"name":"Jared","steam_id":76561198020432651,"connected_time":688000000000,"state":"active","ping":64}]},{"server_id":15,"name":"Uncletopia | New York City | 3 | Stopwatch","name_short":"nyc-3","host":"nyc-1.us.uncletopia.com","port":27035,"enabled":true,"region":"us-east","cc":"us","latitude":40.73061,"longitude":-73.93524,"reserved":0,"last_update":"0001-01-01T00:00:00Z","name_a2s":"Uncletopia | New York City | 3 | Stopwatch","protocol":17,"map":"koth_lakeside_final","folder":"tf","game":"Team Fortress","app_id":440,"player_count":0,"max_players":24,"Bots":0,"server_type":"Dedicated","server_os":"Linux","password":true,"vac":true,"version":"7961495","steam_id":85568392924742820,"keywords":["cp","nocrits","nodmgspread","uncletopia"],"game_id":440,"stv_port":27036,"stv_name":"Uncletopia | New York City | 3 | Stopwatch | STV","players":null},{"server_id":16,"name":"Uncletopia | New York City | 4 | Community","name_short":"nyc-4","host":"nyc-1.us.uncletopia.com","port":27045,"enabled":true,"region":"us-east","cc":"us","latitude":40.73061,"longitude":-73.93524,"reserved":0,"last_update":"0001-01-01T00:00:00Z","name_a2s":"Uncletopia | New York City | 4 | Community","protocol":17,"map":"workshop/pl_boundary_final1.ugc456799153","folder":"tf","game":"Team Fortress","app_id":440,"player_count":0,"max_players":24,"Bots":0,"server_type":"Dedicated","server_os":"Linux","password":true,"vac":true,"version":"7961495","steam_id":85568392924742821,"keywords":["nocrits","nodmgspread","payload","uncletopia"],"game_id":440,"stv_port":27046,"stv_name":"Uncletopia | New York City | 4 | Community | STV","players":null},{"server_id":142,"name":"Uncletopia | S√£o Paulo | 1 | All Maps","name_short":"sao-1","host":"sao-1.br.uncletopia.com","port":27015,"enabled":true,"region":"sa","cc":"br","latitude":-23.533773,"longitude":-46.62529,"reserved":0,"last_update":"0001-01-01T00:00:00Z","name_a2s":"Uncletopia | S√£o Paulo | 1 | All Maps","protocol":17,"map":"koth_highpass","folder":"tf","game":"Team Fortress","app_id":440,"player_count":0,"max_players":24,"Bots":0,"server_type":"Dedicated","server_os":"Linux","password":true,"vac":true,"version":"7961495","steam_id":85568392924469996,"keywords":["cp","nocrits","nodmgspread","uncletopia"],"game_id":440,"stv_port":27016,"stv_name":"Uncletopia | S√£o Paulo | 1 | All Maps | STV","players":null},{"server_id":143,"name":"Uncletopia | S√£o Paulo | 2 | Community","name_short":"sao-2","host":"sao-2.br.uncletopia.com","port":27015,"enabled":true,"region":"sa","cc":"br","latitude":-23.533773,"longitude":-46.62529,"reserved":0,"last_update":"0001-01-01T00:00:00Z","name_a2s":"Uncletopia | S√£o Paulo | 2 | Community","protocol":17,"map":"workshop/cp_coilblaze_rc7.ugc1272700588","folder":"tf","game":"Team Fortress","app_id":440,"player_count":0,"max_players":24,"Bots":0,"server_type":"Dedicated","server_os":"Linux","password":true,"vac":true,"version":"7961495","steam_id":85568392924485349,"keywords":["cp","nocrits","nodmgspread","uncletopia"],"game_id":440,"stv_port":27016,"stv_name":"Uncletopia | S√£o Paulo | 2 | Community | STV","players":null},{"server_id":7,"name":"Uncletopia | Seattle | 1 | All Maps","name_short":"sea-1","host":"sea-1.us.uncletopia.com","port":27015,"enabled":true,"region":"us-west","cc":"us","latitude":47.608013,"longitude":-122.33517,"reserved":0,"last_update":"0001-01-01T00:00:00Z","name_a2s":"Uncletopia | Seattle | 1 | All Maps","protocol":17,"map":"pl_upward","folder":"tf","game":"Team Fortress","app_id":440,"player_count":24,"max_players":24,"Bots":0,"server_type":"Dedicated","server_os":"Linux","password":true,"vac":true,"version":"7961495","steam_id":85568392924469997,"keywords":["nocrits","nodmgspread","payload","uncletopia"],"game_id":440,"stv_port":27016,"stv_name":"Uncletopia | Seattle | 1 | All Maps | STV","players":[{"user_id":415,"name":"BRUCE U","steam_id":76561198420252121,"connected_time":95000000000,"state":"active","ping":116},{"user_id":408,"name":"Jetty","steam_id":76561198004885583,"connected_time":935000000000,"state":"active","ping":98},{"user_id":313,"name":"Karg","steam_id":76561198091387866,"connected_time":6640000000000,"state":"active","ping":62},{"user_id":399,"name":"Drake from State Farm","steam_id":76561199069029812,"connected_time":1290000000000,"state":"active","ping":78},{"user_id":409,"name":"Maximum Flame","steam_id":76561198073682529,"connected_time":912000000000,"state":"active","ping":90},{"user_id":417,"name":"Skoad","steam_id":76561198104650528,"connected_time":59000000000,"state":"active","ping":77},{"user_id":393,"name":"the album dariacore by leroy","steam_id":76561198061497429,"connected_time":1514000000000,"state":"active","ping":91},{"user_id":403,"name":"Mega_Man23","steam_id":76561198138341391,"connected_time":1053000000000,"state":"active","ping":129},{"user_id":418,"name":"green bean","steam_id":76561198113099204,"connected_time":51000000000,"state":"active","ping":57},{"user_id":351,"name":"sadlaxx","steam_id":76561198061354919,"connected_time":3852000000000,"state":"active","ping":70},{"user_id":389,"name":"Juuichi11","steam_id":76561198141955085,"connected_time":1552000000000,"state":"active","ping":45},{"user_id":390,"name":"Hazeyboi","steam_id":76561198130687838,"connected_time":1549000000000,"state":"active","ping":80},{"user_id":360,"name":"‚ô¶‚ô£Quadric‚ô•‚ô†","steam_id":76561198061003853,"connected_time":3356000000000,"state":"active","ping":116},{"user_id":411,"name":"Gregg Rulz ok","steam_id":76561199027131213,"connected_time":785000000000,"state":"active","ping":51},{"user_id":402,"name":"DerpyNate","steam_id":76561198100249037,"connected_time":1060000000000,"state":"active","ping":89},{"user_id":353,"name":"UserLeft","steam_id":76561197998297379,"connected_time":3764000000000,"state":"active","ping":71},{"user_id":405,"name":"ONO","steam_id":76561198045303650,"connected_time":1029000000000,"state":"active","ping":95},{"user_id":407,"name":"pontiff","steam_id":76561198304265800,"connected_time":1008000000000,"state":"active","ping":81},{"user_id":377,"name":"A UsedNom","steam_id":76561198402832756,"connected_time":2343000000000,"state":"active","ping":62},{"user_id":410,"name":"sweglord227","steam_id":76561198415510262,"connected_time":789000000000,"state":"active","ping":105},{"user_id":413,"name":"Tazzzy18 YTlive","steam_id":76561198280897107,"connected_time":422000000000,"state":"active","ping":50},{"user_id":416,"name":"Xain35","steam_id":76561198121834307,"connected_time":95000000000,"state":"active","ping":56},{"user_id":376,"name":"Dongus","steam_id":76561197979056451,"connected_time":2420000000000,"state":"active","ping":46},{"user_id":396,"name":"Eraser cat","steam_id":76561199045570463,"connected_time":1452000000000,"state":"active","ping":44}]},{"server_id":119,"name":"Uncletopia | Seattle | 2 | All Maps","name_short":"sea-2","host":"sea-1.us.uncletopia.com","port":27025,"enabled":true,"region":"us-west","cc":"us","latitude":47.608013,"longitude":-122.33517,"reserved":0,"last_update":"0001-01-01T00:00:00Z","name_a2s":"Uncletopia | Seattle | 2 | All Maps","protocol":17,"map":"pl_thundermountain","folder":"tf","game":"Team Fortress","app_id":440,"player_count":24,"max_players":24,"Bots":0,"server_type":"Dedicated","server_os":"Linux","password":true,"vac":true,"version":"7961495","steam_id":85568392924469998,"keywords":["nocrits","nodmgspread","payload","uncletopia"],"game_id":440,"stv_port":27026,"stv_name":"Uncletopia | Seattle | 2 | All Maps | STV","players":[{"user_id":148,"name":"Verse","steam_id":76561198996078605,"connected_time":1451000000000,"state":"active","ping":106},{"user_id":156,"name":"MrYadaization","steam_id":76561198050770818,"connected_time":90000000000,"state":"active","ping":59},{"user_id":130,"name":"doubleit\u0026giveit.tothenextperson","steam_id":76561198115458307,"connected_time":1951000000000,"state":"active","ping":76},{"user_id":141,"name":"OG Pemguin","steam_id":76561199240575933,"connected_time":1569000000000,"state":"active","ping":77},{"user_id":48,"name":"Eleen","steam_id":76561198063800293,"connected_time":6435000000000,"state":"active","ping":99},{"user_id":134,"name":"KellyKapoor","steam_id":76561198040828123,"connected_time":1782000000000,"state":"active","ping":51},{"user_id":155,"name":"lexi","steam_id":76561198176299759,"connected_time":191000000000,"state":"active","ping":124},{"user_id":126,"name":"Linksaver1","steam_id":76561198096312838,"connected_time":2385000000000,"state":"active","ping":78},{"user_id":139,"name":"Meat Dragon","steam_id":76561198120319256,"connected_time":1614000000000,"state":"active","ping":95},{"user_id":147,"name":"Slippin' Jimmy","steam_id":76561198324749126,"connected_time":1466000000000,"state":"active","ping":183},{"user_id":52,"name":"Fermenting Kiwi","steam_id":76561198253303497,"connected_time":6269000000000,"state":"active","ping":104},{"user_id":116,"name":"T√ºCold","steam_id":76561198111278197,"connected_time":2578000000000,"state":"active","ping":45},{"user_id":54,"name":"really hot pocket","steam_id":76561198239297686,"connected_time":6248000000000,"state":"active","ping":141},{"user_id":146,"name":"mrappledumb","steam_id":76561199133590774,"connected_time":1473000000000,"state":"active","ping":120},{"user_id":150,"name":"Slingo","steam_id":76561198089783192,"connected_time":1184000000000,"state":"active","ping":121},{"user_id":100,"name":"sleePI","steam_id":76561198450073779,"connected_time":4323000000000,"state":"active","ping":45},{"user_id":123,"name":"Jetstream Sam","steam_id":76561198878974709,"connected_time":2504000000000,"state":"active","ping":82},{"user_id":131,"name":"rad killl raccoon","steam_id":76561198980975595,"connected_time":1937000000000,"state":"active","ping":55},{"user_id":153,"name":"COOL master_9","steam_id":76561198073041151,"connected_time":425000000000,"state":"active","ping":91},{"user_id":115,"name":"worker","steam_id":76561198039608940,"connected_time":2622000000000,"state":"active","ping":49},{"user_id":140,"name":"Chimi","steam_id":76561198067800540,"connected_time":1602000000000,"state":"active","ping":107},{"user_id":119,"name":"c","steam_id":76561198881665250,"connected_time":2555000000000,"state":"active","ping":58},{"user_id":145,"name":"Toto","steam_id":76561198132069378,"connected_time":1489000000000,"state":"active","ping":112}]},{"server_id":406,"name":"Uncletopia | Seattle | 3 | Stopwatch","name_short":"sea-3","host":"sea-1.us.uncletopia.com","port":27035,"enabled":true,"region":"us-west","cc":"us","latitude":47.608013,"longitude":-122.33517,"reserved":0,"last_update":"0001-01-01T00:00:00Z","name_a2s":"Uncletopia | Seattle | 3 | Stopwatch","protocol":17,"map":"workshop/koth_product_final.ugc454272353","folder":"tf","game":"Team Fortress","app_id":440,"player_count":0,"max_players":24,"Bots":0,"server_type":"Dedicated","server_os":"Linux","password":true,"vac":true,"version":"7961495","steam_id":85568392924515217,"keywords":["cp","nocrits","nodmgspread","uncletopia"],"game_id":440,"stv_port":27036,"stv_name":"Uncletopia | Seattle | 3 | Stopwatch | STV","players":null},{"server_id":17,"name":"Uncletopia | San Francisco | 1 | All Maps","name_short":"sfo-1","host":"sfo-1.us.uncletopia.com","port":27015,"enabled":true,"region":"us-west","cc":"us","latitude":37.77397,"longitude":-122.4313,"reserved":0,"last_update":"0001-01-01T00:00:00Z","name_a2s":"Uncletopia | San Francisco | 1 | All Maps","protocol":17,"map":"koth_highpass","folder":"tf","game":"Team Fortress","app_id":440,"player_count":22,"max_players":24,"Bots":0,"server_type":"Dedicated","server_os":"Linux","password":true,"vac":true,"version":"7961495","steam_id":85568392924469999,"keywords":["cp","nocrits","nodmgspread","uncletopia"],"game_id":440,"stv_port":27016,"stv_name":"Uncletopia | San Francisco | 1 | All Maps | STV","players":[{"user_id":18,"name":"PizzaMuncher89","steam_id":76561199121856753,"connected_time":896000000000,"state":"active","ping":69},{"user_id":19,"name":"elephant thumb","steam_id":76561198118859752,"connected_time":810000000000,"state":"active","ping":49},{"user_id":20,"name":"Yackaboi","steam_id":76561199444911765,"connected_time":528000000000,"state":"active","ping":84},{"user_id":31,"name":"lime creator","steam_id":76561198074047574,"connected_time":311000000000,"state":"active","ping":52},{"user_id":23,"name":"guac","steam_id":76561199046667189,"connected_time":465000000000,"state":"active","ping":135},{"user_id":24,"name":"jerry.gonzalez.2077","steam_id":76561198858445311,"connected_time":462000000000,"state":"active","ping":107},{"user_id":32,"name":"explosives anonymous","steam_id":76561198141862936,"connected_time":294000000000,"state":"active","ping":46},{"user_id":26,"name":"Smitty Werbenjagermanjensen","steam_id":76561198065782439,"connected_time":418000000000,"state":"active","ping":95},{"user_id":27,"name":"ScoutBox","steam_id":76561198111539895,"connected_time":401000000000,"state":"active","ping":54},{"user_id":28,"name":"maximusbabaximus","steam_id":76561198419378913,"connected_time":358000000000,"state":"active","ping":63},{"user_id":33,"name":"Main Opp","steam_id":76561198124910662,"connected_time":291000000000,"state":"active","ping":58},{"user_id":34,"name":"evil sonic","steam_id":76561198198308331,"connected_time":281000000000,"state":"active","ping":84},{"user_id":35,"name":"bcizzo","steam_id":76561197994399953,"connected_time":258000000000,"state":"active","ping":57},{"user_id":36,"name":"scrumpy","steam_id":76561199078477854,"connected_time":201000000000,"state":"active","ping":67},{"user_id":37,"name":"klopse","steam_id":76561198314981454,"connected_time":183000000000,"state":"active","ping":75},{"user_id":41,"name":"Chef","steam_id":76561198037041957,"connected_time":54000000000,"state":"active","ping":51},{"user_id":39,"name":"SomeRandomBetaFish","steam_id":76561198827731399,"connected_time":146000000000,"state":"active","ping":98},{"user_id":40,"name":"B00gal00ga123","steam_id":76561199273507453,"connected_time":130000000000,"state":"active","ping":84},{"user_id":42,"name":"Monkey Gaming","steam_id":76561198232461944,"connected_time":45000000000,"state":"spawning","ping":75},{"user_id":43,"name":"omnislime","steam_id":76561199382475668,"connected_time":42000000000,"state":"active","ping":99},{"user_id":44,"name":"CometDrg0n_","steam_id":76561198175713051,"connected_time":34000000000,"state":"spawning","ping":59},{"user_id":45,"name":"Shagbark","steam_id":76561198173447342,"connected_time":8000000000,"state":"spawning","ping":118}]},{"server_id":18,"name":"Uncletopia | San Francisco | 2 | All Maps","name_short":"sfo-2","host":"sfo-1.us.uncletopia.com","port":27025,"enabled":true,"region":"us-west","cc":"us","latitude":37.77397,"longitude":-122.4313,"reserved":0,"last_update":"0001-01-01T00:00:00Z","name_a2s":"Uncletopia | San Francisco | 2 | All Maps","protocol":17,"map":"pl_frontier_final","folder":"tf","game":"Team Fortress","app_id":440,"player_count":0,"max_players":24,"Bots":0,"server_type":"Dedicated","server_os":"Linux","password":true,"vac":true,"version":"7961495","steam_id":85568392924470000,"keywords":["nocrits","nodmgspread","payload","uncletopia"],"game_id":440,"stv_port":27026,"stv_name":"Uncletopia | San Francisco | 2 | All Maps | STV","players":null},{"server_id":19,"name":"Uncletopia | San Francisco | 3 | Stopwatch","name_short":"sfo-3","host":"sfo-1.us.uncletopia.com","port":27035,"enabled":true,"region":"us-west","cc":"us","latitude":37.77397,"longitude":-122.4313,"reserved":0,"last_update":"0001-01-01T00:00:00Z","name_a2s":"Uncletopia | San Francisco | 3 | Stopwatch","protocol":17,"map":"workshop/pl_vigil_rc10.ugc1266210012","folder":"tf","game":"Team Fortress","app_id":440,"player_count":0,"max_players":24,"Bots":0,"server_type":"Dedicated","server_os":"Linux","password":true,"vac":true,"version":"7961495","steam_id":85568392924742824,"keywords":["nocrits","nodmgspread","payload","uncletopia"],"game_id":440,"stv_port":27036,"stv_name":"Uncletopia | San Francisco | 3 | Stopwatch | STV","players":null},{"server_id":20,"name":"Uncletopia | San Francisco | 4 | Community","name_short":"sfo-4","host":"sfo-1.us.uncletopia.com","port":27045,"enabled":true,"region":"us-west","cc":"us","latitude":37.77397,"longitude":-122.4313,"reserved":0,"last_update":"0001-01-01T00:00:00Z","name_a2s":"Uncletopia | San Francisco | 4 | Community","protocol":17,"map":"workshop/cp_hazyfort_rc6.ugc1365963729","folder":"tf","game":"Team Fortress","app_id":440,"player_count":0,"max_players":24,"Bots":0,"server_type":"Dedicated","server_os":"Linux","password":true,"vac":true,"version":"7961495","steam_id":85568392924742826,"keywords":["cp","nocrits","nodmgspread","uncletopia"],"game_id":440,"stv_port":27046,"stv_name":"Uncletopia | San Francisco | 4 | Community | STV","players":null},{"server_id":141,"name":"Uncletopia | Sydney | 1 | All Maps","name_short":"syd-1","host":"syd-1.au.uncletopia.com","port":27015,"enabled":true,"region":"au","cc":"au","latitude":-33.865143,"longitude":151.2099,"reserved":0,"last_update":"0001-01-01T00:00:00Z","name_a2s":"Uncletopia | Sydney | 1 | All Maps","protocol":17,"map":"koth_viaduct","folder":"tf","game":"Team Fortress","app_id":440,"player_count":0,"max_players":24,"Bots":0,"server_type":"Dedicated","server_os":"Linux","password":true,"vac":true,"version":"7961495","steam_id":85568392924470001,"keywords":["cp","nocrits","nodmgspread","uncletopia"],"game_id":440,"stv_port":27016,"stv_name":"Uncletopia | Sydney | 1 | All Maps | STV","players":null},{"server_id":123,"name":"Uncletopia | Sydney | 2 | All Maps","name_short":"syd-2","host":"syd-1.au.uncletopia.com","port":27025,"enabled":true,"region":"au","cc":"au","latitude":-33.865143,"longitude":151.2099,"reserved":0,"last_update":"0001-01-01T00:00:00Z","name_a2s":"Uncletopia | Sydney | 2 | All Maps","protocol":17,"map":"koth_lakeside_final","folder":"tf","game":"Team Fortress","app_id":440,"player_count":0,"max_players":24,"Bots":0,"server_type":"Dedicated","server_os":"Linux","password":true,"vac":true,"version":"7961495","steam_id":85568392924470002,"keywords":["cp","nocrits","nodmgspread","uncletopia"],"game_id":440,"stv_port":27026,"stv_name":"Uncletopia | Sydney | 2 | All Maps | STV","players":null},{"server_id":395,"name":"Uncletopia | Sydney | 3 | All Maps","name_short":"syd-3","host":"syd-1.au.uncletopia.com","port":27035,"enabled":true,"region":"au","cc":"au","latitude":-33.865143,"longitude":151.2099,"reserved":0,"last_update":"0001-01-01T00:00:00Z","name_a2s":"Uncletopia | Sydney | 3 | All Maps","protocol":17,"map":"pl_frontier_final","folder":"tf","game":"Team Fortress","app_id":440,"player_count":0,"max_players":24,"Bots":0,"server_type":"Dedicated","server_os":"Linux","password":true,"vac":true,"version":"7961495","steam_id":85568392925194467,"keywords":["nocrits","nodmgspread","payload","uncletopia"],"game_id":440,"stv_port":27036,"stv_name":"Uncletopia | Sydney | 3 | All Maps | STV","players":null},{"server_id":396,"name":"Uncletopia | Sydney | 4 | All Maps","name_short":"syd-4","host":"syd-1.au.uncletopia.com","port":27045,"enabled":true,"region":"au","cc":"au","latitude":-33.865143,"longitude":151.2099,"reserved":0,"last_update":"0001-01-01T00:00:00Z","name_a2s":"Uncletopia | Sydney | 4 | All Maps","protocol":17,"map":"cp_process_final","folder":"tf","game":"Team Fortress","app_id":440,"player_count":0,"max_players":24,"Bots":0,"server_type":"Dedicated","server_os":"Linux","password":true,"vac":true,"version":"7961495","steam_id":85568392925397958,"keywords":["cp","nocrits","nodmgspread","uncletopia"],"game_id":440,"stv_port":27046,"stv_name":"Uncletopia | Sydney | 4 | All Maps | STV","players":null},{"server_id":58,"name":"Uncletopia | Sydney | 5 | Stopwatch","name_short":"syd-5","host":"syd-1.au.uncletopia.com","port":27055,"enabled":true,"region":"au","cc":"au","latitude":-33.865143,"longitude":151.2099,"reserved":0,"last_update":"0001-01-01T00:00:00Z","name_a2s":"Uncletopia | Sydney | 5 | Stopwatch","protocol":17,"map":"pl_frontier_final","folder":"tf","game":"Team Fortress","app_id":440,"player_count":0,"max_players":24,"Bots":0,"server_type":"Dedicated","server_os":"Linux","password":true,"vac":true,"version":"7961495","steam_id":85568392925397959,"keywords":["nocrits","nodmgspread","payload","uncletopia"],"game_id":440,"stv_port":27056,"stv_name":"Uncletopia | Sydney | 5 | Stopwatch | STV","players":null},{"server_id":59,"name":"Uncletopia | Sydney | 6 | Community","name_short":"syd-6","host":"syd-1.au.uncletopia.com","port":27065,"enabled":true,"region":"au","cc":"au","latitude":-33.865143,"longitude":151.2099,"reserved":0,"last_update":"0001-01-01T00:00:00Z","name_a2s":"Uncletopia | Sydney | 6 | Community","protocol":17,"map":"cp_sunshine","folder":"tf","game":"Team Fortress","app_id":440,"player_count":0,"max_players":24,"Bots":0,"server_type":"Dedicated","server_os":"Linux","password":true,"vac":true,"version":"7961495","steam_id":85568392925397960,"keywords":["cp","nocrits","nodmgspread","uncletopia"],"game_id":440,"stv_port":27066,"stv_name":"Uncletopia | Sydney | 6 | Community | STV","players":null},{"server_id":49,"name":"Uncletopia | Warsaw | 1 | One Thousand Uncles","name_short":"waw-1","host":"waw-1.pl.uncletopia.com","port":27015,"enabled":true,"region":"eu","cc":"pl","latitude":52.2297,"longitude":21.017532,"reserved":0,"last_update":"0001-01-01T00:00:00Z","name_a2s":"Uncletopia | Warsaw | 1 | One Thousand Uncles","protocol":17,"map":"cp_egypt_final","folder":"tf","game":"Team Fortress","app_id":440,"player_count":0,"max_players":32,"Bots":0,"server_type":"Dedicated","server_os":"Linux","password":true,"vac":true,"version":"7961495","steam_id":85568392925397850,"keywords":["alltalk","cp","danepve","increased_maxplayers","nocrits","norespawntime","uncletopia"],"game_id":440,"stv_port":0,"stv_name":"","players":null},{"server_id":50,"name":"Uncletopia | Warsaw | 2 | One Thousand Uncles","name_short":"waw-2","host":"waw-1.pl.uncletopia.com","port":27025,"enabled":true,"region":"eu","cc":"pl","latitude":52.2297,"longitude":21.017532,"reserved":0,"last_update":"0001-01-01T00:00:00Z","name_a2s":"Uncletopia | Warsaw | 2 | One Thousand Uncles","protocol":17,"map":"pl_badwater","folder":"tf","game":"Team Fortress","app_id":440,"player_count":24,"max_players":32,"Bots":16,"server_type":"Dedicated","server_os":"Linux","password":true,"vac":true,"version":"7961495","steam_id":85568392925397851,"keywords":["alltalk","bots","danepve","increased_maxplayers","nocrits","norespawntime","payload","uncletopia"],"game_id":440,"stv_port":0,"stv_name":"","players":[{"user_id":737,"name":"Mixylplyx","steam_id":76561197992533743,"connected_time":1458000000000,"state":"active","ping":175},{"user_id":690,"name":"Voks_","steam_id":76561198159687785,"connected_time":8405000000000,"state":"active","ping":63},{"user_id":694,"name":"please do not the cat","steam_id":76561198089003514,"connected_time":4266000000000,"state":"active","ping":56},{"user_id":742,"name":"Meerkat","steam_id":76561199245435539,"connected_time":200000000000,"state":"active","ping":226},{"user_id":739,"name":"Duk","steam_id":76561198450692568,"connected_time":1275000000000,"state":"active","ping":156},{"user_id":706,"name":"joachym","steam_id":76561198428579761,"connected_time":2541000000000,"state":"active","ping":73},{"user_id":707,"name":"Treeboy","steam_id":76561198336076461,"connected_time":2469000000000,"state":"active","ping":101},{"user_id":719,"name":"Jahusi!*","steam_id":76561197992445165,"connected_time":1934000000000,"state":"active","ping":62}]},{"server_id":51,"name":"Uncletopia | Warsaw | 3 | All Maps","name_short":"waw-3","host":"waw-1.pl.uncletopia.com","port":27035,"enabled":true,"region":"eu","cc":"pl","latitude":52.2297,"longitude":21.017532,"reserved":0,"last_update":"0001-01-01T00:00:00Z","name_a2s":"Uncletopia | Warsaw | 3 | All Maps","protocol":17,"map":"cp_altitude","folder":"tf","game":"Team Fortress","app_id":440,"player_count":0,"max_players":24,"Bots":0,"server_type":"Dedicated","server_os":"Linux","password":true,"vac":true,"version":"7961495","steam_id":85568392925397852,"keywords":["cp","nocrits","nodmgspread","uncletopia"],"game_id":440,"stv_port":27036,"stv_name":"Uncletopia | Warsaw | 3 | All Maps | STV","players":null},{"server_id":52,"name":"Uncletopia | Warsaw | 4 | All Maps","name_short":"waw-4","host":"waw-1.pl.uncletopia.com","port":27045,"enabled":true,"region":"eu","cc":"pl","latitude":52.2297,"longitude":21.017532,"reserved":0,"last_update":"0001-01-01T00:00:00Z","name_a2s":"Uncletopia | Warsaw | 4 | All Maps","protocol":17,"map":"pl_badwater","folder":"tf","game":"Team Fortress","app_id":440,"player_count":0,"max_players":24,"Bots":0,"server_type":"Dedicated","server_os":"Linux","password":true,"vac":true,"version":"7961495","steam_id":85568392925397853,"keywords":["nocrits","nodmgspread","payload","uncletopia"],"game_id":440,"stv_port":27046,"stv_name":"Uncletopia | Warsaw | 4 | All Maps | STV","players":null},{"server_id":53,"name":"Uncletopia | Warsaw | 5 | Stopwatch","name_short":"waw-5","host":"waw-1.pl.uncletopia.com","port":27055,"enabled":true,"region":"eu","cc":"pl","latitude":52.2297,"longitude":21.017532,"reserved":0,"last_update":"0001-01-01T00:00:00Z","name_a2s":"Uncletopia | Warsaw | 5 | Stopwatch","protocol":17,"map":"workshop/koth_product_final.ugc454272353","folder":"tf","game":"Team Fortress","app_id":440,"player_count":0,"max_players":24,"Bots":0,"server_type":"Dedicated","server_os":"Linux","password":true,"vac":true,"version":"7961495","steam_id":85568392925397854,"keywords":["cp","nocrits","nodmgspread","uncletopia"],"game_id":440,"stv_port":27056,"stv_name":"Uncletopia | Warsaw | 5 | Stopwatch | STV","players":null},{"server_id":54,"name":"Uncletopia | Warsaw | 6 | Community","name_short":"waw-6","host":"waw-1.pl.uncletopia.com","port":27065,"enabled":true,"region":"eu","cc":"pl","latitude":52.2297,"longitude":21.017532,"reserved":0,"last_update":"0001-01-01T00:00:00Z","name_a2s":"Uncletopia | Warsaw | 6 | Community","protocol":17,"map":"workshop/koth_ramjam_rc1.ugc459778887","folder":"tf","game":"Team Fortress","app_id":440,"player_count":0,"max_players":24,"Bots":0,"server_type":"Dedicated","server_os":"Linux","password":true,"vac":true,"version":"7961495","steam_id":85568392925397856,"keywords":["cp","nocrits","nodmgspread","uncletopia"],"game_id":440,"stv_port":27066,"stv_name":"Uncletopia | Warsaw | 6 | Community | STV","players":null}]}