{"status":true,"message":"","result":[{"server_id":9,"name":"Uncletopia | Atlanta | 1 | All Maps","name_short":"atl-1","host":"atl-1.us.uncletopia.com","port":27015,"enabled":true,"region":"us-east","cc":"us","latitude":33.753746,"longitude":-84.38633,"reserved":0,"last_update":"0001-01-01T00:00:00Z","name_a2s":"Uncletopia | Atlanta | 1 | All Maps","protocol":17,"map":"cp_dustbowl","folder":"tf","game":"Team Fortress","app_id":440,"player_count":0,"max_players":24,"Bots":0,"server_type":"Dedicated","server_os":"Linux","password":true,"vac":true,"version":"7961495","steam_id":85568392924469982,"keywords":["cp","nocrits","nodmgspread","uncletopia"],"game_id":440,"stv_port":27016,"stv_name":"Uncletopia | Atlanta | 1 | All Maps | STV","players":null},{"server_id":104,"name":"Uncletopia | Atlanta | 2 | All Maps","name_short":"atl-2","host":"atl-1.us.uncletopia.com","port":27025,"enabled":true,"region":"us-east","cc":"us","latitude":33.753746,"longitude":-84.38633,"reserved":0,"last_update":"0001-01-01T00:00:00Z","name_a2s":"Uncletopia | Atlanta | 2 | All Maps","protocol":17,"map":"koth_cascade","folder":"tf","game":"Team Fortress","app_id":440,"player_count":0,"max_players":24,"Bots":0,"server_type":"Dedicated","server_os":"Linux","password":true,"vac":true,"version":"7961495","steam_id":85568392924469983,"keywords":["cp","nocrits","nodmgspread","uncletopia"],"game_id":440,"stv_port":27026,"stv_name":"Uncletopia | Atlanta | 2 | All Maps | STV","players":null},{"server_id":400,"name":"Uncletopia | Atlanta | 3 | Stopwatch","name_short":"atl-3","host":"atl-1.us.uncletopia.com","port":27035,"enabled":true,"region":"us-east","cc":"us","latitude":33.753746,"longitude":-84.38633,"reserved":0,"last_update":"0001-01-01T00:00:00Z","name_a2s":"Uncletopia | Atlanta | 3 | Stopwatch","protocol":17,"map":"pl_badwater","folder":"tf","game":"Team Fortress","app_id":440,"player_count":0,"max_players":24,"Bots":0,"server_type":"Dedicated","server_os":"Linux","password":true,"vac":true,"version":"7961495","steam_id":85568392924515187,"keywords":["nocrits","nodmgspread","payload","uncletopia"],"game_id":440,"stv_port":27036,"stv_name":"Uncletopia | Atlanta | 3 | Stopwatch | STV","players":null},{"server_id":401,"name":"Uncletopia | Atlanta | 4 | Community","name_short":"atl-4","host":"atl-1.us.uncletopia.com","port":27045,"enabled":true,"region":"us-east","cc":"us","latitude":33.753746,"longitude":-84.38633,"reserved":0,"last_update":"0001-01-01T00:00:00Z","name_a2s":"Uncletopia | Atlanta | 4 | Community","protocol":17,"map":"cp_sunshine","folder":"tf","game":"Team Fortress","app_id":440,"player_count":0,"max_players":24,"Bots":0,"server_type":"Dedicated","server_os":"Linux","password":true,"vac":true,"version":"7961495","steam_id":85568392924515188,"keywords":["cp","nocrits","nodmgspread","uncletopia"],"game_id":440,"stv_port":27046,"stv_name":"Uncletopia | Atlanta | 4 | Community | STV","players":null},{"server_id":2,"name":"Uncletopia | Chicago | 1 | All Maps","name_short":"chi-1","host":"chi-1.us.uncletopia.com","port":27015,"enabled":true,"region":"us-central","cc":"us","latitude":41.881832,"longitude":-87.62318,"reserved":0,"last_update":"0001-01-01T00:00:00Z","name_a2s":"Uncletopia | Chicago | 1 | All Maps","protocol":17,"map":"pl_pier","folder":"tf","game":"Team Fortress","app_id":440,"player_count":24,"max_players":24,"Bots":0,"server_type":"Dedicated","server_os":"Linux","password":true,"vac":true,"version":"7961495","steam_id":85568392924469984,"keywords":["nocrits","nodmgspread","payload","uncletopia"],"game_id":440,"stv_port":27016,"stv_name":"Uncletopia | Chicago | 1 | All Maps | STV","players":[{"user_id":534,"name":"CUTTHROAT","steam_id":76561198100942212,"connected_time":1916000000000,"state":"active","ping":75},{"user_id":561,"name":"vPig","steam_id":76561198143971937,"connected_time":211000000000,"state":"active","ping":63},{"user_id":539,"name":"slep.py","steam_id":76561197988287144,"connected_time":1642000000000,"state":"active","ping":47},{"user_id":563,"name":"superx","steam_id":76561198044976613,"connected_time":147000000000,"state":"active","ping":71},{"user_id":546,"name":"loser","steam_id":76561198259380127,"connected_time":1254000000000,"state":"active","ping":58},{"user_id":560,"name":"Dingus Khan","steam_id":76561198037460639,"connected_time":250000000000,"state":"active","ping":71},{"user_id":517,"name":"gyozaking","steam_id":76561197972312696,"connected_time":2582000000000,"state":"active","ping":45},{"user_id":520,"name":"Pheonix Fel Dragon","steam_id":76561198164974227,"connected_time":2358000000000,"state":"active","ping":73},{"user_id":564,"name":"Valenhart","steam_id":76561198354036240,"connected_time":112000000000,"state":"active","ping":76},{"user_id":518,"name":"atlas","steam_id":76561198398383076,"connected_time":2576000000000,"state":"active","ping":81},{"user_id":553,"name":"SandHanitizer","steam_id":76561198234676500,"connected_time":527000000000,"state":"active","ping":74},{"user_id":550,"name":"krebex","steam_id":76561198004660630,"connected_time":1205000000000,"state":"active","ping":79},{"user_id":562,"name":"Tiny D","steam_id":76561198253195017,"connected_time":191000000000,"state":"active","ping":54},{"user_id":535,"name":"for the king","steam_id":76561197973488858,"connected_time":1809000000000,"state":"active","ping":61},{"user_id":555,"name":"Lugubrious","steam_id":76561198129745094,"connected_time":460000000000,"state":"active","ping":74},{"user_id":556,"name":"sunroof defecation alliance","steam_id":76561198054260599,"connected_time":447000000000,"state":"active","ping":80},{"user_id":540,"name":"shnowshner","steam_id":76561198066450438,"connected_time":1634000000000,"state":"active","ping":75},{"user_id":496,"name":"Mattie43","steam_id":76561198012053433,"connected_time":4165000000000,"state":"active","ping":52},{"user_id":541,"name":"kogundy","steam_id":76561198449012128,"connected_time":1592000000000,"state":"active","ping":118},{"user_id":565,"name":"Brownsftbl1","steam_id":76561198027578414,"connected_time":110000000000,"state":"active","ping":66},{"user_id":557,"name":"lytewerk","steam_id":76561198002819791,"connected_time":446000000000,"state":"active","ping":75},{"user_id":559,"name":"Sir Grey The Ranger","steam_id":76561198096235582,"connected_time":413000000000,"state":"active","ping":45},{"user_id":551,"name":"Shmoopy","steam_id":76561198030459152,"connected_time":787000000000,"state":"active","ping":80},{"user_id":544,"name":"Intro Bonito","steam_id":76561198119478838,"connected_time":1511000000000,"state":"active","ping":66}]},{"server_id":106,"name":"Uncletopia | Chicago | 2 | All Maps","name_short":"chi-2","host":"chi-1.us.uncletopia.com","port":27025,"enabled":true,"region":"us-central","cc":"us","latitude":41.881832,"longitude":-87.62318,"reserved":0,"last_update":"0001-01-01T00:00:00Z","name_a2s":"Uncletopia | Chicago | 2 | All Maps","protocol":17,"map":"pl_borneo","folder":"tf","game":"Team Fortress","app_id":440,"player_count":23,"max_players":24,"Bots":0,"server_type":"Dedicated","server_os":"Linux","password":true,"vac":true,"version":"7961495","steam_id":85568392924469985,"keywords":["nocrits","nodmgspread","payload","uncletopia"],"game_id":440,"stv_port":27026,"stv_name":"Uncletopia | Chicago | 2 | All Maps | STV","players":[{"user_id":451,"name":"Gene Takovic","steam_id":76561198881039861,"connected_time":244000000000,"state":"active","ping":48},{"user_id":441,"name":"munch","steam_id":76561198820480684,"connected_time":1076000000000,"state":"active","ping":56},{"user_id":445,"name":"...","steam_id":76561198974327741,"connected_time":779000000000,"state":"active","ping":107},{"user_id":452,"name":"DiegoVal12","steam_id":76561198408509079,"connected_time":54000000000,"state":"active","ping":109},{"user_id":432,"name":"Hazeyboi","steam_id":76561198130687838,"connected_time":1505000000000,"state":"active","ping":64},{"user_id":428,"name":"Larry","steam_id":76561198334604124,"connected_time":1816000000000,"state":"active","ping":69},{"user_id":365,"name":"Divinitas","steam_id":76561199079034911,"connected_time":4993000000000,"state":"active","ping":50},{"user_id":426,"name":"Elias","steam_id":76561198106431732,"connected_time":2400000000000,"state":"active","ping":56},{"user_id":433,"name":"totally not a pile of beans","steam_id":76561198119851931,"connected_time":1487000000000,"state":"active","ping":79},{"user_id":440,"name":"Quentin","steam_id":76561198382768463,"connected_time":1131000000000,"state":"active","ping":93},{"user_id":360,"name":"Maestro","steam_id":76561198157325020,"connected_time":5119000000000,"state":"active","ping":75},{"user_id":446,"name":"Marco Pierre white","steam_id":76561198115714484,"connected_time":774000000000,"state":"active","ping":135},{"user_id":434,"name":"Fiendish Frog","steam_id":76561198029478821,"connected_time":1446000000000,"state":"active","ping":71},{"user_id":429,"name":"mangokip","steam_id":76561198156471516,"connected_time":1791000000000,"state":"active","ping":73},{"user_id":453,"name":"Daehypeels","steam_id":76561198268981599,"connected_time":40000000000,"state":"active","ping":71},{"user_id":450,"name":"brotalium","steam_id":76561198055439054,"connected_time":585000000000,"state":"active","ping":73},{"user_id":435,"name":"Samrizo el Chorizo","steam_id":76561198009838162,"connected_time":1422000000000,"state":"active","ping":61},{"user_id":448,"name":"King De","steam_id":76561198194427422,"connected_time":693000000000,"state":"active","ping":64},{"user_id":454,"name":"herb","steam_id":76561198185980055,"connected_time":24000000000,"state":"active","ping":61},{"user_id":430,"name":"Psychosis","steam_id":76561198078659070,"connected_time":1739000000000,"state":"active","ping":82},{"user_id":447,"name":"JeffTrash","steam_id":76561198975550775,"connected_time":764000000000,"state":"active","ping":87},{"user_id":449,"name":"Natsuki the Scunt","steam_id":76561199175922684,"connected_time":674000000000,"state":"active","ping":153},{"user_id":410,"name":"ekgooby","steam_id":76561198043678479,"connected_time":3642000000000,"state":"active","ping":47}]},{"server_id":402,"name":"Uncletopia | Chicago | 3 | All Maps","name_short":"chi-3","host":"chi-1.us.uncletopia.com","port":27035,"enabled":true,"region":"us-central","cc":"us","latitude":41.881832,"longitude":-87.62318,"reserved":0,"last_update":"0001-01-01T00:00:00Z","name_a2s":"Uncletopia | Chicago | 3 | All Maps","protocol":17,"map":"cp_process_final","folder":"tf","game":"Team Fortress","app_id":440,"player_count":20,"max_players":24,"Bots":0,"server_type":"Dedicated","server_os":"Linux","password":true,"vac":true,"version":"7961495","steam_id":85568392924515191,"keywords":["cp","nocrits","nodmgspread","uncletopia"],"game_id":440,"stv_port":27036,"stv_name":"Uncletopia | Chicago | 3 | All Maps | STV","players":[{"user_id":386,"name":"Legit_Jaxer","steam_id":76561198172234053,"connected_time":88000000000,"state":"active","ping":129},{"user_id":387,"name":"Mole","steam_id":76561198069909083,"connected_time":47000000000,"state":"active","ping":76},{"user_id":362,"name":"Shystie","steam_id":76561198025371440,"connected_time":1727000000000,"state":"active","ping":75},{"user_id":328,"name":"Andrew's Taint","steam_id":76561198131400543,"connected_time":5568000000000,"state":"active","ping":70},{"user_id":385,"name":"Crescent","steam_id":76561198095124633,"connected_time":456000000000,"state":"active","ping":67},{"user_id":380,"name":"Outlander","steam_id":76561199032887232,"connected_time":983000000000,"state":"active","ping":69},{"user_id":349,"name":"Rein","steam_id":76561198300340427,"connected_time":3184000000000,"state":"active","ping":60},{"user_id":332,"name":"Uwu Micster","steam_id":76561198843890616,"connected_time":5236000000000,"state":"active","ping":75},{"user_id":388,"name":"BL√òRG","steam_id":76561198036126673,"connected_time":16000000000,"state":"active","ping":77},{"user_id":341,"name":"guy","steam_id":76561198079925551,"connected_time":4472000000000,"state":"active","ping":73},{"user_id":363,"name":"Russell","steam_id":76561198024159373,"connected_time":1667000000000,"state":"active","ping":75},{"user_id":335,"name":"The strongest ‚ë® ball","steam_id":76561198126760743,"connected_time":5211000000000,"state":"active","ping":74},{"user_id":347,"name":"object permanence","steam_id":76561198050393061,"connected_time":3225000000000,"state":"active","ping":69},{"user_id":381,"name":"celery","steam_id":76561199004451589,"connected_time":983000000000,"state":"active","ping":73},{"user_id":329,"name":"poopybutt420","steam_id":76561199000805315,"connected_time":5450000000000,"state":"active","ping":81},{"user_id":367,"name":"Dr. Cockburn","steam_id":76561199077519353,"connected_time":1598000000000,"state":"active","ping":104},{"user_id":368,"name":"Sprite Enjoyer","steam_id":76561199371277079,"connected_time":1557000000000,"state":"active","ping":89},{"user_id":369,"name":"Grandad","steam_id":76561198931285831,"connected_time":1537000000000,"state":"active","ping":99},{"user_id":374,"name":"beep","steam_id":76561199096448766,"connected_time":1292000000000,"state":"active","ping":84},{"user_id":383,"name":"Battalion's Backup","steam_id":76561198066153777,"connected_time":725000000000,"state":"active","ping":41}]},{"server_id":403,"name":"Uncletopia | Chicago | 4 | All Maps","name_short":"chi-4","host":"chi-1.us.uncletopia.com","port":27045,"enabled":true,"region":"us-central","cc":"us","latitude":41.881832,"longitude":-87.62318,"reserved":0,"last_update":"0001-01-01T00:00:00Z","name_a2s":"Uncletopia | Chicago | 4 | All Maps","protocol":17,"map":"pl_pier","folder":"tf","game":"Team Fortress","app_id":440,"player_count":24,"max_players":24,"Bots":0,"server_type":"Dedicated","server_os":"Linux","password":true,"vac":true,"version":"7961495","steam_id":85568392924515193,"keywords":["nocrits","nodmgspread","payload","uncletopia"],"game_id":440,"stv_port":27046,"stv_name":"Uncletopia | Chicago | 4 | All Maps | STV","players":[{"user_id":458,"name":"mxgic","steam_id":76561198354656195,"connected_time":690000000000,"state":"active","ping":121},{"user_id":441,"name":"Maxxycat","steam_id":76561198194062681,"connected_time":1543000000000,"state":"active","ping":61},{"user_id":462,"name":"_copkilla.B1G$L1M‚Ç¨.zaddY_","steam_id":76561198283687382,"connected_time":307000000000,"state":"active","ping":92},{"user_id":463,"name":"how to cast classic spells","steam_id":76561198406252824,"connected_time":301000000000,"state":"active","ping":103},{"user_id":464,"name":"Anomalous Materials Scientist","steam_id":76561198092542997,"connected_time":219000000000,"state":"active","ping":70},{"user_id":459,"name":"StudioMania (#SAVETF2)","steam_id":76561198211315795,"connected_time":669000000000,"state":"active","ping":70},{"user_id":451,"name":"Salt Dragon","steam_id":76561198331207987,"connected_time":1120000000000,"state":"active","ping":70},{"user_id":440,"name":"GiraffeMan","steam_id":76561198042104084,"connected_time":1589000000000,"state":"active","ping":65},{"user_id":465,"name":"Gaming","steam_id":76561198107080532,"connected_time":143000000000,"state":"active","ping":68},{"user_id":466,"name":"logitchy","steam_id":76561199062753505,"connected_time":134000000000,"state":"spawning","ping":59},{"user_id":374,"name":"The Khronicles of Keith","steam_id":76561198056622157,"connected_time":4142000000000,"state":"active","ping":63},{"user_id":376,"name":"Ms. Splosion Man","steam_id":76561198103496593,"connected_time":4123000000000,"state":"active","ping":62},{"user_id":461,"name":"shaq$","steam_id":76561198045246504,"connected_time":626000000000,"state":"active","ping":52},{"user_id":439,"name":"mechiimi ‚òÖ","steam_id":76561198321627268,"connected_time":1686000000000,"state":"active","ping":110},{"user_id":467,"name":"Nestor","steam_id":76561198070782619,"connected_time":99000000000,"state":"active","ping":64},{"user_id":456,"name":"DR.SKY","steam_id":76561198082950758,"connected_time":752000000000,"state":"active","ping":107},{"user_id":423,"name":"He rolls his own","steam_id":76561198058162684,"connected_time":3029000000000,"state":"active","ping":85},{"user_id":385,"name":"Yongle","steam_id":76561198068591156,"connected_time":4067000000000,"state":"active","ping":58},{"user_id":420,"name":"monsterkill4567","steam_id":76561198272986367,"connected_time":3280000000000,"state":"active","ping":115},{"user_id":455,"name":"„É™„ÇØ","steam_id":76561198272108529,"connected_time":930000000000,"state":"active","ping":69},{"user_id":387,"name":"JURY NULLIFICATION JANICE","steam_id":76561198041938330,"connected_time":4059000000000,"state":"active","ping":85},{"user_id":382,"name":"SpringSloth","steam_id":76561199211310022,"connected_time":4078000000000,"state":"active","ping":83},{"user_id":436,"name":"Bon gripper","steam_id":76561198090074621,"connected_time":1862000000000,"state":"active","ping":46}]},{"server_id":36,"name":"Uncletopia | Chicago | 5 | All Maps","name_short":"chi-5","host":"chi-2.us.uncletopia.com","port":27015,"enabled":true,"region":"us-central","cc":"us","latitude":41.881832,"longitude":-87.62318,"reserved":0,"last_update":"0001-01-01T00:00:00Z","name_a2s":"Uncletopia | Chicago | 5 | All Maps","protocol":17,"map":"pl_barnblitz","folder":"tf","game":"Team Fortress","app_id":440,"player_count":24,"max_players":24,"Bots":0,"server_type":"Dedicated","server_os":"Linux","password":true,"vac":true,"version":"7961495","steam_id":85568392924866362,"keywords":["nocrits","nodmgspread","payload","uncletopia"],"game_id":440,"stv_port":27016,"stv_name":"Uncletopia | Chicago | 5 | All Maps | STV","players":[{"user_id":166,"name":"Capt.Swag","steam_id":76561198088340994,"connected_time":3407000000000,"state":"active","ping":74},{"user_id":180,"name":"General Sherman","steam_id":76561198044769376,"connected_time":2940000000000,"state":"active","ping":78},{"user_id":177,"name":"Billy Ray Cyrus","steam_id":76561198257923740,"connected_time":3224000000000,"state":"active","ping":115},{"user_id":168,"name":"Rogurts","steam_id":76561198087665145,"connected_time":3406000000000,"state":"active","ping":60},{"user_id":207,"name":"Dullahan","steam_id":76561198119668908,"connected_time":680000000000,"state":"active","ping":98},{"user_id":142,"name":"Propaniac Gaming ‚òë","steam_id":76561198133963270,"connected_time":5242000000000,"state":"active","ping":61},{"user_id":179,"name":"Reese","steam_id":76561198044035968,"connected_time":3070000000000,"state":"active","ping":72},{"user_id":208,"name":"The Freshman of Bel Air","steam_id":76561198027412463,"connected_time":657000000000,"state":"active","ping":113},{"user_id":170,"name":"Uluyo","steam_id":76561198065857148,"connected_time":3389000000000,"state":"active","ping":50},{"user_id":184,"name":"Cassius Money","steam_id":76561197979696414,"connected_time":2888000000000,"state":"active","ping":55},{"user_id":202,"name":"soggyfries","steam_id":76561198071078563,"connected_time":1264000000000,"state":"active","ping":70},{"user_id":203,"name":"Feet Bandit","steam_id":76561199152252878,"connected_time":1161000000000,"state":"active","ping":87},{"user_id":212,"name":"Equinox","steam_id":76561198274279754,"connected_time":375000000000,"state":"active","ping":62},{"user_id":185,"name":"xxballfondlerxx","steam_id":76561197991546630,"connected_time":2878000000000,"state":"active","ping":56},{"user_id":186,"name":"Prisoner Gerard","steam_id":76561197994452082,"connected_time":2800000000000,"state":"active","ping":81},{"user_id":211,"name":"Xyverle","steam_id":76561198799726415,"connected_time":500000000000,"state":"active","ping":63},{"user_id":188,"name":"dailyspesh","steam_id":76561197988072369,"connected_time":2768000000000,"state":"active","ping":81},{"user_id":189,"name":"Power Lich","steam_id":76561198024334801,"connected_time":2702000000000,"state":"active","ping":117},{"user_id":190,"name":"totoro","steam_id":76561198210420871,"connected_time":2690000000000,"state":"active","ping":46},{"user_id":210,"name":"Blargh","steam_id":76561198044095816,"connected_time":565000000000,"state":"active","ping":60},{"user_id":193,"name":"V A R M I N T","steam_id":76561198417042268,"connected_time":2649000000000,"state":"active","ping":121},{"user_id":209,"name":"Purp - Drink Bepis(tm)","steam_id":76561198044559535,"connected_time":646000000000,"state":"active","ping":86},{"user_id":195,"name":"KittySophie","steam_id":76561198072947773,"connected_time":2481000000000,"state":"active","ping":60},{"user_id":214,"name":"plutonium isotope","steam_id":76561198319442494,"connected_time":103000000000,"state":"active","ping":110}]},{"server_id":37,"name":"Uncletopia | Chicago | 6 | All Maps","name_short":"chi-6","host":"chi-2.us.uncletopia.com","port":27025,"enabled":true,"region":"us-central","cc":"us","latitude":41.881832,"longitude":-87.62318,"reserved":0,"last_update":"0001-01-01T00:00:00Z","name_a2s":"Uncletopia | Chicago | 6 | All Maps","protocol":17,"map":"pl_borneo","folder":"tf","game":"Team Fortress","app_id":440,"player_count":23,"max_players":24,"Bots":0,"server_type":"Dedicated","server_os":"Linux","password":true,"vac":true,"version":"7961495","steam_id":85568392924866363,"keywords":["nocrits","nodmgspread","payload","uncletopia"],"game_id":440,"stv_port":27026,"stv_name":"Uncletopia | Chicago | 6 | All Maps | STV","players":[{"user_id":373,"name":"Seo Artier","steam_id":76561198047793513,"connected_time":1068000000000,"state":"active","ping":88},{"user_id":385,"name":"Dawson Prime","steam_id":76561198162830209,"connected_time":70000000000,"state":"active","ping":93},{"user_id":377,"name":"The Guy","steam_id":76561198163067571,"connected_time":620000000000,"state":"active","ping":112},{"user_id":331,"name":"‚òÖSmolGreyBirb‚òÖ","steam_id":76561198010201046,"connected_time":3148000000000,"state":"active","ping":84},{"user_id":382,"name":"clavin","steam_id":76561198069380992,"connected_time":339000000000,"state":"active","ping":76},{"user_id":386,"name":"Militant Pacifist","steam_id":76561198290691432,"connected_time":40000000000,"state":"active","ping":74},{"user_id":323,"name":"Bunni","steam_id":76561198065169997,"connected_time":3832000000000,"state":"active","ping":84},{"user_id":348,"name":"Mythical Lag","steam_id":76561198347031281,"connected_time":2631000000000,"state":"active","ping":76},{"user_id":384,"name":"stormfoam","steam_id":76561198936871387,"connected_time":134000000000,"state":"active","ping":71},{"user_id":378,"name":"shirt","steam_id":76561198037642082,"connected_time":601000000000,"state":"active","ping":45},{"user_id":383,"name":"Nibelsnarf (She/They)","steam_id":76561198137642054,"connected_time":235000000000,"state":"active","ping":60},{"user_id":325,"name":"J The Jounin","steam_id":76561198034583622,"connected_time":3828000000000,"state":"active","ping":72},{"user_id":340,"name":"Dr Oshawott","steam_id":76561198042021629,"connected_time":2859000000000,"state":"active","ping":59},{"user_id":381,"name":"I Am Alpharius","steam_id":76561198033100226,"connected_time":447000000000,"state":"active","ping":62},{"user_id":380,"name":"GoodleShoes/ttv","steam_id":76561198030993521,"connected_time":552000000000,"state":"active","ping":73},{"user_id":376,"name":"Badasblue","steam_id":76561198074469918,"connected_time":928000000000,"state":"active","ping":110},{"user_id":288,"name":"Kantamoe","steam_id":76561198046661611,"connected_time":7229000000000,"state":"active","ping":87},{"user_id":198,"name":"Boofenshmirtz","steam_id":76561198071649858,"connected_time":12325000000000,"state":"active","ping":69},{"user_id":387,"name":"BigBubble42","steam_id":76561198136286123,"connected_time":19000000000,"state":"spawning","ping":118},{"user_id":298,"name":"Ace Chromatica","steam_id":76561198042211131,"connected_time":5933000000000,"state":"active","ping":72},{"user_id":372,"name":"Nodding","steam_id":76561198077789314,"connected_time":1119000000000,"state":"active","ping":70},{"user_id":368,"name":"Super Ghostbusters (Full Album)","steam_id":76561198057415490,"connected_time":1540000000000,"state":"active","ping":54},{"user_id":337,"name":"berserker_tf2 )HE/SHE(","steam_id":76561198303464488,"connected_time":3078000000000,"state":"active","ping":59}]},{"server_id":38,"name":"Uncletopia | Chicago | 7 | Stopwatch","name_short":"chi-7","host":"chi-2.us.uncletopia.com","port":27035,"enabled":true,"region":"us-central","cc":"us","latitude":41.881832,"longitude":-87.62318,"reserved":0,"last_update":"0001-01-01T00:00:00Z","name_a2s":"Uncletopia | Chicago | 7 | Stopwatch","protocol":17,"map":"koth_lakeside_final","folder":"tf","game":"Team Fortress","app_id":440,"player_count":3,"max_players":24,"Bots":0,"server_type":"Dedicated","server_os":"Linux","password":true,"vac":true,"version":"7961495","steam_id":85568392924866364,"keywords":["cp","nocrits","nodmgspread","uncletopia"],"game_id":440,"stv_port":27036,"stv_name":"Uncletopia | Chicago | 7 | Stopwatch | STV","players":[{"user_id":117,"name":"Roy","steam_id":76561199071707695,"connected_time":4109000000000,"state":"active","ping":68},{"user_id":118,"name":"The Overmind","steam_id":76561199065260787,"connected_time":3638000000000,"state":"active","ping":67},{"user_id":115,"name":"Drunk Heroism","steam_id":76561198053788253,"connected_time":4386000000000,"state":"active","ping":134}]},{"server_id":39,"name":"Uncletopia | Chicago | 8 | Community","name_short":"chi-8","host":"chi-2.us.uncletopia.com","port":27045,"enabled":true,"region":"us-central","cc":"us","latitude":41.881832,"longitude":-87.62318,"reserved":0,"last_update":"0001-01-01T00:00:00Z","name_a2s":"Uncletopia | Chicago | 8 | Community","protocol":17,"map":"workshop/rd_asteroid_redux_b1.ugc2154902912","folder":"tf","game":"Team Fortress","app_id":440,"player_count":0,"max_players":24,"Bots":0,"server_type":"Dedicated","server_os":"Linux","password":true,"vac":true,"version":"7961495","steam_id":85568392924866365,"keywords":["beta","nocrits","nodmgspread","rd","uncletopia"],"game_id":440,"stv_port":27046,"stv_name":"Uncletopia | Chicago | 8 | Community | STV","players":null},{"server_id":8,"name":"Uncletopia | Dallas | 1 | All Maps","name_short":"dal-1","host":"dal-1.us.uncletopia.com","port":27015,"enabled":true,"region":"us-central","cc":"us","latitude":32.779167,"longitude":-96.80889,"reserved":0,"last_update":"0001-01-01T00:00:00Z","name_a2s":"Uncletopia | Dallas | 1 | All Maps","protocol":17,"map":"cp_gravelpit","folder":"tf","game":"Team Fortress","app_id":440,"player_count":21,"max_players":24,"Bots":0,"server_type":"Dedicated","server_os":"Linux","password":true,"vac":true,"version":"7961495","steam_id":85568392924469986,"keywords":["cp","nocrits","nodmgspread","uncletopia"],"game_id":440,"stv_port":27016,"stv_name":"Uncletopia | Dallas | 1 | All Maps | STV","players":[{"user_id":867,"name":"DeckofDragons","steam_id":76561198057398213,"connected_time":1106000000000,"state":"active","ping":69},{"user_id":839,"name":"Mountain Man","steam_id":76561198841559088,"connected_time":4161000000000,"state":"active","ping":79},{"user_id":853,"name":"scarfs","steam_id":76561198008264703,"connected_time":2555000000000,"state":"active","ping":79},{"user_id":780,"name":"chrischrischris3018@yahoo.com","steam_id":76561198137316053,"connected_time":8739000000000,"state":"active","ping":74},{"user_id":865,"name":"Kerpal45","steam_id":76561198153340350,"connected_time":1151000000000,"state":"active","ping":90},{"user_id":823,"name":"‚ô•Katia‚ô•","steam_id":76561198977212642,"connected_time":5725000000000,"state":"active","ping":76},{"user_id":866,"name":"Matlock","steam_id":76561198012092071,"connected_time":1135000000000,"state":"active","ping":97},{"user_id":860,"name":"Ghetto Smosh Fan","steam_id":76561198097272509,"connected_time":1378000000000,"state":"active","ping":48},{"user_id":840,"name":"Steben","steam_id":76561198182247921,"connected_time":3647000000000,"state":"active","ping":61},{"user_id":844,"name":"Colonel Salt","steam_id":76561198207009563,"connected_time":2914000000000,"state":"active","ping":54},{"user_id":861,"name":"TheAsianMeatball","steam_id":76561198336926133,"connected_time":1200000000000,"state":"active","ping":66},{"user_id":854,"name":"kawa","steam_id":76561197991387894,"connected_time":2533000000000,"state":"active","ping":40},{"user_id":874,"name":"shakoiwa","steam_id":76561199059441773,"connected_time":852000000000,"state":"active","ping":83},{"user_id":875,"name":"MrSourLemmon","steam_id":76561199367994914,"connected_time":51000000000,"state":"active","ping":62},{"user_id":797,"name":"Fatpoob","steam_id":76561198056730096,"connected_time":7898000000000,"state":"active","ping":76},{"user_id":841,"name":"errant","steam_id":76561197961758410,"connected_time":3144000000000,"state":"active","ping":33},{"user_id":872,"name":"souljaboytellem.com","steam_id":76561198095824426,"connected_time":933000000000,"state":"active","ping":68},{"user_id":842,"name":"daD","steam_id":76561198188498762,"connected_time":3060000000000,"state":"active","ping":60},{"user_id":873,"name":"Franticraven177","steam_id":76561198334105579,"connected_time":873000000000,"state":"active","ping":74},{"user_id":802,"name":"FreshlyBrewed","steam_id":76561198181099881,"connected_time":7641000000000,"state":"active","ping":81},{"user_id":746,"name":"Scremz (Jeffery Dommer)","steam_id":76561198090314229,"connected_time":10987000000000,"state":"active","ping":69}]},{"server_id":108,"name":"Uncletopia | Dallas | 2 | All Maps","name_short":"dal-2","host":"dal-1.us.uncletopia.com","port":27025,"enabled":true,"region":"us-central","cc":"us","latitude":32.779167,"longitude":-96.80889,"reserved":0,"last_update":"0001-01-01T00:00:00Z","name_a2s":"Uncletopia | Dallas | 2 | All Maps","protocol":17,"map":"pl_upward","folder":"tf","game":"Team Fortress","app_id":440,"player_count":19,"max_players":24,"Bots":0,"server_type":"Dedicated","server_os":"Linux","password":true,"vac":true,"version":"7961495","steam_id":85568392924469988,"keywords":["nocrits","nodmgspread","payload","uncletopia"],"game_id":440,"stv_port":27026,"stv_name":"Uncletopia | Dallas | 2 | All Maps | STV","players":[{"user_id":730,"name":"Certified Hood Classic","steam_id":76561199086159354,"connected_time":2378000000000,"state":"active","ping":51},{"user_id":745,"name":"Major Woody","steam_id":76561198835541533,"connected_time":1742000000000,"state":"active","ping":56},{"user_id":760,"name":"story","steam_id":76561199088496817,"connected_time":23000000000,"state":"active","ping":59},{"user_id":645,"name":"Gemmma","steam_id":76561198102160302,"connected_time":7791000000000,"state":"active","ping":56},{"user_id":743,"name":"Hemorrhoid Gaming","steam_id":76561199006526991,"connected_time":1877000000000,"state":"active","ping":70},{"user_id":759,"name":"Faust main","steam_id":76561198971799149,"connected_time":65000000000,"state":"active","ping":83},{"user_id":726,"name":"room temp IQ","steam_id":76561198018724712,"connected_time":2485000000000,"state":"active","ping":35},{"user_id":744,"name":"Chad the Sex Haver","steam_id":76561198058236528,"connected_time":1815000000000,"state":"active","ping":61},{"user_id":733,"name":"daleisio","steam_id":76561198081169976,"connected_time":2245000000000,"state":"active","ping":92},{"user_id":734,"name":"Spoogley‚òÖ","steam_id":76561198124597623,"connected_time":2241000000000,"state":"active","ping":57},{"user_id":735,"name":"Bobert","steam_id":76561198846272080,"connected_time":2235000000000,"state":"active","ping":93},{"user_id":742,"name":"DragonHunter994","steam_id":76561199076203907,"connected_time":2078000000000,"state":"active","ping":56},{"user_id":747,"name":"Phosu","steam_id":76561198180162801,"connected_time":1393000000000,"state":"active","ping":60},{"user_id":728,"name":"rAnch","steam_id":76561198024562587,"connected_time":2458000000000,"state":"active","ping":32},{"user_id":710,"name":"I_BE_CRIPPIN","steam_id":76561198393007384,"connected_time":3703000000000,"state":"active","ping":70},{"user_id":738,"name":"The All-Seeing Tim","steam_id":76561198075510786,"connected_time":2208000000000,"state":"active","ping":65},{"user_id":758,"name":"Sink","steam_id":76561198192420249,"connected_time":87000000000,"state":"active","ping":57},{"user_id":482,"name":"rat ü•≤üò∂üå´","steam_id":76561198130412963,"connected_time":19355000000000,"state":"active","ping":64},{"user_id":755,"name":"GoldtoothFour","steam_id":76561198055529332,"connected_time":691000000000,"state":"active","ping":66}]},{"server_id":404,"name":"Uncletopia | Dallas | 3 | All Maps","name_short":"dal-3","host":"dal-1.us.uncletopia.com","port":27035,"enabled":true,"region":"us-central","cc":"us","latitude":32.779167,"longitude":-96.80889,"reserved":0,"last_update":"0001-01-01T00:00:00Z","name_a2s":"Uncletopia | Dallas | 3 | All Maps","protocol":17,"map":"plr_nightfall_final","folder":"tf","game":"Team Fortress","app_id":440,"player_count":15,"max_players":24,"Bots":0,"server_type":"Dedicated","server_os":"Linux","password":true,"vac":true,"version":"7961495","steam_id":85568392924515219,"keywords":["nocrits","nodmgspread","payload","uncletopia"],"game_id":440,"stv_port":27036,"stv_name":"Uncletopia | Dallas | 3 | All Maps | STV","players":[{"user_id":516,"name":"Gym Teacher","steam_id":76561199068960616,"connected_time":787000000000,"state":"active","ping":74},{"user_id":518,"name":"Juri Han","steam_id":76561198041678517,"connected_time":724000000000,"state":"active","ping":85},{"user_id":519,"name":"Stab Stab Stab","steam_id":76561198085945342,"connected_time":657000000000,"state":"active","ping":50},{"user_id":520,"name":"My Prostate Itches","steam_id":76561199094319510,"connected_time":648000000000,"state":"active","ping":79},{"user_id":521,"name":"Fry Enjoyer","steam_id":76561198987191738,"connected_time":626000000000,"state":"active","ping":78},{"user_id":513,"name":"FenderBender","steam_id":76561198106379456,"connected_time":1164000000000,"state":"active","ping":116},{"user_id":522,"name":"Kuyumiester","steam_id":76561198126835302,"connected_time":580000000000,"state":"active","ping":61},{"user_id":523,"name":"Travorski","steam_id":76561198072493142,"connected_time":480000000000,"state":"active","ping":81},{"user_id":524,"name":"mEch114","steam_id":76561198236936060,"connected_time":341000000000,"state":"active","ping":42},{"user_id":525,"name":"Bob","steam_id":76561199100437824,"connected_time":267000000000,"state":"active","ping":89},{"user_id":485,"name":"Cinnifox","steam_id":76561198068773971,"connected_time":2992000000000,"state":"active","ping":85},{"user_id":502,"name":"tsz","steam_id":76561199246231090,"connected_time":1605000000000,"state":"active","ping":77},{"user_id":526,"name":"Lezabel","steam_id":76561198970753261,"connected_time":243000000000,"state":"active","ping":71},{"user_id":473,"name":"TheColdChiliPepper","steam_id":76561199027155811,"connected_time":3677000000000,"state":"active","ping":91},{"user_id":476,"name":"ridge","steam_id":76561198381568825,"connected_time":3617000000000,"state":"active","ping":85}]},{"server_id":405,"name":"Uncletopia | Dallas | 4 | Community","name_short":"dal-4","host":"dal-1.us.uncletopia.com","port":27045,"enabled":true,"region":"us-central","cc":"us","latitude":32.779167,"longitude":-96.80889,"reserved":0,"last_update":"0001-01-01T00:00:00Z","name_a2s":"Uncletopia | Dallas | 4 | Community","protocol":17,"map":"workshop/cp_croissant_final.ugc458840209","folder":"tf","game":"Team Fortress","app_id":440,"player_count":0,"max_players":24,"Bots":0,"server_type":"Dedicated","server_os":"Linux","password":true,"vac":true,"version":"7961495","steam_id":85568392924515220,"keywords":["cp","nocrits","nodmgspread","uncletopia"],"game_id":440,"stv_port":27046,"stv_name":"Uncletopia | Dallas | 4 | Community | STV","players":null},{"server_id":5,"name":"Uncletopia | Frankfurt | 1 | All Maps","name_short":"frk-1","host":"frk-1.de.uncletopia.com","port":27015,"enabled":true,"region":"eu","cc":"de","latitude":50.110924,"longitude":8.682127,"reserved":0,"last_update":"0001-01-01T00:00:00Z","name_a2s":"Uncletopia | Frankfurt | 1 | All Maps","protocol":17,"map":"koth_highpass","folder":"tf","game":"Team Fortress","app_id":440,"player_count":0,"max_players":24,"Bots":0,"server_type":"Dedicated","server_os":"Linux","password":true,"vac":true,"version":"7961495","steam_id":85568392924469989,"keywords":["cp","nocrits","nodmgspread","uncletopia"],"game_id":440,"stv_port":27016,"stv_name":"Uncletopia | Frankfurt | 1 | All Maps | STV","players":null},{"server_id":110,"name":"Uncletopia | Frankfurt | 2 | All Maps","name_short":"frk-2","host":"frk-1.de.uncletopia.com","port":27025,"enabled":true,"region":"eu","cc":"de","latitude":50.110924,"longitude":8.682127,"reserved":0,"last_update":"0001-01-01T00:00:00Z","name_a2s":"Uncletopia | Frankfurt | 2 | All Maps","protocol":17,"map":"cp_dustbowl","folder":"tf","game":"Team Fortress","app_id":440,"player_count":0,"max_players":24,"Bots":0,"server_type":"Dedicated","server_os":"Linux","password":true,"vac":true,"version":"7961495","steam_id":85568392924469990,"keywords":["cp","nocrits","nodmgspread","uncletopia"],"game_id":440,"stv_port":27026,"stv_name":"Uncletopia | Frankfurt | 2 | All Maps | STV","players":null},{"server_id":308,"name":"Uncletopia | Frankfurt | 3 | All Maps","name_short":"frk-3","host":"frk-1.de.uncletopia.com","port":27035,"enabled":true,"region":"eu","cc":"de","latitude":50.110924,"longitude":8.682127,"reserved":0,"last_update":"0001-01-01T00:00:00Z","name_a2s":"Uncletopia | Frankfurt | 3 | All Maps","protocol":17,"map":"pl_barnblitz","folder":"tf","game":"Team Fortress","app_id":440,"player_count":0,"max_players":24,"Bots":0,"server_type":"Dedicated","server_os":"Linux","password":true,"vac":true,"version":"7961495","steam_id":85568392924504274,"keywords":["nocrits","nodmgspread","payload","uncletopia"],"game_id":440,"stv_port":27036,"stv_name":"Uncletopia | Frankfurt | 3 | All Maps | STV","players":null},{"server_id":309,"name":"Uncletopia | Frankfurt | 4 | All Maps","name_short":"frk-4","host":"frk-1.de.uncletopia.com","port":27045,"enabled":true,"region":"eu","cc":"de","latitude":50.110924,"longitude":8.682127,"reserved":0,"last_update":"0001-01-01T00:00:00Z","name_a2s":"Uncletopia | Frankfurt | 4 | All Maps","protocol":17,"map":"koth_highpass","folder":"tf","game":"Team Fortress","app_id":440,"player_count":0,"max_players":24,"Bots":0,"server_type":"Dedicated","server_os":"Linux","password":true,"vac":true,"version":"7961495","steam_id":85568392924504275,"keywords":["cp","nocrits","nodmgspread","uncletopia"],"game_id":440,"stv_port":27046,"stv_name":"Uncletopia | Frankfurt | 4 | All Maps | STV","players":null},{"server_id":310,"name":"Uncletopia | Frankfurt | 5 | All Maps","name_short":"frk-5","host":"frk-1.de.uncletopia.com","port":27055,"enabled":true,"region":"eu","cc":"de","latitude":50.110924,"longitude":8.682127,"reserved":0,"last_update":"0001-01-01T00:00:00Z","name_a2s":"Uncletopia | Frankfurt | 5 | All Maps","protocol":17,"map":"pl_badwater","folder":"tf","game":"Team Fortress","app_id":440,"player_count":0,"max_players":24,"Bots":0,"server_type":"Dedicated","server_os":"Linux","password":true,"vac":true,"version":"7961495","steam_id":85568392924504277,"keywords":["nocrits","nodmgspread","payload","uncletopia"],"game_id":440,"stv_port":27056,"stv_name":"Uncletopia | Frankfurt | 5 | All Maps | STV","players":null},{"server_id":311,"name":"Uncletopia | Frankfurt | 6 | All Maps","name_short":"frk-6","host":"frk-1.de.uncletopia.com","port":27065,"enabled":true,"region":"eu","cc":"de","latitude":50.110924,"longitude":8.682127,"reserved":0,"last_update":"0001-01-01T00:00:00Z","name_a2s":"Uncletopia | Frankfurt | 6 | All Maps","protocol":17,"map":"cp_altitude","folder":"tf","game":"Team Fortress","app_id":440,"player_count":0,"max_players":24,"Bots":0,"server_type":"Dedicated","server_os":"Linux","password":true,"vac":true,"version":"7961495","steam_id":85568392924504278,"keywords":["cp","nocrits","nodmgspread","uncletopia"],"game_id":440,"stv_port":27066,"stv_name":"Uncletopia | Frankfurt | 6 | All Maps | STV","players":null},{"server_id":23,"name":"Uncletopia | Frankfurt | 7 | Stopwatch","name_short":"frk-7","host":"frk-1.de.uncletopia.com","port":27075,"enabled":true,"region":"eu","cc":"de","latitude":50.110924,"longitude":8.682127,"reserved":0,"last_update":"0001-01-01T00:00:00Z","name_a2s":"Uncletopia | Frankfurt | 7 | Stopwatch","protocol":17,"map":"pl_frontier_final","folder":"tf","game":"Team Fortress","app_id":440,"player_count":0,"max_players":24,"Bots":0,"server_type":"Dedicated","server_os":"Linux","password":true,"vac":true,"version":"7961495","steam_id":85568392924742827,"keywords":["nocrits","nodmgspread","payload","uncletopia"],"game_id":440,"stv_port":27076,"stv_name":"Uncletopia | Frankfurt | 7 | Stopwatch | STV","players":null},{"server_id":24,"name":"Uncletopia | Frankfurt | 8 | Community","name_short":"frk-8","host":"frk-1.de.uncletopia.com","port":27085,"enabled":true,"region":"eu","cc":"de","latitude":50.110924,"longitude":8.682127,"reserved":0,"last_update":"0001-01-01T00:00:00Z","name_a2s":"Uncletopia | Frankfurt | 8 | Community","protocol":17,"map":"cp_mountainlab","folder":"tf","game":"Team Fortress","app_id":440,"player_count":0,"max_players":24,"Bots":0,"server_type":"Dedicated","server_os":"Linux","password":true,"vac":true,"version":"7961495","steam_id":85568392924742828,"keywords":["cp","nocrits","nodmgspread","uncletopia"],"game_id":440,"stv_port":27086,"stv_name":"Uncletopia | Frankfurt | 8 | Community | STV","players":null},{"server_id":202,"name":"Uncletopia | Hong Kong | 1 | All Maps","name_short":"hgk-1","host":"hgk-1.hk.uncletopia.com","port":27015,"enabled":true,"region":"asia","cc":"hk","latitude":22.302711,"longitude":114.177216,"reserved":0,"last_update":"0001-01-01T00:00:00Z","name_a2s":"Uncletopia | Hong Kong | 1 | All Maps","protocol":17,"map":"koth_cascade","folder":"tf","game":"Team Fortress","app_id":440,"player_count":0,"max_players":24,"Bots":0,"server_type":"Dedicated","server_os":"Linux","password":true,"vac":true,"version":"7961495","steam_id":85568392924494504,"keywords":["cp","nocrits","nodmgspread","uncletopia"],"game_id":440,"stv_port":27016,"stv_name":"Uncletopia | Hong Kong | 1 | All Maps | STV","players":null},{"server_id":1,"name":"Uncletopia | Los Angeles | 1 | All Maps","name_short":"lax-1","host":"lax-1.us.uncletopia.com","port":27015,"enabled":true,"region":"us-west","cc":"us","latitude":33.94279,"longitude":-118.41004,"reserved":0,"last_update":"0001-01-01T00:00:00Z","name_a2s":"Uncletopia | Los Angeles | 1 | All Maps","protocol":17,"map":"cp_mountainlab","folder":"tf","game":"Team Fortress","app_id":440,"player_count":0,"max_players":24,"Bots":0,"server_type":"Dedicated","server_os":"Linux","password":true,"vac":true,"version":"7961495","steam_id":85568392924469991,"keywords":["cp","nocrits","nodmgspread","uncletopia"],"game_id":440,"stv_port":27016,"stv_name":"Uncletopia | Los Angeles | 1 | All Maps | STV","players":null},{"server_id":112,"name":"Uncletopia | Los Angeles | 2 | All Maps","name_short":"lax-2","host":"lax-1.us.uncletopia.com","port":27025,"enabled":true,"region":"us-west","cc":"us","latitude":33.94279,"longitude":-118.41004,"reserved":0,"last_update":"0001-01-01T00:00:00Z","name_a2s":"Uncletopia | Los Angeles | 2 | All Maps","protocol":17,"map":"pl_upward","folder":"tf","game":"Team Fortress","app_id":440,"player_count":21,"max_players":24,"Bots":0,"server_type":"Dedicated","server_os":"Linux","password":true,"vac":true,"version":"7961495","steam_id":85568392924469992,"keywords":["nocrits","nodmgspread","payload","uncletopia"],"game_id":440,"stv_port":27026,"stv_name":"Uncletopia | Los Angeles | 2 | All Maps | STV","players":[{"user_id":160,"name":"ChoccyMiltank","steam_id":76561198981474284,"connected_time":860000000000,"state":"active","ping":50},{"user_id":161,"name":"37 septillion tapeworms","steam_id":76561198186128723,"connected_time":824000000000,"state":"active","ping":77},{"user_id":162,"name":"Wiggs is the Shiggs","steam_id":76561198078379719,"connected_time":816000000000,"state":"active","ping":81},{"user_id":166,"name":"Zom_Named_Zam","steam_id":76561198328066203,"connected_time":787000000000,"state":"active","ping":59},{"user_id":181,"name":"lasky","steam_id":76561198017030029,"connected_time":22000000000,"state":"spawning","ping":57},{"user_id":132,"name":"SolarusD","steam_id":76561198029279861,"connected_time":2992000000000,"state":"active","ping":52},{"user_id":180,"name":"Nobelious","steam_id":76561198094041954,"connected_time":92000000000,"state":"active","ping":117},{"user_id":164,"name":"Bus!","steam_id":76561199082304859,"connected_time":799000000000,"state":"active","ping":86},{"user_id":159,"name":"The Gorbachev Red Spot","steam_id":76561198034512871,"connected_time":1121000000000,"state":"active","ping":85},{"user_id":177,"name":"Firedust19","steam_id":76561198153238631,"connected_time":424000000000,"state":"active","ping":68},{"user_id":135,"name":"Timewaves","steam_id":76561198000186054,"connected_time":2252000000000,"state":"active","ping":50},{"user_id":170,"name":"Lrd shwag","steam_id":76561198841016072,"connected_time":660000000000,"state":"active","ping":86},{"user_id":128,"name":"Gobb","steam_id":76561198028907283,"connected_time":3721000000000,"state":"active","ping":43},{"user_id":143,"name":"The Cow Vampire","steam_id":76561198004035358,"connected_time":1905000000000,"state":"active","ping":101},{"user_id":172,"name":"mrthugpug1732","steam_id":76561198881200768,"connected_time":609000000000,"state":"active","ping":59},{"user_id":174,"name":"DethSQRL","steam_id":76561199149628610,"connected_time":534000000000,"state":"active","ping":106},{"user_id":145,"name":"cielael","steam_id":76561198043971956,"connected_time":1888000000000,"state":"active","ping":47},{"user_id":175,"name":"Sarbanes-Oxley","steam_id":76561197975898479,"connected_time":530000000000,"state":"active","ping":89},{"user_id":116,"name":"roach :3","steam_id":76561198354811369,"connected_time":4175000000000,"state":"active","ping":54},{"user_id":176,"name":"Comrade","steam_id":76561199056721863,"connected_time":496000000000,"state":"active","ping":68},{"user_id":73,"name":"N√º√æ","steam_id":76561198043956703,"connected_time":7478000000000,"state":"active","ping":47}]},{"server_id":324,"name":"Uncletopia | Los Angeles | 3 | All Maps","name_short":"lax-3","host":"lax-1.us.uncletopia.com","port":27035,"enabled":true,"region":"us-west","cc":"us","latitude":33.94279,"longitude":-118.41004,"reserved":0,"last_update":"0001-01-01T00:00:00Z","name_a2s":"Uncletopia | Los Angeles | 3 | All Maps","protocol":17,"map":"pl_pier","folder":"tf","game":"Team Fortress","app_id":440,"player_count":23,"max_players":24,"Bots":0,"server_type":"Dedicated","server_os":"Linux","password":true,"vac":true,"version":"7961495","steam_id":85568392924510198,"keywords":["nocrits","nodmgspread","payload","uncletopia"],"game_id":440,"stv_port":27036,"stv_name":"Uncletopia | Los Angeles | 3 | All Maps | STV","players":[{"user_id":276,"name":"Dongus","steam_id":76561197979056451,"connected_time":1875000000000,"state":"active","ping":74},{"user_id":185,"name":"duddlee","steam_id":76561198030052564,"connected_time":8473000000000,"state":"active","ping":75},{"user_id":278,"name":"plumber","steam_id":76561198122177409,"connected_time":1399000000000,"state":"active","ping":69},{"user_id":285,"name":"Builder","steam_id":76561198042004822,"connected_time":843000000000,"state":"active","ping":60},{"user_id":248,"name":"s (Chat/Voice Disabled)","steam_id":76561198009165361,"connected_time":4329000000000,"state":"active","ping":105},{"user_id":224,"name":"mo wangs","steam_id":76561198045992418,"connected_time":5312000000000,"state":"active","ping":77},{"user_id":228,"name":"GalaxyDoug32","steam_id":76561197997126305,"connected_time":5161000000000,"state":"active","ping":89},{"user_id":264,"name":"Pizzadude031","steam_id":76561198993666394,"connected_time":2489000000000,"state":"active","ping":44},{"user_id":229,"name":"‚ô•CharaÂñúÁîüÂ≠ê‚ô•","steam_id":76561198080500920,"connected_time":5159000000000,"state":"active","ping":120},{"user_id":266,"name":"[ibb‚Ñ¢]Shadow20X6-ENGI","steam_id":76561198019292755,"connected_time":2394000000000,"state":"active","ping":62},{"user_id":242,"name":"Max Headass","steam_id":76561198964210411,"connected_time":4729000000000,"state":"active","ping":46},{"user_id":251,"name":"geck","steam_id":76561198022785433,"connected_time":4192000000000,"state":"active","ping":63},{"user_id":282,"name":"Hi_barney","steam_id":76561199116792088,"connected_time":1163000000000,"state":"active","ping":56},{"user_id":289,"name":"‚ò∞vil ‚ÜÉood  ‚∏∏üíÄ‚∏∏","steam_id":76561197963666090,"connected_time":527000000000,"state":"active","ping":46},{"user_id":188,"name":"roody","steam_id":76561198066260405,"connected_time":8438000000000,"state":"active","ping":75},{"user_id":253,"name":"eye4games","steam_id":76561198197522489,"connected_time":4008000000000,"state":"active","ping":65},{"user_id":259,"name":"Yoyos","steam_id":76561198061035695,"connected_time":3747000000000,"state":"active","ping":49},{"user_id":287,"name":"OxOoxen841","steam_id":76561198297981993,"connected_time":724000000000,"state":"active","ping":105},{"user_id":291,"name":"p8ps","steam_id":76561199137042715,"connected_time":59000000000,"state":"active","ping":233},{"user_id":292,"name":"PainInTheRuss","steam_id":76561197977960543,"connected_time":54000000000,"state":"active","ping":55},{"user_id":277,"name":"laughs bigman","steam_id":76561198067714032,"connected_time":1611000000000,"state":"active","ping":54},{"user_id":262,"name":"Clagger","steam_id":76561198066701092,"connected_time":2939000000000,"state":"active","ping":68},{"user_id":286,"name":"Sean","steam_id":76561199367470003,"connected_time":807000000000,"state":"active","ping":72}]},{"server_id":25,"name":"Uncletopia | Los Angeles | 4 | Stopwatch","name_short":"lax-4","host":"lax-1.us.uncletopia.com","port":27045,"enabled":true,"region":"us-west","cc":"us","latitude":33.94279,"longitude":-118.41004,"reserved":0,"last_update":"0001-01-01T00:00:00Z","name_a2s":"Uncletopia | Los Angeles | 4 | Stopwatch","protocol":17,"map":"workshop/koth_bagel_rc6.ugc2514036946","folder":"tf","game":"Team Fortress","app_id":440,"player_count":0,"max_players":24,"Bots":0,"server_type":"Dedicated","server_os":"Linux","password":true,"vac":true,"version":"7961495","steam_id":85568392924510199,"keywords":["cp","nocrits","nodmgspread","uncletopia"],"game_id":440,"stv_port":27046,"stv_name":"Uncletopia | Los Angeles | 4 | Stopwatch | STV","players":null},{"server_id":11,"name":"Uncletopia | London | 1 | All Maps","name_short":"lon-1","host":"lon-1.uk.uncletopia.com","port":27015,"enabled":true,"region":"eu","cc":"gb","latitude":51.509865,"longitude":-0.118092,"reserved":0,"last_update":"0001-01-01T00:00:00Z","name_a2s":"Uncletopia | London | 1 | All Maps","protocol":17,"map":"pl_barnblitz","folder":"tf","game":"Team Fortress","app_id":440,"player_count":13,"max_players":24,"Bots":0,"server_type":"Dedicated","server_os":"Linux","password":true,"vac":true,"version":"7961495","steam_id":85568392924367362,"keywords":["nocrits","nodmgspread","payload","uncletopia"],"game_id":440,"stv_port":27016,"stv_name":"Uncletopia | London | 1 | All Maps | STV","players":[{"user_id":1477,"name":"i pity the drool.","steam_id":76561199330937686,"connected_time":304000000000,"state":"active","ping":78},{"user_id":1475,"name":"Defender hunter","steam_id":76561198041458028,"connected_time":908000000000,"state":"active","ping":87},{"user_id":1478,"name":"George W Bush","steam_id":76561198846784757,"connected_time":229000000000,"state":"active","ping":53},{"user_id":1470,"name":"JuanPonchoGringo‚Ñ¢","steam_id":76561198038046899,"connected_time":2008000000000,"state":"active","ping":132},{"user_id":1472,"name":"jjkun786","steam_id":76561199438517484,"connected_time":1594000000000,"state":"active","ping":71},{"user_id":1473,"name":"ja","steam_id":76561199228540618,"connected_time":1562000000000,"state":"active","ping":61},{"user_id":1476,"name":"Erenom","steam_id":76561199017383513,"connected_time":552000000000,"state":"active","ping":90},{"user_id":1418,"name":"^-^","steam_id":76561198127480206,"connected_time":6466000000000,"state":"active","ping":62},{"user_id":1479,"name":"flamingo","steam_id":76561198854099251,"connected_time":138000000000,"state":"active","ping":288},{"user_id":1466,"name":"nacho","steam_id":76561198043178581,"connected_time":2913000000000,"state":"active","ping":96},{"user_id":1462,"name":"that hamster has been dead for ","steam_id":76561198346638308,"connected_time":3205000000000,"state":"active","ping":59},{"user_id":1414,"name":"Penis Contortionist","steam_id":76561198073663784,"connected_time":6949000000000,"state":"active","ping":34},{"user_id":1446,"name":"Lewylow","steam_id":76561198005425686,"connected_time":4687000000000,"state":"active","ping":47}]},{"server_id":114,"name":"Uncletopia | London | 2 | All Maps","name_short":"lon-2","host":"lon-1.uk.uncletopia.com","port":27025,"enabled":true,"region":"eu","cc":"gb","latitude":51.509865,"longitude":-0.118092,"reserved":0,"last_update":"0001-01-01T00:00:00Z","name_a2s":"Uncletopia | London | 2 | All Maps","protocol":17,"map":"koth_cascade","folder":"tf","game":"Team Fortress","app_id":440,"player_count":0,"max_players":24,"Bots":0,"server_type":"Dedicated","server_os":"Linux","password":true,"vac":true,"version":"7961495","steam_id":85568392924470941,"keywords":["cp","nocrits","nodmgspread","uncletopia"],"game_id":440,"stv_port":27026,"stv_name":"Uncletopia | London | 2 | All Maps | STV","players":null},{"server_id":320,"name":"Uncletopia | London | 3 | All Maps","name_short":"lon-3","host":"lon-1.uk.uncletopia.com","port":27035,"enabled":true,"region":"eu","cc":"gb","latitude":51.509865,"longitude":-0.118092,"reserved":0,"last_update":"0001-01-01T00:00:00Z","name_a2s":"Uncletopia | London | 3 | All Maps","protocol":17,"map":"cp_snakewater_final1","folder":"tf","game":"Team Fortress","app_id":440,"player_count":0,"max_players":24,"Bots":0,"server_type":"Dedicated","server_os":"Linux","password":true,"vac":true,"version":"7961495","steam_id":85568392924510192,"keywords":["cp","nocrits","nodmgspread","uncletopia"],"game_id":440,"stv_port":27036,"stv_name":"Uncletopia | London | 3 | All Maps | STV","players":null},{"server_id":321,"name":"Uncletopia | London | 4 | All Maps","name_short":"lon-4","host":"lon-1.uk.uncletopia.com","port":27045,"enabled":true,"region":"eu","cc":"gb","latitude":51.509865,"longitude":-0.118092,"reserved":0,"last_update":"0001-01-01T00:00:00Z","name_a2s":"Uncletopia | London | 4 | All Maps","protocol":17,"map":"cp_snakewater_final1","folder":"tf","game":"Team Fortress","app_id":440,"player_count":0,"max_players":24,"Bots":0,"server_type":"Dedicated","server_os":"Linux","password":true,"vac":true,"version":"7961495","steam_id":85568392924510193,"keywords":["cp","nocrits","nodmgspread","uncletopia"],"game_id":440,"stv_port":27046,"stv_name":"Uncletopia | London | 4 | All Maps | STV","players":null},{"server_id":21,"name":"Uncletopia | London | 5 | All Maps","name_short":"lon-5","host":"lon-1.uk.uncletopia.com","port":27055,"enabled":true,"region":"eu","cc":"gb","latitude":51.509865,"longitude":-0.118092,"reserved":0,"last_update":"0001-01-01T00:00:00Z","name_a2s":"Uncletopia | London | 5 | All Maps","protocol":17,"map":"koth_nucleus","folder":"tf","game":"Team Fortress","app_id":440,"player_count":2,"max_players":24,"Bots":0,"server_type":"Dedicated","server_os":"Linux","password":true,"vac":true,"version":"7961495","steam_id":85568392924742829,"keywords":["cp","nocrits","nodmgspread","uncletopia"],"game_id":440,"stv_port":27056,"stv_name":"Uncletopia | London | 5 | All Maps | STV","players":[{"user_id":633,"name":"–ê–Ω–¥—Ä–µ–π","steam_id":76561199004027817,"connected_time":4216000000000,"state":"active","ping":107},{"user_id":571,"name":"Nyhde","steam_id":76561198012771416,"connected_time":9201000000000,"state":"active","ping":98}]},{"server_id":22,"name":"Uncletopia | London | 6 | All Maps","name_short":"lon-6","host":"lon-1.uk.uncletopia.com","port":27065,"enabled":true,"region":"eu","cc":"gb","latitude":51.509865,"longitude":-0.118092,"reserved":0,"last_update":"0001-01-01T00:00:00Z","name_a2s":"Uncletopia | London | 6 | All Maps","protocol":17,"map":"koth_lakeside_final","folder":"tf","game":"Team Fortress","app_id":440,"player_count":0,"max_players":24,"Bots":0,"server_type":"Dedicated","server_os":"Linux","password":true,"vac":true,"version":"7961495","steam_id":85568392924742830,"keywords":["cp","nocrits","nodmgspread","uncletopia"],"game_id":440,"stv_port":27066,"stv_name":"Uncletopia | London | 6 | All Maps | STV","players":null},{"server_id":40,"name":"Uncletopia | London | 7 | Stopwatch","name_short":"lon-7","host":"lon-1.uk.uncletopia.com","port":27075,"enabled":true,"region":"eu","cc":"gb","latitude":51.509865,"longitude":-0.118092,"reserved":0,"last_update":"0001-01-01T00:00:00Z","name_a2s":"Uncletopia | London | 7 | Stopwatch","protocol":17,"map":"cp_snakewater_final1","folder":"tf","game":"Team Fortress","app_id":440,"player_count":0,"max_players":24,"Bots":0,"server_type":"Dedicated","server_os":"Linux","password":true,"vac":true,"version":"7961495","steam_id":85568392924964314,"keywords":["cp","nocrits","nodmgspread","uncletopia"],"game_id":440,"stv_port":27076,"stv_name":"Uncletopia | London | 7 | Stopwatch | STV","players":null},{"server_id":41,"name":"Uncletopia | London | 8 | Community","name_short":"lon-8","host":"lon-1.uk.uncletopia.com","port":27085,"enabled":true,"region":"eu","cc":"gb","latitude":51.509865,"longitude":-0.118092,"reserved":0,"last_update":"0001-01-01T00:00:00Z","name_a2s":"Uncletopia | London | 8 | Community","protocol":17,"map":"workshop/pl_cashworks_final1.ugc2904065412","folder":"tf","game":"Team Fortress","app_id":440,"player_count":0,"max_players":24,"Bots":0,"server_type":"Dedicated","server_os":"Linux","password":true,"vac":true,"version":"7961495","steam_id":85568392924964315,"keywords":["nocrits","nodmgspread","payload","uncletopia"],"game_id":440,"stv_port":27086,"stv_name":"Uncletopia | London | 8 | Community | STV","players":null},{"server_id":300,"name":"Uncletopia | Montr√©al | 1 | One Thousand Uncles","name_short":"mtl-1","host":"mtl-1.ca.uncletopia.com","port":27015,"enabled":true,"region":"us-east","cc":"ca","latitude":45.50889,"longitude":-73.56167,"reserved":0,"last_update":"0001-01-01T00:00:00Z","name_a2s":"","protocol":0,"map":"","folder":"","game":"","app_id":0,"player_count":1,"max_players":0,"Bots":0,"server_type":"","server_os":"","password":false,"vac":false,"version":"","steam_id":0,"keywords":null,"game_id":0,"stv_port":0,"stv_name":"","players":[{"user_id":215,"name":"FercoButter | F4 Enjoyer","steam_id":76561198062982729,"connected_time":375000000000,"state":"active","ping":46}]},{"server_id":301,"name":"Uncletopia | Montr√©al | 2 | One Thousand Uncles","name_short":"mtl-2","host":"mtl-1.ca.uncletopia.com","port":27025,"enabled":true,"region":"us-east","cc":"ca","latitude":45.50889,"longitude":-73.56167,"reserved":0,"last_update":"0001-01-01T00:00:00Z","name_a2s":"","protocol":0,"map":"","folder":"","game":"","app_id":0,"player_count":0,"max_players":0,"Bots":0,"server_type":"","server_os":"","password":false,"vac":false,"version":"","steam_id":0,"keywords":null,"game_id":0,"stv_port":0,"stv_name":"","players":null},{"server_id":302,"name":"Uncletopia | Montr√©al | 3 | One Thousand Uncles","name_short":"mtl-3","host":"mtl-1.ca.uncletopia.com","port":27035,"enabled":true,"region":"us-east","cc":"ca","latitude":45.50889,"longitude":-73.56167,"reserved":0,"last_update":"0001-01-01T00:00:00Z","name_a2s":"","protocol":0,"map":"","folder":"","game":"","app_id":0,"player_count":0,"max_players":0,"Bots":0,"server_type":"","server_os":"","password":false,"vac":false,"version":"","steam_id":0,"keywords":null,"game_id":0,"stv_port":0,"stv_name":"","players":null},{"server_id":13,"name":"Uncletopia | New York City | 1 | All Maps","name_short":"nyc-1","host":"nyc-1.us.uncletopia.com","port":27015,"enabled":true,"region":"us-east","cc":"us","latitude":40.73061,"longitude":-73.93524,"reserved":0,"last_update":"0001-01-01T00:00:00Z","name_a2s":"Uncletopia | New York City | 1 | All Maps","protocol":17,"map":"koth_cascade","folder":"tf","game":"Team Fortress","app_id":440,"player_count":3,"max_players":24,"Bots":0,"server_type":"Dedicated","server_os":"Linux","password":true,"vac":true,"version":"7961495","steam_id":85568392924469993,"keywords":["cp","nocrits","nodmgspread","uncletopia"],"game_id":440,"stv_port":27016,"stv_name":"Uncletopia | New York City | 1 | All Maps | STV","players":[{"user_id":541,"name":"Chillin Turt","steam_id":76561198025796849,"connected_time":459000000000,"state":"active","ping":62},{"user_id":531,"name":"Elvis Dwarvley","steam_id":76561198117231611,"connected_time":1689000000000,"state":"active","ping":137},{"user_id":526,"name":"MakerRov","steam_id":76561198914108894,"connected_time":2151000000000,"state":"active","ping":125}]},{"server_id":14,"name":"Uncletopia | New York City | 2 | All Maps","name_short":"nyc-2","host":"nyc-1.us.uncletopia.com","port":27025,"enabled":true,"region":"us-east","cc":"us","latitude":40.73061,"longitude":-73.93524,"reserved":0,"last_update":"0001-01-01T00:00:00Z","name_a2s":"Uncletopia | New York City | 2 | All Maps","protocol":17,"map":"pl_upward","folder":"tf","game":"Team Fortress","app_id":440,"player_count":23,"max_players":24,"Bots":0,"server_type":"Dedicated","server_os":"Linux","password":true,"vac":true,"version":"7961495","steam_id":85568392924469994,"keywords":["nocrits","nodmgspread","payload","uncletopia"],"game_id":440,"stv_port":27026,"stv_name":"Uncletopia | New York City | 2 | All Maps | STV","players":[{"user_id":256,"name":"Female Gamer","steam_id":76561199366482682,"connected_time":3456000000000,"state":"active","ping":127},{"user_id":279,"name":"Jango","steam_id":76561198084589742,"connected_time":2075000000000,"state":"active","ping":79},{"user_id":327,"name":"Two-Teste Tommy","steam_id":76561198064308936,"connected_time":163000000000,"state":"active","ping":59},{"user_id":328,"name":"Tokyo_Timeshift_","steam_id":76561198048677523,"connected_time":142000000000,"state":"active","ping":61},{"user_id":288,"name":"TheArchitect","steam_id":76561198052506536,"connected_time":1325000000000,"state":"active","ping":115},{"user_id":289,"name":"Pizza Party","steam_id":76561198165730754,"connected_time":1324000000000,"state":"active","ping":68},{"user_id":318,"name":"Baron von Whoopsie","steam_id":76561197996691013,"connected_time":440000000000,"state":"active","ping":56},{"user_id":319,"name":"Lost Lisa","steam_id":76561198226033280,"connected_time":425000000000,"state":"active","ping":60},{"user_id":320,"name":"james_bondage","steam_id":76561199476062624,"connected_time":380000000000,"state":"active","ping":78},{"user_id":304,"name":"DeMarc0","steam_id":76561198150900434,"connected_time":973000000000,"state":"active","ping":49},{"user_id":293,"name":"pipebombrater","steam_id":76561199029030831,"connected_time":1266000000000,"state":"active","ping":55},{"user_id":259,"name":"Capit√°n √Ñxis-Flores Kuroki","steam_id":76561198353865006,"connected_time":3454000000000,"state":"active","ping":67},{"user_id":300,"name":"Reeder Rabbit","steam_id":76561198042675927,"connected_time":1176000000000,"state":"active","ping":50},{"user_id":330,"name":"Kibbleis","steam_id":76561197995265195,"connected_time":133000000000,"state":"active","ping":57},{"user_id":298,"name":"xFactr","steam_id":76561198129007422,"connected_time":1197000000000,"state":"active","ping":38},{"user_id":331,"name":"Eggboy","steam_id":76561198041865979,"connected_time":80000000000,"state":"active","ping":91},{"user_id":301,"name":"Q47","steam_id":76561198087128341,"connected_time":1166000000000,"state":"active","ping":133},{"user_id":263,"name":"tubby","steam_id":76561198174982661,"connected_time":3429000000000,"state":"active","ping":83},{"user_id":302,"name":"k√§flex","steam_id":76561198196924930,"connected_time":1138000000000,"state":"active","ping":54},{"user_id":305,"name":"weewa","steam_id":76561198064876090,"connected_time":928000000000,"state":"active","ping":65},{"user_id":321,"name":"Smiles","steam_id":76561198107197973,"connected_time":371000000000,"state":"active","ping":82},{"user_id":306,"name":"Captain Bug","steam_id":76561198137763878,"connected_time":921000000000,"state":"active","ping":73},{"user_id":313,"name":"Shennynerd","steam_id":76561198026143747,"connected_time":678000000000,"state":"active","ping":122}]},{"server_id":15,"name":"Uncletopia | New York City | 3 | Stopwatch","name_short":"nyc-3","host":"nyc-1.us.uncletopia.com","port":27035,"enabled":true,"region":"us-east","cc":"us","latitude":40.73061,"longitude":-73.93524,"reserved":0,"last_update":"0001-01-01T00:00:00Z","name_a2s":"Uncletopia | New York City | 3 | Stopwatch","protocol":17,"map":"workshop/cp_process_f12.ugc2302948105","folder":"tf","game":"Team Fortress","app_id":440,"player_count":0,"max_players":24,"Bots":0,"server_type":"Dedicated","server_os":"Linux","password":true,"vac":true,"version":"7961495","steam_id":85568392924742820,"keywords":["cp","nocrits","nodmgspread","uncletopia"],"game_id":440,"stv_port":27036,"stv_name":"Uncletopia | New York City | 3 | Stopwatch | STV","players":null},{"server_id":16,"name":"Uncletopia | New York City | 4 | Community","name_short":"nyc-4","host":"nyc-1.us.uncletopia.com","port":27045,"enabled":true,"region":"us-east","cc":"us","latitude":40.73061,"longitude":-73.93524,"reserved":0,"last_update":"0001-01-01T00:00:00Z","name_a2s":"Uncletopia | New York City | 4 | Community","protocol":17,"map":"workshop/koth_slaughter_rc1.ugc1712845210","folder":"tf","game":"Team Fortress","app_id":440,"player_count":0,"max_players":24,"Bots":0,"server_type":"Dedicated","server_os":"Linux","password":true,"vac":true,"version":"7961495","steam_id":85568392924742821,"keywords":["cp","nocrits","nodmgspread","uncletopia"],"game_id":440,"stv_port":27046,"stv_name":"Uncletopia | New York City | 4 | Community | STV","players":null},{"server_id":142,"name":"Uncletopia | S√£o Paulo | 1 | All Maps","name_short":"sao-1","host":"sao-1.br.uncletopia.com","port":27015,"enabled":true,"region":"sa","cc":"br","latitude":-23.533773,"longitude":-46.62529,"reserved":0,"last_update":"0001-01-01T00:00:00Z","name_a2s":"Uncletopia | S√£o Paulo | 1 | All Maps","protocol":17,"map":"koth_lakeside_final","folder":"tf","game":"Team Fortress","app_id":440,"player_count":0,"max_players":24,"Bots":0,"server_type":"Dedicated","server_os":"Linux","password":true,"vac":true,"version":"7961495","steam_id":85568392924469996,"keywords":["cp","nocrits","nodmgspread","uncletopia"],"game_id":440,"stv_port":27016,"stv_name":"Uncletopia | S√£o Paulo | 1 | All Maps | STV","players":null},{"server_id":143,"name":"Uncletopia | S√£o Paulo | 2 | Community","name_short":"sao-2","host":"sao-2.br.uncletopia.com","port":27015,"enabled":true,"region":"sa","cc":"br","latitude":-23.533773,"longitude":-46.62529,"reserved":0,"last_update":"0001-01-01T00:00:00Z","name_a2s":"Uncletopia | S√£o Paulo | 2 | Community","protocol":17,"map":"workshop/koth_slaughter_rc1.ugc1712845210","folder":"tf","game":"Team Fortress","app_id":440,"player_count":0,"max_players":24,"Bots":0,"server_type":"Dedicated","server_os":"Linux","password":true,"vac":true,"version":"7961495","steam_id":85568392924485349,"keywords":["cp","nocrits","nodmgspread","uncletopia"],"game_id":440,"stv_port":27016,"stv_name":"Uncletopia | S√£o Paulo | 2 | Community | STV","players":null},{"server_id":7,"name":"Uncletopia | Seattle | 1 | All Maps","name_short":"sea-1","host":"sea-1.us.uncletopia.com","port":27015,"enabled":true,"region":"us-west","cc":"us","latitude":47.608013,"longitude":-122.33517,"reserved":0,"last_update":"0001-01-01T00:00:00Z","name_a2s":"Uncletopia | Seattle | 1 | All Maps","protocol":17,"map":"pl_borneo","folder":"tf","game":"Team Fortress","app_id":440,"player_count":24,"max_players":24,"Bots":0,"server_type":"Dedicated","server_os":"Linux","password":true,"vac":true,"version":"7961495","steam_id":85568392924469997,"keywords":["nocrits","nodmgspread","payload","uncletopia"],"game_id":440,"stv_port":27016,"stv_name":"Uncletopia | Seattle | 1 | All Maps | STV","players":[{"user_id":1141,"name":"rat gets the cheese","steam_id":76561198031234032,"connected_time":708000000000,"state":"active","ping":100},{"user_id":1055,"name":"Common","steam_id":76561198041083863,"connected_time":5902000000000,"state":"active","ping":52},{"user_id":1134,"name":"zinnk","steam_id":76561198092081825,"connected_time":796000000000,"state":"active","ping":60},{"user_id":1116,"name":"jinkies","steam_id":76561198199950729,"connected_time":1659000000000,"state":"active","ping":143},{"user_id":1130,"name":"Sasha The Foxgirl","steam_id":76561198018403555,"connected_time":1003000000000,"state":"active","ping":42},{"user_id":1119,"name":"Beeschurger","steam_id":76561197964052131,"connected_time":1543000000000,"state":"active","ping":108},{"user_id":966,"name":"Timemx63","steam_id":76561198062377543,"connected_time":13533000000000,"state":"active","ping":43},{"user_id":1120,"name":"spenca","steam_id":76561198025371154,"connected_time":1538000000000,"state":"active","ping":53},{"user_id":1084,"name":"TROY","steam_id":76561197983852176,"connected_time":4543000000000,"state":"active","ping":75},{"user_id":1096,"name":"Sweets","steam_id":76561198998446307,"connected_time":3122000000000,"state":"active","ping":61},{"user_id":1144,"name":"Mak","steam_id":76561198089197922,"connected_time":685000000000,"state":"active","ping":59},{"user_id":1081,"name":"keithykeithers","steam_id":76561197995552615,"connected_time":4601000000000,"state":"active","ping":53},{"user_id":1072,"name":"Nom Skirrett","steam_id":76561198014600788,"connected_time":5400000000000,"state":"active","ping":61},{"user_id":1142,"name":"Dog","steam_id":76561198041841128,"connected_time":705000000000,"state":"active","ping":80},{"user_id":1128,"name":"[TrC] Dackstrus","steam_id":76561197973518509,"connected_time":1059000000000,"state":"active","ping":58},{"user_id":1121,"name":"SibilantSerpent","steam_id":76561198154488754,"connected_time":1533000000000,"state":"active","ping":53},{"user_id":1080,"name":"Cheezbeargur","steam_id":76561198164702899,"connected_time":4660000000000,"state":"active","ping":63},{"user_id":1035,"name":"Keamy","steam_id":76561199471434875,"connected_time":8215000000000,"state":"active","ping":42},{"user_id":1027,"name":"squart guy","steam_id":76561199411560141,"connected_time":9013000000000,"state":"active","ping":53},{"user_id":1103,"name":"hart","steam_id":76561198046073848,"connected_time":2683000000000,"state":"active","ping":45},{"user_id":1137,"name":"Creeping Python","steam_id":76561198041636923,"connected_time":755000000000,"state":"active","ping":53},{"user_id":1140,"name":"Daz","steam_id":76561198041431938,"connected_time":738000000000,"state":"active","ping":53},{"user_id":1126,"name":"[TrC] Nosy","steam_id":76561197978859310,"connected_time":1285000000000,"state":"active","ping":58},{"user_id":1107,"name":"qwertty121276","steam_id":76561199456070617,"connected_time":2628000000000,"state":"active","ping":52}]},{"server_id":119,"name":"Uncletopia | Seattle | 2 | All Maps","name_short":"sea-2","host":"sea-1.us.uncletopia.com","port":27025,"enabled":true,"region":"us-west","cc":"us","latitude":47.608013,"longitude":-122.33517,"reserved":0,"last_update":"0001-01-01T00:00:00Z","name_a2s":"Uncletopia | Seattle | 2 | All Maps","protocol":17,"map":"pl_pier","folder":"tf","game":"Team Fortress","app_id":440,"player_count":0,"max_players":24,"Bots":0,"server_type":"Dedicated","server_os":"Linux","password":true,"vac":true,"version":"7961495","steam_id":85568392924469998,"keywords":["nocrits","nodmgspread","payload","uncletopia"],"game_id":440,"stv_port":27026,"stv_name":"Uncletopia | Seattle | 2 | All Maps | STV","players":null},{"server_id":406,"name":"Uncletopia | Seattle | 3 | Stopwatch","name_short":"sea-3","host":"sea-1.us.uncletopia.com","port":27035,"enabled":true,"region":"us-west","cc":"us","latitude":47.608013,"longitude":-122.33517,"reserved":0,"last_update":"0001-01-01T00:00:00Z","name_a2s":"Uncletopia | Seattle | 3 | Stopwatch","protocol":17,"map":"workshop/koth_ramjam_rc1.ugc459778887","folder":"tf","game":"Team Fortress","app_id":440,"player_count":0,"max_players":24,"Bots":0,"server_type":"Dedicated","server_os":"Linux","password":true,"vac":true,"version":"7961495","steam_id":85568392924515217,"keywords":["cp","nocrits","nodmgspread","uncletopia"],"game_id":440,"stv_port":27036,"stv_name":"Uncletopia | Seattle | 3 | Stopwatch | STV","players":null},{"server_id":17,"name":"Uncletopia | San Francisco | 1 | All Maps","name_short":"sfo-1","host":"sfo-1.us.uncletopia.com","port":27015,"enabled":true,"region":"us-west","cc":"us","latitude":37.77397,"longitude":-122.4313,"reserved":0,"last_update":"0001-01-01T00:00:00Z","name_a2s":"Uncletopia | San Francisco | 1 | All Maps","protocol":17,"map":"pl_borneo","folder":"tf","game":"Team Fortress","app_id":440,"player_count":24,"max_players":24,"Bots":0,"server_type":"Dedicated","server_os":"Linux","password":true,"vac":true,"version":"7961495","steam_id":85568392924469999,"keywords":["nocrits","nodmgspread","payload","uncletopia"],"game_id":440,"stv_port":27016,"stv_name":"Uncletopia | San Francisco | 1 | All Maps | STV","players":[{"user_id":293,"name":"Major_Pippy","steam_id":76561198004482878,"connected_time":1136000000000,"state":"active","ping":61},{"user_id":292,"name":"Ok then","steam_id":76561198891914787,"connected_time":1228000000000,"state":"active","ping":83},{"user_id":294,"name":"limbos","steam_id":76561198028289585,"connected_time":1050000000000,"state":"active","ping":77},{"user_id":295,"name":"Sr. Cleotar","steam_id":76561199125688378,"connected_time":1036000000000,"state":"active","ping":82},{"user_id":284,"name":"Hotdoggiest","steam_id":76561198049420141,"connected_time":2238000000000,"state":"active","ping":53},{"user_id":256,"name":"GArgoyleZoo","steam_id":76561198039431218,"connected_time":3896000000000,"state":"active","ping":82},{"user_id":283,"name":"Xyn","steam_id":76561198155207727,"connected_time":2443000000000,"state":"active","ping":74},{"user_id":296,"name":"game","steam_id":76561198334059206,"connected_time":994000000000,"state":"active","ping":51},{"user_id":290,"name":"Scoops M'Gooch","steam_id":76561198048423812,"connected_time":1345000000000,"state":"active","ping":70},{"user_id":302,"name":"gay skeleton","steam_id":76561198068257774,"connected_time":838000000000,"state":"active","ping":64},{"user_id":309,"name":"Nut Bustray","steam_id":76561198092403883,"connected_time":50000000000,"state":"active","ping":73},{"user_id":209,"name":"amaricantanker#574","steam_id":76561198343584037,"connected_time":6864000000000,"state":"active","ping":60},{"user_id":291,"name":"vanillain","steam_id":76561198058617608,"connected_time":1300000000000,"state":"active","ping":60},{"user_id":268,"name":"Mom","steam_id":76561198207936000,"connected_time":3010000000000,"state":"active","ping":42},{"user_id":300,"name":"jeff_fan","steam_id":76561198086420687,"connected_time":934000000000,"state":"active","ping":86},{"user_id":289,"name":"zSabre","steam_id":76561198306476738,"connected_time":1472000000000,"state":"active","ping":94},{"user_id":305,"name":"bad spy player","steam_id":76561198873699671,"connected_time":311000000000,"state":"active","ping":71},{"user_id":301,"name":"Aeon","steam_id":76561198079117315,"connected_time":896000000000,"state":"active","ping":59},{"user_id":257,"name":"Ockulus","steam_id":76561199069638460,"connected_time":3863000000000,"state":"active","ping":58},{"user_id":274,"name":"Acuzik","steam_id":76561198045453400,"connected_time":2885000000000,"state":"active","ping":111},{"user_id":275,"name":"Braingoo Hex","steam_id":76561198083094783,"connected_time":2882000000000,"state":"active","ping":116},{"user_id":308,"name":"Bartholomew Avery Bernald Ediso","steam_id":76561198156617970,"connected_time":83000000000,"state":"active","ping":60},{"user_id":303,"name":"the meat man","steam_id":76561198037921140,"connected_time":837000000000,"state":"active","ping":47},{"user_id":181,"name":"rad killl raccoon","steam_id":76561198980975595,"connected_time":8243000000000,"state":"active","ping":74}]},{"server_id":18,"name":"Uncletopia | San Francisco | 2 | All Maps","name_short":"sfo-2","host":"sfo-1.us.uncletopia.com","port":27025,"enabled":true,"region":"us-west","cc":"us","latitude":37.77397,"longitude":-122.4313,"reserved":0,"last_update":"0001-01-01T00:00:00Z","name_a2s":"Uncletopia | San Francisco | 2 | All Maps","protocol":17,"map":"pl_borneo","folder":"tf","game":"Team Fortress","app_id":440,"player_count":19,"max_players":24,"Bots":0,"server_type":"Dedicated","server_os":"Linux","password":true,"vac":true,"version":"7961495","steam_id":85568392924470000,"keywords":["nocrits","nodmgspread","payload","uncletopia"],"game_id":440,"stv_port":27026,"stv_name":"Uncletopia | San Francisco | 2 | All Maps | STV","players":[{"user_id":126,"name":"mini boss","steam_id":76561198062763756,"connected_time":2909000000000,"state":"active","ping":101},{"user_id":93,"name":"Dark_Eagle","steam_id":76561198397908108,"connected_time":4556000000000,"state":"active","ping":93},{"user_id":94,"name":"Spherical Sphere","steam_id":76561198082112737,"connected_time":4549000000000,"state":"active","ping":104},{"user_id":161,"name":"maxer","steam_id":76561198121514123,"connected_time":118000000000,"state":"active","ping":79},{"user_id":152,"name":"Flashlight!","steam_id":76561197979683009,"connected_time":679000000000,"state":"active","ping":67},{"user_id":140,"name":"Artic_Ryuu","steam_id":76561198182194918,"connected_time":1602000000000,"state":"active","ping":53},{"user_id":157,"name":"self sufficient kitten","steam_id":76561197960592612,"connected_time":329000000000,"state":"active","ping":73},{"user_id":156,"name":"Throws Before BrosÛ†Ä°","steam_id":76561197992905530,"connected_time":384000000000,"state":"active","ping":50},{"user_id":153,"name":"kenZino","steam_id":76561197967971192,"connected_time":512000000000,"state":"active","ping":60},{"user_id":102,"name":"Kahuna_","steam_id":76561198081996779,"connected_time":4118000000000,"state":"active","ping":96},{"user_id":146,"name":"Magik","steam_id":76561198099726660,"connected_time":1240000000000,"state":"active","ping":68},{"user_id":158,"name":"‚ù§To Lazy‚ù§","steam_id":76561198164211904,"connected_time":194000000000,"state":"active","ping":70},{"user_id":159,"name":"Flipeecup","steam_id":76561198100007863,"connected_time":177000000000,"state":"active","ping":58},{"user_id":162,"name":"TU2TLE","steam_id":76561198855244888,"connected_time":107000000000,"state":"active","ping":61},{"user_id":151,"name":"Moonshine Man","steam_id":76561198088010073,"connected_time":760000000000,"state":"active","ping":115},{"user_id":150,"name":"Undefinedmaniac","steam_id":76561198034331708,"connected_time":781000000000,"state":"active","ping":84},{"user_id":136,"name":"JawnyMac","steam_id":76561198179529599,"connected_time":2196000000000,"state":"active","ping":56},{"user_id":137,"name":"too funky ·óúÀ¨·óú","steam_id":76561199120399776,"connected_time":2194000000000,"state":"active","ping":118},{"user_id":119,"name":"Sock","steam_id":76561198315420000,"connected_time":3410000000000,"state":"active","ping":93}]},{"server_id":19,"name":"Uncletopia | San Francisco | 3 | Stopwatch","name_short":"sfo-3","host":"sfo-1.us.uncletopia.com","port":27035,"enabled":true,"region":"us-west","cc":"us","latitude":37.77397,"longitude":-122.4313,"reserved":0,"last_update":"0001-01-01T00:00:00Z","name_a2s":"Uncletopia | San Francisco | 3 | Stopwatch","protocol":17,"map":"workshop/koth_bagel_rc6.ugc2514036946","folder":"tf","game":"Team Fortress","app_id":440,"player_count":2,"max_players":24,"Bots":0,"server_type":"Dedicated","server_os":"Linux","password":true,"vac":true,"version":"7961495","steam_id":85568392924742824,"keywords":["cp","nocrits","nodmgspread","uncletopia"],"game_id":440,"stv_port":27036,"stv_name":"Uncletopia | San Francisco | 3 | Stopwatch | STV","players":[{"user_id":6,"name":"Blake","steam_id":76561198884871311,"connected_time":2998000000000,"state":"active","ping":83},{"user_id":7,"name":"NotAToaster","steam_id":76561198349938357,"connected_time":2987000000000,"state":"active","ping":92}]},{"server_id":20,"name":"Uncletopia | San Francisco | 4 | Community","name_short":"sfo-4","host":"sfo-1.us.uncletopia.com","port":27045,"enabled":true,"region":"us-west","cc":"us","latitude":37.77397,"longitude":-122.4313,"reserved":0,"last_update":"0001-01-01T00:00:00Z","name_a2s":"Uncletopia | San Francisco | 4 | Community","protocol":17,"map":"workshop/koth_trenchfoot_ab1.ugc731436616","folder":"tf","game":"Team Fortress","app_id":440,"player_count":0,"max_players":24,"Bots":0,"server_type":"Dedicated","server_os":"Linux","password":true,"vac":true,"version":"7961495","steam_id":85568392924742826,"keywords":["cp","nocrits","nodmgspread","uncletopia"],"game_id":440,"stv_port":27046,"stv_name":"Uncletopia | San Francisco | 4 | Community | STV","players":null},{"server_id":141,"name":"Uncletopia | Sydney | 1 | All Maps","name_short":"syd-1","host":"syd-1.au.uncletopia.com","port":27015,"enabled":true,"region":"au","cc":"au","latitude":-33.865143,"longitude":151.2099,"reserved":0,"last_update":"0001-01-01T00:00:00Z","name_a2s":"Uncletopia | Sydney | 1 | All Maps","protocol":17,"map":"koth_viaduct","folder":"tf","game":"Team Fortress","app_id":440,"player_count":0,"max_players":24,"Bots":0,"server_type":"Dedicated","server_os":"Linux","password":true,"vac":true,"version":"7961495","steam_id":85568392924470001,"keywords":["cp","nocrits","nodmgspread","uncletopia"],"game_id":440,"stv_port":27016,"stv_name":"Uncletopia | Sydney | 1 | All Maps | STV","players":null},{"server_id":123,"name":"Uncletopia | Sydney | 2 | All Maps","name_short":"syd-2","host":"syd-1.au.uncletopia.com","port":27025,"enabled":true,"region":"au","cc":"au","latitude":-33.865143,"longitude":151.2099,"reserved":0,"last_update":"0001-01-01T00:00:00Z","name_a2s":"Uncletopia | Sydney | 2 | All Maps","protocol":17,"map":"koth_lakeside_final","folder":"tf","game":"Team Fortress","app_id":440,"player_count":0,"max_players":24,"Bots":0,"server_type":"Dedicated","server_os":"Linux","password":true,"vac":true,"version":"7961495","steam_id":85568392924470002,"keywords":["cp","nocrits","nodmgspread","uncletopia"],"game_id":440,"stv_port":27026,"stv_name":"Uncletopia | Sydney | 2 | All Maps | STV","players":null},{"server_id":395,"name":"Uncletopia | Sydney | 3 | All Maps","name_short":"syd-3","host":"syd-1.au.uncletopia.com","port":27035,"enabled":true,"region":"au","cc":"au","latitude":-33.865143,"longitude":151.2099,"reserved":0,"last_update":"0001-01-01T00:00:00Z","name_a2s":"Uncletopia | Sydney | 3 | All Maps","protocol":17,"map":"pl_frontier_final","folder":"tf","game":"Team Fortress","app_id":440,"player_count":0,"max_players":24,"Bots":0,"server_type":"Dedicated","server_os":"Linux","password":true,"vac":true,"version":"7961495","steam_id":85568392925194467,"keywords":["nocrits","nodmgspread","payload","uncletopia"],"game_id":440,"stv_port":27036,"stv_name":"Uncletopia | Sydney | 3 | All Maps | STV","players":null},{"server_id":396,"name":"Uncletopia | Sydney | 4 | All Maps","name_short":"syd-4","host":"syd-1.au.uncletopia.com","port":27045,"enabled":true,"region":"au","cc":"au","latitude":-33.865143,"longitude":151.2099,"reserved":0,"last_update":"0001-01-01T00:00:00Z","name_a2s":"Uncletopia | Sydney | 4 | All Maps","protocol":17,"map":"cp_process_final","folder":"tf","game":"Team Fortress","app_id":440,"player_count":0,"max_players":24,"Bots":0,"server_type":"Dedicated","server_os":"Linux","password":true,"vac":true,"version":"7961495","steam_id":85568392925397958,"keywords":["cp","nocrits","nodmgspread","uncletopia"],"game_id":440,"stv_port":27046,"stv_name":"Uncletopia | Sydney | 4 | All Maps | STV","players":null},{"server_id":58,"name":"Uncletopia | Sydney | 5 | Stopwatch","name_short":"syd-5","host":"syd-1.au.uncletopia.com","port":27055,"enabled":true,"region":"au","cc":"au","latitude":-33.865143,"longitude":151.2099,"reserved":0,"last_update":"0001-01-01T00:00:00Z","name_a2s":"Uncletopia | Sydney | 5 | Stopwatch","protocol":17,"map":"pl_frontier_final","folder":"tf","game":"Team Fortress","app_id":440,"player_count":0,"max_players":24,"Bots":0,"server_type":"Dedicated","server_os":"Linux","password":true,"vac":true,"version":"7961495","steam_id":85568392925397959,"keywords":["nocrits","nodmgspread","payload","uncletopia"],"game_id":440,"stv_port":27056,"stv_name":"Uncletopia | Sydney | 5 | Stopwatch | STV","players":null},{"server_id":59,"name":"Uncletopia | Sydney | 6 | Community","name_short":"syd-6","host":"syd-1.au.uncletopia.com","port":27065,"enabled":true,"region":"au","cc":"au","latitude":-33.865143,"longitude":151.2099,"reserved":0,"last_update":"0001-01-01T00:00:00Z","name_a2s":"Uncletopia | Sydney | 6 | Community","protocol":17,"map":"cp_sunshine","folder":"tf","game":"Team Fortress","app_id":440,"player_count":1,"max_players":24,"Bots":0,"server_type":"Dedicated","server_os":"Linux","password":true,"vac":true,"version":"7961495","steam_id":85568392925397960,"keywords":["cp","nocrits","nodmgspread","uncletopia"],"game_id":440,"stv_port":27066,"stv_name":"Uncletopia | Sydney | 6 | Community | STV","players":[{"user_id":3,"name":"Matt VII (7) (seven)","steam_id":76561198065340795,"connected_time":66000000000,"state":"active","ping":50}]},{"server_id":49,"name":"Uncletopia | Warsaw | 1 | One Thousand Uncles","name_short":"waw-1","host":"waw-1.pl.uncletopia.com","port":27015,"enabled":true,"region":"eu","cc":"pl","latitude":52.2297,"longitude":21.017532,"reserved":0,"last_update":"0001-01-01T00:00:00Z","name_a2s":"Uncletopia | Warsaw | 1 | One Thousand Uncles","protocol":17,"map":"koth_highpass","folder":"tf","game":"Team Fortress","app_id":440,"player_count":0,"max_players":32,"Bots":0,"server_type":"Dedicated","server_os":"Linux","password":true,"vac":true,"version":"7961495","steam_id":85568392925397850,"keywords":["alltalk","cp","danepve","increased_maxplayers","nocrits","norespawntime","uncletopia"],"game_id":440,"stv_port":0,"stv_name":"","players":null},{"server_id":50,"name":"Uncletopia | Warsaw | 2 | One Thousand Uncles","name_short":"waw-2","host":"waw-1.pl.uncletopia.com","port":27025,"enabled":true,"region":"eu","cc":"pl","latitude":52.2297,"longitude":21.017532,"reserved":0,"last_update":"0001-01-01T00:00:00Z","name_a2s":"Uncletopia | Warsaw | 2 | One Thousand Uncles","protocol":17,"map":"pl_goldrush","folder":"tf","game":"Team Fortress","app_id":440,"player_count":0,"max_players":32,"Bots":0,"server_type":"Dedicated","server_os":"Linux","password":true,"vac":true,"version":"7961495","steam_id":85568392925397851,"keywords":["alltalk","danepve","increased_maxplayers","nocrits","norespawntime","payload","uncletopia"],"game_id":440,"stv_port":0,"stv_name":"","players":null},{"server_id":51,"name":"Uncletopia | Warsaw | 3 | All Maps","name_short":"waw-3","host":"waw-1.pl.uncletopia.com","port":27035,"enabled":true,"region":"eu","cc":"pl","latitude":52.2297,"longitude":21.017532,"reserved":0,"last_update":"0001-01-01T00:00:00Z","name_a2s":"Uncletopia | Warsaw | 3 | All Maps","protocol":17,"map":"plr_pipeline","folder":"tf","game":"Team Fortress","app_id":440,"player_count":0,"max_players":24,"Bots":0,"server_type":"Dedicated","server_os":"Linux","password":true,"vac":true,"version":"7961495","steam_id":85568392925397852,"keywords":["nocrits","nodmgspread","payload","uncletopia"],"game_id":440,"stv_port":27036,"stv_name":"Uncletopia | Warsaw | 3 | All Maps | STV","players":null},{"server_id":52,"name":"Uncletopia | Warsaw | 4 | All Maps","name_short":"waw-4","host":"waw-1.pl.uncletopia.com","port":27045,"enabled":true,"region":"eu","cc":"pl","latitude":52.2297,"longitude":21.017532,"reserved":0,"last_update":"0001-01-01T00:00:00Z","name_a2s":"Uncletopia | Warsaw | 4 | All Maps","protocol":17,"map":"cp_coldfront","folder":"tf","game":"Team Fortress","app_id":440,"player_count":0,"max_players":24,"Bots":0,"server_type":"Dedicated","server_os":"Linux","password":true,"vac":true,"version":"7961495","steam_id":85568392925397853,"keywords":["cp","nocrits","nodmgspread","uncletopia"],"game_id":440,"stv_port":27046,"stv_name":"Uncletopia | Warsaw | 4 | All Maps | STV","players":null},{"server_id":53,"name":"Uncletopia | Warsaw | 5 | Stopwatch","name_short":"waw-5","host":"waw-1.pl.uncletopia.com","port":27055,"enabled":true,"region":"eu","cc":"pl","latitude":52.2297,"longitude":21.017532,"reserved":0,"last_update":"0001-01-01T00:00:00Z","name_a2s":"Uncletopia | Warsaw | 5 | Stopwatch","protocol":17,"map":"workshop/koth_bagel_rc6.ugc2514036946","folder":"tf","game":"Team Fortress","app_id":440,"player_count":0,"max_players":24,"Bots":0,"server_type":"Dedicated","server_os":"Linux","password":true,"vac":true,"version":"7961495","steam_id":85568392925397854,"keywords":["cp","nocrits","nodmgspread","uncletopia"],"game_id":440,"stv_port":27056,"stv_name":"Uncletopia | Warsaw | 5 | Stopwatch | STV","players":null},{"server_id":54,"name":"Uncletopia | Warsaw | 6 | Community","name_short":"waw-6","host":"waw-1.pl.uncletopia.com","port":27065,"enabled":true,"region":"eu","cc":"pl","latitude":52.2297,"longitude":21.017532,"reserved":0,"last_update":"0001-01-01T00:00:00Z","name_a2s":"Uncletopia | Warsaw | 6 | Community","protocol":17,"map":"workshop/pl_badwater_pro_v12.ugc2142942074","folder":"tf","game":"Team Fortress","app_id":440,"player_count":0,"max_players":24,"Bots":0,"server_type":"Dedicated","server_os":"Linux","password":true,"vac":true,"version":"7961495","steam_id":85568392925397856,"keywords":["nocrits","nodmgspread","payload","uncletopia"],"game_id":440,"stv_port":27066,"stv_name":"Uncletopia | Warsaw | 6 | Community | STV","players":null}]}