{"status":true,"message":"","result":[{"server_id":9,"name":"Uncletopia | Atlanta | 1 | All Maps","name_short":"atl-1","host":"atl-1.us.uncletopia.com","port":27015,"enabled":true,"region":"us-east","cc":"us","latitude":33.753746,"longitude":-84.38633,"reserved":0,"last_update":"0001-01-01T00:00:00Z","name_a2s":"Uncletopia | Atlanta | 1 | All Maps","protocol":17,"map":"pl_upward","folder":"tf","game":"Team Fortress","app_id":440,"player_count":24,"max_players":24,"Bots":0,"server_type":"Dedicated","server_os":"Linux","password":true,"vac":true,"version":"7961495","steam_id":85568392924469982,"keywords":["nocrits","nodmgspread","payload","uncletopia"],"game_id":440,"stv_port":27016,"stv_name":"Uncletopia | Atlanta | 1 | All Maps | STV","players":[{"user_id":295,"name":"why","steam_id":76561199059732212,"connected_time":4527000000000,"state":"active","ping":54},{"user_id":331,"name":"Nephi","steam_id":76561198031525122,"connected_time":353000000000,"state":"active","ping":100},{"user_id":320,"name":"Albino Jellyfish","steam_id":76561198208561097,"connected_time":1444000000000,"state":"active","ping":56},{"user_id":332,"name":"Jim the Fish","steam_id":76561199135784419,"connected_time":143000000000,"state":"active","ping":107},{"user_id":328,"name":"Kiss Master","steam_id":76561198289572271,"connected_time":400000000000,"state":"active","ping":56},{"user_id":324,"name":"tgirl swag","steam_id":76561198128164970,"connected_time":600000000000,"state":"active","ping":97},{"user_id":284,"name":"Sheembs","steam_id":76561199010524390,"connected_time":5496000000000,"state":"active","ping":65},{"user_id":309,"name":"IGOR","steam_id":76561199128786637,"connected_time":3468000000000,"state":"active","ping":93},{"user_id":330,"name":"My brain turned inside out","steam_id":76561198064127012,"connected_time":377000000000,"state":"active","ping":62},{"user_id":269,"name":"Dreszerg","steam_id":76561198838757422,"connected_time":6598000000000,"state":"active","ping":75},{"user_id":312,"name":"Boneless Blithen","steam_id":76561197989955619,"connected_time":3362000000000,"state":"active","ping":127},{"user_id":310,"name":"yes daddy","steam_id":76561198166100997,"connected_time":3406000000000,"state":"active","ping":65},{"user_id":262,"name":"joe","steam_id":76561198045781320,"connected_time":7981000000000,"state":"active","ping":60},{"user_id":315,"name":"com lag","steam_id":76561198019019392,"connected_time":2812000000000,"state":"active","ping":60},{"user_id":303,"name":"Dinosaur","steam_id":76561199079626189,"connected_time":3996000000000,"state":"active","ping":57},{"user_id":254,"name":"Obelisk","steam_id":76561198049416866,"connected_time":9007000000000,"state":"active","ping":55},{"user_id":323,"name":"HarryjusttHarry","steam_id":76561198982810452,"connected_time":606000000000,"state":"active","ping":82},{"user_id":260,"name":"Intro Bonito","steam_id":76561198119478838,"connected_time":7992000000000,"state":"active","ping":51},{"user_id":316,"name":"Heathcliff","steam_id":76561198044288534,"connected_time":2746000000000,"state":"active","ping":75},{"user_id":326,"name":"atl1cyy","steam_id":76561198968001329,"connected_time":542000000000,"state":"active","ping":47},{"user_id":322,"name":"MinimanC","steam_id":76561198071475084,"connected_time":628000000000,"state":"active","ping":84},{"user_id":314,"name":"lu","steam_id":76561198080731872,"connected_time":3171000000000,"state":"active","ping":75},{"user_id":325,"name":"Brown_Dream","steam_id":76561198975766145,"connected_time":593000000000,"state":"active","ping":82},{"user_id":327,"name":"chexo4","steam_id":76561198150532531,"connected_time":540000000000,"state":"active","ping":53}]},{"server_id":104,"name":"Uncletopia | Atlanta | 2 | All Maps","name_short":"atl-2","host":"atl-1.us.uncletopia.com","port":27025,"enabled":true,"region":"us-east","cc":"us","latitude":33.753746,"longitude":-84.38633,"reserved":0,"last_update":"0001-01-01T00:00:00Z","name_a2s":"Uncletopia | Atlanta | 2 | All Maps","protocol":17,"map":"ctf_2fort","folder":"tf","game":"Team Fortress","app_id":440,"player_count":24,"max_players":24,"Bots":0,"server_type":"Dedicated","server_os":"Linux","password":true,"vac":true,"version":"7961495","steam_id":85568392924469983,"keywords":["ctf","nocrits","nodmgspread","uncletopia"],"game_id":440,"stv_port":27026,"stv_name":"Uncletopia | Atlanta | 2 | All Maps | STV","players":[{"user_id":419,"name":"ChebJeb","steam_id":76561198981377081,"connected_time":593000000000,"state":"active","ping":78},{"user_id":397,"name":"Andrew Weber","steam_id":76561199359977174,"connected_time":1102000000000,"state":"active","ping":132},{"user_id":435,"name":"Grand Piano Tuna","steam_id":76561198135137213,"connected_time":231000000000,"state":"active","ping":65},{"user_id":408,"name":"yeetyfreety","steam_id":76561198882735886,"connected_time":853000000000,"state":"active","ping":36},{"user_id":376,"name":"SuperNovaFox","steam_id":76561198052172564,"connected_time":1901000000000,"state":"active","ping":75},{"user_id":423,"name":"Tyler\u0026Fingers","steam_id":76561198085154485,"connected_time":556000000000,"state":"active","ping":85},{"user_id":405,"name":"You Like Being Impregnated, Son","steam_id":76561198415006216,"connected_time":891000000000,"state":"active","ping":78},{"user_id":421,"name":"MylesKilo","steam_id":76561198277622857,"connected_time":563000000000,"state":"active","ping":82},{"user_id":391,"name":"Kirbay","steam_id":76561198050535201,"connected_time":1189000000000,"state":"active","ping":90},{"user_id":422,"name":"Pissless Pissmass Pissman","steam_id":76561198409907417,"connected_time":561000000000,"state":"active","ping":113},{"user_id":432,"name":"Gram Tokers Count Doinkula","steam_id":76561198112811565,"connected_time":371000000000,"state":"active","ping":78},{"user_id":434,"name":"raiden","steam_id":76561198079437495,"connected_time":316000000000,"state":"active","ping":45},{"user_id":426,"name":"nao","steam_id":76561198073982533,"connected_time":500000000000,"state":"active","ping":91},{"user_id":389,"name":"lebron bugleberry","steam_id":76561198060288611,"connected_time":1351000000000,"state":"active","ping":32},{"user_id":430,"name":"Echo","steam_id":76561198072092594,"connected_time":451000000000,"state":"active","ping":51},{"user_id":406,"name":"Buuw","steam_id":76561198085707714,"connected_time":878000000000,"state":"active","ping":116},{"user_id":427,"name":"magnolia","steam_id":76561199228865188,"connected_time":498000000000,"state":"active","ping":60},{"user_id":307,"name":"Simmons","steam_id":76561198024778135,"connected_time":6484000000000,"state":"active","ping":60},{"user_id":360,"name":"tack","steam_id":76561198408477421,"connected_time":3339000000000,"state":"active","ping":72},{"user_id":428,"name":"Shmini Shmeat","steam_id":76561198372514583,"connected_time":482000000000,"state":"active","ping":104},{"user_id":380,"name":"UnkownGamerLOL","steam_id":76561198225902368,"connected_time":1881000000000,"state":"active","ping":86},{"user_id":429,"name":"BeefClapper420","steam_id":76561198080892634,"connected_time":478000000000,"state":"active","ping":84},{"user_id":409,"name":"gerf.","steam_id":76561198811706201,"connected_time":835000000000,"state":"active","ping":44},{"user_id":433,"name":"GL00MZ","steam_id":76561198283785778,"connected_time":357000000000,"state":"active","ping":82}]},{"server_id":400,"name":"Uncletopia | Atlanta | 3 | Stopwatch","name_short":"atl-3","host":"atl-1.us.uncletopia.com","port":27035,"enabled":true,"region":"us-east","cc":"us","latitude":33.753746,"longitude":-84.38633,"reserved":0,"last_update":"0001-01-01T00:00:00Z","name_a2s":"Uncletopia | Atlanta | 3 | Stopwatch","protocol":17,"map":"pl_badwater","folder":"tf","game":"Team Fortress","app_id":440,"player_count":0,"max_players":24,"Bots":0,"server_type":"Dedicated","server_os":"Linux","password":true,"vac":true,"version":"7961495","steam_id":85568392924515187,"keywords":["nocrits","nodmgspread","payload","uncletopia"],"game_id":440,"stv_port":27036,"stv_name":"Uncletopia | Atlanta | 3 | Stopwatch | STV","players":null},{"server_id":401,"name":"Uncletopia | Atlanta | 4 | Community","name_short":"atl-4","host":"atl-1.us.uncletopia.com","port":27045,"enabled":true,"region":"us-east","cc":"us","latitude":33.753746,"longitude":-84.38633,"reserved":0,"last_update":"0001-01-01T00:00:00Z","name_a2s":"Uncletopia | Atlanta | 4 | Community","protocol":17,"map":"workshop/koth_slaughter_rc1.ugc1712845210","folder":"tf","game":"Team Fortress","app_id":440,"player_count":0,"max_players":24,"Bots":0,"server_type":"Dedicated","server_os":"Linux","password":true,"vac":true,"version":"7961495","steam_id":85568392924515188,"keywords":["cp","nocrits","nodmgspread","uncletopia"],"game_id":440,"stv_port":27046,"stv_name":"Uncletopia | Atlanta | 4 | Community | STV","players":null},{"server_id":2,"name":"Uncletopia | Chicago | 1 | All Maps","name_short":"chi-1","host":"chi-1.us.uncletopia.com","port":27015,"enabled":true,"region":"us-central","cc":"us","latitude":41.881832,"longitude":-87.62318,"reserved":0,"last_update":"0001-01-01T00:00:00Z","name_a2s":"Uncletopia | Chicago | 1 | All Maps","protocol":17,"map":"cp_process_final","folder":"tf","game":"Team Fortress","app_id":440,"player_count":24,"max_players":24,"Bots":0,"server_type":"Dedicated","server_os":"Linux","password":true,"vac":true,"version":"7961495","steam_id":85568392924469984,"keywords":["cp","nocrits","nodmgspread","uncletopia"],"game_id":440,"stv_port":27016,"stv_name":"Uncletopia | Chicago | 1 | All Maps | STV","players":[{"user_id":424,"name":"cat aesthetics","steam_id":76561199062437546,"connected_time":1179000000000,"state":"active","ping":150},{"user_id":309,"name":"ThatGamingKiwi","steam_id":76561199170522237,"connected_time":10730000000000,"state":"active","ping":77},{"user_id":428,"name":"eduard","steam_id":76561198136550093,"connected_time":972000000000,"state":"active","ping":61},{"user_id":380,"name":"incredirocks","steam_id":76561198061079993,"connected_time":4208000000000,"state":"active","ping":45},{"user_id":382,"name":"Jerry Bondle","steam_id":76561198337512213,"connected_time":3409000000000,"state":"active","ping":66},{"user_id":312,"name":"LF egirl mommy rp","steam_id":76561198274742715,"connected_time":10235000000000,"state":"active","ping":59},{"user_id":421,"name":"Resistance","steam_id":76561198146782074,"connected_time":1427000000000,"state":"active","ping":53},{"user_id":403,"name":"menonamed","steam_id":76561198199564382,"connected_time":2663000000000,"state":"active","ping":68},{"user_id":420,"name":"Filthy Acts at Reasonable Price","steam_id":76561198354615890,"connected_time":1432000000000,"state":"active","ping":91},{"user_id":417,"name":"5phunky_","steam_id":76561198045290207,"connected_time":1755000000000,"state":"active","ping":61},{"user_id":422,"name":"Furious George","steam_id":76561198405111646,"connected_time":1403000000000,"state":"active","ping":98},{"user_id":385,"name":"jan kili","steam_id":76561198289894834,"connected_time":3362000000000,"state":"active","ping":65},{"user_id":418,"name":"Garfield","steam_id":76561198147300599,"connected_time":1652000000000,"state":"active","ping":61},{"user_id":427,"name":"green_cumulon","steam_id":76561198041017977,"connected_time":1012000000000,"state":"active","ping":69},{"user_id":434,"name":"FattSucc","steam_id":76561198009500503,"connected_time":474000000000,"state":"active","ping":93},{"user_id":438,"name":"Yam Jazzy Jim","steam_id":76561198000788950,"connected_time":286000000000,"state":"active","ping":69},{"user_id":423,"name":"tiquortoo","steam_id":76561198073018394,"connected_time":1378000000000,"state":"active","ping":69},{"user_id":435,"name":"THORNFIELDGAMER","steam_id":76561199087167473,"connected_time":356000000000,"state":"active","ping":89},{"user_id":431,"name":"pim","steam_id":76561198095163441,"connected_time":841000000000,"state":"active","ping":67},{"user_id":436,"name":"‚ôÇ boss of this gym ‚ôÇ","steam_id":76561198027102212,"connected_time":311000000000,"state":"active","ping":74},{"user_id":407,"name":"Swag Messiah","steam_id":76561198400058665,"connected_time":2631000000000,"state":"active","ping":84},{"user_id":432,"name":"Sky Tree","steam_id":76561198027103242,"connected_time":797000000000,"state":"active","ping":49},{"user_id":437,"name":"Laventhey","steam_id":76561198977523626,"connected_time":307000000000,"state":"active","ping":67},{"user_id":393,"name":"rosepunk","steam_id":76561198280093539,"connected_time":3167000000000,"state":"active","ping":52}]},{"server_id":106,"name":"Uncletopia | Chicago | 2 | All Maps","name_short":"chi-2","host":"chi-1.us.uncletopia.com","port":27025,"enabled":true,"region":"us-central","cc":"us","latitude":41.881832,"longitude":-87.62318,"reserved":0,"last_update":"0001-01-01T00:00:00Z","name_a2s":"Uncletopia | Chicago | 2 | All Maps","protocol":17,"map":"koth_highpass","folder":"tf","game":"Team Fortress","app_id":440,"player_count":24,"max_players":24,"Bots":0,"server_type":"Dedicated","server_os":"Linux","password":true,"vac":true,"version":"7961495","steam_id":85568392924469985,"keywords":["cp","nocrits","nodmgspread","uncletopia"],"game_id":440,"stv_port":27026,"stv_name":"Uncletopia | Chicago | 2 | All Maps | STV","players":[{"user_id":273,"name":"carrot cake","steam_id":76561198055174915,"connected_time":414000000000,"state":"active","ping":61},{"user_id":250,"name":"cooper","steam_id":76561198272034065,"connected_time":2198000000000,"state":"active","ping":85},{"user_id":274,"name":"jimmz","steam_id":76561199076776118,"connected_time":404000000000,"state":"active","ping":55},{"user_id":174,"name":"oppenheimer style","steam_id":76561198026664629,"connected_time":6893000000000,"state":"active","ping":50},{"user_id":258,"name":"Human Topicality Violation","steam_id":76561197991710942,"connected_time":1466000000000,"state":"active","ping":83},{"user_id":272,"name":"playguy carter","steam_id":76561198080679337,"connected_time":567000000000,"state":"active","ping":61},{"user_id":277,"name":"Romo","steam_id":76561198243101572,"connected_time":309000000000,"state":"active","ping":80},{"user_id":275,"name":"The Hose on Upward","steam_id":76561197965092192,"connected_time":396000000000,"state":"active","ping":81},{"user_id":263,"name":"Slip","steam_id":76561199057232579,"connected_time":838000000000,"state":"active","ping":57},{"user_id":227,"name":"sora","steam_id":76561198094256973,"connected_time":3956000000000,"state":"active","ping":101},{"user_id":265,"name":"Major Mario","steam_id":76561198010518300,"connected_time":834000000000,"state":"active","ping":59},{"user_id":276,"name":"HalfDead","steam_id":76561198049700226,"connected_time":335000000000,"state":"active","ping":84},{"user_id":264,"name":"paper mousepad gaming","steam_id":76561198315692300,"connected_time":838000000000,"state":"active","ping":45},{"user_id":244,"name":"bingus","steam_id":76561198110046630,"connected_time":2281000000000,"state":"active","ping":56},{"user_id":269,"name":"beeblebobble","steam_id":76561198305560736,"connected_time":603000000000,"state":"active","ping":66},{"user_id":252,"name":"Fatpoob","steam_id":76561198056730096,"connected_time":2116000000000,"state":"active","ping":56},{"user_id":278,"name":"Renota","steam_id":76561198058224488,"connected_time":290000000000,"state":"active","ping":67},{"user_id":254,"name":"Piss Man","steam_id":76561199446367874,"connected_time":2029000000000,"state":"active","ping":47},{"user_id":268,"name":"oatmeal enthusiast","steam_id":76561198062763756,"connected_time":699000000000,"state":"active","ping":53},{"user_id":267,"name":"Lost","steam_id":76561198025933206,"connected_time":778000000000,"state":"active","ping":59},{"user_id":256,"name":"HemoTox","steam_id":76561197999713466,"connected_time":1684000000000,"state":"active","ping":68},{"user_id":279,"name":"Remix.SMG","steam_id":76561198052895933,"connected_time":46000000000,"state":"active","ping":75},{"user_id":280,"name":"ATL69 | weewa","steam_id":76561198064876090,"connected_time":39000000000,"state":"active","ping":73},{"user_id":246,"name":"Captain Bug","steam_id":76561198137763878,"connected_time":2263000000000,"state":"active","ping":84}]},{"server_id":402,"name":"Uncletopia | Chicago | 3 | All Maps","name_short":"chi-3","host":"chi-1.us.uncletopia.com","port":27035,"enabled":true,"region":"us-central","cc":"us","latitude":41.881832,"longitude":-87.62318,"reserved":0,"last_update":"0001-01-01T00:00:00Z","name_a2s":"Uncletopia | Chicago | 3 | All Maps","protocol":17,"map":"ctf_2fort","folder":"tf","game":"Team Fortress","app_id":440,"player_count":0,"max_players":24,"Bots":0,"server_type":"Dedicated","server_os":"Linux","password":true,"vac":true,"version":"7961495","steam_id":85568392924515191,"keywords":["ctf","nocrits","nodmgspread","uncletopia"],"game_id":440,"stv_port":27036,"stv_name":"Uncletopia | Chicago | 3 | All Maps | STV","players":null},{"server_id":403,"name":"Uncletopia | Chicago | 4 | All Maps","name_short":"chi-4","host":"chi-1.us.uncletopia.com","port":27045,"enabled":true,"region":"us-central","cc":"us","latitude":41.881832,"longitude":-87.62318,"reserved":0,"last_update":"0001-01-01T00:00:00Z","name_a2s":"Uncletopia | Chicago | 4 | All Maps","protocol":17,"map":"ctf_2fort","folder":"tf","game":"Team Fortress","app_id":440,"player_count":0,"max_players":24,"Bots":0,"server_type":"Dedicated","server_os":"Linux","password":true,"vac":true,"version":"7961495","steam_id":85568392924515193,"keywords":["ctf","nocrits","nodmgspread","uncletopia"],"game_id":440,"stv_port":27046,"stv_name":"Uncletopia | Chicago | 4 | All Maps | STV","players":null},{"server_id":36,"name":"Uncletopia | Chicago | 5 | All Maps","name_short":"chi-5","host":"chi-2.us.uncletopia.com","port":27015,"enabled":true,"region":"us-central","cc":"us","latitude":41.881832,"longitude":-87.62318,"reserved":0,"last_update":"0001-01-01T00:00:00Z","name_a2s":"Uncletopia | Chicago | 5 | All Maps","protocol":17,"map":"ctf_2fort","folder":"tf","game":"Team Fortress","app_id":440,"player_count":0,"max_players":24,"Bots":0,"server_type":"Dedicated","server_os":"Linux","password":true,"vac":true,"version":"7961495","steam_id":85568392924866362,"keywords":["ctf","nocrits","nodmgspread","uncletopia"],"game_id":440,"stv_port":27016,"stv_name":"Uncletopia | Chicago | 5 | All Maps | STV","players":null},{"server_id":37,"name":"Uncletopia | Chicago | 6 | All Maps","name_short":"chi-6","host":"chi-2.us.uncletopia.com","port":27025,"enabled":true,"region":"us-central","cc":"us","latitude":41.881832,"longitude":-87.62318,"reserved":0,"last_update":"0001-01-01T00:00:00Z","name_a2s":"Uncletopia | Chicago | 6 | All Maps","protocol":17,"map":"ctf_2fort","folder":"tf","game":"Team Fortress","app_id":440,"player_count":0,"max_players":24,"Bots":0,"server_type":"Dedicated","server_os":"Linux","password":true,"vac":true,"version":"7961495","steam_id":85568392924866363,"keywords":["ctf","nocrits","nodmgspread","uncletopia"],"game_id":440,"stv_port":27026,"stv_name":"Uncletopia | Chicago | 6 | All Maps | STV","players":null},{"server_id":38,"name":"Uncletopia | Chicago | 7 | Stopwatch","name_short":"chi-7","host":"chi-2.us.uncletopia.com","port":27035,"enabled":true,"region":"us-central","cc":"us","latitude":41.881832,"longitude":-87.62318,"reserved":0,"last_update":"0001-01-01T00:00:00Z","name_a2s":"Uncletopia | Chicago | 7 | Stopwatch","protocol":17,"map":"workshop/pl_vigil_rc10.ugc1266210012","folder":"tf","game":"Team Fortress","app_id":440,"player_count":24,"max_players":24,"Bots":0,"server_type":"Dedicated","server_os":"Linux","password":true,"vac":true,"version":"7961495","steam_id":85568392924866364,"keywords":["nocrits","nodmgspread","payload","uncletopia"],"game_id":440,"stv_port":27036,"stv_name":"Uncletopia | Chicago | 7 | Stopwatch | STV","players":[{"user_id":68,"name":"Mr. Noodle","steam_id":76561198037803087,"connected_time":2194000000000,"state":"active","ping":70},{"user_id":51,"name":"bird who can't aim","steam_id":76561198062360755,"connected_time":3578000000000,"state":"active","ping":53},{"user_id":11,"name":"Bean King","steam_id":76561198393621940,"connected_time":6425000000000,"state":"active","ping":60},{"user_id":12,"name":"Amish Water","steam_id":76561198873438919,"connected_time":6326000000000,"state":"active","ping":72},{"user_id":85,"name":"CrŒªf227","steam_id":76561198196211121,"connected_time":569000000000,"state":"active","ping":88},{"user_id":71,"name":"fazaness","steam_id":76561198851525394,"connected_time":2167000000000,"state":"active","ping":88},{"user_id":88,"name":"Looka","steam_id":76561199048565831,"connected_time":155000000000,"state":"active","ping":118},{"user_id":61,"name":"SUM_TING_WONG","steam_id":76561198351938341,"connected_time":2675000000000,"state":"active","ping":55},{"user_id":87,"name":"floofy","steam_id":76561198389769098,"connected_time":223000000000,"state":"active","ping":79},{"user_id":90,"name":"SPF420","steam_id":76561198083991705,"connected_time":27000000000,"state":"active","ping":82},{"user_id":81,"name":"Puff n Pass","steam_id":76561199145480787,"connected_time":725000000000,"state":"active","ping":75},{"user_id":89,"name":"Brastion","steam_id":76561198257707303,"connected_time":98000000000,"state":"active","ping":85},{"user_id":74,"name":"Kirb Says Poyo","steam_id":76561198212823547,"connected_time":1922000000000,"state":"active","ping":114},{"user_id":86,"name":"spider","steam_id":76561198130032444,"connected_time":243000000000,"state":"active","ping":103},{"user_id":80,"name":"Cy4nideCutie\u003c3","steam_id":76561198126686695,"connected_time":734000000000,"state":"active","ping":53},{"user_id":83,"name":"LikeASir","steam_id":76561198042209721,"connected_time":681000000000,"state":"active","ping":47},{"user_id":76,"name":"booze cruiser","steam_id":76561198203395648,"connected_time":1300000000000,"state":"active","ping":76},{"user_id":29,"name":"Business Burd","steam_id":76561198113230725,"connected_time":4959000000000,"state":"active","ping":86},{"user_id":59,"name":"who is gavin?","steam_id":76561198069415057,"connected_time":2810000000000,"state":"active","ping":63},{"user_id":84,"name":"YOU WHAT?!","steam_id":76561198418679471,"connected_time":612000000000,"state":"active","ping":62},{"user_id":65,"name":"pootis pensa here","steam_id":76561198998714334,"connected_time":2632000000000,"state":"active","ping":62},{"user_id":53,"name":"I am a mooshroom","steam_id":76561198104198295,"connected_time":3268000000000,"state":"active","ping":84},{"user_id":39,"name":"Chrisjongun","steam_id":76561198331685904,"connected_time":4811000000000,"state":"active","ping":73},{"user_id":70,"name":"elcarlos1010","steam_id":76561198201986832,"connected_time":2176000000000,"state":"active","ping":82}]},{"server_id":39,"name":"Uncletopia | Chicago | 8 | Community","name_short":"chi-8","host":"chi-2.us.uncletopia.com","port":27045,"enabled":true,"region":"us-central","cc":"us","latitude":41.881832,"longitude":-87.62318,"reserved":0,"last_update":"0001-01-01T00:00:00Z","name_a2s":"Uncletopia | Chicago | 8 | Community","protocol":17,"map":"pl_pier","folder":"tf","game":"Team Fortress","app_id":440,"player_count":0,"max_players":24,"Bots":0,"server_type":"Dedicated","server_os":"Linux","password":true,"vac":true,"version":"7961495","steam_id":85568392924866365,"keywords":["nocrits","nodmgspread","payload","uncletopia"],"game_id":440,"stv_port":27046,"stv_name":"Uncletopia | Chicago | 8 | Community | STV","players":null},{"server_id":8,"name":"Uncletopia | Dallas | 1 | All Maps","name_short":"dal-1","host":"dal-1.us.uncletopia.com","port":27015,"enabled":true,"region":"us-central","cc":"us","latitude":32.779167,"longitude":-96.80889,"reserved":0,"last_update":"0001-01-01T00:00:00Z","name_a2s":"Uncletopia | Dallas | 1 | All Maps","protocol":17,"map":"koth_highpass","folder":"tf","game":"Team Fortress","app_id":440,"player_count":1,"max_players":24,"Bots":0,"server_type":"Dedicated","server_os":"Linux","password":true,"vac":true,"version":"7961495","steam_id":85568392924469986,"keywords":["cp","nocrits","nodmgspread","uncletopia"],"game_id":440,"stv_port":27016,"stv_name":"Uncletopia | Dallas | 1 | All Maps | STV","players":[{"user_id":16,"name":"Jefferton","steam_id":76561198406216568,"connected_time":656000000000,"state":"active","ping":61}]},{"server_id":108,"name":"Uncletopia | Dallas | 2 | All Maps","name_short":"dal-2","host":"dal-1.us.uncletopia.com","port":27025,"enabled":true,"region":"us-central","cc":"us","latitude":32.779167,"longitude":-96.80889,"reserved":0,"last_update":"0001-01-01T00:00:00Z","name_a2s":"Uncletopia | Dallas | 2 | All Maps","protocol":17,"map":"ctf_2fort","folder":"tf","game":"Team Fortress","app_id":440,"player_count":0,"max_players":24,"Bots":0,"server_type":"Dedicated","server_os":"Linux","password":true,"vac":true,"version":"7961495","steam_id":85568392924469988,"keywords":["ctf","nocrits","nodmgspread","uncletopia"],"game_id":440,"stv_port":27026,"stv_name":"Uncletopia | Dallas | 2 | All Maps | STV","players":null},{"server_id":404,"name":"Uncletopia | Dallas | 3 | All Maps","name_short":"dal-3","host":"dal-1.us.uncletopia.com","port":27035,"enabled":true,"region":"us-central","cc":"us","latitude":32.779167,"longitude":-96.80889,"reserved":0,"last_update":"0001-01-01T00:00:00Z","name_a2s":"Uncletopia | Dallas | 3 | All Maps","protocol":17,"map":"ctf_2fort","folder":"tf","game":"Team Fortress","app_id":440,"player_count":0,"max_players":24,"Bots":0,"server_type":"Dedicated","server_os":"Linux","password":true,"vac":true,"version":"7961495","steam_id":85568392924515219,"keywords":["ctf","nocrits","nodmgspread","uncletopia"],"game_id":440,"stv_port":27036,"stv_name":"Uncletopia | Dallas | 3 | All Maps | STV","players":null},{"server_id":405,"name":"Uncletopia | Dallas | 4 | Community","name_short":"dal-4","host":"dal-1.us.uncletopia.com","port":27045,"enabled":true,"region":"us-central","cc":"us","latitude":32.779167,"longitude":-96.80889,"reserved":0,"last_update":"0001-01-01T00:00:00Z","name_a2s":"Uncletopia | Dallas | 4 | Community","protocol":17,"map":"pl_pier","folder":"tf","game":"Team Fortress","app_id":440,"player_count":0,"max_players":24,"Bots":0,"server_type":"Dedicated","server_os":"Linux","password":true,"vac":true,"version":"7961495","steam_id":85568392924515220,"keywords":["nocrits","nodmgspread","payload","uncletopia"],"game_id":440,"stv_port":27046,"stv_name":"Uncletopia | Dallas | 4 | Community | STV","players":null},{"server_id":5,"name":"Uncletopia | Frankfurt | 1 | All Maps","name_short":"frk-1","host":"frk-1.de.uncletopia.com","port":27015,"enabled":true,"region":"eu","cc":"de","latitude":50.110924,"longitude":8.682127,"reserved":0,"last_update":"0001-01-01T00:00:00Z","name_a2s":"Uncletopia | Frankfurt | 1 | All Maps","protocol":17,"map":"cp_dustbowl","folder":"tf","game":"Team Fortress","app_id":440,"player_count":24,"max_players":24,"Bots":0,"server_type":"Dedicated","server_os":"Linux","password":true,"vac":true,"version":"7961495","steam_id":85568392924469989,"keywords":["cp","nocrits","nodmgspread","uncletopia"],"game_id":440,"stv_port":27016,"stv_name":"Uncletopia | Frankfurt | 1 | All Maps | STV","players":[{"user_id":260,"name":"Wild_Xray26","steam_id":76561198059386050,"connected_time":256000000000,"state":"active","ping":72},{"user_id":233,"name":"jerry (:","steam_id":76561198205668108,"connected_time":1639000000000,"state":"active","ping":49},{"user_id":204,"name":"clozz","steam_id":76561198135315083,"connected_time":3240000000000,"state":"active","ping":86},{"user_id":215,"name":"Kardiol","steam_id":76561198122344852,"connected_time":2607000000000,"state":"active","ping":49},{"user_id":252,"name":"glunker","steam_id":76561197982523508,"connected_time":674000000000,"state":"active","ping":110},{"user_id":212,"name":"Roco","steam_id":76561198179719681,"connected_time":2628000000000,"state":"active","ping":63},{"user_id":193,"name":"Margarito_snake","steam_id":76561198132001394,"connected_time":3996000000000,"state":"active","ping":118},{"user_id":251,"name":"jjvthou(NOtdRuNkMeswEaRss)","steam_id":76561199403071554,"connected_time":709000000000,"state":"active","ping":156},{"user_id":234,"name":"gaming (official)","steam_id":76561198106012909,"connected_time":1632000000000,"state":"active","ping":70},{"user_id":256,"name":"Five Finger Discount","steam_id":76561197994556857,"connected_time":545000000000,"state":"active","ping":57},{"user_id":238,"name":"dick cheese enjoyer","steam_id":76561198077421906,"connected_time":1582000000000,"state":"active","ping":53},{"user_id":228,"name":"LeGerooo","steam_id":76561199110422160,"connected_time":1816000000000,"state":"active","ping":90},{"user_id":258,"name":"üöΩKorfJobüöΩ","steam_id":76561198212932833,"connected_time":480000000000,"state":"active","ping":98},{"user_id":253,"name":"Qdarks","steam_id":76561198013391340,"connected_time":650000000000,"state":"active","ping":138},{"user_id":244,"name":"booba","steam_id":76561198158018284,"connected_time":1222000000000,"state":"active","ping":55},{"user_id":254,"name":"toyeca","steam_id":76561198114908231,"connected_time":612000000000,"state":"active","ping":61},{"user_id":197,"name":"powej","steam_id":76561198056381418,"connected_time":3877000000000,"state":"active","ping":44},{"user_id":255,"name":"Chambersite","steam_id":76561198197022399,"connected_time":586000000000,"state":"active","ping":68},{"user_id":210,"name":"BOOM!","steam_id":76561198424346759,"connected_time":2786000000000,"state":"active","ping":54},{"user_id":220,"name":"Paste","steam_id":76561198139275322,"connected_time":2549000000000,"state":"active","ping":69},{"user_id":224,"name":"rajAs","steam_id":76561198035928111,"connected_time":2438000000000,"state":"active","ping":83},{"user_id":247,"name":"Hildreth","steam_id":76561197995254867,"connected_time":951000000000,"state":"active","ping":50},{"user_id":259,"name":"TrashVerN","steam_id":76561197977444051,"connected_time":278000000000,"state":"active","ping":64},{"user_id":245,"name":"dont K*LL john oliver","steam_id":76561198015918787,"connected_time":1174000000000,"state":"active","ping":65}]},{"server_id":110,"name":"Uncletopia | Frankfurt | 2 | All Maps","name_short":"frk-2","host":"frk-1.de.uncletopia.com","port":27025,"enabled":true,"region":"eu","cc":"de","latitude":50.110924,"longitude":8.682127,"reserved":0,"last_update":"0001-01-01T00:00:00Z","name_a2s":"Uncletopia | Frankfurt | 2 | All Maps","protocol":17,"map":"koth_cascade","folder":"tf","game":"Team Fortress","app_id":440,"player_count":24,"max_players":24,"Bots":0,"server_type":"Dedicated","server_os":"Linux","password":true,"vac":true,"version":"7961495","steam_id":85568392924469990,"keywords":["cp","nocrits","nodmgspread","uncletopia"],"game_id":440,"stv_port":27026,"stv_name":"Uncletopia | Frankfurt | 2 | All Maps | STV","players":[{"user_id":589,"name":"Mati [EST]","steam_id":76561197994743813,"connected_time":3714000000000,"state":"active","ping":91},{"user_id":582,"name":"Ralistix","steam_id":76561198051654135,"connected_time":4624000000000,"state":"active","ping":87},{"user_id":636,"name":"rts","steam_id":76561199090876980,"connected_time":1206000000000,"state":"active","ping":87},{"user_id":640,"name":"slay","steam_id":76561199437246146,"connected_time":1041000000000,"state":"active","ping":76},{"user_id":623,"name":"CreepyYellowDuck","steam_id":76561198000479387,"connected_time":1865000000000,"state":"active","ping":46},{"user_id":646,"name":"james_bondage","steam_id":76561199476062624,"connected_time":599000000000,"state":"active","ping":160},{"user_id":631,"name":"Sentient Toaster","steam_id":76561198168958712,"connected_time":1533000000000,"state":"active","ping":60},{"user_id":594,"name":"TSx* Osa__PL","steam_id":76561198027016799,"connected_time":3616000000000,"state":"active","ping":63},{"user_id":619,"name":"TSx* EmperoT","steam_id":76561198018656942,"connected_time":2197000000000,"state":"active","ping":81},{"user_id":637,"name":"Larry Penus","steam_id":76561198207546233,"connected_time":1205000000000,"state":"active","ping":55},{"user_id":595,"name":"Borlor","steam_id":76561198206059604,"connected_time":3607000000000,"state":"active","ping":59},{"user_id":585,"name":"Hukka","steam_id":76561198035505355,"connected_time":4578000000000,"state":"active","ping":107},{"user_id":625,"name":"HRTV","steam_id":76561198978457123,"connected_time":1833000000000,"state":"active","ping":66},{"user_id":627,"name":"elkku26","steam_id":76561198982055716,"connected_time":1799000000000,"state":"active","ping":76},{"user_id":641,"name":"Swedde","steam_id":76561198297296440,"connected_time":1015000000000,"state":"active","ping":83},{"user_id":642,"name":"Yrj√∂ Koskinen Yrj√∂-Koskinen","steam_id":76561198368181145,"connected_time":1012000000000,"state":"active","ping":87},{"user_id":599,"name":"TSx* Naxer","steam_id":76561198011986779,"connected_time":3584000000000,"state":"active","ping":61},{"user_id":604,"name":"mr.resetti","steam_id":76561198974520642,"connected_time":3477000000000,"state":"active","ping":62},{"user_id":645,"name":"SantiTzePug","steam_id":76561199049615996,"connected_time":886000000000,"state":"active","ping":80},{"user_id":644,"name":"Waltism","steam_id":76561199447676489,"connected_time":970000000000,"state":"active","ping":73},{"user_id":533,"name":"Berdly","steam_id":76561199029872533,"connected_time":7710000000000,"state":"active","ping":60},{"user_id":638,"name":"KingPotatoChips","steam_id":76561198035156465,"connected_time":1200000000000,"state":"active","ping":63},{"user_id":622,"name":"red sun in the sky","steam_id":76561198011808176,"connected_time":1966000000000,"state":"active","ping":103},{"user_id":581,"name":"Sn1Ch","steam_id":76561198073076943,"connected_time":4655000000000,"state":"active","ping":87}]},{"server_id":308,"name":"Uncletopia | Frankfurt | 3 | All Maps","name_short":"frk-3","host":"frk-1.de.uncletopia.com","port":27035,"enabled":true,"region":"eu","cc":"de","latitude":50.110924,"longitude":8.682127,"reserved":0,"last_update":"0001-01-01T00:00:00Z","name_a2s":"Uncletopia | Frankfurt | 3 | All Maps","protocol":17,"map":"pl_barnblitz","folder":"tf","game":"Team Fortress","app_id":440,"player_count":24,"max_players":24,"Bots":0,"server_type":"Dedicated","server_os":"Linux","password":true,"vac":true,"version":"7961495","steam_id":85568392924504274,"keywords":["nocrits","nodmgspread","payload","uncletopia"],"game_id":440,"stv_port":27036,"stv_name":"Uncletopia | Frankfurt | 3 | All Maps | STV","players":[{"user_id":296,"name":"NitPig","steam_id":76561198212991935,"connected_time":1919000000000,"state":"active","ping":107},{"user_id":313,"name":"Pats (Gifted items Collector)","steam_id":76561198418538887,"connected_time":371000000000,"state":"active","ping":87},{"user_id":314,"name":"Cosmic Gamer","steam_id":76561198027357981,"connected_time":294000000000,"state":"active","ping":96},{"user_id":315,"name":"Cortez -A-","steam_id":76561198064000348,"connected_time":229000000000,"state":"active","ping":82},{"user_id":298,"name":"Endi","steam_id":76561198914938199,"connected_time":1895000000000,"state":"active","ping":88},{"user_id":297,"name":"ziong xina","steam_id":76561198059933595,"connected_time":1918000000000,"state":"active","ping":76},{"user_id":272,"name":"hyvakii705","steam_id":76561198086630552,"connected_time":2945000000000,"state":"active","ping":90},{"user_id":316,"name":"AsianPersuasion","steam_id":76561198202112536,"connected_time":228000000000,"state":"active","ping":73},{"user_id":299,"name":"You're Mother","steam_id":76561198032359132,"connected_time":1891000000000,"state":"active","ping":60},{"user_id":249,"name":"Real (Real)","steam_id":76561198323425034,"connected_time":4376000000000,"state":"active","ping":74},{"user_id":322,"name":"Kolodziej","steam_id":76561198088672385,"connected_time":92000000000,"state":"active","ping":69},{"user_id":317,"name":"Snowmotion","steam_id":76561198075022454,"connected_time":226000000000,"state":"active","ping":62},{"user_id":256,"name":"meirfa","steam_id":76561198157193506,"connected_time":3954000000000,"state":"active","ping":117},{"user_id":128,"name":"rob","steam_id":76561198122211848,"connected_time":12516000000000,"state":"active","ping":90},{"user_id":318,"name":"Average Chinese Man","steam_id":76561199076883472,"connected_time":219000000000,"state":"active","ping":77},{"user_id":257,"name":"DEFENDOR62","steam_id":76561199386703896,"connected_time":3862000000000,"state":"active","ping":66},{"user_id":310,"name":"peku","steam_id":76561198082074666,"connected_time":710000000000,"state":"active","ping":75},{"user_id":307,"name":"REN","steam_id":76561198000596385,"connected_time":1179000000000,"state":"active","ping":62},{"user_id":323,"name":"Jojczak","steam_id":76561198134750964,"connected_time":25000000000,"state":"active","ping":92},{"user_id":319,"name":"lulu","steam_id":76561199147764133,"connected_time":200000000000,"state":"active","ping":77},{"user_id":320,"name":"Erenom","steam_id":76561199017383513,"connected_time":179000000000,"state":"active","ping":94},{"user_id":321,"name":"Haha?","steam_id":76561198056882245,"connected_time":176000000000,"state":"active","ping":54},{"user_id":300,"name":"salatkas","steam_id":76561198033237090,"connected_time":1887000000000,"state":"active","ping":45},{"user_id":304,"name":"_Starlight_","steam_id":76561197993885738,"connected_time":1650000000000,"state":"active","ping":84}]},{"server_id":309,"name":"Uncletopia | Frankfurt | 4 | All Maps","name_short":"frk-4","host":"frk-1.de.uncletopia.com","port":27045,"enabled":true,"region":"eu","cc":"de","latitude":50.110924,"longitude":8.682127,"reserved":0,"last_update":"0001-01-01T00:00:00Z","name_a2s":"Uncletopia | Frankfurt | 4 | All Maps","protocol":17,"map":"pl_barnblitz","folder":"tf","game":"Team Fortress","app_id":440,"player_count":24,"max_players":24,"Bots":0,"server_type":"Dedicated","server_os":"Linux","password":true,"vac":true,"version":"7961495","steam_id":85568392924504275,"keywords":["nocrits","nodmgspread","payload","uncletopia"],"game_id":440,"stv_port":27046,"stv_name":"Uncletopia | Frankfurt | 4 | All Maps | STV","players":[{"user_id":446,"name":"zinzyk","steam_id":76561198128011822,"connected_time":4378000000000,"state":"active","ping":53},{"user_id":311,"name":"CzechMate #SaveTF2","steam_id":76561198012687703,"connected_time":12947000000000,"state":"active","ping":45},{"user_id":482,"name":"doomer","steam_id":76561198977420882,"connected_time":423000000000,"state":"active","ping":47},{"user_id":438,"name":"Gigachad Supreme","steam_id":76561198137354428,"connected_time":4591000000000,"state":"active","ping":54},{"user_id":480,"name":"George Weightaton","steam_id":76561198173218318,"connected_time":471000000000,"state":"active","ping":55},{"user_id":491,"name":"juni","steam_id":76561198036504214,"connected_time":85000000000,"state":"active","ping":46},{"user_id":464,"name":"The Hat Fancier","steam_id":76561198004272825,"connected_time":2652000000000,"state":"active","ping":59},{"user_id":477,"name":"Vershal Smershal","steam_id":76561198116223995,"connected_time":648000000000,"state":"active","ping":60},{"user_id":259,"name":"Gaxkang","steam_id":76561198125768571,"connected_time":16892000000000,"state":"active","ping":70},{"user_id":483,"name":"BurningJoke","steam_id":76561199014358707,"connected_time":419000000000,"state":"active","ping":52},{"user_id":470,"name":"shoras","steam_id":76561198019680159,"connected_time":1558000000000,"state":"active","ping":87},{"user_id":454,"name":"Jesus","steam_id":76561198055998828,"connected_time":3759000000000,"state":"active","ping":59},{"user_id":479,"name":"Subterranean","steam_id":76561198106684566,"connected_time":576000000000,"state":"active","ping":75},{"user_id":462,"name":"‚ò∏Koala99‚ò∏","steam_id":76561198375591154,"connected_time":2860000000000,"state":"active","ping":45},{"user_id":492,"name":"Jackpool100","steam_id":76561198262241836,"connected_time":52000000000,"state":"active","ping":36},{"user_id":484,"name":"MELON USK","steam_id":76561198132788284,"connected_time":414000000000,"state":"active","ping":68},{"user_id":478,"name":"Durin sein Vater","steam_id":76561198021246713,"connected_time":640000000000,"state":"active","ping":39},{"user_id":476,"name":"sprinkle ‚úß* ‡ºù","steam_id":76561198055871696,"connected_time":1059000000000,"state":"active","ping":52},{"user_id":475,"name":"Isaac Boush","steam_id":76561198179746529,"connected_time":1263000000000,"state":"active","ping":70},{"user_id":487,"name":"herteleki","steam_id":76561198974861983,"connected_time":250000000000,"state":"active","ping":77},{"user_id":485,"name":"chef","steam_id":76561198168641792,"connected_time":413000000000,"state":"active","ping":50},{"user_id":490,"name":"‡∂û","steam_id":76561198095560087,"connected_time":173000000000,"state":"active","ping":75},{"user_id":467,"name":"tomm ·ìö·òè·ó¢","steam_id":76561198272303240,"connected_time":2154000000000,"state":"active","ping":67},{"user_id":489,"name":"limbicsystem","steam_id":76561198025612680,"connected_time":234000000000,"state":"active","ping":71}]},{"server_id":310,"name":"Uncletopia | Frankfurt | 5 | All Maps","name_short":"frk-5","host":"frk-1.de.uncletopia.com","port":27055,"enabled":true,"region":"eu","cc":"de","latitude":50.110924,"longitude":8.682127,"reserved":0,"last_update":"0001-01-01T00:00:00Z","name_a2s":"Uncletopia | Frankfurt | 5 | All Maps","protocol":17,"map":"pl_pier","folder":"tf","game":"Team Fortress","app_id":440,"player_count":21,"max_players":24,"Bots":0,"server_type":"Dedicated","server_os":"Linux","password":true,"vac":true,"version":"7961495","steam_id":85568392924504277,"keywords":["nocrits","nodmgspread","payload","uncletopia"],"game_id":440,"stv_port":27056,"stv_name":"Uncletopia | Frankfurt | 5 | All Maps | STV","players":[{"user_id":198,"name":"16","steam_id":76561198207711799,"connected_time":1754000000000,"state":"spawning","ping":362},{"user_id":218,"name":"A literal heavy","steam_id":76561199219233587,"connected_time":10000000000,"state":"spawning","ping":79},{"user_id":217,"name":"Snowy","steam_id":76561198169992461,"connected_time":235000000000,"state":"spawning","ping":31},{"user_id":215,"name":"Juicy Jay","steam_id":76561197974989365,"connected_time":847000000000,"state":"active","ping":46},{"user_id":213,"name":"Kaziocalvice","steam_id":76561198146425583,"connected_time":906000000000,"state":"spawning","ping":78},{"user_id":152,"name":"arturtrindade1971","steam_id":76561199229325031,"connected_time":6089000000000,"state":"spawning","ping":196},{"user_id":202,"name":"Double Helix","steam_id":76561198085155381,"connected_time":1727000000000,"state":"active","ping":84},{"user_id":114,"name":"SUPERFURRYGAMERx3","steam_id":76561198010662796,"connected_time":8406000000000,"state":"active","ping":112},{"user_id":211,"name":"milof","steam_id":76561198809199604,"connected_time":1472000000000,"state":"spawning","ping":96},{"user_id":207,"name":"Escobar","steam_id":76561198089785078,"connected_time":1589000000000,"state":"active","ping":199},{"user_id":204,"name":"Orbit","steam_id":76561198242999878,"connected_time":1701000000000,"state":"active","ping":68},{"user_id":219,"name":"Hugh","steam_id":76561198976348754,"connected_time":7000000000,"state":"spawning","ping":47},{"user_id":90,"name":"Pablo Glizzy","steam_id":76561198076219289,"connected_time":10565000000000,"state":"active","ping":54},{"user_id":191,"name":"Mael-chan\u003c3","steam_id":76561197996852498,"connected_time":2239000000000,"state":"active","ping":53},{"user_id":183,"name":"Degenerate","steam_id":76561198124120385,"connected_time":3444000000000,"state":"active","ping":104},{"user_id":209,"name":"i dominated stabbystabby","steam_id":76561198046873337,"connected_time":1501000000000,"state":"active","ping":97},{"user_id":187,"name":"–û–ª–µ–∫—Å—ñ–π | UA","steam_id":76561198802594676,"connected_time":2699000000000,"state":"spawning","ping":130},{"user_id":205,"name":"Nonok","steam_id":76561199480685498,"connected_time":1698000000000,"state":"spawning","ping":68},{"user_id":210,"name":"Not Sussy Tanuki","steam_id":76561198137289375,"connected_time":1493000000000,"state":"active","ping":99},{"user_id":206,"name":"Goldermor","steam_id":76561198334406934,"connected_time":1693000000000,"state":"spawning","ping":47},{"user_id":214,"name":"Senf","steam_id":76561198045147799,"connected_time":883000000000,"state":"active","ping":51}]},{"server_id":311,"name":"Uncletopia | Frankfurt | 6 | All Maps","name_short":"frk-6","host":"frk-1.de.uncletopia.com","port":27065,"enabled":true,"region":"eu","cc":"de","latitude":50.110924,"longitude":8.682127,"reserved":0,"last_update":"0001-01-01T00:00:00Z","name_a2s":"Uncletopia | Frankfurt | 6 | All Maps","protocol":17,"map":"cp_5gorge","folder":"tf","game":"Team Fortress","app_id":440,"player_count":24,"max_players":24,"Bots":0,"server_type":"Dedicated","server_os":"Linux","password":true,"vac":true,"version":"7961495","steam_id":85568392924504278,"keywords":["cp","nocrits","nodmgspread","uncletopia"],"game_id":440,"stv_port":27066,"stv_name":"Uncletopia | Frankfurt | 6 | All Maps | STV","players":[{"user_id":379,"name":"Deny√∂l","steam_id":76561198178838082,"connected_time":370000000000,"state":"active","ping":64},{"user_id":368,"name":"Java_Siege_","steam_id":76561199090000728,"connected_time":1141000000000,"state":"active","ping":165},{"user_id":361,"name":"ant753","steam_id":76561198103458889,"connected_time":1597000000000,"state":"active","ping":64},{"user_id":371,"name":"Unban Big Slappy","steam_id":76561199214000895,"connected_time":736000000000,"state":"active","ping":53},{"user_id":378,"name":"pretty strange","steam_id":76561197961263312,"connected_time":423000000000,"state":"active","ping":138},{"user_id":295,"name":"Froenzi","steam_id":76561198168841723,"connected_time":7163000000000,"state":"active","ping":74},{"user_id":383,"name":"k e p i s","steam_id":76561198113693551,"connected_time":56000000000,"state":"active","ping":82},{"user_id":372,"name":"AsuX","steam_id":76561197990333289,"connected_time":726000000000,"state":"active","ping":60},{"user_id":365,"name":"lit64","steam_id":76561198164806677,"connected_time":1409000000000,"state":"active","ping":75},{"user_id":345,"name":"Jack","steam_id":76561198079575891,"connected_time":3037000000000,"state":"active","ping":66},{"user_id":338,"name":"lil blue boy","steam_id":76561198156128826,"connected_time":3511000000000,"state":"active","ping":70},{"user_id":350,"name":"Sir","steam_id":76561198025347362,"connected_time":2340000000000,"state":"active","ping":91},{"user_id":351,"name":"mrbeast109385079350229083479082","steam_id":76561198370687830,"connected_time":2313000000000,"state":"active","ping":143},{"user_id":334,"name":"Pvt Talbot","steam_id":76561198261001389,"connected_time":3624000000000,"state":"active","ping":54},{"user_id":363,"name":"kaelan","steam_id":76561198001425310,"connected_time":1522000000000,"state":"active","ping":75},{"user_id":384,"name":"mistyman","steam_id":76561198064042970,"connected_time":34000000000,"state":"active","ping":70},{"user_id":347,"name":"PLSNO (RYAN)","steam_id":76561198086542505,"connected_time":2955000000000,"state":"active","ping":76},{"user_id":381,"name":"R@DIO","steam_id":76561197995533046,"connected_time":332000000000,"state":"active","ping":71},{"user_id":369,"name":"biohazard.pt","steam_id":76561198088367808,"connected_time":880000000000,"state":"active","ping":78},{"user_id":382,"name":"Tylogaming","steam_id":76561198025181395,"connected_time":328000000000,"state":"active","ping":187},{"user_id":312,"name":"Strangerdanger","steam_id":76561198206728500,"connected_time":5729000000000,"state":"active","ping":73},{"user_id":375,"name":"Peaky","steam_id":76561198107751532,"connected_time":692000000000,"state":"active","ping":63},{"user_id":309,"name":"ST4F","steam_id":76561198262924022,"connected_time":6072000000000,"state":"active","ping":59},{"user_id":244,"name":"Ourseem","steam_id":76561199406432468,"connected_time":10327000000000,"state":"active","ping":158}]},{"server_id":23,"name":"Uncletopia | Frankfurt | 7 | Stopwatch","name_short":"frk-7","host":"frk-1.de.uncletopia.com","port":27075,"enabled":true,"region":"eu","cc":"de","latitude":50.110924,"longitude":8.682127,"reserved":0,"last_update":"0001-01-01T00:00:00Z","name_a2s":"Uncletopia | Frankfurt | 7 | Stopwatch","protocol":17,"map":"workshop/pl_vigil_rc10.ugc1266210012","folder":"tf","game":"Team Fortress","app_id":440,"player_count":0,"max_players":24,"Bots":0,"server_type":"Dedicated","server_os":"Linux","password":true,"vac":true,"version":"7961495","steam_id":85568392924742827,"keywords":["nocrits","nodmgspread","payload","uncletopia"],"game_id":440,"stv_port":27076,"stv_name":"Uncletopia | Frankfurt | 7 | Stopwatch | STV","players":null},{"server_id":24,"name":"Uncletopia | Frankfurt | 8 | Community","name_short":"frk-8","host":"frk-1.de.uncletopia.com","port":27085,"enabled":true,"region":"eu","cc":"de","latitude":50.110924,"longitude":8.682127,"reserved":0,"last_update":"0001-01-01T00:00:00Z","name_a2s":"Uncletopia | Frankfurt | 8 | Community","protocol":17,"map":"workshop/pl_emerge_rc2.ugc888027758","folder":"tf","game":"Team Fortress","app_id":440,"player_count":0,"max_players":24,"Bots":0,"server_type":"Dedicated","server_os":"Linux","password":true,"vac":true,"version":"7961495","steam_id":85568392924742828,"keywords":["nocrits","nodmgspread","payload","uncletopia"],"game_id":440,"stv_port":27086,"stv_name":"Uncletopia | Frankfurt | 8 | Community | STV","players":null},{"server_id":202,"name":"Uncletopia | Hong Kong | 1 | All Maps","name_short":"hgk-1","host":"hgk-1.hk.uncletopia.com","port":27015,"enabled":true,"region":"asia","cc":"hk","latitude":22.302711,"longitude":114.177216,"reserved":0,"last_update":"0001-01-01T00:00:00Z","name_a2s":"Uncletopia | Hong Kong | 1 | All Maps","protocol":17,"map":"koth_cascade","folder":"tf","game":"Team Fortress","app_id":440,"player_count":0,"max_players":24,"Bots":0,"server_type":"Dedicated","server_os":"Linux","password":true,"vac":true,"version":"7961495","steam_id":85568392924494504,"keywords":["cp","nocrits","nodmgspread","uncletopia"],"game_id":440,"stv_port":27016,"stv_name":"Uncletopia | Hong Kong | 1 | All Maps | STV","players":null},{"server_id":1,"name":"Uncletopia | Los Angeles | 1 | All Maps","name_short":"lax-1","host":"lax-1.us.uncletopia.com","port":27015,"enabled":true,"region":"us-west","cc":"us","latitude":33.94279,"longitude":-118.41004,"reserved":0,"last_update":"0001-01-01T00:00:00Z","name_a2s":"Uncletopia | Los Angeles | 1 | All Maps","protocol":17,"map":"pl_borneo","folder":"tf","game":"Team Fortress","app_id":440,"player_count":25,"max_players":24,"Bots":0,"server_type":"Dedicated","server_os":"Linux","password":true,"vac":true,"version":"7961495","steam_id":85568392924469991,"keywords":["nocrits","nodmgspread","payload","uncletopia"],"game_id":440,"stv_port":27016,"stv_name":"Uncletopia | Los Angeles | 1 | All Maps | STV","players":[{"user_id":143,"name":"HeroOfTime","steam_id":76561199096218001,"connected_time":5737000000000,"state":"active","ping":51},{"user_id":192,"name":"[‚òØ] randomshagz*","steam_id":76561197968666646,"connected_time":386000000000,"state":"active","ping":68},{"user_id":171,"name":"Kung fu MUNGUS","steam_id":76561198069281556,"connected_time":2888000000000,"state":"active","ping":88},{"user_id":194,"name":"SANTA IS REAL","steam_id":76561199103766971,"connected_time":321000000000,"state":"active","ping":108},{"user_id":195,"name":"Two-Ton Heavy Thing","steam_id":76561198201724274,"connected_time":318000000000,"state":"active","ping":119},{"user_id":156,"name":"konrad","steam_id":76561198065356081,"connected_time":3718000000000,"state":"active","ping":62},{"user_id":193,"name":"Bearmilk","steam_id":76561198171914962,"connected_time":335000000000,"state":"active","ping":61},{"user_id":140,"name":"Quigi","steam_id":76561198144645874,"connected_time":6116000000000,"state":"active","ping":81},{"user_id":186,"name":"zinnk","steam_id":76561198092081825,"connected_time":1254000000000,"state":"active","ping":49},{"user_id":203,"name":"DivineBanana","steam_id":76561198026529731,"connected_time":14000000000,"state":"spawning","ping":445},{"user_id":180,"name":"noceof","steam_id":76561198043656816,"connected_time":2384000000000,"state":"active","ping":174},{"user_id":183,"name":"itsPanzerPanda","steam_id":76561199441946346,"connected_time":2176000000000,"state":"active","ping":100},{"user_id":202,"name":"LeTonzy","steam_id":76561198005806699,"connected_time":176000000000,"state":"active","ping":61},{"user_id":197,"name":"Thunder","steam_id":76561198097721532,"connected_time":300000000000,"state":"active","ping":45},{"user_id":128,"name":"FOX News goblin","steam_id":76561198167648580,"connected_time":6624000000000,"state":"active","ping":46},{"user_id":191,"name":"KlassicLoL","steam_id":76561198081815303,"connected_time":464000000000,"state":"active","ping":46},{"user_id":198,"name":"Dallas","steam_id":76561198066542919,"connected_time":286000000000,"state":"active","ping":92},{"user_id":188,"name":"Greskrendtregk","steam_id":76561197969553142,"connected_time":998000000000,"state":"active","ping":76},{"user_id":181,"name":"Low N' Brow","steam_id":76561198167127580,"connected_time":2336000000000,"state":"active","ping":53},{"user_id":136,"name":"mkl","steam_id":76561197986401685,"connected_time":6263000000000,"state":"active","ping":90},{"user_id":200,"name":"Bombat","steam_id":76561198083096946,"connected_time":240000000000,"state":"active","ping":69},{"user_id":201,"name":"Cacophony","steam_id":76561198047474050,"connected_time":227000000000,"state":"active","ping":45},{"user_id":185,"name":"jdm","steam_id":76561199497603020,"connected_time":1271000000000,"state":"active","ping":48},{"user_id":190,"name":"Bradz","steam_id":76561198175090085,"connected_time":638000000000,"state":"active","ping":85},{"user_id":204,"name":"Oogle","steam_id":76561198041815877,"connected_time":14000000000,"state":"spawning","ping":273}]},{"server_id":112,"name":"Uncletopia | Los Angeles | 2 | All Maps","name_short":"lax-2","host":"lax-1.us.uncletopia.com","port":27025,"enabled":true,"region":"us-west","cc":"us","latitude":33.94279,"longitude":-118.41004,"reserved":0,"last_update":"0001-01-01T00:00:00Z","name_a2s":"Uncletopia | Los Angeles | 2 | All Maps","protocol":17,"map":"cp_mountainlab","folder":"tf","game":"Team Fortress","app_id":440,"player_count":1,"max_players":24,"Bots":0,"server_type":"Dedicated","server_os":"Linux","password":true,"vac":true,"version":"7961495","steam_id":85568392924469992,"keywords":["cp","nocrits","nodmgspread","uncletopia"],"game_id":440,"stv_port":27026,"stv_name":"Uncletopia | Los Angeles | 2 | All Maps | STV","players":[{"user_id":3,"name":"ArmyGuyIan","steam_id":76561198120926552,"connected_time":39000000000,"state":"active","ping":113}]},{"server_id":324,"name":"Uncletopia | Los Angeles | 3 | All Maps","name_short":"lax-3","host":"lax-1.us.uncletopia.com","port":27035,"enabled":true,"region":"us-west","cc":"us","latitude":33.94279,"longitude":-118.41004,"reserved":0,"last_update":"0001-01-01T00:00:00Z","name_a2s":"Uncletopia | Los Angeles | 3 | All Maps","protocol":17,"map":"pl_frontier_final","folder":"tf","game":"Team Fortress","app_id":440,"player_count":0,"max_players":24,"Bots":0,"server_type":"Dedicated","server_os":"Linux","password":true,"vac":true,"version":"7961495","steam_id":85568392924510198,"keywords":["nocrits","nodmgspread","payload","uncletopia"],"game_id":440,"stv_port":27036,"stv_name":"Uncletopia | Los Angeles | 3 | All Maps | STV","players":null},{"server_id":25,"name":"Uncletopia | Los Angeles | 4 | Stopwatch","name_short":"lax-4","host":"lax-1.us.uncletopia.com","port":27045,"enabled":true,"region":"us-west","cc":"us","latitude":33.94279,"longitude":-118.41004,"reserved":0,"last_update":"0001-01-01T00:00:00Z","name_a2s":"Uncletopia | Los Angeles | 4 | Stopwatch","protocol":17,"map":"pl_barnblitz","folder":"tf","game":"Team Fortress","app_id":440,"player_count":0,"max_players":24,"Bots":0,"server_type":"Dedicated","server_os":"Linux","password":true,"vac":true,"version":"7961495","steam_id":85568392924510199,"keywords":["nocrits","nodmgspread","payload","uncletopia"],"game_id":440,"stv_port":27046,"stv_name":"Uncletopia | Los Angeles | 4 | Stopwatch | STV","players":null},{"server_id":11,"name":"Uncletopia | London | 1 | All Maps","name_short":"lon-1","host":"lon-1.uk.uncletopia.com","port":27015,"enabled":true,"region":"eu","cc":"gb","latitude":51.509865,"longitude":-0.118092,"reserved":0,"last_update":"0001-01-01T00:00:00Z","name_a2s":"Uncletopia | London | 1 | All Maps","protocol":17,"map":"cp_dustbowl","folder":"tf","game":"Team Fortress","app_id":440,"player_count":24,"max_players":24,"Bots":0,"server_type":"Dedicated","server_os":"Linux","password":true,"vac":true,"version":"7961495","steam_id":85568392924367362,"keywords":["cp","nocrits","nodmgspread","uncletopia"],"game_id":440,"stv_port":27016,"stv_name":"Uncletopia | London | 1 | All Maps | STV","players":[{"user_id":677,"name":"Ash","steam_id":76561198272001890,"connected_time":1135000000000,"state":"active","ping":70},{"user_id":678,"name":"joachym","steam_id":76561198428579761,"connected_time":1130000000000,"state":"active","ping":68},{"user_id":627,"name":"Jergu","steam_id":76561198023457541,"connected_time":7397000000000,"state":"active","ping":72},{"user_id":625,"name":"png.png","steam_id":76561198444446521,"connected_time":7500000000000,"state":"active","ping":105},{"user_id":663,"name":"Germanium_Ge","steam_id":76561198130561775,"connected_time":3002000000000,"state":"active","ping":54},{"user_id":676,"name":"sora","steam_id":76561198096547662,"connected_time":1144000000000,"state":"active","ping":49},{"user_id":610,"name":"kelpie (eepiest girl)","steam_id":76561198128327529,"connected_time":8701000000000,"state":"active","ping":46},{"user_id":659,"name":"Woman (Real)","steam_id":76561199151823932,"connected_time":3323000000000,"state":"active","ping":88},{"user_id":664,"name":"Kahvi","steam_id":76561198723244199,"connected_time":2817000000000,"state":"active","ping":86},{"user_id":652,"name":"trite","steam_id":76561197983765323,"connected_time":3731000000000,"state":"active","ping":52},{"user_id":666,"name":"SOPHIIAA","steam_id":76561198443798981,"connected_time":2735000000000,"state":"active","ping":75},{"user_id":680,"name":"Seliush","steam_id":76561198313583650,"connected_time":1097000000000,"state":"active","ping":87},{"user_id":650,"name":"kittylover55","steam_id":76561198136297981,"connected_time":4030000000000,"state":"active","ping":77},{"user_id":586,"name":"Ice || Black „ÉÑ","steam_id":76561198308680638,"connected_time":10727000000000,"state":"active","ping":121},{"user_id":474,"name":"‡∂ûaura‡∂û","steam_id":76561198066258544,"connected_time":18963000000000,"state":"active","ping":56},{"user_id":673,"name":"whimsy.","steam_id":76561198878171763,"connected_time":1157000000000,"state":"active","ping":49},{"user_id":632,"name":"Black Tom","steam_id":76561198335730273,"connected_time":6728000000000,"state":"active","ping":59},{"user_id":660,"name":"Lurking eyes","steam_id":76561199383437138,"connected_time":3247000000000,"state":"active","ping":128},{"user_id":667,"name":"hmscole09","steam_id":76561198811362788,"connected_time":2135000000000,"state":"active","ping":59},{"user_id":633,"name":"Minimi","steam_id":76561198873850443,"connected_time":6568000000000,"state":"active","ping":44},{"user_id":669,"name":"Aaron","steam_id":76561197990046953,"connected_time":1170000000000,"state":"active","ping":56},{"user_id":654,"name":"shooer!","steam_id":76561198110531281,"connected_time":3633000000000,"state":"active","ping":70},{"user_id":671,"name":"Richard nixon roleplayer","steam_id":76561198236015392,"connected_time":1167000000000,"state":"active","ping":122}]},{"server_id":114,"name":"Uncletopia | London | 2 | All Maps","name_short":"lon-2","host":"lon-1.uk.uncletopia.com","port":27025,"enabled":true,"region":"eu","cc":"gb","latitude":51.509865,"longitude":-0.118092,"reserved":0,"last_update":"0001-01-01T00:00:00Z","name_a2s":"Uncletopia | London | 2 | All Maps","protocol":17,"map":"pl_pier","folder":"tf","game":"Team Fortress","app_id":440,"player_count":24,"max_players":24,"Bots":0,"server_type":"Dedicated","server_os":"Linux","password":true,"vac":true,"version":"7961495","steam_id":85568392924470941,"keywords":["nocrits","nodmgspread","payload","uncletopia"],"game_id":440,"stv_port":27026,"stv_name":"Uncletopia | London | 2 | All Maps | STV","players":[{"user_id":509,"name":"McCheeseman","steam_id":76561198085698454,"connected_time":1010000000000,"state":"active","ping":56},{"user_id":516,"name":"-TA- skai","steam_id":76561198184881255,"connected_time":871000000000,"state":"active","ping":73},{"user_id":511,"name":"Zootsie","steam_id":76561198051387415,"connected_time":989000000000,"state":"active","ping":63},{"user_id":470,"name":"cheetah","steam_id":76561198160020162,"connected_time":4660000000000,"state":"active","ping":81},{"user_id":517,"name":"the action gamemaster","steam_id":76561198007494744,"connected_time":869000000000,"state":"active","ping":45},{"user_id":520,"name":"Psycholupus","steam_id":76561198022289628,"connected_time":688000000000,"state":"active","ping":59},{"user_id":521,"name":"useless pottis","steam_id":76561198842020955,"connected_time":532000000000,"state":"active","ping":79},{"user_id":460,"name":"Vanilla Autismotron","steam_id":76561198278604277,"connected_time":5136000000000,"state":"active","ping":60},{"user_id":510,"name":"Luuk","steam_id":76561198088266026,"connected_time":1002000000000,"state":"active","ping":45},{"user_id":522,"name":"Grease Goblin","steam_id":76561198311224530,"connected_time":504000000000,"state":"active","ping":54},{"user_id":512,"name":"Boil em mash em","steam_id":76561198026508026,"connected_time":986000000000,"state":"active","ping":78},{"user_id":491,"name":"The King","steam_id":76561198193480430,"connected_time":3686000000000,"state":"active","ping":58},{"user_id":528,"name":"Pan","steam_id":76561198436871448,"connected_time":80000000000,"state":"active","ping":41},{"user_id":496,"name":"Boki","steam_id":76561198044553351,"connected_time":2134000000000,"state":"active","ping":74},{"user_id":527,"name":"skittish maiden","steam_id":76561198096856475,"connected_time":173000000000,"state":"active","ping":52},{"user_id":499,"name":"Princess Peach","steam_id":76561198260272240,"connected_time":1682000000000,"state":"active","ping":53},{"user_id":490,"name":"Silverdarlin","steam_id":76561198118540970,"connected_time":3954000000000,"state":"active","ping":51},{"user_id":526,"name":"Beanie","steam_id":76561198173882658,"connected_time":470000000000,"state":"active","ping":56},{"user_id":524,"name":"the foe","steam_id":76561198065743977,"connected_time":490000000000,"state":"active","ping":58},{"user_id":515,"name":"Flying Squirrel","steam_id":76561198005202791,"connected_time":946000000000,"state":"active","ping":78},{"user_id":507,"name":"owlsie","steam_id":76561198094883280,"connected_time":1143000000000,"state":"active","ping":68},{"user_id":435,"name":"chestnutflea","steam_id":76561198144268690,"connected_time":7252000000000,"state":"active","ping":61},{"user_id":525,"name":"Phillipo","steam_id":76561198105215143,"connected_time":488000000000,"state":"active","ping":58},{"user_id":518,"name":"Voks_","steam_id":76561198159687785,"connected_time":864000000000,"state":"active","ping":74}]},{"server_id":320,"name":"Uncletopia | London | 3 | All Maps","name_short":"lon-3","host":"lon-1.uk.uncletopia.com","port":27035,"enabled":true,"region":"eu","cc":"gb","latitude":51.509865,"longitude":-0.118092,"reserved":0,"last_update":"0001-01-01T00:00:00Z","name_a2s":"Uncletopia | London | 3 | All Maps","protocol":17,"map":"pl_enclosure_final","folder":"tf","game":"Team Fortress","app_id":440,"player_count":24,"max_players":24,"Bots":0,"server_type":"Dedicated","server_os":"Linux","password":true,"vac":true,"version":"7961495","steam_id":85568392924510192,"keywords":["nocrits","nodmgspread","payload","uncletopia"],"game_id":440,"stv_port":27036,"stv_name":"Uncletopia | London | 3 | All Maps | STV","players":[{"user_id":223,"name":"lillunya ‚ô°","steam_id":76561198330418866,"connected_time":7661000000000,"state":"active","ping":69},{"user_id":324,"name":"MIKA","steam_id":76561198312451814,"connected_time":549000000000,"state":"active","ping":63},{"user_id":325,"name":"Gregor Samsa","steam_id":76561198973069177,"connected_time":504000000000,"state":"active","ping":62},{"user_id":297,"name":"[FP] Shiken","steam_id":76561198257905663,"connected_time":2578000000000,"state":"active","ping":68},{"user_id":299,"name":"TreatFly","steam_id":76561198069707362,"connected_time":2472000000000,"state":"active","ping":57},{"user_id":328,"name":"Big Al","steam_id":76561198079585198,"connected_time":466000000000,"state":"active","ping":55},{"user_id":322,"name":"Borat","steam_id":76561198122226417,"connected_time":1061000000000,"state":"active","ping":40},{"user_id":301,"name":"ice","steam_id":76561198011015750,"connected_time":2445000000000,"state":"active","ping":67},{"user_id":303,"name":"Lers","steam_id":76561198061619788,"connected_time":2438000000000,"state":"active","ping":50},{"user_id":315,"name":"ElSuedi","steam_id":76561198074722832,"connected_time":1588000000000,"state":"active","ping":59},{"user_id":323,"name":"i uber snipers","steam_id":76561198451638173,"connected_time":870000000000,"state":"active","ping":69},{"user_id":304,"name":"frosty","steam_id":76561198094560834,"connected_time":2438000000000,"state":"active","ping":51},{"user_id":320,"name":"gabagool","steam_id":76561198307111838,"connected_time":1307000000000,"state":"active","ping":33},{"user_id":173,"name":"[FP] Rune","steam_id":76561198030842879,"connected_time":10407000000000,"state":"active","ping":44},{"user_id":332,"name":"worgeral","steam_id":76561198050781898,"connected_time":367000000000,"state":"active","ping":60},{"user_id":305,"name":"ruschca","steam_id":76561198041966522,"connected_time":2432000000000,"state":"active","ping":43},{"user_id":175,"name":"[FP] Scewtch","steam_id":76561198120500488,"connected_time":10404000000000,"state":"active","ping":56},{"user_id":294,"name":"Meladoom2","steam_id":76561198086845387,"connected_time":3242000000000,"state":"active","ping":93},{"user_id":329,"name":"Gul","steam_id":76561198265090950,"connected_time":406000000000,"state":"active","ping":182},{"user_id":265,"name":"Oak","steam_id":76561198067315672,"connected_time":5563000000000,"state":"active","ping":50},{"user_id":330,"name":"Jack-McSnipey","steam_id":76561198009596202,"connected_time":398000000000,"state":"active","ping":122},{"user_id":269,"name":"G O R E F R I E N D","steam_id":76561197989403556,"connected_time":5177000000000,"state":"active","ping":89},{"user_id":333,"name":"applefrompear","steam_id":76561199258816743,"connected_time":250000000000,"state":"active","ping":111},{"user_id":312,"name":"MENTABETAI","steam_id":76561198049728799,"connected_time":2159000000000,"state":"active","ping":76}]},{"server_id":321,"name":"Uncletopia | London | 4 | All Maps","name_short":"lon-4","host":"lon-1.uk.uncletopia.com","port":27045,"enabled":true,"region":"eu","cc":"gb","latitude":51.509865,"longitude":-0.118092,"reserved":0,"last_update":"0001-01-01T00:00:00Z","name_a2s":"Uncletopia | London | 4 | All Maps","protocol":17,"map":"cp_metalworks","folder":"tf","game":"Team Fortress","app_id":440,"player_count":24,"max_players":24,"Bots":0,"server_type":"Dedicated","server_os":"Linux","password":true,"vac":true,"version":"7961495","steam_id":85568392924510193,"keywords":["cp","nocrits","nodmgspread","uncletopia"],"game_id":440,"stv_port":27046,"stv_name":"Uncletopia | London | 4 | All Maps | STV","players":[{"user_id":245,"name":"Xeno","steam_id":76561198975556646,"connected_time":1856000000000,"state":"active","ping":59},{"user_id":234,"name":"Tort","steam_id":76561198329646769,"connected_time":3230000000000,"state":"active","ping":61},{"user_id":239,"name":"gaming princess","steam_id":76561198254006439,"connected_time":2182000000000,"state":"active","ping":44},{"user_id":248,"name":"Lemings_","steam_id":76561198021070460,"connected_time":1592000000000,"state":"active","ping":84},{"user_id":226,"name":"jeezo","steam_id":76561198123592400,"connected_time":3709000000000,"state":"active","ping":89},{"user_id":268,"name":"Cosmonaut","steam_id":76561198086803330,"connected_time":516000000000,"state":"active","ping":79},{"user_id":223,"name":"Counter-Life","steam_id":76561197977875927,"connected_time":4256000000000,"state":"active","ping":60},{"user_id":270,"name":"Acanda","steam_id":76561198123246537,"connected_time":311000000000,"state":"active","ping":61},{"user_id":252,"name":"yuck","steam_id":76561197987249568,"connected_time":848000000000,"state":"active","ping":102},{"user_id":253,"name":"Jeryx","steam_id":76561197995602803,"connected_time":837000000000,"state":"active","ping":96},{"user_id":249,"name":"Fletch_078","steam_id":76561199007662486,"connected_time":1546000000000,"state":"active","ping":67},{"user_id":242,"name":"mugshot","steam_id":76561198363841749,"connected_time":2040000000000,"state":"active","ping":75},{"user_id":254,"name":"Yamato Nikishima","steam_id":76561198004467732,"connected_time":819000000000,"state":"active","ping":67},{"user_id":218,"name":"Raivop","steam_id":76561197980854307,"connected_time":4750000000000,"state":"active","ping":92},{"user_id":266,"name":"painting4","steam_id":76561198067554256,"connected_time":571000000000,"state":"active","ping":61},{"user_id":235,"name":"ilimori","steam_id":76561197961231625,"connected_time":2534000000000,"state":"active","ping":45},{"user_id":195,"name":"wasto-/-‚Ñ¢","steam_id":76561198102888038,"connected_time":6003000000000,"state":"active","ping":58},{"user_id":255,"name":"EXCLUSIVE JEDLE 1490,-","steam_id":76561198120982862,"connected_time":810000000000,"state":"active","ping":57},{"user_id":267,"name":"Juris","steam_id":76561198129674714,"connected_time":566000000000,"state":"active","ping":46},{"user_id":259,"name":"K≈´pis","steam_id":76561198143146585,"connected_time":718000000000,"state":"active","ping":97},{"user_id":236,"name":"spy's arent real","steam_id":76561198165871469,"connected_time":2282000000000,"state":"active","ping":70},{"user_id":241,"name":"Dfactor","steam_id":76561198022658238,"connected_time":2073000000000,"state":"active","ping":89},{"user_id":260,"name":"Albon","steam_id":76561198060378881,"connected_time":644000000000,"state":"active","ping":64},{"user_id":269,"name":"Vexu","steam_id":76561198113145846,"connected_time":491000000000,"state":"active","ping":91}]},{"server_id":21,"name":"Uncletopia | London | 5 | All Maps","name_short":"lon-5","host":"lon-1.uk.uncletopia.com","port":27055,"enabled":true,"region":"eu","cc":"gb","latitude":51.509865,"longitude":-0.118092,"reserved":0,"last_update":"0001-01-01T00:00:00Z","name_a2s":"Uncletopia | London | 5 | All Maps","protocol":17,"map":"ctf_2fort","folder":"tf","game":"Team Fortress","app_id":440,"player_count":24,"max_players":24,"Bots":0,"server_type":"Dedicated","server_os":"Linux","password":true,"vac":true,"version":"7961495","steam_id":85568392924742829,"keywords":["ctf","nocrits","nodmgspread","uncletopia"],"game_id":440,"stv_port":27056,"stv_name":"Uncletopia | London | 5 | All Maps | STV","players":[{"user_id":432,"name":"I'm gonna eat you","steam_id":76561198073769916,"connected_time":830000000000,"state":"active","ping":52},{"user_id":421,"name":"(MAC) [BN] Crazyking","steam_id":76561198001668616,"connected_time":1360000000000,"state":"active","ping":60},{"user_id":417,"name":"Demicore","steam_id":76561197976922136,"connected_time":1572000000000,"state":"active","ping":69},{"user_id":449,"name":"shenanigan","steam_id":76561198043452925,"connected_time":6000000000,"state":"spawning","ping":78},{"user_id":424,"name":"DeterminedXD[HUN]","steam_id":76561199469006453,"connected_time":1315000000000,"state":"active","ping":96},{"user_id":428,"name":"fence_","steam_id":76561198150386379,"connected_time":1216000000000,"state":"active","ping":42},{"user_id":441,"name":"Mangophysics","steam_id":76561198328905546,"connected_time":432000000000,"state":"active","ping":104},{"user_id":443,"name":"HoneyBe_","steam_id":76561198288930154,"connected_time":368000000000,"state":"active","ping":70},{"user_id":434,"name":"Blax","steam_id":76561198377155387,"connected_time":779000000000,"state":"active","ping":53},{"user_id":407,"name":"joecalmatt","steam_id":76561198172552015,"connected_time":2481000000000,"state":"active","ping":44},{"user_id":404,"name":"A Very Disappointing Salad","steam_id":76561198020277939,"connected_time":2642000000000,"state":"active","ping":52},{"user_id":439,"name":"Book","steam_id":76561198880157981,"connected_time":569000000000,"state":"active","ping":85},{"user_id":309,"name":"CHELOVEK_YAYCA","steam_id":76561198165428648,"connected_time":7673000000000,"state":"active","ping":118},{"user_id":445,"name":":3","steam_id":76561198169471853,"connected_time":136000000000,"state":"active","ping":38},{"user_id":436,"name":"irritable vowel syndrome","steam_id":76561198117033273,"connected_time":698000000000,"state":"active","ping":49},{"user_id":365,"name":"ethobat","steam_id":76561198072393749,"connected_time":4175000000000,"state":"active","ping":77},{"user_id":425,"name":"_Erick_T92[HUN]","steam_id":76561199222111563,"connected_time":1254000000000,"state":"active","ping":118},{"user_id":402,"name":"Saucisse","steam_id":76561198119955969,"connected_time":2799000000000,"state":"active","ping":60},{"user_id":395,"name":"ran is running","steam_id":76561199443185667,"connected_time":3060000000000,"state":"active","ping":140},{"user_id":446,"name":"Curls","steam_id":76561198079039937,"connected_time":83000000000,"state":"active","ping":61},{"user_id":416,"name":"Lucky Number 13","steam_id":76561198043951279,"connected_time":1616000000000,"state":"active","ping":89},{"user_id":420,"name":"Shlongulator","steam_id":76561198149779201,"connected_time":1429000000000,"state":"active","ping":49},{"user_id":427,"name":"BasilNight The Snowman","steam_id":76561198092767374,"connected_time":1236000000000,"state":"active","ping":75},{"user_id":448,"name":"‚ù§ Sparx ‚ù§","steam_id":76561198095009261,"connected_time":48000000000,"state":"active","ping":87}]},{"server_id":22,"name":"Uncletopia | London | 6 | All Maps","name_short":"lon-6","host":"lon-1.uk.uncletopia.com","port":27065,"enabled":true,"region":"eu","cc":"gb","latitude":51.509865,"longitude":-0.118092,"reserved":0,"last_update":"0001-01-01T00:00:00Z","name_a2s":"Uncletopia | London | 6 | All Maps","protocol":17,"map":"pl_barnblitz","folder":"tf","game":"Team Fortress","app_id":440,"player_count":24,"max_players":24,"Bots":0,"server_type":"Dedicated","server_os":"Linux","password":true,"vac":true,"version":"7961495","steam_id":85568392924742830,"keywords":["nocrits","nodmgspread","payload","uncletopia"],"game_id":440,"stv_port":27066,"stv_name":"Uncletopia | London | 6 | All Maps | STV","players":[{"user_id":135,"name":"SkylarEDM","steam_id":76561198093498129,"connected_time":2935000000000,"state":"active","ping":147},{"user_id":126,"name":"Frozen Ocelot","steam_id":76561198023761571,"connected_time":3727000000000,"state":"active","ping":49},{"user_id":117,"name":"Subxo","steam_id":76561198341198154,"connected_time":4146000000000,"state":"active","ping":117},{"user_id":132,"name":"Umbro","steam_id":76561198087930438,"connected_time":3185000000000,"state":"active","ping":104},{"user_id":150,"name":"Fran","steam_id":76561199070516960,"connected_time":1077000000000,"state":"active","ping":71},{"user_id":151,"name":"GabrielUltrakill","steam_id":76561199200442395,"connected_time":1067000000000,"state":"active","ping":74},{"user_id":59,"name":"Spinya","steam_id":76561198086653667,"connected_time":7125000000000,"state":"active","ping":52},{"user_id":60,"name":"DudeoftheRock","steam_id":76561198059401865,"connected_time":7099000000000,"state":"active","ping":57},{"user_id":152,"name":"walking plane","steam_id":76561198146779559,"connected_time":1031000000000,"state":"active","ping":92},{"user_id":146,"name":"Udinese Dion","steam_id":76561198067931573,"connected_time":1565000000000,"state":"active","ping":56},{"user_id":145,"name":"Mr. Hunts","steam_id":76561197981910397,"connected_time":1928000000000,"state":"active","ping":61},{"user_id":137,"name":"Mijans","steam_id":76561198047801578,"connected_time":2637000000000,"state":"active","ping":56},{"user_id":131,"name":"Kernel Panic","steam_id":76561198215811047,"connected_time":3484000000000,"state":"active","ping":38},{"user_id":159,"name":"Tero","steam_id":76561198073147972,"connected_time":62000000000,"state":"active","ping":80},{"user_id":153,"name":"ScapeGoat","steam_id":76561198137868829,"connected_time":910000000000,"state":"active","ping":56},{"user_id":157,"name":"Zamorocian","steam_id":76561198076604017,"connected_time":354000000000,"state":"active","ping":44},{"user_id":133,"name":"∆ëairStarter","steam_id":76561198004434090,"connected_time":3006000000000,"state":"active","ping":150},{"user_id":113,"name":"joethefool","steam_id":76561199015436319,"connected_time":4418000000000,"state":"active","ping":156},{"user_id":48,"name":"MrEdman4","steam_id":76561198062233923,"connected_time":7705000000000,"state":"active","ping":133},{"user_id":123,"name":"Fabric","steam_id":76561198118742661,"connected_time":4050000000000,"state":"active","ping":106},{"user_id":129,"name":"Peskyplumber64","steam_id":76561198044458330,"connected_time":3567000000000,"state":"active","ping":53},{"user_id":156,"name":"Kappa","steam_id":76561198089341471,"connected_time":739000000000,"state":"active","ping":70},{"user_id":154,"name":"Rabbitone","steam_id":76561198132691749,"connected_time":823000000000,"state":"active","ping":163},{"user_id":155,"name":"Egg Guzzler","steam_id":76561199109194893,"connected_time":775000000000,"state":"active","ping":169}]},{"server_id":40,"name":"Uncletopia | London | 7 | Stopwatch","name_short":"lon-7","host":"lon-1.uk.uncletopia.com","port":27075,"enabled":true,"region":"eu","cc":"gb","latitude":51.509865,"longitude":-0.118092,"reserved":0,"last_update":"0001-01-01T00:00:00Z","name_a2s":"Uncletopia | London | 7 | Stopwatch","protocol":17,"map":"koth_highpass","folder":"tf","game":"Team Fortress","app_id":440,"player_count":0,"max_players":24,"Bots":0,"server_type":"Dedicated","server_os":"Linux","password":true,"vac":true,"version":"7961495","steam_id":85568392924964314,"keywords":["cp","nocrits","nodmgspread","uncletopia"],"game_id":440,"stv_port":27076,"stv_name":"Uncletopia | London | 7 | Stopwatch | STV","players":null},{"server_id":41,"name":"Uncletopia | London | 8 | Community","name_short":"lon-8","host":"lon-1.uk.uncletopia.com","port":27085,"enabled":true,"region":"eu","cc":"gb","latitude":51.509865,"longitude":-0.118092,"reserved":0,"last_update":"0001-01-01T00:00:00Z","name_a2s":"Uncletopia | London | 8 | Community","protocol":17,"map":"cp_snakewater_final1","folder":"tf","game":"Team Fortress","app_id":440,"player_count":0,"max_players":24,"Bots":0,"server_type":"Dedicated","server_os":"Linux","password":true,"vac":true,"version":"7961495","steam_id":85568392924964315,"keywords":["cp","nocrits","nodmgspread","uncletopia"],"game_id":440,"stv_port":27086,"stv_name":"Uncletopia | London | 8 | Community | STV","players":null},{"server_id":300,"name":"Uncletopia | Montr√©al | 1 | One Thousand Uncles","name_short":"mtl-1","host":"mtl-1.ca.uncletopia.com","port":27015,"enabled":true,"region":"us-east","cc":"ca","latitude":45.50889,"longitude":-73.56167,"reserved":0,"last_update":"0001-01-01T00:00:00Z","name_a2s":"","protocol":0,"map":"","folder":"","game":"","app_id":0,"player_count":0,"max_players":0,"Bots":0,"server_type":"","server_os":"","password":false,"vac":false,"version":"","steam_id":0,"keywords":null,"game_id":0,"stv_port":0,"stv_name":"","players":null},{"server_id":301,"name":"Uncletopia | Montr√©al | 2 | One Thousand Uncles","name_short":"mtl-2","host":"mtl-1.ca.uncletopia.com","port":27025,"enabled":true,"region":"us-east","cc":"ca","latitude":45.50889,"longitude":-73.56167,"reserved":0,"last_update":"0001-01-01T00:00:00Z","name_a2s":"","protocol":0,"map":"","folder":"","game":"","app_id":0,"player_count":7,"max_players":0,"Bots":0,"server_type":"","server_os":"","password":false,"vac":false,"version":"","steam_id":0,"keywords":null,"game_id":0,"stv_port":0,"stv_name":"","players":[{"user_id":21,"name":"ÔºîÔºê Ôº¶Ôº∞Ôº≥","steam_id":76561198272394965,"connected_time":5680000000000,"state":"active","ping":155},{"user_id":56,"name":"CatMagic","steam_id":76561199454230243,"connected_time":1266000000000,"state":"active","ping":59},{"user_id":53,"name":"momazos diegos","steam_id":76561199220257695,"connected_time":1752000000000,"state":"active","ping":130},{"user_id":60,"name":"subhuman behavior","steam_id":76561197992498834,"connected_time":371000000000,"state":"active","ping":63},{"user_id":51,"name":"Natsuki the Scunt","steam_id":76561199175922684,"connected_time":1943000000000,"state":"active","ping":116},{"user_id":61,"name":"penis atomizer 9000 üè≥Ô∏è?","steam_id":76561198864841966,"connected_time":123000000000,"state":"active","ping":108},{"user_id":55,"name":"schnedwob","steam_id":76561197999146588,"connected_time":1610000000000,"state":"active","ping":85}]},{"server_id":302,"name":"Uncletopia | Montr√©al | 3 | One Thousand Uncles","name_short":"mtl-3","host":"mtl-1.ca.uncletopia.com","port":27035,"enabled":true,"region":"us-east","cc":"ca","latitude":45.50889,"longitude":-73.56167,"reserved":0,"last_update":"0001-01-01T00:00:00Z","name_a2s":"","protocol":0,"map":"","folder":"","game":"","app_id":0,"player_count":0,"max_players":0,"Bots":0,"server_type":"","server_os":"","password":false,"vac":false,"version":"","steam_id":0,"keywords":null,"game_id":0,"stv_port":0,"stv_name":"","players":null},{"server_id":13,"name":"Uncletopia | New York City | 1 | All Maps","name_short":"nyc-1","host":"nyc-1.us.uncletopia.com","port":27015,"enabled":true,"region":"us-east","cc":"us","latitude":40.73061,"longitude":-73.93524,"reserved":0,"last_update":"0001-01-01T00:00:00Z","name_a2s":"Uncletopia | New York City | 1 | All Maps","protocol":17,"map":"pl_pier","folder":"tf","game":"Team Fortress","app_id":440,"player_count":23,"max_players":24,"Bots":0,"server_type":"Dedicated","server_os":"Linux","password":true,"vac":true,"version":"7961495","steam_id":85568392924469993,"keywords":["nocrits","nodmgspread","payload","uncletopia"],"game_id":440,"stv_port":27016,"stv_name":"Uncletopia | New York City | 1 | All Maps | STV","players":[{"user_id":150,"name":"gigi dag","steam_id":76561198063313115,"connected_time":1940000000000,"state":"active","ping":60},{"user_id":168,"name":"Admiral Desto","steam_id":76561198301585815,"connected_time":614000000000,"state":"active","ping":43},{"user_id":159,"name":"Comfy!","steam_id":76561198008818346,"connected_time":1442000000000,"state":"active","ping":55},{"user_id":130,"name":"ndvr","steam_id":76561199379200102,"connected_time":3805000000000,"state":"active","ping":51},{"user_id":95,"name":"Ballistic Bees","steam_id":76561198116870575,"connected_time":6392000000000,"state":"active","ping":45},{"user_id":156,"name":"The Salacious Monk Monk","steam_id":76561198013781408,"connected_time":1649000000000,"state":"active","ping":90},{"user_id":158,"name":"Coup de Grass","steam_id":76561198011643226,"connected_time":1543000000000,"state":"active","ping":74},{"user_id":165,"name":"Greasy_Grime","steam_id":76561199014724973,"connected_time":1054000000000,"state":"active","ping":143},{"user_id":154,"name":"Moko","steam_id":76561198056281554,"connected_time":1855000000000,"state":"active","ping":70},{"user_id":170,"name":"SkarloeyFell","steam_id":76561199183127174,"connected_time":437000000000,"state":"active","ping":107},{"user_id":167,"name":"Lemurian","steam_id":76561198324118507,"connected_time":998000000000,"state":"active","ping":66},{"user_id":173,"name":"Nerrrd_","steam_id":76561198870129960,"connected_time":23000000000,"state":"active","ping":34},{"user_id":172,"name":"phungo","steam_id":76561198110430494,"connected_time":41000000000,"state":"active","ping":41},{"user_id":155,"name":"Papa Smoke","steam_id":76561198181348206,"connected_time":1806000000000,"state":"active","ping":68},{"user_id":164,"name":"Lord_Calcium","steam_id":76561198302455088,"connected_time":1146000000000,"state":"active","ping":74},{"user_id":122,"name":"DominicSega123","steam_id":76561198110453523,"connected_time":4443000000000,"state":"active","ping":55},{"user_id":34,"name":"o helvete","steam_id":76561198005806915,"connected_time":11561000000000,"state":"active","ping":69},{"user_id":134,"name":"Meskoozy","steam_id":76561198102394479,"connected_time":3754000000000,"state":"active","ping":85},{"user_id":151,"name":"Biggie Cheese","steam_id":76561198799362335,"connected_time":1937000000000,"state":"active","ping":76},{"user_id":67,"name":"Ryoko","steam_id":76561198084725087,"connected_time":9273000000000,"state":"active","ping":59},{"user_id":72,"name":"Lemon Soda","steam_id":76561198140208761,"connected_time":8683000000000,"state":"active","ping":46},{"user_id":169,"name":"nyxn","steam_id":76561198364713633,"connected_time":520000000000,"state":"active","ping":80},{"user_id":105,"name":"Ginger Jesus","steam_id":76561198052386458,"connected_time":6053000000000,"state":"active","ping":45}]},{"server_id":14,"name":"Uncletopia | New York City | 2 | All Maps","name_short":"nyc-2","host":"nyc-1.us.uncletopia.com","port":27025,"enabled":true,"region":"us-east","cc":"us","latitude":40.73061,"longitude":-73.93524,"reserved":0,"last_update":"0001-01-01T00:00:00Z","name_a2s":"Uncletopia | New York City | 2 | All Maps","protocol":17,"map":"ctf_2fort","folder":"tf","game":"Team Fortress","app_id":440,"player_count":0,"max_players":24,"Bots":0,"server_type":"Dedicated","server_os":"Linux","password":true,"vac":true,"version":"7961495","steam_id":85568392924469994,"keywords":["ctf","nocrits","nodmgspread","uncletopia"],"game_id":440,"stv_port":27026,"stv_name":"Uncletopia | New York City | 2 | All Maps | STV","players":null},{"server_id":15,"name":"Uncletopia | New York City | 3 | Stopwatch","name_short":"nyc-3","host":"nyc-1.us.uncletopia.com","port":27035,"enabled":true,"region":"us-east","cc":"us","latitude":40.73061,"longitude":-73.93524,"reserved":0,"last_update":"0001-01-01T00:00:00Z","name_a2s":"Uncletopia | New York City | 3 | Stopwatch","protocol":17,"map":"pl_snowycoast","folder":"tf","game":"Team Fortress","app_id":440,"player_count":0,"max_players":24,"Bots":0,"server_type":"Dedicated","server_os":"Linux","password":true,"vac":true,"version":"7961495","steam_id":85568392924742820,"keywords":["nocrits","nodmgspread","payload","uncletopia"],"game_id":440,"stv_port":27036,"stv_name":"Uncletopia | New York City | 3 | Stopwatch | STV","players":null},{"server_id":16,"name":"Uncletopia | New York City | 4 | Community","name_short":"nyc-4","host":"nyc-1.us.uncletopia.com","port":27045,"enabled":true,"region":"us-east","cc":"us","latitude":40.73061,"longitude":-73.93524,"reserved":0,"last_update":"0001-01-01T00:00:00Z","name_a2s":"Uncletopia | New York City | 4 | Community","protocol":17,"map":"workshop/koth_kemptown_rc1.ugc767410655","folder":"tf","game":"Team Fortress","app_id":440,"player_count":0,"max_players":24,"Bots":0,"server_type":"Dedicated","server_os":"Linux","password":true,"vac":true,"version":"7961495","steam_id":85568392924742821,"keywords":["cp","nocrits","nodmgspread","uncletopia"],"game_id":440,"stv_port":27046,"stv_name":"Uncletopia | New York City | 4 | Community | STV","players":null},{"server_id":142,"name":"Uncletopia | S√£o Paulo | 1 | All Maps","name_short":"sao-1","host":"sao-1.br.uncletopia.com","port":27015,"enabled":true,"region":"sa","cc":"br","latitude":-23.533773,"longitude":-46.62529,"reserved":0,"last_update":"0001-01-01T00:00:00Z","name_a2s":"Uncletopia | S√£o Paulo | 1 | All Maps","protocol":17,"map":"pl_pier","folder":"tf","game":"Team Fortress","app_id":440,"player_count":2,"max_players":24,"Bots":0,"server_type":"Dedicated","server_os":"Linux","password":true,"vac":true,"version":"7961495","steam_id":85568392924469996,"keywords":["nocrits","nodmgspread","payload","uncletopia"],"game_id":440,"stv_port":27016,"stv_name":"Uncletopia | S√£o Paulo | 1 | All Maps | STV","players":[{"user_id":5,"name":"top 10 best gay anime character","steam_id":76561198135025682,"connected_time":183000000000,"state":"active","ping":54},{"user_id":6,"name":"T O O R U","steam_id":76561198971295534,"connected_time":109000000000,"state":"active","ping":60}]},{"server_id":143,"name":"Uncletopia | S√£o Paulo | 2 | Community","name_short":"sao-2","host":"sao-2.br.uncletopia.com","port":27015,"enabled":true,"region":"sa","cc":"br","latitude":-23.533773,"longitude":-46.62529,"reserved":0,"last_update":"0001-01-01T00:00:00Z","name_a2s":"Uncletopia | S√£o Paulo | 2 | Community","protocol":17,"map":"workshop/rd_asteroid_redux_b1.ugc2154902912","folder":"tf","game":"Team Fortress","app_id":440,"player_count":0,"max_players":24,"Bots":0,"server_type":"Dedicated","server_os":"Linux","password":true,"vac":true,"version":"7961495","steam_id":85568392924485349,"keywords":["beta","nocrits","nodmgspread","rd","uncletopia"],"game_id":440,"stv_port":27016,"stv_name":"Uncletopia | S√£o Paulo | 2 | Community | STV","players":null},{"server_id":7,"name":"Uncletopia | Seattle | 1 | All Maps","name_short":"sea-1","host":"sea-1.us.uncletopia.com","port":27015,"enabled":true,"region":"us-west","cc":"us","latitude":47.608013,"longitude":-122.33517,"reserved":0,"last_update":"0001-01-01T00:00:00Z","name_a2s":"Uncletopia | Seattle | 1 | All Maps","protocol":17,"map":"pl_snowycoast","folder":"tf","game":"Team Fortress","app_id":440,"player_count":21,"max_players":24,"Bots":0,"server_type":"Dedicated","server_os":"Linux","password":true,"vac":true,"version":"7961495","steam_id":85568392924469997,"keywords":["nocrits","nodmgspread","payload","uncletopia"],"game_id":440,"stv_port":27016,"stv_name":"Uncletopia | Seattle | 1 | All Maps | STV","players":[{"user_id":100,"name":"Buswolley","steam_id":76561197995205571,"connected_time":1524000000000,"state":"active","ping":66},{"user_id":126,"name":"Darkgigglemonster","steam_id":76561198870649125,"connected_time":625000000000,"state":"active","ping":82},{"user_id":130,"name":"Man don't be like that","steam_id":76561198814658379,"connected_time":150000000000,"state":"spawning","ping":2459},{"user_id":66,"name":"DaddyGalaxy","steam_id":76561198139697796,"connected_time":4225000000000,"state":"active","ping":303},{"user_id":134,"name":"Strikerbolt","steam_id":76561199095622897,"connected_time":5000000000,"state":"spawning","ping":67},{"user_id":108,"name":"Cast Iron Crusader","steam_id":76561198066384337,"connected_time":1274000000000,"state":"active","ping":281},{"user_id":133,"name":"Skabbety","steam_id":76561198168044257,"connected_time":59000000000,"state":"active","ping":39},{"user_id":112,"name":"Mr8bittripper","steam_id":76561198133894229,"connected_time":1179000000000,"state":"active","ping":69},{"user_id":113,"name":"Shazzy","steam_id":76561198145460523,"connected_time":1167000000000,"state":"active","ping":36},{"user_id":122,"name":"O bez","steam_id":76561198841579939,"connected_time":936000000000,"state":"spawning","ping":86},{"user_id":131,"name":"Lain","steam_id":76561198118282205,"connected_time":67000000000,"state":"active","ping":156},{"user_id":79,"name":"Jack","steam_id":76561198162899711,"connected_time":2552000000000,"state":"active","ping":136},{"user_id":128,"name":"Classy Crow","steam_id":76561198208586049,"connected_time":453000000000,"state":"spawning","ping":34},{"user_id":92,"name":"Sudsen","steam_id":76561198370603787,"connected_time":1800000000000,"state":"active","ping":72},{"user_id":107,"name":"Not_Douglas","steam_id":76561199024184136,"connected_time":1280000000000,"state":"active","ping":103},{"user_id":125,"name":"Seriously Bruh","steam_id":76561198070408485,"connected_time":646000000000,"state":"active","ping":45},{"user_id":132,"name":"Noah","steam_id":76561198059048749,"connected_time":67000000000,"state":"active","ping":58},{"user_id":90,"name":"FlamingManiac","steam_id":76561198361996837,"connected_time":1861000000000,"state":"active","ping":111},{"user_id":89,"name":"jenZz","steam_id":76561198233105632,"connected_time":2123000000000,"state":"active","ping":168},{"user_id":116,"name":"Dim","steam_id":76561198061411324,"connected_time":1072000000000,"state":"active","ping":124},{"user_id":95,"name":"rockstepper","steam_id":76561198131833567,"connected_time":1653000000000,"state":"active","ping":73}]},{"server_id":119,"name":"Uncletopia | Seattle | 2 | All Maps","name_short":"sea-2","host":"sea-1.us.uncletopia.com","port":27025,"enabled":true,"region":"us-west","cc":"us","latitude":47.608013,"longitude":-122.33517,"reserved":0,"last_update":"0001-01-01T00:00:00Z","name_a2s":"Uncletopia | Seattle | 2 | All Maps","protocol":17,"map":"koth_highpass","folder":"tf","game":"Team Fortress","app_id":440,"player_count":0,"max_players":24,"Bots":0,"server_type":"Dedicated","server_os":"Linux","password":true,"vac":true,"version":"7961495","steam_id":85568392924469998,"keywords":["cp","nocrits","nodmgspread","uncletopia"],"game_id":440,"stv_port":27026,"stv_name":"Uncletopia | Seattle | 2 | All Maps | STV","players":null},{"server_id":406,"name":"Uncletopia | Seattle | 3 | Stopwatch","name_short":"sea-3","host":"sea-1.us.uncletopia.com","port":27035,"enabled":true,"region":"us-west","cc":"us","latitude":47.608013,"longitude":-122.33517,"reserved":0,"last_update":"0001-01-01T00:00:00Z","name_a2s":"Uncletopia | Seattle | 3 | Stopwatch","protocol":17,"map":"pl_pier","folder":"tf","game":"Team Fortress","app_id":440,"player_count":0,"max_players":24,"Bots":0,"server_type":"Dedicated","server_os":"Linux","password":true,"vac":true,"version":"7961495","steam_id":85568392924515217,"keywords":["nocrits","nodmgspread","payload","uncletopia"],"game_id":440,"stv_port":27036,"stv_name":"Uncletopia | Seattle | 3 | Stopwatch | STV","players":null},{"server_id":17,"name":"Uncletopia | San Francisco | 1 | All Maps","name_short":"sfo-1","host":"sfo-1.us.uncletopia.com","port":27015,"enabled":true,"region":"us-west","cc":"us","latitude":37.77397,"longitude":-122.4313,"reserved":0,"last_update":"0001-01-01T00:00:00Z","name_a2s":"Uncletopia | San Francisco | 1 | All Maps","protocol":17,"map":"ctf_2fort","folder":"tf","game":"Team Fortress","app_id":440,"player_count":0,"max_players":24,"Bots":0,"server_type":"Dedicated","server_os":"Linux","password":true,"vac":true,"version":"7961495","steam_id":85568392924469999,"keywords":["ctf","nocrits","nodmgspread","uncletopia"],"game_id":440,"stv_port":27016,"stv_name":"Uncletopia | San Francisco | 1 | All Maps | STV","players":null},{"server_id":18,"name":"Uncletopia | San Francisco | 2 | All Maps","name_short":"sfo-2","host":"sfo-1.us.uncletopia.com","port":27025,"enabled":true,"region":"us-west","cc":"us","latitude":37.77397,"longitude":-122.4313,"reserved":0,"last_update":"0001-01-01T00:00:00Z","name_a2s":"Uncletopia | San Francisco | 2 | All Maps","protocol":17,"map":"pl_frontier_final","folder":"tf","game":"Team Fortress","app_id":440,"player_count":0,"max_players":24,"Bots":0,"server_type":"Dedicated","server_os":"Linux","password":true,"vac":true,"version":"7961495","steam_id":85568392924470000,"keywords":["nocrits","nodmgspread","payload","uncletopia"],"game_id":440,"stv_port":27026,"stv_name":"Uncletopia | San Francisco | 2 | All Maps | STV","players":null},{"server_id":19,"name":"Uncletopia | San Francisco | 3 | Stopwatch","name_short":"sfo-3","host":"sfo-1.us.uncletopia.com","port":27035,"enabled":true,"region":"us-west","cc":"us","latitude":37.77397,"longitude":-122.4313,"reserved":0,"last_update":"0001-01-01T00:00:00Z","name_a2s":"Uncletopia | San Francisco | 3 | Stopwatch","protocol":17,"map":"pl_pier","folder":"tf","game":"Team Fortress","app_id":440,"player_count":0,"max_players":24,"Bots":0,"server_type":"Dedicated","server_os":"Linux","password":true,"vac":true,"version":"7961495","steam_id":85568392924742824,"keywords":["nocrits","nodmgspread","payload","uncletopia"],"game_id":440,"stv_port":27036,"stv_name":"Uncletopia | San Francisco | 3 | Stopwatch | STV","players":null},{"server_id":20,"name":"Uncletopia | San Francisco | 4 | Community","name_short":"sfo-4","host":"sfo-1.us.uncletopia.com","port":27045,"enabled":true,"region":"us-west","cc":"us","latitude":37.77397,"longitude":-122.4313,"reserved":0,"last_update":"0001-01-01T00:00:00Z","name_a2s":"Uncletopia | San Francisco | 4 | Community","protocol":17,"map":"workshop/koth_bagel_rc6.ugc2514036946","folder":"tf","game":"Team Fortress","app_id":440,"player_count":0,"max_players":24,"Bots":0,"server_type":"Dedicated","server_os":"Linux","password":true,"vac":true,"version":"7961495","steam_id":85568392924742826,"keywords":["cp","nocrits","nodmgspread","uncletopia"],"game_id":440,"stv_port":27046,"stv_name":"Uncletopia | San Francisco | 4 | Community | STV","players":null},{"server_id":141,"name":"Uncletopia | Sydney | 1 | All Maps","name_short":"syd-1","host":"syd-1.au.uncletopia.com","port":27015,"enabled":true,"region":"au","cc":"au","latitude":-33.865143,"longitude":151.2099,"reserved":0,"last_update":"0001-01-01T00:00:00Z","name_a2s":"Uncletopia | Sydney | 1 | All Maps","protocol":17,"map":"koth_viaduct","folder":"tf","game":"Team Fortress","app_id":440,"player_count":0,"max_players":24,"Bots":0,"server_type":"Dedicated","server_os":"Linux","password":true,"vac":true,"version":"7961495","steam_id":85568392924470001,"keywords":["cp","nocrits","nodmgspread","uncletopia"],"game_id":440,"stv_port":27016,"stv_name":"Uncletopia | Sydney | 1 | All Maps | STV","players":null},{"server_id":123,"name":"Uncletopia | Sydney | 2 | All Maps","name_short":"syd-2","host":"syd-1.au.uncletopia.com","port":27025,"enabled":true,"region":"au","cc":"au","latitude":-33.865143,"longitude":151.2099,"reserved":0,"last_update":"0001-01-01T00:00:00Z","name_a2s":"Uncletopia | Sydney | 2 | All Maps","protocol":17,"map":"koth_lakeside_final","folder":"tf","game":"Team Fortress","app_id":440,"player_count":0,"max_players":24,"Bots":0,"server_type":"Dedicated","server_os":"Linux","password":true,"vac":true,"version":"7961495","steam_id":85568392924470002,"keywords":["cp","nocrits","nodmgspread","uncletopia"],"game_id":440,"stv_port":27026,"stv_name":"Uncletopia | Sydney | 2 | All Maps | STV","players":null},{"server_id":395,"name":"Uncletopia | Sydney | 3 | All Maps","name_short":"syd-3","host":"syd-1.au.uncletopia.com","port":27035,"enabled":true,"region":"au","cc":"au","latitude":-33.865143,"longitude":151.2099,"reserved":0,"last_update":"0001-01-01T00:00:00Z","name_a2s":"Uncletopia | Sydney | 3 | All Maps","protocol":17,"map":"pl_frontier_final","folder":"tf","game":"Team Fortress","app_id":440,"player_count":0,"max_players":24,"Bots":0,"server_type":"Dedicated","server_os":"Linux","password":true,"vac":true,"version":"7961495","steam_id":85568392925194467,"keywords":["nocrits","nodmgspread","payload","uncletopia"],"game_id":440,"stv_port":27036,"stv_name":"Uncletopia | Sydney | 3 | All Maps | STV","players":null},{"server_id":396,"name":"Uncletopia | Sydney | 4 | All Maps","name_short":"syd-4","host":"syd-1.au.uncletopia.com","port":27045,"enabled":true,"region":"au","cc":"au","latitude":-33.865143,"longitude":151.2099,"reserved":0,"last_update":"0001-01-01T00:00:00Z","name_a2s":"Uncletopia | Sydney | 4 | All Maps","protocol":17,"map":"cp_process_final","folder":"tf","game":"Team Fortress","app_id":440,"player_count":0,"max_players":24,"Bots":0,"server_type":"Dedicated","server_os":"Linux","password":true,"vac":true,"version":"7961495","steam_id":85568392925397958,"keywords":["cp","nocrits","nodmgspread","uncletopia"],"game_id":440,"stv_port":27046,"stv_name":"Uncletopia | Sydney | 4 | All Maps | STV","players":null},{"server_id":58,"name":"Uncletopia | Sydney | 5 | Stopwatch","name_short":"syd-5","host":"syd-1.au.uncletopia.com","port":27055,"enabled":true,"region":"au","cc":"au","latitude":-33.865143,"longitude":151.2099,"reserved":0,"last_update":"0001-01-01T00:00:00Z","name_a2s":"Uncletopia | Sydney | 5 | Stopwatch","protocol":17,"map":"pl_frontier_final","folder":"tf","game":"Team Fortress","app_id":440,"player_count":0,"max_players":24,"Bots":0,"server_type":"Dedicated","server_os":"Linux","password":true,"vac":true,"version":"7961495","steam_id":85568392925397959,"keywords":["nocrits","nodmgspread","payload","uncletopia"],"game_id":440,"stv_port":27056,"stv_name":"Uncletopia | Sydney | 5 | Stopwatch | STV","players":null},{"server_id":59,"name":"Uncletopia | Sydney | 6 | Community","name_short":"syd-6","host":"syd-1.au.uncletopia.com","port":27065,"enabled":true,"region":"au","cc":"au","latitude":-33.865143,"longitude":151.2099,"reserved":0,"last_update":"0001-01-01T00:00:00Z","name_a2s":"Uncletopia | Sydney | 6 | Community","protocol":17,"map":"cp_sunshine","folder":"tf","game":"Team Fortress","app_id":440,"player_count":0,"max_players":24,"Bots":0,"server_type":"Dedicated","server_os":"Linux","password":true,"vac":true,"version":"7961495","steam_id":85568392925397960,"keywords":["cp","nocrits","nodmgspread","uncletopia"],"game_id":440,"stv_port":27066,"stv_name":"Uncletopia | Sydney | 6 | Community | STV","players":null},{"server_id":49,"name":"Uncletopia | Warsaw | 1 | One Thousand Uncles","name_short":"waw-1","host":"waw-1.pl.uncletopia.com","port":27015,"enabled":true,"region":"eu","cc":"pl","latitude":52.2297,"longitude":21.017532,"reserved":0,"last_update":"0001-01-01T00:00:00Z","name_a2s":"Uncletopia | Warsaw | 1 | One Thousand Uncles","protocol":17,"map":"pl_goldrush","folder":"tf","game":"Team Fortress","app_id":440,"player_count":28,"max_players":32,"Bots":16,"server_type":"Dedicated","server_os":"Linux","password":true,"vac":true,"version":"7961495","steam_id":85568392925397850,"keywords":["alltalk","bots","cp","danepve","increased_maxplayers","nocrits","norespawntime","uncletopia"],"game_id":440,"stv_port":0,"stv_name":"","players":[{"user_id":347,"name":"Outer","steam_id":76561199085041734,"connected_time":577000000000,"state":"spawning","ping":130},{"user_id":351,"name":"SpineJuice","steam_id":76561199084272069,"connected_time":169000000000,"state":"connecting","ping":79},{"user_id":316,"name":"Riky95","steam_id":76561198095289436,"connected_time":3013000000000,"state":"connecting","ping":77},{"user_id":268,"name":"Classic Aga-Mem-Non","steam_id":76561198140331860,"connected_time":9003000000000,"state":"connecting","ping":109},{"user_id":352,"name":"Kasper","steam_id":76561198130128047,"connected_time":51000000000,"state":"connecting","ping":224},{"user_id":344,"name":"Dennis Reynolds","steam_id":76561197960371259,"connected_time":942000000000,"state":"connecting","ping":204},{"user_id":341,"name":"Who?","steam_id":76561198271901063,"connected_time":1112000000000,"state":"connecting","ping":109},{"user_id":308,"name":"Tispy","steam_id":76561199207410049,"connected_time":4105000000000,"state":"connecting","ping":134},{"user_id":305,"name":"tirr0j","steam_id":76561198061949211,"connected_time":4246000000000,"state":"connecting","ping":83},{"user_id":333,"name":"Ox","steam_id":76561198995730614,"connected_time":2032000000000,"state":"connecting","ping":50},{"user_id":345,"name":"DarkJesterofit","steam_id":76561198438092461,"connected_time":941000000000,"state":"connecting","ping":270},{"user_id":337,"name":"PitocoHery","steam_id":76561198814499824,"connected_time":1809000000000,"state":"connecting","ping":352}]},{"server_id":50,"name":"Uncletopia | Warsaw | 2 | One Thousand Uncles","name_short":"waw-2","host":"waw-1.pl.uncletopia.com","port":27025,"enabled":true,"region":"eu","cc":"pl","latitude":52.2297,"longitude":21.017532,"reserved":0,"last_update":"0001-01-01T00:00:00Z","name_a2s":"Uncletopia | Warsaw | 2 | One Thousand Uncles","protocol":17,"map":"cp_dustbowl","folder":"tf","game":"Team Fortress","app_id":440,"player_count":0,"max_players":32,"Bots":0,"server_type":"Dedicated","server_os":"Linux","password":true,"vac":true,"version":"7961495","steam_id":85568392925397851,"keywords":["alltalk","cp","danepve","increased_maxplayers","nocrits","norespawntime","uncletopia"],"game_id":440,"stv_port":0,"stv_name":"","players":null},{"server_id":51,"name":"Uncletopia | Warsaw | 3 | All Maps","name_short":"waw-3","host":"waw-1.pl.uncletopia.com","port":27035,"enabled":true,"region":"eu","cc":"pl","latitude":52.2297,"longitude":21.017532,"reserved":0,"last_update":"0001-01-01T00:00:00Z","name_a2s":"Uncletopia | Warsaw | 3 | All Maps","protocol":17,"map":"plr_pipeline","folder":"tf","game":"Team Fortress","app_id":440,"player_count":1,"max_players":24,"Bots":0,"server_type":"Dedicated","server_os":"Linux","password":true,"vac":true,"version":"7961495","steam_id":85568392925397852,"keywords":["nocrits","nodmgspread","payload","uncletopia"],"game_id":440,"stv_port":27036,"stv_name":"Uncletopia | Warsaw | 3 | All Maps | STV","players":[{"user_id":24,"name":"Keira","steam_id":76561198330870400,"connected_time":83000000000,"state":"active","ping":40}]},{"server_id":52,"name":"Uncletopia | Warsaw | 4 | All Maps","name_short":"waw-4","host":"waw-1.pl.uncletopia.com","port":27045,"enabled":true,"region":"eu","cc":"pl","latitude":52.2297,"longitude":21.017532,"reserved":0,"last_update":"0001-01-01T00:00:00Z","name_a2s":"Uncletopia | Warsaw | 4 | All Maps","protocol":17,"map":"pl_borneo","folder":"tf","game":"Team Fortress","app_id":440,"player_count":0,"max_players":24,"Bots":0,"server_type":"Dedicated","server_os":"Linux","password":true,"vac":true,"version":"7961495","steam_id":85568392925397853,"keywords":["nocrits","nodmgspread","payload","uncletopia"],"game_id":440,"stv_port":27046,"stv_name":"Uncletopia | Warsaw | 4 | All Maps | STV","players":null},{"server_id":53,"name":"Uncletopia | Warsaw | 5 | Stopwatch","name_short":"waw-5","host":"waw-1.pl.uncletopia.com","port":27055,"enabled":true,"region":"eu","cc":"pl","latitude":52.2297,"longitude":21.017532,"reserved":0,"last_update":"0001-01-01T00:00:00Z","name_a2s":"Uncletopia | Warsaw | 5 | Stopwatch","protocol":17,"map":"koth_lakeside_final","folder":"tf","game":"Team Fortress","app_id":440,"player_count":0,"max_players":24,"Bots":0,"server_type":"Dedicated","server_os":"Linux","password":true,"vac":true,"version":"7961495","steam_id":85568392925397854,"keywords":["cp","nocrits","nodmgspread","uncletopia"],"game_id":440,"stv_port":27056,"stv_name":"Uncletopia | Warsaw | 5 | Stopwatch | STV","players":null},{"server_id":54,"name":"Uncletopia | Warsaw | 6 | Community","name_short":"waw-6","host":"waw-1.pl.uncletopia.com","port":27065,"enabled":true,"region":"eu","cc":"pl","latitude":52.2297,"longitude":21.017532,"reserved":0,"last_update":"0001-01-01T00:00:00Z","name_a2s":"Uncletopia | Warsaw | 6 | Community","protocol":17,"map":"workshop/cp_propaganda_b18.ugc1603743849","folder":"tf","game":"Team Fortress","app_id":440,"player_count":0,"max_players":24,"Bots":0,"server_type":"Dedicated","server_os":"Linux","password":true,"vac":true,"version":"7961495","steam_id":85568392925397856,"keywords":["cp","nocrits","nodmgspread","uncletopia"],"game_id":440,"stv_port":27066,"stv_name":"Uncletopia | Warsaw | 6 | Community | STV","players":null}]}