{"status":true,"message":"","result":[{"server_id":9,"name":"Uncletopia | Atlanta | 1 | All Maps","name_short":"atl-1","host":"atl-1.us.uncletopia.com","port":27015,"enabled":true,"region":"us-east","cc":"us","latitude":33.753746,"longitude":-84.38633,"reserved":0,"last_update":"0001-01-01T00:00:00Z","name_a2s":"Uncletopia | Atlanta | 1 | All Maps","protocol":17,"map":"koth_lakeside_final","folder":"tf","game":"Team Fortress","app_id":440,"player_count":24,"max_players":24,"Bots":0,"server_type":"Dedicated","server_os":"Linux","password":true,"vac":true,"version":"7723704","steam_id":85568392924469982,"keywords":["cp","nocrits","nodmgspread","uncletopia"],"game_id":440,"stv_port":27016,"stv_name":"Uncletopia | Atlanta | 1 | All Maps | STV","players":[{"user_id":209,"name":"trashed","steam_id":76561197961095970,"connected_time":2827000000000,"state":"active","ping":67},{"user_id":200,"name":"Arcadletus","steam_id":76561198976009938,"connected_time":3376000000000,"state":"active","ping":87},{"user_id":198,"name":"A used self heating flesh-light","steam_id":76561198069918221,"connected_time":3496000000000,"state":"active","ping":66},{"user_id":240,"name":"Skinny","steam_id":76561198025340966,"connected_time":1392000000000,"state":"active","ping":105},{"user_id":228,"name":"mobe","steam_id":76561198121633820,"connected_time":1830000000000,"state":"active","ping":105},{"user_id":232,"name":"2fort cryptid","steam_id":76561198369517354,"connected_time":1535000000000,"state":"active","ping":127},{"user_id":222,"name":"Scoutroad","steam_id":76561198136564680,"connected_time":2142000000000,"state":"active","ping":75},{"user_id":212,"name":"ansoonii","steam_id":76561198092494136,"connected_time":2671000000000,"state":"active","ping":73},{"user_id":246,"name":"Amaretto Sour","steam_id":76561198063112844,"connected_time":114000000000,"state":"active","ping":76},{"user_id":194,"name":"eryn üó∫","steam_id":76561198004433070,"connected_time":4009000000000,"state":"active","ping":82},{"user_id":245,"name":"Ty","steam_id":76561198139927627,"connected_time":482000000000,"state":"active","ping":45},{"user_id":244,"name":"big guapo","steam_id":76561198103228695,"connected_time":784000000000,"state":"active","ping":64},{"user_id":224,"name":"About That Gift I Owed Ya","steam_id":76561198071506287,"connected_time":1985000000000,"state":"active","ping":107},{"user_id":215,"name":"Godfinger","steam_id":76561198426346549,"connected_time":2642000000000,"state":"active","ping":57},{"user_id":242,"name":"sweaterfan","steam_id":76561199389567214,"connected_time":990000000000,"state":"active","ping":62},{"user_id":233,"name":"trans they gender she/her/they/","steam_id":76561198212470305,"connected_time":1533000000000,"state":"active","ping":61},{"user_id":225,"name":"Fantastic","steam_id":76561198079088978,"connected_time":1976000000000,"state":"active","ping":60},{"user_id":239,"name":"floofy","steam_id":76561198389769098,"connected_time":1436000000000,"state":"active","ping":83},{"user_id":187,"name":"ATL1 | on my hunting trip","steam_id":76561198315341646,"connected_time":4657000000000,"state":"active","ping":69},{"user_id":226,"name":"Yeshie the Dragon Layer","steam_id":76561198080214214,"connected_time":1965000000000,"state":"active","ping":62},{"user_id":227,"name":"Antonio Molonio","steam_id":76561198038929334,"connected_time":1965000000000,"state":"active","ping":55},{"user_id":231,"name":"cobalt","steam_id":76561198126982318,"connected_time":1546000000000,"state":"active","ping":72},{"user_id":230,"name":"SOPHIE BOMB","steam_id":76561198248461754,"connected_time":1816000000000,"state":"active","ping":111},{"user_id":241,"name":"gromit","steam_id":76561198037746805,"connected_time":1344000000000,"state":"active","ping":75}]},{"server_id":400,"name":"Uncletopia | Atlanta | 3 | All Maps","name_short":"atl-3","host":"atl-1.us.uncletopia.com","port":27035,"enabled":true,"region":"us-east","cc":"us","latitude":33.753746,"longitude":-84.38633,"reserved":0,"last_update":"0001-01-01T00:00:00Z","name_a2s":"Uncletopia | Atlanta | 3 | All Maps","protocol":17,"map":"koth_viaduct","folder":"tf","game":"Team Fortress","app_id":440,"player_count":2,"max_players":24,"Bots":0,"server_type":"Dedicated","server_os":"Linux","password":true,"vac":true,"version":"7723704","steam_id":85568392924515187,"keywords":["cp","nocrits","nodmgspread","uncletopia"],"game_id":440,"stv_port":27036,"stv_name":"Uncletopia | Atlanta | 3 | All Maps | STV","players":[{"user_id":112,"name":"Space bar ¬©","steam_id":76561199405318831,"connected_time":4236000000000,"state":"active","ping":82},{"user_id":113,"name":"squig_","steam_id":76561198043726592,"connected_time":2979000000000,"state":"active","ping":60}]},{"server_id":401,"name":"Uncletopia | Atlanta | 4 | No Payload","name_short":"atl-4","host":"atl-1.us.uncletopia.com","port":27045,"enabled":true,"region":"us-east","cc":"us","latitude":33.753746,"longitude":-84.38633,"reserved":0,"last_update":"0001-01-01T00:00:00Z","name_a2s":"Uncletopia | Atlanta | 4 | No Payload","protocol":17,"map":"cp_dustbowl","folder":"tf","game":"Team Fortress","app_id":440,"player_count":1,"max_players":24,"Bots":0,"server_type":"Dedicated","server_os":"Linux","password":true,"vac":true,"version":"7723704","steam_id":85568392924515188,"keywords":["cp","nocrits","nodmgspread","uncletopia"],"game_id":440,"stv_port":27046,"stv_name":"Uncletopia | Atlanta | 4 | No Payload | STV","players":[{"user_id":7,"name":"Anxiety","steam_id":76561198365627687,"connected_time":139000000000,"state":"active","ping":89}]},{"server_id":2,"name":"Uncletopia | Chicago | 1 | All Maps","name_short":"chi-1","host":"chi-1.us.uncletopia.com","port":27015,"enabled":true,"region":"us-central","cc":"us","latitude":41.881832,"longitude":-87.62318,"reserved":0,"last_update":"0001-01-01T00:00:00Z","name_a2s":"Uncletopia | Chicago | 1 | All Maps","protocol":17,"map":"pl_swiftwater_final1","folder":"tf","game":"Team Fortress","app_id":440,"player_count":24,"max_players":24,"Bots":0,"server_type":"Dedicated","server_os":"Linux","password":true,"vac":true,"version":"7723704","steam_id":85568392924469984,"keywords":["nocrits","nodmgspread","payload","uncletopia"],"game_id":440,"stv_port":27016,"stv_name":"Uncletopia | Chicago | 1 | All Maps | STV","players":[{"user_id":248,"name":"Jon","steam_id":76561198024985046,"connected_time":985000000000,"state":"active","ping":86},{"user_id":237,"name":"Vasuvo","steam_id":76561198044946283,"connected_time":2350000000000,"state":"active","ping":72},{"user_id":255,"name":"ROGUE-PLANET","steam_id":76561198116023052,"connected_time":571000000000,"state":"active","ping":74},{"user_id":244,"name":"Quentin","steam_id":76561198032941413,"connected_time":1738000000000,"state":"active","ping":74},{"user_id":266,"name":"Sharmat","steam_id":76561198103492042,"connected_time":377000000000,"state":"active","ping":59},{"user_id":258,"name":"Bootstrap","steam_id":76561199110353614,"connected_time":517000000000,"state":"active","ping":81},{"user_id":203,"name":"Chuck Finley","steam_id":76561198027411284,"connected_time":4815000000000,"state":"active","ping":68},{"user_id":268,"name":"tinguspingus","steam_id":76561198147746558,"connected_time":345000000000,"state":"active","ping":56},{"user_id":238,"name":"Aegis","steam_id":76561198272052750,"connected_time":2325000000000,"state":"active","ping":79},{"user_id":260,"name":"h4byn","steam_id":76561198284846714,"connected_time":496000000000,"state":"active","ping":49},{"user_id":239,"name":"=flashpoint=","steam_id":76561197976774456,"connected_time":2320000000000,"state":"active","ping":145},{"user_id":207,"name":"Kaktus Finger","steam_id":76561198132808244,"connected_time":4763000000000,"state":"active","ping":64},{"user_id":167,"name":"azusa","steam_id":76561198049483469,"connected_time":7697000000000,"state":"active","ping":78},{"user_id":219,"name":"TallBadUserName","steam_id":76561198399685508,"connected_time":3785000000000,"state":"active","ping":129},{"user_id":253,"name":"Poo Man","steam_id":76561199187453885,"connected_time":669000000000,"state":"active","ping":56},{"user_id":261,"name":"Warzone","steam_id":76561198209005980,"connected_time":475000000000,"state":"active","ping":52},{"user_id":168,"name":"jajaja","steam_id":76561197980633611,"connected_time":7691000000000,"state":"active","ping":94},{"user_id":262,"name":"Abbashea","steam_id":76561199182136969,"connected_time":455000000000,"state":"active","ping":81},{"user_id":236,"name":"Ye (I Love Hitler) West","steam_id":76561198068830312,"connected_time":2559000000000,"state":"active","ping":46},{"user_id":246,"name":"debin","steam_id":76561198070711217,"connected_time":1648000000000,"state":"active","ping":55},{"user_id":242,"name":"Webi Wabo","steam_id":76561198799224408,"connected_time":2166000000000,"state":"active","ping":58},{"user_id":263,"name":"dr. filth","steam_id":76561198389005732,"connected_time":439000000000,"state":"active","ping":89},{"user_id":243,"name":"L. Ron Hoyabembe","steam_id":76561198037786766,"connected_time":2158000000000,"state":"active","ping":93},{"user_id":252,"name":"barry from jetpack joyride","steam_id":76561198881575174,"connected_time":852000000000,"state":"active","ping":172}]},{"server_id":106,"name":"Uncletopia | Chicago | 2 | All Maps","name_short":"chi-2","host":"chi-1.us.uncletopia.com","port":27025,"enabled":true,"region":"us-central","cc":"us","latitude":41.881832,"longitude":-87.62318,"reserved":0,"last_update":"0001-01-01T00:00:00Z","name_a2s":"Uncletopia | Chicago | 2 | All Maps","protocol":17,"map":"koth_highpass","folder":"tf","game":"Team Fortress","app_id":440,"player_count":0,"max_players":24,"Bots":0,"server_type":"Dedicated","server_os":"Linux","password":true,"vac":true,"version":"7723704","steam_id":85568392924469985,"keywords":["cp","nocrits","nodmgspread","uncletopia"],"game_id":440,"stv_port":27026,"stv_name":"Uncletopia | Chicago | 2 | All Maps | STV","players":null},{"server_id":402,"name":"Uncletopia | Chicago | 3 | All Maps","name_short":"chi-3","host":"chi-1.us.uncletopia.com","port":27035,"enabled":true,"region":"us-central","cc":"us","latitude":41.881832,"longitude":-87.62318,"reserved":0,"last_update":"0001-01-01T00:00:00Z","name_a2s":"Uncletopia | Chicago | 3 | All Maps","protocol":17,"map":"pl_badwater","folder":"tf","game":"Team Fortress","app_id":440,"player_count":6,"max_players":24,"Bots":0,"server_type":"Dedicated","server_os":"Linux","password":true,"vac":true,"version":"7723704","steam_id":85568392924515191,"keywords":["nocrits","nodmgspread","payload","uncletopia"],"game_id":440,"stv_port":27036,"stv_name":"Uncletopia | Chicago | 3 | All Maps | STV","players":[{"user_id":177,"name":"Militant Pacifist","steam_id":76561198290691432,"connected_time":746000000000,"state":"active","ping":94},{"user_id":172,"name":"base4","steam_id":76561198042226166,"connected_time":3172000000000,"state":"active","ping":72},{"user_id":176,"name":"SnowCatWarrior","steam_id":76561199200480562,"connected_time":1352000000000,"state":"active","ping":118},{"user_id":182,"name":"Barry B BenZYN","steam_id":76561198112187539,"connected_time":266000000000,"state":"active","ping":83},{"user_id":158,"name":"Hermit not Kermit","steam_id":76561198106182525,"connected_time":4914000000000,"state":"active","ping":91},{"user_id":157,"name":"Saristan","steam_id":76561198093346048,"connected_time":4990000000000,"state":"active","ping":60}]},{"server_id":403,"name":"Uncletopia | Chicago | 4 | All Maps","name_short":"chi-4","host":"chi-1.us.uncletopia.com","port":27045,"enabled":true,"region":"us-central","cc":"us","latitude":41.881832,"longitude":-87.62318,"reserved":0,"last_update":"0001-01-01T00:00:00Z","name_a2s":"Uncletopia | Chicago | 4 | All Maps","protocol":17,"map":"pl_badwater","folder":"tf","game":"Team Fortress","app_id":440,"player_count":10,"max_players":24,"Bots":0,"server_type":"Dedicated","server_os":"Linux","password":true,"vac":true,"version":"7723704","steam_id":85568392924515193,"keywords":["nocrits","nodmgspread","payload","uncletopia"],"game_id":440,"stv_port":27046,"stv_name":"Uncletopia | Chicago | 4 | All Maps | STV","players":[{"user_id":192,"name":"ItsRoy","steam_id":76561198119525485,"connected_time":105000000000,"state":"active","ping":51},{"user_id":168,"name":"Whorenet","steam_id":76561198090433209,"connected_time":1607000000000,"state":"active","ping":84},{"user_id":188,"name":"Stev","steam_id":76561198061516631,"connected_time":689000000000,"state":"active","ping":30},{"user_id":189,"name":"carnage519","steam_id":76561199231295945,"connected_time":682000000000,"state":"active","ping":57},{"user_id":124,"name":"InfernoFlower64","steam_id":76561198181097391,"connected_time":4595000000000,"state":"active","ping":98},{"user_id":171,"name":"Lost","steam_id":76561198025933206,"connected_time":1544000000000,"state":"active","ping":59},{"user_id":172,"name":"Bad Rats Fan","steam_id":76561198361356010,"connected_time":1514000000000,"state":"active","ping":47},{"user_id":175,"name":"two vegan hot dogs","steam_id":76561198026589960,"connected_time":1494000000000,"state":"active","ping":49},{"user_id":139,"name":"Funky Buttlovin","steam_id":76561198002807702,"connected_time":3996000000000,"state":"active","ping":52},{"user_id":178,"name":"Space-E","steam_id":76561198799417313,"connected_time":1370000000000,"state":"active","ping":62}]},{"server_id":36,"name":"Uncletopia | Chicago | 5 | All Maps","name_short":"chi-5","host":"chi-2.us.uncletopia.com","port":27015,"enabled":true,"region":"us-central","cc":"us","latitude":41.881832,"longitude":-87.62318,"reserved":0,"last_update":"0001-01-01T00:00:00Z","name_a2s":"Uncletopia | Chicago | 5 | All Maps","protocol":17,"map":"koth_cascade","folder":"tf","game":"Team Fortress","app_id":440,"player_count":0,"max_players":24,"Bots":0,"server_type":"Dedicated","server_os":"Linux","password":true,"vac":true,"version":"7723704","steam_id":85568392924866362,"keywords":["cp","nocrits","nodmgspread","uncletopia"],"game_id":440,"stv_port":27016,"stv_name":"Uncletopia | Chicago | 5 | All Maps | STV","players":null},{"server_id":37,"name":"Uncletopia | Chicago | 6 | All Maps","name_short":"chi-6","host":"chi-2.us.uncletopia.com","port":27025,"enabled":true,"region":"us-central","cc":"us","latitude":41.881832,"longitude":-87.62318,"reserved":0,"last_update":"0001-01-01T00:00:00Z","name_a2s":"Uncletopia | Chicago | 6 | All Maps","protocol":17,"map":"koth_lakeside_final","folder":"tf","game":"Team Fortress","app_id":440,"player_count":0,"max_players":24,"Bots":0,"server_type":"Dedicated","server_os":"Linux","password":true,"vac":true,"version":"7723704","steam_id":85568392924866363,"keywords":["cp","nocrits","nodmgspread","uncletopia"],"game_id":440,"stv_port":27026,"stv_name":"Uncletopia | Chicago | 6 | All Maps | STV","players":null},{"server_id":38,"name":"Uncletopia | Chicago | 7 | Stopwatch (test)","name_short":"chi-7","host":"chi-2.us.uncletopia.com","port":27035,"enabled":true,"region":"us-central","cc":"us","latitude":41.881832,"longitude":-87.62318,"reserved":0,"last_update":"0001-01-01T00:00:00Z","name_a2s":"Uncletopia | Chicago | 7 | Stopwatch (test)","protocol":17,"map":"pl_upward","folder":"tf","game":"Team Fortress","app_id":440,"player_count":0,"max_players":24,"Bots":0,"server_type":"Dedicated","server_os":"Linux","password":true,"vac":true,"version":"7723704","steam_id":85568392924866364,"keywords":["nocrits","nodmgspread","payload","uncletopia"],"game_id":440,"stv_port":27036,"stv_name":"Uncletopia | Chicago | 7 | Stopwatch (test) | STV","players":null},{"server_id":39,"name":"Uncletopia | Chicago | 8 | Community","name_short":"chi-8","host":"chi-2.us.uncletopia.com","port":27045,"enabled":true,"region":"us-central","cc":"us","latitude":41.881832,"longitude":-87.62318,"reserved":0,"last_update":"0001-01-01T00:00:00Z","name_a2s":"Uncletopia | Chicago | 8 | Community","protocol":17,"map":"workshop/pl_eruption_b8c.ugc2865677281","folder":"tf","game":"Team Fortress","app_id":440,"player_count":0,"max_players":24,"Bots":0,"server_type":"Dedicated","server_os":"Linux","password":true,"vac":true,"version":"7723704","steam_id":85568392924866365,"keywords":["nocrits","nodmgspread","payload","uncletopia"],"game_id":440,"stv_port":27046,"stv_name":"Uncletopia | Chicago | 8 | Community | STV","players":null},{"server_id":8,"name":"Uncletopia | Dallas | 1 | All Maps","name_short":"dal-1","host":"dal-1.us.uncletopia.com","port":27015,"enabled":true,"region":"us-central","cc":"us","latitude":32.779167,"longitude":-96.80889,"reserved":0,"last_update":"0001-01-01T00:00:00Z","name_a2s":"Uncletopia | Dallas | 1 | All Maps","protocol":17,"map":"cp_snakewater_final1","folder":"tf","game":"Team Fortress","app_id":440,"player_count":0,"max_players":24,"Bots":0,"server_type":"Dedicated","server_os":"Linux","password":true,"vac":true,"version":"7723704","steam_id":85568392924469986,"keywords":["cp","nocrits","nodmgspread","uncletopia"],"game_id":440,"stv_port":27016,"stv_name":"Uncletopia | Dallas | 1 | All Maps | STV","players":null},{"server_id":108,"name":"Uncletopia | Dallas | 2 | All Maps","name_short":"dal-2","host":"dal-1.us.uncletopia.com","port":27025,"enabled":true,"region":"us-central","cc":"us","latitude":32.779167,"longitude":-96.80889,"reserved":0,"last_update":"0001-01-01T00:00:00Z","name_a2s":"Uncletopia | Dallas | 2 | All Maps","protocol":17,"map":"koth_highpass","folder":"tf","game":"Team Fortress","app_id":440,"player_count":0,"max_players":24,"Bots":0,"server_type":"Dedicated","server_os":"Linux","password":true,"vac":true,"version":"7723704","steam_id":85568392924469988,"keywords":["cp","nocrits","nodmgspread","uncletopia"],"game_id":440,"stv_port":27026,"stv_name":"Uncletopia | Dallas | 2 | All Maps | STV","players":null},{"server_id":5,"name":"Uncletopia | Frankfurt | 1 | All Maps","name_short":"frk-1","host":"frk-1.de.uncletopia.com","port":27015,"enabled":true,"region":"eu","cc":"de","latitude":50.110924,"longitude":8.682127,"reserved":0,"last_update":"0001-01-01T00:00:00Z","name_a2s":"Uncletopia | Frankfurt | 1 | All Maps","protocol":17,"map":"cp_mountainlab","folder":"tf","game":"Team Fortress","app_id":440,"player_count":0,"max_players":24,"Bots":0,"server_type":"Dedicated","server_os":"Linux","password":true,"vac":true,"version":"7723704","steam_id":85568392924469989,"keywords":["cp","nocrits","nodmgspread","uncletopia"],"game_id":440,"stv_port":27016,"stv_name":"Uncletopia | Frankfurt | 1 | All Maps | STV","players":null},{"server_id":110,"name":"Uncletopia | Frankfurt | 2 | All Maps","name_short":"frk-2","host":"frk-1.de.uncletopia.com","port":27025,"enabled":true,"region":"eu","cc":"de","latitude":50.110924,"longitude":8.682127,"reserved":0,"last_update":"0001-01-01T00:00:00Z","name_a2s":"Uncletopia | Frankfurt | 2 | All Maps","protocol":17,"map":"pl_pier","folder":"tf","game":"Team Fortress","app_id":440,"player_count":0,"max_players":24,"Bots":0,"server_type":"Dedicated","server_os":"Linux","password":true,"vac":true,"version":"7723704","steam_id":85568392924469990,"keywords":["nocrits","nodmgspread","payload","uncletopia"],"game_id":440,"stv_port":27026,"stv_name":"Uncletopia | Frankfurt | 2 | All Maps | STV","players":null},{"server_id":308,"name":"Uncletopia | Frankfurt | 3 | All Maps","name_short":"frk-3","host":"frk-1.de.uncletopia.com","port":27035,"enabled":true,"region":"eu","cc":"de","latitude":50.110924,"longitude":8.682127,"reserved":0,"last_update":"0001-01-01T00:00:00Z","name_a2s":"Uncletopia | Frankfurt | 3 | All Maps","protocol":17,"map":"pl_swiftwater_final1","folder":"tf","game":"Team Fortress","app_id":440,"player_count":0,"max_players":24,"Bots":0,"server_type":"Dedicated","server_os":"Linux","password":true,"vac":true,"version":"7723704","steam_id":85568392924504274,"keywords":["nocrits","nodmgspread","payload","uncletopia"],"game_id":440,"stv_port":27036,"stv_name":"Uncletopia | Frankfurt | 3 | All Maps | STV","players":null},{"server_id":309,"name":"Uncletopia | Frankfurt | 4 | All Maps","name_short":"frk-4","host":"frk-1.de.uncletopia.com","port":27045,"enabled":true,"region":"eu","cc":"de","latitude":50.110924,"longitude":8.682127,"reserved":0,"last_update":"0001-01-01T00:00:00Z","name_a2s":"Uncletopia | Frankfurt | 4 | All Maps","protocol":17,"map":"cp_altitude","folder":"tf","game":"Team Fortress","app_id":440,"player_count":0,"max_players":24,"Bots":0,"server_type":"Dedicated","server_os":"Linux","password":true,"vac":true,"version":"7723704","steam_id":85568392924504275,"keywords":["cp","nocrits","nodmgspread","uncletopia"],"game_id":440,"stv_port":27046,"stv_name":"Uncletopia | Frankfurt | 4 | All Maps | STV","players":null},{"server_id":310,"name":"Uncletopia | Frankfurt | 5 | All Maps","name_short":"frk-5","host":"frk-1.de.uncletopia.com","port":27055,"enabled":true,"region":"eu","cc":"de","latitude":50.110924,"longitude":8.682127,"reserved":0,"last_update":"0001-01-01T00:00:00Z","name_a2s":"Uncletopia | Frankfurt | 5 | All Maps","protocol":17,"map":"cp_process_final","folder":"tf","game":"Team Fortress","app_id":440,"player_count":0,"max_players":24,"Bots":0,"server_type":"Dedicated","server_os":"Linux","password":true,"vac":true,"version":"7723704","steam_id":85568392924504277,"keywords":["cp","nocrits","nodmgspread","uncletopia"],"game_id":440,"stv_port":27056,"stv_name":"Uncletopia | Frankfurt | 5 | All Maps | STV","players":null},{"server_id":311,"name":"Uncletopia | Frankfurt | 6 | All Maps","name_short":"frk-6","host":"frk-1.de.uncletopia.com","port":27065,"enabled":true,"region":"eu","cc":"de","latitude":50.110924,"longitude":8.682127,"reserved":0,"last_update":"0001-01-01T00:00:00Z","name_a2s":"Uncletopia | Frankfurt | 6 | All Maps","protocol":17,"map":"cp_snakewater_final1","folder":"tf","game":"Team Fortress","app_id":440,"player_count":0,"max_players":24,"Bots":0,"server_type":"Dedicated","server_os":"Linux","password":true,"vac":true,"version":"7723704","steam_id":85568392924504278,"keywords":["cp","nocrits","nodmgspread","uncletopia"],"game_id":440,"stv_port":27066,"stv_name":"Uncletopia | Frankfurt | 6 | All Maps | STV","players":null},{"server_id":23,"name":"Uncletopia | Frankfurt | 7 | No Payload","name_short":"frk-7","host":"frk-1.de.uncletopia.com","port":27075,"enabled":true,"region":"eu","cc":"de","latitude":50.110924,"longitude":8.682127,"reserved":0,"last_update":"0001-01-01T00:00:00Z","name_a2s":"Uncletopia | Frankfurt | 7 | No Payload","protocol":17,"map":"pl_upward","folder":"tf","game":"Team Fortress","app_id":440,"player_count":0,"max_players":24,"Bots":0,"server_type":"Dedicated","server_os":"Linux","password":true,"vac":true,"version":"7723704","steam_id":85568392924742827,"keywords":["nocrits","nodmgspread","payload","uncletopia"],"game_id":440,"stv_port":27076,"stv_name":"Uncletopia | Frankfurt | 7 | No Payload | STV","players":null},{"server_id":24,"name":"Uncletopia | Frankfurt | 8 | Community","name_short":"frk-8","host":"frk-1.de.uncletopia.com","port":27085,"enabled":true,"region":"eu","cc":"de","latitude":50.110924,"longitude":8.682127,"reserved":0,"last_update":"0001-01-01T00:00:00Z","name_a2s":"Uncletopia | Frankfurt | 8 | Community","protocol":17,"map":"cp_altitude","folder":"tf","game":"Team Fortress","app_id":440,"player_count":0,"max_players":24,"Bots":0,"server_type":"Dedicated","server_os":"Linux","password":true,"vac":true,"version":"7723704","steam_id":85568392924742828,"keywords":["cp","nocrits","nodmgspread","uncletopia"],"game_id":440,"stv_port":27086,"stv_name":"Uncletopia | Frankfurt | 8 | Community | STV","players":null},{"server_id":202,"name":"Uncletopia | Hong Kong | 1 | All Maps","name_short":"hgk-1","host":"hgk-1.hk.uncletopia.com","port":27015,"enabled":true,"region":"asia","cc":"hk","latitude":22.302711,"longitude":114.177216,"reserved":0,"last_update":"0001-01-01T00:00:00Z","name_a2s":"Uncletopia | Hong Kong | 1 | All Maps","protocol":17,"map":"pl_wutville_event","folder":"tf","game":"Team Fortress","app_id":440,"player_count":20,"max_players":24,"Bots":0,"server_type":"Dedicated","server_os":"Linux","password":true,"vac":true,"version":"7723704","steam_id":85568392924494504,"keywords":["nocrits","nodmgspread","payload","uncletopia"],"game_id":440,"stv_port":27016,"stv_name":"Uncletopia | Hong Kong | 1 | All Maps | STV","players":[{"user_id":207,"name":"araner","steam_id":76561199012678702,"connected_time":42000000000,"state":"spawning","ping":78},{"user_id":168,"name":"IZ*","steam_id":76561198834621927,"connected_time":3028000000000,"state":"active","ping":75},{"user_id":93,"name":"Noyour","steam_id":76561198323259830,"connected_time":8784000000000,"state":"active","ping":112},{"user_id":188,"name":"chaihu77","steam_id":76561198996483042,"connected_time":1317000000000,"state":"spawning","ping":108},{"user_id":196,"name":"greeny","steam_id":76561198024666371,"connected_time":598000000000,"state":"active","ping":90},{"user_id":208,"name":"L√∫d","steam_id":76561198828840546,"connected_time":35000000000,"state":"active","ping":55},{"user_id":176,"name":"Skyler White yo","steam_id":76561198895193247,"connected_time":2212000000000,"state":"active","ping":66},{"user_id":194,"name":"iwaslike","steam_id":76561199163488275,"connected_time":1034000000000,"state":"active","ping":75},{"user_id":184,"name":"Windmill","steam_id":76561199230997986,"connected_time":1479000000000,"state":"active","ping":71},{"user_id":195,"name":"Level 3 sentry","steam_id":76561198979802944,"connected_time":805000000000,"state":"active","ping":53},{"user_id":206,"name":"Teampangit","steam_id":76561198087774626,"connected_time":103000000000,"state":"active","ping":61},{"user_id":192,"name":"QWQ","steam_id":76561198886731650,"connected_time":1093000000000,"state":"active","ping":97},{"user_id":145,"name":"bakabazooka(merrychrismas)","steam_id":76561198061628689,"connected_time":4566000000000,"state":"active","ping":51},{"user_id":197,"name":"G4laxyZ","steam_id":76561198250904422,"connected_time":528000000000,"state":"active","ping":64},{"user_id":107,"name":"ogey","steam_id":76561198074339034,"connected_time":7814000000000,"state":"active","ping":69},{"user_id":200,"name":"CaptainBozo","steam_id":76561199151959977,"connected_time":411000000000,"state":"active","ping":74},{"user_id":189,"name":"Yes'Tir'Day","steam_id":76561198091798037,"connected_time":1281000000000,"state":"active","ping":99},{"user_id":191,"name":"RandomGuy1085","steam_id":76561199053910995,"connected_time":1155000000000,"state":"active","ping":75},{"user_id":143,"name":"screaming sniper","steam_id":76561199085568674,"connected_time":4590000000000,"state":"active","ping":69},{"user_id":165,"name":"Èõ™„Éé‰∏ãÈõ™‰πÉ„ÅÆoppai","steam_id":76561198008307645,"connected_time":3334000000000,"state":"active","ping":73}]},{"server_id":1,"name":"Uncletopia | Los Angeles | 1 | All Maps","name_short":"lax-1","host":"lax-1.us.uncletopia.com","port":27015,"enabled":true,"region":"us-west","cc":"us","latitude":33.94279,"longitude":-118.41004,"reserved":0,"last_update":"0001-01-01T00:00:00Z","name_a2s":"Uncletopia | Los Angeles | 1 | All Maps","protocol":17,"map":"koth_viaduct","folder":"tf","game":"Team Fortress","app_id":440,"player_count":23,"max_players":24,"Bots":0,"server_type":"Dedicated","server_os":"Linux","password":true,"vac":true,"version":"7723704","steam_id":85568392924469991,"keywords":["cp","nocrits","nodmgspread","uncletopia"],"game_id":440,"stv_port":27016,"stv_name":"Uncletopia | Los Angeles | 1 | All Maps | STV","players":[{"user_id":168,"name":"spot","steam_id":76561198151135298,"connected_time":913000000000,"state":"active","ping":36},{"user_id":166,"name":"BrightOrangeMango","steam_id":76561198023144607,"connected_time":953000000000,"state":"active","ping":53},{"user_id":181,"name":"WildCard","steam_id":76561198314058014,"connected_time":496000000000,"state":"active","ping":75},{"user_id":185,"name":"GP-Stealth","steam_id":76561198142906368,"connected_time":252000000000,"state":"active","ping":52},{"user_id":147,"name":"The Engie","steam_id":76561198029782412,"connected_time":2296000000000,"state":"active","ping":70},{"user_id":106,"name":"Star","steam_id":76561198422395239,"connected_time":7082000000000,"state":"active","ping":52},{"user_id":164,"name":"Lambchop","steam_id":76561198043900363,"connected_time":1066000000000,"state":"active","ping":65},{"user_id":137,"name":"dzcreeper","steam_id":76561198072250723,"connected_time":3782000000000,"state":"active","ping":79},{"user_id":151,"name":"Soap Man","steam_id":76561198000490235,"connected_time":2133000000000,"state":"active","ping":91},{"user_id":184,"name":"TransWomanGaming","steam_id":76561198809645656,"connected_time":314000000000,"state":"active","ping":94},{"user_id":165,"name":"Kaiga","steam_id":76561198044052046,"connected_time":1012000000000,"state":"active","ping":96},{"user_id":186,"name":"FrostyEgo","steam_id":76561197998069472,"connected_time":228000000000,"state":"active","ping":115},{"user_id":187,"name":"Killer_Queen.exe","steam_id":76561198065624326,"connected_time":219000000000,"state":"active","ping":67},{"user_id":188,"name":"Darkestslayer","steam_id":76561198087250589,"connected_time":192000000000,"state":"active","ping":85},{"user_id":144,"name":"goopsnatch","steam_id":76561198143877682,"connected_time":2636000000000,"state":"active","ping":64},{"user_id":161,"name":"salmoon","steam_id":76561198170220290,"connected_time":1199000000000,"state":"active","ping":41},{"user_id":177,"name":"CongoMan HT","steam_id":76561198142121374,"connected_time":628000000000,"state":"active","ping":106},{"user_id":174,"name":"cyg","steam_id":76561198138012167,"connected_time":707000000000,"state":"active","ping":98},{"user_id":175,"name":"For Whom The Taco Bell Tolls","steam_id":76561198418288939,"connected_time":704000000000,"state":"active","ping":59},{"user_id":190,"name":"JellyParrot","steam_id":76561199190990163,"connected_time":99000000000,"state":"active","ping":96},{"user_id":155,"name":"Mikhail","steam_id":76561198053415959,"connected_time":1814000000000,"state":"active","ping":88},{"user_id":180,"name":"oil","steam_id":76561198099980149,"connected_time":508000000000,"state":"active","ping":46},{"user_id":157,"name":"HammerHead","steam_id":76561197975668646,"connected_time":1765000000000,"state":"active","ping":68}]},{"server_id":112,"name":"Uncletopia | Los Angeles | 2 | All Maps","name_short":"lax-2","host":"lax-1.us.uncletopia.com","port":27025,"enabled":true,"region":"us-west","cc":"us","latitude":33.94279,"longitude":-118.41004,"reserved":0,"last_update":"0001-01-01T00:00:00Z","name_a2s":"Uncletopia | Los Angeles | 2 | All Maps","protocol":17,"map":"pl_snowycoast","folder":"tf","game":"Team Fortress","app_id":440,"player_count":0,"max_players":24,"Bots":0,"server_type":"Dedicated","server_os":"Linux","password":true,"vac":true,"version":"7723704","steam_id":85568392924469992,"keywords":["nocrits","nodmgspread","payload","uncletopia"],"game_id":440,"stv_port":27026,"stv_name":"Uncletopia | Los Angeles | 2 | All Maps | STV","players":null},{"server_id":324,"name":"Uncletopia | Los Angeles | 3 | All Maps","name_short":"lax-3","host":"lax-1.us.uncletopia.com","port":27035,"enabled":true,"region":"us-west","cc":"us","latitude":33.94279,"longitude":-118.41004,"reserved":0,"last_update":"0001-01-01T00:00:00Z","name_a2s":"Uncletopia | Los Angeles | 3 | All Maps","protocol":17,"map":"koth_highpass","folder":"tf","game":"Team Fortress","app_id":440,"player_count":0,"max_players":24,"Bots":0,"server_type":"Dedicated","server_os":"Linux","password":true,"vac":true,"version":"7723704","steam_id":85568392924510198,"keywords":["cp","nocrits","nodmgspread","uncletopia"],"game_id":440,"stv_port":27036,"stv_name":"Uncletopia | Los Angeles | 3 | All Maps | STV","players":null},{"server_id":25,"name":"Uncletopia | Los Angeles | 4 | No Payload","name_short":"lax-4","host":"lax-1.us.uncletopia.com","port":27045,"enabled":true,"region":"us-west","cc":"us","latitude":33.94279,"longitude":-118.41004,"reserved":0,"last_update":"0001-01-01T00:00:00Z","name_a2s":"Uncletopia | Los Angeles | 4 | No Payload","protocol":17,"map":"cp_standin_final","folder":"tf","game":"Team Fortress","app_id":440,"player_count":0,"max_players":24,"Bots":0,"server_type":"Dedicated","server_os":"Linux","password":true,"vac":true,"version":"7723704","steam_id":85568392924510199,"keywords":["cp","nocrits","nodmgspread","uncletopia"],"game_id":440,"stv_port":27046,"stv_name":"Uncletopia | Los Angeles | 4 | No Payload | STV","players":null},{"server_id":11,"name":"Uncletopia | London | 1 | All Maps","name_short":"lon-1","host":"lon-1.uk.uncletopia.com","port":27015,"enabled":true,"region":"eu","cc":"gb","latitude":51.509865,"longitude":-0.118092,"reserved":0,"last_update":"0001-01-01T00:00:00Z","name_a2s":"Uncletopia | London | 1 | All Maps","protocol":17,"map":"koth_viaduct","folder":"tf","game":"Team Fortress","app_id":440,"player_count":0,"max_players":24,"Bots":0,"server_type":"Dedicated","server_os":"Linux","password":true,"vac":true,"version":"7723704","steam_id":85568392924367362,"keywords":["cp","nocrits","nodmgspread","uncletopia"],"game_id":440,"stv_port":27016,"stv_name":"Uncletopia | London | 1 | All Maps | STV","players":null},{"server_id":114,"name":"Uncletopia | London | 2 | All Maps","name_short":"lon-2","host":"lon-1.uk.uncletopia.com","port":27025,"enabled":true,"region":"eu","cc":"gb","latitude":51.509865,"longitude":-0.118092,"reserved":0,"last_update":"0001-01-01T00:00:00Z","name_a2s":"Uncletopia | London | 2 | All Maps","protocol":17,"map":"koth_highpass","folder":"tf","game":"Team Fortress","app_id":440,"player_count":0,"max_players":24,"Bots":0,"server_type":"Dedicated","server_os":"Linux","password":true,"vac":true,"version":"7723704","steam_id":85568392924470941,"keywords":["cp","nocrits","nodmgspread","uncletopia"],"game_id":440,"stv_port":27026,"stv_name":"Uncletopia | London | 2 | All Maps | STV","players":null},{"server_id":320,"name":"Uncletopia | London | 3 | All Maps","name_short":"lon-3","host":"lon-1.uk.uncletopia.com","port":27035,"enabled":true,"region":"eu","cc":"gb","latitude":51.509865,"longitude":-0.118092,"reserved":0,"last_update":"0001-01-01T00:00:00Z","name_a2s":"Uncletopia | London | 3 | All Maps","protocol":17,"map":"pl_barnblitz","folder":"tf","game":"Team Fortress","app_id":440,"player_count":0,"max_players":24,"Bots":0,"server_type":"Dedicated","server_os":"Linux","password":true,"vac":true,"version":"7723704","steam_id":85568392924510192,"keywords":["nocrits","nodmgspread","payload","uncletopia"],"game_id":440,"stv_port":27036,"stv_name":"Uncletopia | London | 3 | All Maps | STV","players":null},{"server_id":321,"name":"Uncletopia | London | 4 | All Maps","name_short":"lon-4","host":"lon-1.uk.uncletopia.com","port":27045,"enabled":true,"region":"eu","cc":"gb","latitude":51.509865,"longitude":-0.118092,"reserved":0,"last_update":"0001-01-01T00:00:00Z","name_a2s":"Uncletopia | London | 4 | All Maps","protocol":17,"map":"koth_highpass","folder":"tf","game":"Team Fortress","app_id":440,"player_count":0,"max_players":24,"Bots":0,"server_type":"Dedicated","server_os":"Linux","password":true,"vac":true,"version":"7723704","steam_id":85568392924510193,"keywords":["cp","nocrits","nodmgspread","uncletopia"],"game_id":440,"stv_port":27046,"stv_name":"Uncletopia | London | 4 | All Maps | STV","players":null},{"server_id":21,"name":"Uncletopia | London | 5 | All Maps","name_short":"lon-5","host":"lon-1.uk.uncletopia.com","port":27055,"enabled":true,"region":"eu","cc":"gb","latitude":51.509865,"longitude":-0.118092,"reserved":0,"last_update":"0001-01-01T00:00:00Z","name_a2s":"Uncletopia | London | 5 | All Maps","protocol":17,"map":"koth_lakeside_final","folder":"tf","game":"Team Fortress","app_id":440,"player_count":0,"max_players":24,"Bots":0,"server_type":"Dedicated","server_os":"Linux","password":true,"vac":true,"version":"7723704","steam_id":85568392924742829,"keywords":["cp","nocrits","nodmgspread","uncletopia"],"game_id":440,"stv_port":27056,"stv_name":"Uncletopia | London | 5 | All Maps | STV","players":null},{"server_id":22,"name":"Uncletopia | London | 6 | All Maps","name_short":"lon-6","host":"lon-1.uk.uncletopia.com","port":27065,"enabled":true,"region":"eu","cc":"gb","latitude":51.509865,"longitude":-0.118092,"reserved":0,"last_update":"0001-01-01T00:00:00Z","name_a2s":"Uncletopia | London | 6 | All Maps","protocol":17,"map":"cp_altitude","folder":"tf","game":"Team Fortress","app_id":440,"player_count":0,"max_players":24,"Bots":0,"server_type":"Dedicated","server_os":"Linux","password":true,"vac":true,"version":"7723704","steam_id":85568392924742830,"keywords":["cp","nocrits","nodmgspread","uncletopia"],"game_id":440,"stv_port":27066,"stv_name":"Uncletopia | London | 6 | All Maps | STV","players":null},{"server_id":40,"name":"Uncletopia | London | 7 | No Payload","name_short":"lon-7","host":"lon-1.uk.uncletopia.com","port":27075,"enabled":true,"region":"eu","cc":"gb","latitude":51.509865,"longitude":-0.118092,"reserved":0,"last_update":"0001-01-01T00:00:00Z","name_a2s":"Uncletopia | London | 7 | No Payload","protocol":17,"map":"koth_cascade","folder":"tf","game":"Team Fortress","app_id":440,"player_count":0,"max_players":24,"Bots":0,"server_type":"Dedicated","server_os":"Linux","password":true,"vac":true,"version":"7723704","steam_id":85568392924964314,"keywords":["cp","nocrits","nodmgspread","uncletopia"],"game_id":440,"stv_port":27076,"stv_name":"Uncletopia | London | 7 | No Payload | STV","players":null},{"server_id":41,"name":"Uncletopia | London | 8 | Community","name_short":"lon-8","host":"lon-1.uk.uncletopia.com","port":27085,"enabled":true,"region":"eu","cc":"gb","latitude":51.509865,"longitude":-0.118092,"reserved":0,"last_update":"0001-01-01T00:00:00Z","name_a2s":"Uncletopia | London | 8 | Community","protocol":17,"map":"pl_snowycoast","folder":"tf","game":"Team Fortress","app_id":440,"player_count":0,"max_players":24,"Bots":0,"server_type":"Dedicated","server_os":"Linux","password":true,"vac":true,"version":"7723704","steam_id":85568392924964315,"keywords":["nocrits","nodmgspread","payload","uncletopia"],"game_id":440,"stv_port":27086,"stv_name":"Uncletopia | London | 8 | Community | STV","players":null},{"server_id":300,"name":"Uncletopia | Montr√©al | 1 | All Maps","name_short":"mtl-1","host":"mtl-1.ca.uncletopia.com","port":27015,"enabled":true,"region":"us-east","cc":"ca","latitude":45.50889,"longitude":-73.56167,"reserved":0,"last_update":"0001-01-01T00:00:00Z","name_a2s":"Uncletopia | Montr√©al | 1 | All Maps","protocol":17,"map":"pl_badwater","folder":"tf","game":"Team Fortress","app_id":440,"player_count":0,"max_players":24,"Bots":0,"server_type":"Dedicated","server_os":"Linux","password":true,"vac":true,"version":"7723704","steam_id":85568392924500087,"keywords":["nocrits","nodmgspread","payload","uncletopia"],"game_id":440,"stv_port":27016,"stv_name":"Uncletopia | Montr√©al | 1 | All Maps | STV","players":null},{"server_id":301,"name":"Uncletopia | Montr√©al | 2 | All Maps","name_short":"mtl-2","host":"mtl-1.ca.uncletopia.com","port":27025,"enabled":true,"region":"us-east","cc":"ca","latitude":45.50889,"longitude":-73.56167,"reserved":0,"last_update":"0001-01-01T00:00:00Z","name_a2s":"Uncletopia | Montr√©al | 2 | All Maps","protocol":17,"map":"cp_sunshine","folder":"tf","game":"Team Fortress","app_id":440,"player_count":0,"max_players":24,"Bots":0,"server_type":"Dedicated","server_os":"Linux","password":true,"vac":true,"version":"7723704","steam_id":85568392924500088,"keywords":["cp","nocrits","nodmgspread","uncletopia"],"game_id":440,"stv_port":27026,"stv_name":"Uncletopia | Montr√©al | 2 | All Maps | STV","players":null},{"server_id":302,"name":"Uncletopia | Montr√©al | 3 | All Maps","name_short":"mtl-3","host":"mtl-1.ca.uncletopia.com","port":27035,"enabled":true,"region":"us-east","cc":"ca","latitude":45.50889,"longitude":-73.56167,"reserved":0,"last_update":"0001-01-01T00:00:00Z","name_a2s":"Uncletopia | Montr√©al | 3 | All Maps","protocol":17,"map":"cp_dustbowl","folder":"tf","game":"Team Fortress","app_id":440,"player_count":0,"max_players":24,"Bots":0,"server_type":"Dedicated","server_os":"Linux","password":true,"vac":true,"version":"7723704","steam_id":85568392924500089,"keywords":["cp","nocrits","nodmgspread","uncletopia"],"game_id":440,"stv_port":27036,"stv_name":"Uncletopia | Montr√©al | 3 | All Maps | STV","players":null},{"server_id":303,"name":"Uncletopia | Montr√©al | 4 | No Payload","name_short":"mtl-4","host":"mtl-1.ca.uncletopia.com","port":27045,"enabled":true,"region":"us-east","cc":"ca","latitude":45.50889,"longitude":-73.56167,"reserved":0,"last_update":"0001-01-01T00:00:00Z","name_a2s":"Uncletopia | Montr√©al | 4 | No Payload","protocol":17,"map":"cp_process_final","folder":"tf","game":"Team Fortress","app_id":440,"player_count":0,"max_players":24,"Bots":0,"server_type":"Dedicated","server_os":"Linux","password":true,"vac":true,"version":"7723704","steam_id":85568392924500090,"keywords":["cp","nocrits","nodmgspread","uncletopia"],"game_id":440,"stv_port":27046,"stv_name":"Uncletopia | Montr√©al | 4 | No Payload | STV","players":null},{"server_id":13,"name":"Uncletopia | New York City | 1 | All Maps","name_short":"nyc-1","host":"nyc-1.us.uncletopia.com","port":27015,"enabled":true,"region":"us-east","cc":"us","latitude":40.73061,"longitude":-73.93524,"reserved":0,"last_update":"0001-01-01T00:00:00Z","name_a2s":"Uncletopia | New York City | 1 | All Maps","protocol":17,"map":"koth_cascade","folder":"tf","game":"Team Fortress","app_id":440,"player_count":16,"max_players":24,"Bots":0,"server_type":"Dedicated","server_os":"Linux","password":true,"vac":true,"version":"7723704","steam_id":85568392924469993,"keywords":["cp","nocrits","nodmgspread","uncletopia"],"game_id":440,"stv_port":27016,"stv_name":"Uncletopia | New York City | 1 | All Maps | STV","players":[{"user_id":141,"name":"Menachem","steam_id":76561198041226420,"connected_time":6778000000000,"state":"active","ping":69},{"user_id":217,"name":"moist butthole man","steam_id":76561198995608359,"connected_time":41000000000,"state":"active","ping":110},{"user_id":143,"name":"A Puppy","steam_id":76561198828184456,"connected_time":6095000000000,"state":"active","ping":46},{"user_id":184,"name":"Medical Asshat","steam_id":76561198004584315,"connected_time":3144000000000,"state":"active","ping":89},{"user_id":163,"name":"Evolution","steam_id":76561198144767370,"connected_time":4611000000000,"state":"active","ping":60},{"user_id":169,"name":"best of gaslighting","steam_id":76561198410957728,"connected_time":4282000000000,"state":"active","ping":60},{"user_id":168,"name":"best of worm related discussion","steam_id":76561198128164970,"connected_time":4294000000000,"state":"active","ping":126},{"user_id":170,"name":"anastasia","steam_id":76561197994492154,"connected_time":4261000000000,"state":"active","ping":147},{"user_id":202,"name":"ShadBad","steam_id":76561198248287390,"connected_time":1491000000000,"state":"active","ping":123},{"user_id":211,"name":"Antifa Alligator","steam_id":76561197988170816,"connected_time":719000000000,"state":"active","ping":77},{"user_id":204,"name":"Avg. Hastune Miku enjoyer","steam_id":76561198055970193,"connected_time":1422000000000,"state":"active","ping":46},{"user_id":200,"name":"VioBeeyo","steam_id":76561198066258544,"connected_time":2163000000000,"state":"active","ping":133},{"user_id":181,"name":"aversa","steam_id":76561198840460101,"connected_time":3244000000000,"state":"active","ping":46},{"user_id":203,"name":"shaderoses","steam_id":76561198070800500,"connected_time":1485000000000,"state":"active","ping":54},{"user_id":207,"name":"pride","steam_id":76561198090607175,"connected_time":1089000000000,"state":"active","ping":60},{"user_id":212,"name":"iPlay\u0026Eat","steam_id":76561198081148684,"connected_time":629000000000,"state":"active","ping":85}]},{"server_id":14,"name":"Uncletopia | New York City | 2 | All Maps","name_short":"nyc-2","host":"nyc-1.us.uncletopia.com","port":27025,"enabled":true,"region":"us-east","cc":"us","latitude":40.73061,"longitude":-73.93524,"reserved":0,"last_update":"0001-01-01T00:00:00Z","name_a2s":"Uncletopia | New York City | 2 | All Maps","protocol":17,"map":"pl_swiftwater_final1","folder":"tf","game":"Team Fortress","app_id":440,"player_count":0,"max_players":24,"Bots":0,"server_type":"Dedicated","server_os":"Linux","password":true,"vac":true,"version":"7723704","steam_id":85568392924469994,"keywords":["nocrits","nodmgspread","payload","uncletopia"],"game_id":440,"stv_port":27026,"stv_name":"Uncletopia | New York City | 2 | All Maps | STV","players":null},{"server_id":15,"name":"Uncletopia | New York City | 3 | All Maps","name_short":"nyc-3","host":"nyc-1.us.uncletopia.com","port":27035,"enabled":true,"region":"us-east","cc":"us","latitude":40.73061,"longitude":-73.93524,"reserved":0,"last_update":"0001-01-01T00:00:00Z","name_a2s":"Uncletopia | New York City | 3 | All Maps","protocol":17,"map":"koth_viaduct","folder":"tf","game":"Team Fortress","app_id":440,"player_count":0,"max_players":24,"Bots":0,"server_type":"Dedicated","server_os":"Linux","password":true,"vac":true,"version":"7723704","steam_id":85568392924742820,"keywords":["cp","nocrits","nodmgspread","uncletopia"],"game_id":440,"stv_port":27036,"stv_name":"Uncletopia | New York City | 3 | All Maps | STV","players":null},{"server_id":16,"name":"Uncletopia | New York City | 4 | Community","name_short":"nyc-4","host":"nyc-1.us.uncletopia.com","port":27045,"enabled":true,"region":"us-east","cc":"us","latitude":40.73061,"longitude":-73.93524,"reserved":0,"last_update":"0001-01-01T00:00:00Z","name_a2s":"Uncletopia | New York City | 4 | Community","protocol":17,"map":"cp_process_final","folder":"tf","game":"Team Fortress","app_id":440,"player_count":0,"max_players":24,"Bots":0,"server_type":"Dedicated","server_os":"Linux","password":true,"vac":true,"version":"7723704","steam_id":85568392924742821,"keywords":["cp","nocrits","nodmgspread","uncletopia"],"game_id":440,"stv_port":27046,"stv_name":"Uncletopia | New York City | 4 | Community | STV","players":null},{"server_id":142,"name":"Uncletopia | S√£o Paulo | 1 | All Maps","name_short":"sao-1","host":"sao-1.br.uncletopia.com","port":27015,"enabled":true,"region":"sa","cc":"br","latitude":-23.533773,"longitude":-46.62529,"reserved":0,"last_update":"0001-01-01T00:00:00Z","name_a2s":"Uncletopia | S√£o Paulo | 1 | All Maps","protocol":17,"map":"pl_upward","folder":"tf","game":"Team Fortress","app_id":440,"player_count":0,"max_players":24,"Bots":0,"server_type":"Dedicated","server_os":"Linux","password":true,"vac":true,"version":"7723704","steam_id":85568392924469996,"keywords":["nocrits","nodmgspread","payload","uncletopia"],"game_id":440,"stv_port":27016,"stv_name":"Uncletopia | S√£o Paulo | 1 | All Maps | STV","players":null},{"server_id":143,"name":"Uncletopia | S√£o Paulo | 2 | All Maps","name_short":"sao-2","host":"sao-2.br.uncletopia.com","port":27015,"enabled":true,"region":"sa","cc":"br","latitude":-23.533773,"longitude":-46.62529,"reserved":0,"last_update":"0001-01-01T00:00:00Z","name_a2s":"Uncletopia | S√£o Paulo | 2 | All Maps","protocol":17,"map":"cp_sunshine","folder":"tf","game":"Team Fortress","app_id":440,"player_count":0,"max_players":24,"Bots":0,"server_type":"Dedicated","server_os":"Linux","password":true,"vac":true,"version":"7723704","steam_id":85568392924485349,"keywords":["cp","nocrits","nodmgspread","uncletopia"],"game_id":440,"stv_port":27016,"stv_name":"Uncletopia | S√£o Paulo | 2 | All Maps | STV","players":null},{"server_id":7,"name":"Uncletopia | Seattle | 1 | All Maps","name_short":"sea-1","host":"sea-1.us.uncletopia.com","port":27015,"enabled":true,"region":"us-west","cc":"us","latitude":47.608013,"longitude":-122.33517,"reserved":0,"last_update":"0001-01-01T00:00:00Z","name_a2s":"Uncletopia | Seattle | 1 | All Maps","protocol":17,"map":"pl_upward","folder":"tf","game":"Team Fortress","app_id":440,"player_count":24,"max_players":24,"Bots":0,"server_type":"Dedicated","server_os":"Linux","password":true,"vac":true,"version":"7723704","steam_id":85568392924469997,"keywords":["nocrits","nodmgspread","payload","uncletopia"],"game_id":440,"stv_port":27016,"stv_name":"Uncletopia | Seattle | 1 | All Maps | STV","players":[{"user_id":208,"name":"Arsonist Goose","steam_id":76561198147441830,"connected_time":454000000000,"state":"active","ping":73},{"user_id":177,"name":"–≥—Ä—É—Å—Ç–Ω—ã–π","steam_id":76561198274550638,"connected_time":5070000000000,"state":"active","ping":106},{"user_id":205,"name":"festive klevin","steam_id":76561198799106535,"connected_time":769000000000,"state":"active","ping":91},{"user_id":188,"name":"4","steam_id":76561198009121060,"connected_time":2783000000000,"state":"active","ping":46},{"user_id":200,"name":"XzachTLY","steam_id":76561198145534604,"connected_time":1937000000000,"state":"active","ping":68},{"user_id":206,"name":"Gugomo","steam_id":76561198121428316,"connected_time":763000000000,"state":"active","ping":65},{"user_id":202,"name":"jordanddean2016","steam_id":76561198323772677,"connected_time":1514000000000,"state":"active","ping":57},{"user_id":197,"name":"Sniff","steam_id":76561198010270922,"connected_time":2375000000000,"state":"active","ping":45},{"user_id":194,"name":"Cheezbeargur","steam_id":76561198164702899,"connected_time":2483000000000,"state":"active","ping":61},{"user_id":196,"name":"Level 99 Mudcrab","steam_id":76561198077452771,"connected_time":2402000000000,"state":"active","ping":59},{"user_id":142,"name":"lker","steam_id":76561197976975075,"connected_time":7434000000000,"state":"active","ping":105},{"user_id":181,"name":"Aardappel","steam_id":76561198030894676,"connected_time":4132000000000,"state":"active","ping":70},{"user_id":82,"name":"Ayayahuasca","steam_id":76561199002906056,"connected_time":12354000000000,"state":"active","ping":49},{"user_id":210,"name":"kirbothebrony","steam_id":76561198971911330,"connected_time":226000000000,"state":"active","ping":121},{"user_id":173,"name":"thunderous prophet","steam_id":76561198131166135,"connected_time":5212000000000,"state":"active","ping":41},{"user_id":198,"name":"Lord Pretty Flocko Jordye","steam_id":76561198962880749,"connected_time":2247000000000,"state":"active","ping":151},{"user_id":207,"name":"ExperimentalBunny","steam_id":76561198329460312,"connected_time":751000000000,"state":"active","ping":109},{"user_id":203,"name":"Miista","steam_id":76561198117357040,"connected_time":1455000000000,"state":"active","ping":49},{"user_id":211,"name":"EddieEnder","steam_id":76561198057912688,"connected_time":188000000000,"state":"active","ping":62},{"user_id":209,"name":"SvicidalBug","steam_id":76561198221390504,"connected_time":263000000000,"state":"active","ping":63},{"user_id":192,"name":"delight","steam_id":76561197980280272,"connected_time":2496000000000,"state":"active","ping":46},{"user_id":182,"name":"POW got it","steam_id":76561198035698704,"connected_time":4112000000000,"state":"active","ping":70},{"user_id":189,"name":"Santa after 7 Glasses of Eggnog","steam_id":76561198137242573,"connected_time":2598000000000,"state":"active","ping":45},{"user_id":163,"name":"jorts","steam_id":76561199041179985,"connected_time":5778000000000,"state":"active","ping":64}]},{"server_id":119,"name":"Uncletopia | Seattle | 2 | All Maps","name_short":"sea-2","host":"sea-1.us.uncletopia.com","port":27025,"enabled":true,"region":"us-west","cc":"us","latitude":47.608013,"longitude":-122.33517,"reserved":0,"last_update":"0001-01-01T00:00:00Z","name_a2s":"Uncletopia | Seattle | 2 | All Maps","protocol":17,"map":"koth_highpass","folder":"tf","game":"Team Fortress","app_id":440,"player_count":21,"max_players":24,"Bots":0,"server_type":"Dedicated","server_os":"Linux","password":true,"vac":true,"version":"7723704","steam_id":85568392924469998,"keywords":["cp","nocrits","nodmgspread","uncletopia"],"game_id":440,"stv_port":27026,"stv_name":"Uncletopia | Seattle | 2 | All Maps | STV","players":[{"user_id":186,"name":"CheekyMcCheek","steam_id":76561198081978491,"connected_time":2080000000000,"state":"active","ping":79},{"user_id":200,"name":"Deryn Sharp","steam_id":76561198047017346,"connected_time":170000000000,"state":"active","ping":76},{"user_id":162,"name":"methanar/brandon","steam_id":76561198049489349,"connected_time":3064000000000,"state":"active","ping":56},{"user_id":159,"name":"birch","steam_id":76561198054041094,"connected_time":3286000000000,"state":"active","ping":62},{"user_id":202,"name":"MetalTao","steam_id":76561198189408110,"connected_time":61000000000,"state":"active","ping":135},{"user_id":190,"name":"pcplace","steam_id":76561198097987387,"connected_time":813000000000,"state":"active","ping":46},{"user_id":173,"name":"BlookyBlock","steam_id":76561198117009300,"connected_time":2577000000000,"state":"active","ping":57},{"user_id":201,"name":"Milton","steam_id":76561198383617571,"connected_time":129000000000,"state":"active","ping":110},{"user_id":189,"name":"Jolly Jon","steam_id":76561198424248616,"connected_time":1173000000000,"state":"active","ping":74},{"user_id":126,"name":"Citizen‚Åµ","steam_id":76561198053856640,"connected_time":6224000000000,"state":"active","ping":116},{"user_id":198,"name":"_Pai","steam_id":76561198108196753,"connected_time":208000000000,"state":"active","ping":69},{"user_id":192,"name":"MA BEETS","steam_id":76561198168981607,"connected_time":498000000000,"state":"active","ping":80},{"user_id":181,"name":"demolondon the thrice","steam_id":76561198936116083,"connected_time":2353000000000,"state":"active","ping":61},{"user_id":156,"name":"Robert M. Slackson, DDS","steam_id":76561197963562896,"connected_time":3694000000000,"state":"active","ping":61},{"user_id":176,"name":"The_Pacific_gamer","steam_id":76561198089491446,"connected_time":2548000000000,"state":"active","ping":49},{"user_id":197,"name":"cringeass nae-nae girl","steam_id":76561198108753857,"connected_time":377000000000,"state":"active","ping":90},{"user_id":177,"name":"Psych03","steam_id":76561198061753667,"connected_time":2517000000000,"state":"active","ping":76},{"user_id":188,"name":"PopcornNinja101","steam_id":76561198330680181,"connected_time":1333000000000,"state":"active","ping":45},{"user_id":193,"name":"Sol","steam_id":76561198803824764,"connected_time":491000000000,"state":"active","ping":69},{"user_id":83,"name":"PerKnuckleChuckle","steam_id":76561198023221596,"connected_time":11265000000000,"state":"active","ping":77},{"user_id":184,"name":"SkyLark","steam_id":76561198303618132,"connected_time":2249000000000,"state":"active","ping":50}]},{"server_id":17,"name":"Uncletopia | San Francisco | 1 | All Maps","name_short":"sfo-1","host":"sfo-1.us.uncletopia.com","port":27015,"enabled":true,"region":"us-west","cc":"us","latitude":37.77397,"longitude":-122.4313,"reserved":0,"last_update":"0001-01-01T00:00:00Z","name_a2s":"Uncletopia | San Francisco | 1 | All Maps","protocol":17,"map":"cp_dustbowl","folder":"tf","game":"Team Fortress","app_id":440,"player_count":0,"max_players":24,"Bots":0,"server_type":"Dedicated","server_os":"Linux","password":true,"vac":true,"version":"7723704","steam_id":85568392924469999,"keywords":["cp","nocrits","nodmgspread","uncletopia"],"game_id":440,"stv_port":27016,"stv_name":"Uncletopia | San Francisco | 1 | All Maps | STV","players":null},{"server_id":18,"name":"Uncletopia | San Francisco | 2 | All Maps","name_short":"sfo-2","host":"sfo-1.us.uncletopia.com","port":27025,"enabled":true,"region":"us-west","cc":"us","latitude":37.77397,"longitude":-122.4313,"reserved":0,"last_update":"0001-01-01T00:00:00Z","name_a2s":"Uncletopia | San Francisco | 2 | All Maps","protocol":17,"map":"pl_snowycoast","folder":"tf","game":"Team Fortress","app_id":440,"player_count":0,"max_players":24,"Bots":0,"server_type":"Dedicated","server_os":"Linux","password":true,"vac":true,"version":"7723704","steam_id":85568392924470000,"keywords":["nocrits","nodmgspread","payload","uncletopia"],"game_id":440,"stv_port":27026,"stv_name":"Uncletopia | San Francisco | 2 | All Maps | STV","players":null},{"server_id":19,"name":"Uncletopia | San Francisco | 3 | No Payload","name_short":"sfo-3","host":"sfo-1.us.uncletopia.com","port":27035,"enabled":true,"region":"us-west","cc":"us","latitude":37.77397,"longitude":-122.4313,"reserved":0,"last_update":"0001-01-01T00:00:00Z","name_a2s":"Uncletopia | San Francisco | 3 | No Payload","protocol":17,"map":"plr_hightower","folder":"tf","game":"Team Fortress","app_id":440,"player_count":0,"max_players":24,"Bots":0,"server_type":"Dedicated","server_os":"Linux","password":true,"vac":true,"version":"7723704","steam_id":85568392924742824,"keywords":["nocrits","nodmgspread","payload","uncletopia"],"game_id":440,"stv_port":27036,"stv_name":"Uncletopia | San Francisco | 3 | No Payload | STV","players":null},{"server_id":20,"name":"Uncletopia | San Francisco | 4 | Community","name_short":"sfo-4","host":"sfo-1.us.uncletopia.com","port":27045,"enabled":true,"region":"us-west","cc":"us","latitude":37.77397,"longitude":-122.4313,"reserved":0,"last_update":"0001-01-01T00:00:00Z","name_a2s":"Uncletopia | San Francisco | 4 | Community","protocol":17,"map":"pl_frontier_final","folder":"tf","game":"Team Fortress","app_id":440,"player_count":0,"max_players":24,"Bots":0,"server_type":"Dedicated","server_os":"Linux","password":true,"vac":true,"version":"7723704","steam_id":85568392924742826,"keywords":["nocrits","nodmgspread","payload","uncletopia"],"game_id":440,"stv_port":27046,"stv_name":"Uncletopia | San Francisco | 4 | Community | STV","players":null},{"server_id":141,"name":"Uncletopia | Sydney | 1 | All Maps","name_short":"syd-1","host":"syd-1.au.uncletopia.com","port":27015,"enabled":true,"region":"au","cc":"au","latitude":-33.865143,"longitude":151.2099,"reserved":0,"last_update":"0001-01-01T00:00:00Z","name_a2s":"Uncletopia | Sydney | 1 | All Maps","protocol":17,"map":"pl_borneo","folder":"tf","game":"Team Fortress","app_id":440,"player_count":19,"max_players":24,"Bots":0,"server_type":"Dedicated","server_os":"Linux","password":true,"vac":true,"version":"7723704","steam_id":85568392924470001,"keywords":["nocrits","nodmgspread","payload","uncletopia"],"game_id":440,"stv_port":27016,"stv_name":"Uncletopia | Sydney | 1 | All Maps | STV","players":[{"user_id":26,"name":"Jiffy360","steam_id":76561198149550772,"connected_time":6824000000000,"state":"active","ping":90},{"user_id":182,"name":"zombie doggo","steam_id":76561198124268116,"connected_time":503000000000,"state":"active","ping":107},{"user_id":189,"name":"Eugene (built different)","steam_id":76561198079108027,"connected_time":57000000000,"state":"active","ping":55},{"user_id":187,"name":"Maricel","steam_id":76561199010236190,"connected_time":164000000000,"state":"active","ping":30},{"user_id":138,"name":"Country Slicker Joe","steam_id":76561198071200743,"connected_time":2447000000000,"state":"active","ping":49},{"user_id":28,"name":"Plowie789","steam_id":76561198144492322,"connected_time":6635000000000,"state":"active","ping":78},{"user_id":139,"name":"J''''","steam_id":76561198047565137,"connected_time":2438000000000,"state":"active","ping":43},{"user_id":170,"name":"Straw Millionaire","steam_id":76561198140318336,"connected_time":1436000000000,"state":"active","ping":45},{"user_id":188,"name":"Bill Nye","steam_id":76561198312898168,"connected_time":154000000000,"state":"active","ping":97},{"user_id":190,"name":"auhsor","steam_id":76561197970679749,"connected_time":56000000000,"state":"active","ping":41},{"user_id":90,"name":"The_Green_Jelly","steam_id":76561198381061704,"connected_time":4204000000000,"state":"active","ping":85},{"user_id":34,"name":"Classy Doctor","steam_id":76561198257123968,"connected_time":6373000000000,"state":"active","ping":60},{"user_id":162,"name":"The Goon","steam_id":76561198967034272,"connected_time":1739000000000,"state":"active","ping":72},{"user_id":163,"name":"SaltierThanYou","steam_id":76561198444395188,"connected_time":1729000000000,"state":"active","ping":75},{"user_id":99,"name":"Azzy","steam_id":76561198096245286,"connected_time":3823000000000,"state":"active","ping":45},{"user_id":42,"name":"sat_","steam_id":76561198170693338,"connected_time":6024000000000,"state":"active","ping":85},{"user_id":176,"name":"cimpact","steam_id":76561198452258917,"connected_time":972000000000,"state":"active","ping":142},{"user_id":168,"name":"Wolf","steam_id":76561198067256350,"connected_time":1613000000000,"state":"active","ping":59},{"user_id":167,"name":"EpicGuy4227","steam_id":76561198094132328,"connected_time":1627000000000,"state":"active","ping":52}]},{"server_id":123,"name":"Uncletopia | Sydney | 2 | All Maps","name_short":"syd-2","host":"syd-1.au.uncletopia.com","port":27025,"enabled":true,"region":"au","cc":"au","latitude":-33.865143,"longitude":151.2099,"reserved":0,"last_update":"0001-01-01T00:00:00Z","name_a2s":"Uncletopia | Sydney | 2 | All Maps","protocol":17,"map":"cp_mountainlab","folder":"tf","game":"Team Fortress","app_id":440,"player_count":0,"max_players":24,"Bots":0,"server_type":"Dedicated","server_os":"Linux","password":true,"vac":true,"version":"7723704","steam_id":85568392924470002,"keywords":["cp","nocrits","nodmgspread","uncletopia"],"game_id":440,"stv_port":27026,"stv_name":"Uncletopia | Sydney | 2 | All Maps | STV","players":null},{"server_id":395,"name":"Uncletopia | Sydney | 3 | All Maps","name_short":"syd-3","host":"syd-1.au.uncletopia.com","port":27035,"enabled":true,"region":"au","cc":"au","latitude":-33.865143,"longitude":151.2099,"reserved":0,"last_update":"0001-01-01T00:00:00Z","name_a2s":"Uncletopia | Sydney | 3 | All Maps","protocol":17,"map":"cp_gravelpit","folder":"tf","game":"Team Fortress","app_id":440,"player_count":24,"max_players":24,"Bots":0,"server_type":"Dedicated","server_os":"Linux","password":true,"vac":true,"version":"7723704","steam_id":85568392925194467,"keywords":["cp","nocrits","nodmgspread","uncletopia"],"game_id":440,"stv_port":27036,"stv_name":"Uncletopia | Sydney | 3 | All Maps | STV","players":[{"user_id":123,"name":"Profile Name","steam_id":76561198055677907,"connected_time":3138000000000,"state":"active","ping":44},{"user_id":182,"name":"clueless (no s key)","steam_id":76561198046239819,"connected_time":368000000000,"state":"active","ping":120},{"user_id":160,"name":"lavanderpumpernickle","steam_id":76561199093611800,"connected_time":1822000000000,"state":"active","ping":62},{"user_id":40,"name":"Tricka ‚Ä¢","steam_id":76561197968440123,"connected_time":8723000000000,"state":"active","ping":45},{"user_id":175,"name":"The Gaming","steam_id":76561198914415738,"connected_time":834000000000,"state":"active","ping":59},{"user_id":177,"name":"Local Trash Expert","steam_id":76561198145598622,"connected_time":649000000000,"state":"active","ping":70},{"user_id":132,"name":"gimmick","steam_id":76561198449368846,"connected_time":2790000000000,"state":"active","ping":38},{"user_id":147,"name":"ArmoredInsecta","steam_id":76561198070405810,"connected_time":2629000000000,"state":"active","ping":55},{"user_id":95,"name":"Mr Chook","steam_id":76561198970328852,"connected_time":5538000000000,"state":"active","ping":31},{"user_id":107,"name":"clout","steam_id":76561198073310502,"connected_time":4789000000000,"state":"active","ping":75},{"user_id":176,"name":"Babytron","steam_id":76561198982382624,"connected_time":776000000000,"state":"active","ping":49},{"user_id":185,"name":"Tee","steam_id":76561198167322000,"connected_time":41000000000,"state":"active","ping":58},{"user_id":164,"name":"Del Davis","steam_id":76561199365669004,"connected_time":1106000000000,"state":"active","ping":58},{"user_id":161,"name":"Huski","steam_id":76561198108956967,"connected_time":1437000000000,"state":"active","ping":54},{"user_id":178,"name":"Poison_Kouki","steam_id":76561198150364859,"connected_time":634000000000,"state":"active","ping":51},{"user_id":180,"name":"Gato","steam_id":76561199094498546,"connected_time":549000000000,"state":"active","ping":86},{"user_id":150,"name":"Wendy","steam_id":76561198078877728,"connected_time":2574000000000,"state":"active","ping":82},{"user_id":179,"name":"roger5834","steam_id":76561198184923066,"connected_time":628000000000,"state":"active","ping":54},{"user_id":146,"name":"tuna","steam_id":76561198383900300,"connected_time":2774000000000,"state":"active","ping":52},{"user_id":184,"name":"Bing Soy","steam_id":76561198057093383,"connected_time":59000000000,"state":"active","ping":94},{"user_id":158,"name":"Ultra","steam_id":76561198061828206,"connected_time":1854000000000,"state":"active","ping":44},{"user_id":82,"name":"Performance Issues","steam_id":76561198202341454,"connected_time":6424000000000,"state":"active","ping":67},{"user_id":151,"name":"Bob","steam_id":76561198076833299,"connected_time":2560000000000,"state":"active","ping":63},{"user_id":156,"name":"CypressFluff (She/Her)","steam_id":76561198174667818,"connected_time":2238000000000,"state":"active","ping":61}]},{"server_id":396,"name":"Uncletopia | Sydney | 4 | All Maps","name_short":"syd-4","host":"syd-1.au.uncletopia.com","port":27045,"enabled":true,"region":"au","cc":"au","latitude":-33.865143,"longitude":151.2099,"reserved":0,"last_update":"0001-01-01T00:00:00Z","name_a2s":"Uncletopia | Sydney | 4 | All Maps","protocol":17,"map":"pl_swiftwater_final1","folder":"tf","game":"Team Fortress","app_id":440,"player_count":0,"max_players":24,"Bots":0,"server_type":"Dedicated","server_os":"Linux","password":true,"vac":true,"version":"7723704","steam_id":85568392925397958,"keywords":["nocrits","nodmgspread","payload","uncletopia"],"game_id":440,"stv_port":27046,"stv_name":"Uncletopia | Sydney | 4 | All Maps | STV","players":null},{"server_id":58,"name":"Uncletopia | Sydney | 5 | No Payload","name_short":"syd-5","host":"syd-1.au.uncletopia.com","port":27055,"enabled":true,"region":"au","cc":"au","latitude":-33.865143,"longitude":151.2099,"reserved":0,"last_update":"0001-01-01T00:00:00Z","name_a2s":"Uncletopia | Sydney | 5 | No Payload","protocol":17,"map":"koth_cascade","folder":"tf","game":"Team Fortress","app_id":440,"player_count":0,"max_players":24,"Bots":0,"server_type":"Dedicated","server_os":"Linux","password":true,"vac":true,"version":"7723704","steam_id":85568392925397959,"keywords":["cp","nocrits","nodmgspread","uncletopia"],"game_id":440,"stv_port":27056,"stv_name":"Uncletopia | Sydney | 5 | No Payload | STV","players":null},{"server_id":59,"name":"Uncletopia | Sydney | 6 | Community","name_short":"syd-6","host":"syd-1.au.uncletopia.com","port":27065,"enabled":true,"region":"au","cc":"au","latitude":-33.865143,"longitude":151.2099,"reserved":0,"last_update":"0001-01-01T00:00:00Z","name_a2s":"Uncletopia | Sydney | 6 | Community","protocol":17,"map":"koth_lakeside_final","folder":"tf","game":"Team Fortress","app_id":440,"player_count":0,"max_players":24,"Bots":0,"server_type":"Dedicated","server_os":"Linux","password":true,"vac":true,"version":"7723704","steam_id":85568392925397960,"keywords":["cp","nocrits","nodmgspread","uncletopia"],"game_id":440,"stv_port":27066,"stv_name":"Uncletopia | Sydney | 6 | Community | STV","players":null},{"server_id":49,"name":"Uncletopia | Warsaw | 1 | All Maps","name_short":"waw-1","host":"waw-1.pl.uncletopia.com","port":27015,"enabled":true,"region":"eu","cc":"pl","latitude":52.2297,"longitude":21.017532,"reserved":0,"last_update":"0001-01-01T00:00:00Z","name_a2s":"Uncletopia | Warsaw | 1 | All Maps","protocol":17,"map":"pl_upward","folder":"tf","game":"Team Fortress","app_id":440,"player_count":10,"max_players":24,"Bots":0,"server_type":"Dedicated","server_os":"Linux","password":true,"vac":true,"version":"7723704","steam_id":85568392925397850,"keywords":["nocrits","nodmgspread","payload","uncletopia"],"game_id":440,"stv_port":27016,"stv_name":"Uncletopia | Warsaw | 1 | All Maps | STV","players":[{"user_id":56,"name":"Purplenoogie","steam_id":76561198081872160,"connected_time":0,"state":"spawning","ping":39},{"user_id":6,"name":"E1s","steam_id":76561198894958917,"connected_time":5459000000000,"state":"spawning","ping":81},{"user_id":54,"name":"The brown part of the banana","steam_id":76561198323425034,"connected_time":298000000000,"state":"active","ping":124},{"user_id":53,"name":"Alice can't hit pipes","steam_id":76561198052410860,"connected_time":328000000000,"state":"spawning","ping":302},{"user_id":11,"name":"peruna","steam_id":76561198000721196,"connected_time":4327000000000,"state":"active","ping":137},{"user_id":50,"name":"shepard","steam_id":76561199435854673,"connected_time":794000000000,"state":"active","ping":111},{"user_id":40,"name":"\"Sniper\"","steam_id":76561198405291408,"connected_time":1420000000000,"state":"spawning","ping":172},{"user_id":16,"name":"wieto","steam_id":76561198050626427,"connected_time":3779000000000,"state":"active","ping":258},{"user_id":55,"name":"MedReal#2670","steam_id":76561198278285460,"connected_time":105000000000,"state":"spawning","ping":167},{"user_id":43,"name":"Gustavo Fring","steam_id":76561199272072187,"connected_time":1271000000000,"state":"spawning","ping":171}]},{"server_id":50,"name":"Uncletopia | Warsaw | 2 | All Maps","name_short":"waw-2","host":"waw-1.pl.uncletopia.com","port":27025,"enabled":true,"region":"eu","cc":"pl","latitude":52.2297,"longitude":21.017532,"reserved":0,"last_update":"0001-01-01T00:00:00Z","name_a2s":"Uncletopia | Warsaw | 2 | All Maps","protocol":17,"map":"pl_snowycoast","folder":"tf","game":"Team Fortress","app_id":440,"player_count":0,"max_players":24,"Bots":0,"server_type":"Dedicated","server_os":"Linux","password":true,"vac":true,"version":"7723704","steam_id":85568392925397851,"keywords":["nocrits","nodmgspread","payload","uncletopia"],"game_id":440,"stv_port":27026,"stv_name":"Uncletopia | Warsaw | 2 | All Maps | STV","players":null},{"server_id":51,"name":"Uncletopia | Warsaw | 3 | All Maps","name_short":"waw-3","host":"waw-1.pl.uncletopia.com","port":27035,"enabled":true,"region":"eu","cc":"pl","latitude":52.2297,"longitude":21.017532,"reserved":0,"last_update":"0001-01-01T00:00:00Z","name_a2s":"Uncletopia | Warsaw | 3 | All Maps","protocol":17,"map":"koth_lakeside_final","folder":"tf","game":"Team Fortress","app_id":440,"player_count":0,"max_players":24,"Bots":0,"server_type":"Dedicated","server_os":"Linux","password":true,"vac":true,"version":"7723704","steam_id":85568392925397852,"keywords":["cp","nocrits","nodmgspread","uncletopia"],"game_id":440,"stv_port":27036,"stv_name":"Uncletopia | Warsaw | 3 | All Maps | STV","players":null},{"server_id":52,"name":"Uncletopia | Warsaw | 4 | All Maps","name_short":"waw-4","host":"waw-1.pl.uncletopia.com","port":27045,"enabled":true,"region":"eu","cc":"pl","latitude":52.2297,"longitude":21.017532,"reserved":0,"last_update":"0001-01-01T00:00:00Z","name_a2s":"Uncletopia | Warsaw | 4 | All Maps","protocol":17,"map":"pl_upward","folder":"tf","game":"Team Fortress","app_id":440,"player_count":0,"max_players":24,"Bots":0,"server_type":"Dedicated","server_os":"Linux","password":true,"vac":true,"version":"7723704","steam_id":85568392925397853,"keywords":["nocrits","nodmgspread","payload","uncletopia"],"game_id":440,"stv_port":27046,"stv_name":"Uncletopia | Warsaw | 4 | All Maps | STV","players":null},{"server_id":53,"name":"Uncletopia | Warsaw | 5 | No Payload","name_short":"waw-5","host":"waw-1.pl.uncletopia.com","port":27055,"enabled":true,"region":"eu","cc":"pl","latitude":52.2297,"longitude":21.017532,"reserved":0,"last_update":"0001-01-01T00:00:00Z","name_a2s":"Uncletopia | Warsaw | 5 | No Payload","protocol":17,"map":"koth_highpass","folder":"tf","game":"Team Fortress","app_id":440,"player_count":0,"max_players":24,"Bots":0,"server_type":"Dedicated","server_os":"Linux","password":true,"vac":true,"version":"7723704","steam_id":85568392925397854,"keywords":["cp","nocrits","nodmgspread","uncletopia"],"game_id":440,"stv_port":27056,"stv_name":"Uncletopia | Warsaw | 5 | No Payload | STV","players":null},{"server_id":54,"name":"Uncletopia | Warsaw | 6 | Community","name_short":"waw-6","host":"waw-1.pl.uncletopia.com","port":27065,"enabled":true,"region":"eu","cc":"pl","latitude":52.2297,"longitude":21.017532,"reserved":0,"last_update":"0001-01-01T00:00:00Z","name_a2s":"Uncletopia | Warsaw | 6 | Community","protocol":17,"map":"koth_viaduct","folder":"tf","game":"Team Fortress","app_id":440,"player_count":0,"max_players":24,"Bots":0,"server_type":"Dedicated","server_os":"Linux","password":true,"vac":true,"version":"7723704","steam_id":85568392925397856,"keywords":["cp","nocrits","nodmgspread","uncletopia"],"game_id":440,"stv_port":27066,"stv_name":"Uncletopia | Warsaw | 6 | Community | STV","players":null}]}