{"status":true,"message":"","result":[{"server_id":2,"name":"Uncletopia | Chicago | 1 | All Maps","name_short":"chi-1","host":"chi-1.us.uncletopia.com","port":27015,"enabled":true,"region":"us-central","cc":"us","latitude":41.881832,"longitude":-87.62318,"reserved":0,"last_update":"0001-01-01T00:00:00Z","name_a2s":"Uncletopia | Chicago | 1 | All Maps","protocol":17,"map":"pl_borneo","folder":"tf","game":"Team Fortress","app_id":440,"player_count":24,"max_players":24,"Bots":0,"server_type":"Dedicated","server_os":"Linux","password":true,"vac":true,"version":"7961495","steam_id":85568392924469984,"keywords":["nocrits","nodmgspread","payload","uncletopia"],"game_id":440,"stv_port":27016,"stv_name":"Uncletopia | Chicago | 1 | All Maps | STV","players":[{"user_id":515,"name":"El Bozo","steam_id":76561198010370396,"connected_time":2411000000000,"state":"active","ping":50},{"user_id":488,"name":"Joker","steam_id":76561198341537452,"connected_time":4902000000000,"state":"active","ping":69},{"user_id":545,"name":"małię","steam_id":76561198337705174,"connected_time":650000000000,"state":"active","ping":64},{"user_id":539,"name":"(pro) semitic ye","steam_id":76561198068830312,"connected_time":1013000000000,"state":"active","ping":45},{"user_id":553,"name":"Hector Salamanca","steam_id":76561199103213955,"connected_time":100000000000,"state":"active","ping":117},{"user_id":512,"name":"Strike Force Lightning","steam_id":76561198271519776,"connected_time":3151000000000,"state":"active","ping":75},{"user_id":551,"name":"DSM-IVCE","steam_id":76561199438515797,"connected_time":301000000000,"state":"active","ping":110},{"user_id":530,"name":"minecraft","steam_id":76561198104345201,"connected_time":1214000000000,"state":"active","ping":67},{"user_id":529,"name":"{ST} Oxythemoron","steam_id":76561198060089965,"connected_time":1413000000000,"state":"active","ping":73},{"user_id":513,"name":"metalfan666","steam_id":76561198386344068,"connected_time":2993000000000,"state":"active","ping":72},{"user_id":543,"name":"JESSY","steam_id":76561198203360432,"connected_time":908000000000,"state":"active","ping":76},{"user_id":536,"name":"Waltre Wite","steam_id":76561199092728848,"connected_time":1079000000000,"state":"active","ping":111},{"user_id":521,"name":"jerma but crying and lesbian","steam_id":76561198110661425,"connected_time":2287000000000,"state":"active","ping":47},{"user_id":540,"name":"floofy","steam_id":76561198389769098,"connected_time":978000000000,"state":"active","ping":84},{"user_id":549,"name":"Not Slavoj Žižek","steam_id":76561198004619616,"connected_time":356000000000,"state":"active","ping":112},{"user_id":519,"name":"Allotrope","steam_id":76561197998450103,"connected_time":2308000000000,"state":"active","ping":49},{"user_id":552,"name":"Ludcmorais","steam_id":76561198359217809,"connected_time":135000000000,"state":"active","ping":189},{"user_id":500,"name":"dog","steam_id":76561198263873491,"connected_time":4592000000000,"state":"active","ping":45},{"user_id":538,"name":"Always Here for You","steam_id":76561198219252313,"connected_time":1031000000000,"state":"active","ping":54},{"user_id":527,"name":"DJ Spit","steam_id":76561198186637025,"connected_time":1568000000000,"state":"active","ping":93},{"user_id":548,"name":"loser","steam_id":76561198259380127,"connected_time":516000000000,"state":"active","ping":56},{"user_id":542,"name":"Yoshimelon","steam_id":76561198253054325,"connected_time":971000000000,"state":"active","ping":63},{"user_id":496,"name":"Cosmic sR","steam_id":76561198081738675,"connected_time":4785000000000,"state":"active","ping":78},{"user_id":497,"name":"Riggo","steam_id":76561198845399148,"connected_time":4777000000000,"state":"active","ping":107}]},{"server_id":106,"name":"Uncletopia | Chicago | 2 | All Maps","name_short":"chi-2","host":"chi-1.us.uncletopia.com","port":27025,"enabled":true,"region":"us-central","cc":"us","latitude":41.881832,"longitude":-87.62318,"reserved":0,"last_update":"0001-01-01T00:00:00Z","name_a2s":"Uncletopia | Chicago | 2 | All Maps","protocol":17,"map":"koth_highpass","folder":"tf","game":"Team Fortress","app_id":440,"player_count":0,"max_players":24,"Bots":0,"server_type":"Dedicated","server_os":"Linux","password":true,"vac":true,"version":"7961495","steam_id":85568392924469985,"keywords":["cp","nocrits","nodmgspread","uncletopia"],"game_id":440,"stv_port":27026,"stv_name":"Uncletopia | Chicago | 2 | All Maps | STV","players":null},{"server_id":402,"name":"Uncletopia | Chicago | 3 | All Maps","name_short":"chi-3","host":"chi-1.us.uncletopia.com","port":27035,"enabled":true,"region":"us-central","cc":"us","latitude":41.881832,"longitude":-87.62318,"reserved":0,"last_update":"0001-01-01T00:00:00Z","name_a2s":"Uncletopia | Chicago | 3 | All Maps","protocol":17,"map":"koth_cascade","folder":"tf","game":"Team Fortress","app_id":440,"player_count":0,"max_players":24,"Bots":0,"server_type":"Dedicated","server_os":"Linux","password":true,"vac":true,"version":"7961495","steam_id":85568392924515191,"keywords":["cp","nocrits","nodmgspread","uncletopia"],"game_id":440,"stv_port":27036,"stv_name":"Uncletopia | Chicago | 3 | All Maps | STV","players":null},{"server_id":403,"name":"Uncletopia | Chicago | 4 | All Maps","name_short":"chi-4","host":"chi-1.us.uncletopia.com","port":27045,"enabled":true,"region":"us-central","cc":"us","latitude":41.881832,"longitude":-87.62318,"reserved":0,"last_update":"0001-01-01T00:00:00Z","name_a2s":"Uncletopia | Chicago | 4 | All Maps","protocol":17,"map":"koth_lakeside_final","folder":"tf","game":"Team Fortress","app_id":440,"player_count":24,"max_players":24,"Bots":0,"server_type":"Dedicated","server_os":"Linux","password":true,"vac":true,"version":"7961495","steam_id":85568392924515193,"keywords":["cp","nocrits","nodmgspread","uncletopia"],"game_id":440,"stv_port":27046,"stv_name":"Uncletopia | Chicago | 4 | All Maps | STV","players":[{"user_id":412,"name":"Soulidity","steam_id":76561198429603550,"connected_time":1166000000000,"state":"active","ping":75},{"user_id":413,"name":"la fleur","steam_id":76561198277979851,"connected_time":1165000000000,"state":"active","ping":85},{"user_id":415,"name":"Jump Rope","steam_id":76561198113364714,"connected_time":1146000000000,"state":"active","ping":49},{"user_id":398,"name":"ElBentz","steam_id":76561199059582221,"connected_time":2243000000000,"state":"active","ping":100},{"user_id":417,"name":"gromit","steam_id":76561198037746805,"connected_time":918000000000,"state":"active","ping":64},{"user_id":418,"name":"shaderoses","steam_id":76561198070800500,"connected_time":686000000000,"state":"active","ping":60},{"user_id":416,"name":"goose","steam_id":76561198367551668,"connected_time":1139000000000,"state":"active","ping":59},{"user_id":382,"name":"Kep","steam_id":76561199215126029,"connected_time":3177000000000,"state":"active","ping":60},{"user_id":383,"name":"同性戀猴子","steam_id":76561198117588398,"connected_time":3122000000000,"state":"active","ping":103},{"user_id":420,"name":"greggy gregsman","steam_id":76561198943598378,"connected_time":483000000000,"state":"active","ping":53},{"user_id":421,"name":"LumaDooma","steam_id":76561198076875817,"connected_time":247000000000,"state":"active","ping":60},{"user_id":346,"name":"Smath","steam_id":76561198059050312,"connected_time":7005000000000,"state":"active","ping":56},{"user_id":385,"name":"hayley ♥","steam_id":76561198093125555,"connected_time":3105000000000,"state":"active","ping":135},{"user_id":356,"name":"daemon","steam_id":76561198001541433,"connected_time":5473000000000,"state":"active","ping":51},{"user_id":409,"name":"Jezzus","steam_id":76561199289676387,"connected_time":1774000000000,"state":"active","ping":84},{"user_id":422,"name":"Danmar33","steam_id":76561198056453091,"connected_time":186000000000,"state":"active","ping":59},{"user_id":388,"name":"LikeASir","steam_id":76561198042209721,"connected_time":2934000000000,"state":"active","ping":45},{"user_id":389,"name":"Stranger in a Strange Land","steam_id":76561198049843671,"connected_time":2911000000000,"state":"active","ping":62},{"user_id":390,"name":"NexFrost","steam_id":76561197985774837,"connected_time":2879000000000,"state":"active","ping":60},{"user_id":401,"name":"OddSlaush","steam_id":76561198043898488,"connected_time":2192000000000,"state":"active","ping":93},{"user_id":333,"name":"suzuya","steam_id":76561199207991492,"connected_time":7941000000000,"state":"active","ping":61},{"user_id":394,"name":"Fatpoob","steam_id":76561198056730096,"connected_time":2758000000000,"state":"active","ping":50},{"user_id":411,"name":"IMM0RTAL","steam_id":76561198013747901,"connected_time":1183000000000,"state":"active","ping":74},{"user_id":349,"name":"tris","steam_id":76561198152579890,"connected_time":6919000000000,"state":"active","ping":134}]},{"server_id":36,"name":"Uncletopia | Chicago | 5 | All Maps","name_short":"chi-5","host":"chi-2.us.uncletopia.com","port":27015,"enabled":true,"region":"us-central","cc":"us","latitude":41.881832,"longitude":-87.62318,"reserved":0,"last_update":"0001-01-01T00:00:00Z","name_a2s":"Uncletopia | Chicago | 5 | All Maps","protocol":17,"map":"pl_snowycoast","folder":"tf","game":"Team Fortress","app_id":440,"player_count":0,"max_players":24,"Bots":0,"server_type":"Dedicated","server_os":"Linux","password":true,"vac":true,"version":"7961495","steam_id":85568392924866362,"keywords":["nocrits","nodmgspread","payload","uncletopia"],"game_id":440,"stv_port":27016,"stv_name":"Uncletopia | Chicago | 5 | All Maps | STV","players":null},{"server_id":37,"name":"Uncletopia | Chicago | 6 | All Maps","name_short":"chi-6","host":"chi-2.us.uncletopia.com","port":27025,"enabled":true,"region":"us-central","cc":"us","latitude":41.881832,"longitude":-87.62318,"reserved":0,"last_update":"0001-01-01T00:00:00Z","name_a2s":"Uncletopia | Chicago | 6 | All Maps","protocol":17,"map":"pl_pier","folder":"tf","game":"Team Fortress","app_id":440,"player_count":17,"max_players":24,"Bots":0,"server_type":"Dedicated","server_os":"Linux","password":true,"vac":true,"version":"7961495","steam_id":85568392924866363,"keywords":["nocrits","nodmgspread","payload","uncletopia"],"game_id":440,"stv_port":27026,"stv_name":"Uncletopia | Chicago | 6 | All Maps | STV","players":[{"user_id":299,"name":"Zack","steam_id":76561198308083836,"connected_time":655000000000,"state":"active","ping":70},{"user_id":280,"name":"Boo! Boo I Say!","steam_id":76561198272427405,"connected_time":1489000000000,"state":"active","ping":74},{"user_id":295,"name":"Shpee","steam_id":76561198255776144,"connected_time":764000000000,"state":"active","ping":135},{"user_id":278,"name":"Nrub","steam_id":76561199486344810,"connected_time":1995000000000,"state":"active","ping":66},{"user_id":275,"name":"larguu","steam_id":76561197994336210,"connected_time":2212000000000,"state":"active","ping":60},{"user_id":284,"name":"GKumo","steam_id":76561198023175868,"connected_time":1205000000000,"state":"active","ping":107},{"user_id":259,"name":"lazyhead","steam_id":76561198044358804,"connected_time":3749000000000,"state":"active","ping":51},{"user_id":303,"name":"Piss Man","steam_id":76561198802482356,"connected_time":376000000000,"state":"active","ping":86},{"user_id":260,"name":"Pohnut","steam_id":76561198087831690,"connected_time":3399000000000,"state":"active","ping":135},{"user_id":307,"name":"CatThulhu","steam_id":76561198211620004,"connected_time":88000000000,"state":"active","ping":105},{"user_id":306,"name":"TZ","steam_id":76561198048625241,"connected_time":121000000000,"state":"active","ping":61},{"user_id":305,"name":"CaptainCreampie","steam_id":76561197992842045,"connected_time":280000000000,"state":"active","ping":124},{"user_id":262,"name":"h20verdrive","steam_id":76561198115957085,"connected_time":3247000000000,"state":"active","ping":91},{"user_id":269,"name":"Girl gamer","steam_id":76561198237827742,"connected_time":2705000000000,"state":"active","ping":59},{"user_id":277,"name":"Yongle","steam_id":76561198068591156,"connected_time":2081000000000,"state":"active","ping":44},{"user_id":286,"name":"TGGHaze gaming","steam_id":76561199134730784,"connected_time":1147000000000,"state":"active","ping":156},{"user_id":272,"name":"Tat_Dead","steam_id":76561199048111391,"connected_time":2596000000000,"state":"active","ping":96}]},{"server_id":38,"name":"Uncletopia | Chicago | 7 | Stopwatch Beta","name_short":"chi-7","host":"chi-2.us.uncletopia.com","port":27035,"enabled":true,"region":"us-central","cc":"us","latitude":41.881832,"longitude":-87.62318,"reserved":0,"last_update":"0001-01-01T00:00:00Z","name_a2s":"Uncletopia | Chicago | 7 | Stopwatch Beta","protocol":17,"map":"pl_borneo","folder":"tf","game":"Team Fortress","app_id":440,"player_count":0,"max_players":24,"Bots":0,"server_type":"Dedicated","server_os":"Linux","password":true,"vac":true,"version":"7961495","steam_id":85568392924866364,"keywords":["nocrits","nodmgspread","payload","uncletopia"],"game_id":440,"stv_port":27036,"stv_name":"Uncletopia | Chicago | 7 | Stopwatch Beta | STV","players":null},{"server_id":39,"name":"Uncletopia | Chicago | 8 | Community","name_short":"chi-8","host":"chi-2.us.uncletopia.com","port":27045,"enabled":true,"region":"us-central","cc":"us","latitude":41.881832,"longitude":-87.62318,"reserved":0,"last_update":"0001-01-01T00:00:00Z","name_a2s":"Uncletopia | Chicago | 8 | Community","protocol":17,"map":"workshop/koth_product_final.ugc454272353","folder":"tf","game":"Team Fortress","app_id":440,"player_count":0,"max_players":24,"Bots":0,"server_type":"Dedicated","server_os":"Linux","password":true,"vac":true,"version":"7961495","steam_id":85568392924866365,"keywords":["cp","nocrits","nodmgspread","uncletopia"],"game_id":440,"stv_port":27046,"stv_name":"Uncletopia | Chicago | 8 | Community | STV","players":null},{"server_id":8,"name":"Uncletopia | Dallas | 1 | All Maps","name_short":"dal-1","host":"dal-1.us.uncletopia.com","port":27015,"enabled":true,"region":"us-central","cc":"us","latitude":32.779167,"longitude":-96.80889,"reserved":0,"last_update":"0001-01-01T00:00:00Z","name_a2s":"Uncletopia | Dallas | 1 | All Maps","protocol":17,"map":"pl_snowycoast","folder":"tf","game":"Team Fortress","app_id":440,"player_count":24,"max_players":24,"Bots":0,"server_type":"Dedicated","server_os":"Linux","password":true,"vac":true,"version":"7961495","steam_id":85568392924469986,"keywords":["nocrits","nodmgspread","payload","uncletopia"],"game_id":440,"stv_port":27016,"stv_name":"Uncletopia | Dallas | 1 | All Maps | STV","players":[{"user_id":401,"name":"MithStyck","steam_id":76561198071538489,"connected_time":1629000000000,"state":"active","ping":39},{"user_id":402,"name":"Pornelius Hubert","steam_id":76561198186128723,"connected_time":1530000000000,"state":"active","ping":46},{"user_id":406,"name":"vulcan nightclub pon farr night","steam_id":76561197974283797,"connected_time":1322000000000,"state":"active","ping":70},{"user_id":419,"name":"orgasmo","steam_id":76561198047355245,"connected_time":560000000000,"state":"active","ping":83},{"user_id":408,"name":"Thot Patrol","steam_id":76561198138713736,"connected_time":1218000000000,"state":"active","ping":83},{"user_id":421,"name":"the guy inside your printer","steam_id":76561198321313604,"connected_time":445000000000,"state":"active","ping":78},{"user_id":362,"name":"Foxyz","steam_id":76561198040642992,"connected_time":5532000000000,"state":"active","ping":167},{"user_id":359,"name":"Rango","steam_id":76561198067275912,"connected_time":5955000000000,"state":"active","ping":93},{"user_id":420,"name":"margaret","steam_id":76561198038291026,"connected_time":555000000000,"state":"active","ping":37},{"user_id":422,"name":"AvapXia","steam_id":76561198147476096,"connected_time":424000000000,"state":"active","ping":109},{"user_id":358,"name":"Gelliterate","steam_id":76561198107233070,"connected_time":6028000000000,"state":"active","ping":56},{"user_id":380,"name":"Pight","steam_id":76561198823422389,"connected_time":3769000000000,"state":"active","ping":83},{"user_id":412,"name":"TheSantaStalker","steam_id":76561198044411734,"connected_time":1165000000000,"state":"active","ping":85},{"user_id":379,"name":"Meat","steam_id":76561198047911274,"connected_time":4044000000000,"state":"active","ping":71},{"user_id":425,"name":"transgender fortress 2","steam_id":76561198062263639,"connected_time":122000000000,"state":"active","ping":53},{"user_id":410,"name":"goopgrabber","steam_id":76561199029951083,"connected_time":1185000000000,"state":"active","ping":88},{"user_id":411,"name":"Viren","steam_id":76561198012636897,"connected_time":1177000000000,"state":"active","ping":45},{"user_id":413,"name":"yesoko","steam_id":76561198072917024,"connected_time":1136000000000,"state":"active","ping":76},{"user_id":397,"name":"Zippy","steam_id":76561198279229422,"connected_time":1727000000000,"state":"active","ping":78},{"user_id":414,"name":"substance","steam_id":76561198050103868,"connected_time":1132000000000,"state":"active","ping":121},{"user_id":424,"name":"Techne","steam_id":76561198090486583,"connected_time":186000000000,"state":"active","ping":97},{"user_id":353,"name":"Stillkill","steam_id":76561198065069057,"connected_time":6455000000000,"state":"active","ping":37},{"user_id":426,"name":"Team Fartpiss Poo","steam_id":76561199163591880,"connected_time":105000000000,"state":"active","ping":97},{"user_id":373,"name":"._.","steam_id":76561198064255155,"connected_time":4934000000000,"state":"active","ping":68}]},{"server_id":108,"name":"Uncletopia | Dallas | 2 | All Maps","name_short":"dal-2","host":"dal-1.us.uncletopia.com","port":27025,"enabled":true,"region":"us-central","cc":"us","latitude":32.779167,"longitude":-96.80889,"reserved":0,"last_update":"0001-01-01T00:00:00Z","name_a2s":"Uncletopia | Dallas | 2 | All Maps","protocol":17,"map":"ctf_2fort","folder":"tf","game":"Team Fortress","app_id":440,"player_count":16,"max_players":24,"Bots":0,"server_type":"Dedicated","server_os":"Linux","password":true,"vac":true,"version":"7961495","steam_id":85568392924469988,"keywords":["ctf","nocrits","nodmgspread","uncletopia"],"game_id":440,"stv_port":27026,"stv_name":"Uncletopia | Dallas | 2 | All Maps | STV","players":[{"user_id":409,"name":"Average Caber Fan","steam_id":76561199451299044,"connected_time":809000000000,"state":"active","ping":69},{"user_id":419,"name":"robo gushy","steam_id":76561198060334743,"connected_time":7000000000,"state":"spawning","ping":66},{"user_id":398,"name":"Jimothy","steam_id":76561198361536109,"connected_time":1474000000000,"state":"active","ping":56},{"user_id":410,"name":"cofferhead","steam_id":76561199191108449,"connected_time":805000000000,"state":"active","ping":84},{"user_id":416,"name":"Luka","steam_id":76561198142979525,"connected_time":387000000000,"state":"active","ping":92},{"user_id":417,"name":"Wiffle","steam_id":76561198251951402,"connected_time":237000000000,"state":"active","ping":102},{"user_id":399,"name":"Smug","steam_id":76561198448205229,"connected_time":1400000000000,"state":"active","ping":62},{"user_id":413,"name":"LtK","steam_id":76561197993180943,"connected_time":579000000000,"state":"active","ping":30},{"user_id":418,"name":"basilberry","steam_id":76561198145275937,"connected_time":36000000000,"state":"active","ping":59},{"user_id":400,"name":"Gimplor","steam_id":76561198336945932,"connected_time":1393000000000,"state":"active","ping":81},{"user_id":401,"name":"Broomfrog","steam_id":76561198197932090,"connected_time":1367000000000,"state":"active","ping":58},{"user_id":356,"name":"banan team fortes","steam_id":76561199073621650,"connected_time":4084000000000,"state":"active","ping":83},{"user_id":402,"name":"Diamondbirdy01","steam_id":76561198162383553,"connected_time":1313000000000,"state":"active","ping":57},{"user_id":358,"name":"sergeant Adderall","steam_id":76561199010296481,"connected_time":4078000000000,"state":"active","ping":84},{"user_id":373,"name":"JadEDU","steam_id":76561198170648674,"connected_time":3187000000000,"state":"active","ping":61},{"user_id":379,"name":"Johnson","steam_id":76561198051905342,"connected_time":2764000000000,"state":"active","ping":86}]},{"server_id":5,"name":"Uncletopia | Frankfurt | 1 | All Maps","name_short":"frk-1","host":"frk-1.de.uncletopia.com","port":27015,"enabled":true,"region":"eu","cc":"de","latitude":50.110924,"longitude":8.682127,"reserved":0,"last_update":"0001-01-01T00:00:00Z","name_a2s":"Uncletopia | Frankfurt | 1 | All Maps","protocol":17,"map":"cp_altitude","folder":"tf","game":"Team Fortress","app_id":440,"player_count":0,"max_players":24,"Bots":0,"server_type":"Dedicated","server_os":"Linux","password":true,"vac":true,"version":"7961495","steam_id":85568392924469989,"keywords":["cp","nocrits","nodmgspread","uncletopia"],"game_id":440,"stv_port":27016,"stv_name":"Uncletopia | Frankfurt | 1 | All Maps | STV","players":null},{"server_id":110,"name":"Uncletopia | Frankfurt | 2 | All Maps","name_short":"frk-2","host":"frk-1.de.uncletopia.com","port":27025,"enabled":true,"region":"eu","cc":"de","latitude":50.110924,"longitude":8.682127,"reserved":0,"last_update":"0001-01-01T00:00:00Z","name_a2s":"Uncletopia | Frankfurt | 2 | All Maps","protocol":17,"map":"cp_sunshine","folder":"tf","game":"Team Fortress","app_id":440,"player_count":0,"max_players":24,"Bots":0,"server_type":"Dedicated","server_os":"Linux","password":true,"vac":true,"version":"7961495","steam_id":85568392924469990,"keywords":["cp","nocrits","nodmgspread","uncletopia"],"game_id":440,"stv_port":27026,"stv_name":"Uncletopia | Frankfurt | 2 | All Maps | STV","players":null},{"server_id":308,"name":"Uncletopia | Frankfurt | 3 | All Maps","name_short":"frk-3","host":"frk-1.de.uncletopia.com","port":27035,"enabled":true,"region":"eu","cc":"de","latitude":50.110924,"longitude":8.682127,"reserved":0,"last_update":"0001-01-01T00:00:00Z","name_a2s":"Uncletopia | Frankfurt | 3 | All Maps","protocol":17,"map":"cp_mountainlab","folder":"tf","game":"Team Fortress","app_id":440,"player_count":0,"max_players":24,"Bots":0,"server_type":"Dedicated","server_os":"Linux","password":true,"vac":true,"version":"7961495","steam_id":85568392924504274,"keywords":["cp","nocrits","nodmgspread","uncletopia"],"game_id":440,"stv_port":27036,"stv_name":"Uncletopia | Frankfurt | 3 | All Maps | STV","players":null},{"server_id":309,"name":"Uncletopia | Frankfurt | 4 | All Maps","name_short":"frk-4","host":"frk-1.de.uncletopia.com","port":27045,"enabled":true,"region":"eu","cc":"de","latitude":50.110924,"longitude":8.682127,"reserved":0,"last_update":"0001-01-01T00:00:00Z","name_a2s":"Uncletopia | Frankfurt | 4 | All Maps","protocol":17,"map":"cp_process_final","folder":"tf","game":"Team Fortress","app_id":440,"player_count":0,"max_players":24,"Bots":0,"server_type":"Dedicated","server_os":"Linux","password":true,"vac":true,"version":"7961495","steam_id":85568392924504275,"keywords":["cp","nocrits","nodmgspread","uncletopia"],"game_id":440,"stv_port":27046,"stv_name":"Uncletopia | Frankfurt | 4 | All Maps | STV","players":null},{"server_id":310,"name":"Uncletopia | Frankfurt | 5 | All Maps","name_short":"frk-5","host":"frk-1.de.uncletopia.com","port":27055,"enabled":true,"region":"eu","cc":"de","latitude":50.110924,"longitude":8.682127,"reserved":0,"last_update":"0001-01-01T00:00:00Z","name_a2s":"Uncletopia | Frankfurt | 5 | All Maps","protocol":17,"map":"koth_viaduct","folder":"tf","game":"Team Fortress","app_id":440,"player_count":0,"max_players":24,"Bots":0,"server_type":"Dedicated","server_os":"Linux","password":true,"vac":true,"version":"7961495","steam_id":85568392924504277,"keywords":["cp","nocrits","nodmgspread","uncletopia"],"game_id":440,"stv_port":27056,"stv_name":"Uncletopia | Frankfurt | 5 | All Maps | STV","players":null},{"server_id":311,"name":"Uncletopia | Frankfurt | 6 | All Maps","name_short":"frk-6","host":"frk-1.de.uncletopia.com","port":27065,"enabled":true,"region":"eu","cc":"de","latitude":50.110924,"longitude":8.682127,"reserved":0,"last_update":"0001-01-01T00:00:00Z","name_a2s":"Uncletopia | Frankfurt | 6 | All Maps","protocol":17,"map":"pl_pier","folder":"tf","game":"Team Fortress","app_id":440,"player_count":0,"max_players":24,"Bots":0,"server_type":"Dedicated","server_os":"Linux","password":true,"vac":true,"version":"7961495","steam_id":85568392924504278,"keywords":["nocrits","nodmgspread","payload","uncletopia"],"game_id":440,"stv_port":27066,"stv_name":"Uncletopia | Frankfurt | 6 | All Maps | STV","players":null},{"server_id":23,"name":"Uncletopia | Frankfurt | 7 | Stopwatch Beta","name_short":"frk-7","host":"frk-1.de.uncletopia.com","port":27075,"enabled":true,"region":"eu","cc":"de","latitude":50.110924,"longitude":8.682127,"reserved":0,"last_update":"0001-01-01T00:00:00Z","name_a2s":"Uncletopia | Frankfurt | 7 | Stopwatch Beta","protocol":17,"map":"koth_cascade","folder":"tf","game":"Team Fortress","app_id":440,"player_count":0,"max_players":24,"Bots":0,"server_type":"Dedicated","server_os":"Linux","password":true,"vac":true,"version":"7961495","steam_id":85568392924742827,"keywords":["cp","nocrits","nodmgspread","uncletopia"],"game_id":440,"stv_port":27076,"stv_name":"Uncletopia | Frankfurt | 7 | Stopwatch Beta | STV","players":null},{"server_id":24,"name":"Uncletopia | Frankfurt | 8 | Community","name_short":"frk-8","host":"frk-1.de.uncletopia.com","port":27085,"enabled":true,"region":"eu","cc":"de","latitude":50.110924,"longitude":8.682127,"reserved":0,"last_update":"0001-01-01T00:00:00Z","name_a2s":"Uncletopia | Frankfurt | 8 | Community","protocol":17,"map":"cp_process_final","folder":"tf","game":"Team Fortress","app_id":440,"player_count":0,"max_players":24,"Bots":0,"server_type":"Dedicated","server_os":"Linux","password":true,"vac":true,"version":"7961495","steam_id":85568392924742828,"keywords":["cp","nocrits","nodmgspread","uncletopia"],"game_id":440,"stv_port":27086,"stv_name":"Uncletopia | Frankfurt | 8 | Community | STV","players":null},{"server_id":202,"name":"Uncletopia | Hong Kong | 1 | All Maps","name_short":"hgk-1","host":"hgk-1.hk.uncletopia.com","port":27015,"enabled":true,"region":"asia","cc":"hk","latitude":22.302711,"longitude":114.177216,"reserved":0,"last_update":"0001-01-01T00:00:00Z","name_a2s":"Uncletopia | Hong Kong | 1 | All Maps","protocol":17,"map":"koth_lakeside_final","folder":"tf","game":"Team Fortress","app_id":440,"player_count":0,"max_players":24,"Bots":0,"server_type":"Dedicated","server_os":"Linux","password":true,"vac":true,"version":"7961495","steam_id":85568392924494504,"keywords":["cp","nocrits","nodmgspread","uncletopia"],"game_id":440,"stv_port":27016,"stv_name":"Uncletopia | Hong Kong | 1 | All Maps | STV","players":null},{"server_id":1,"name":"Uncletopia | Los Angeles | 1 | All Maps","name_short":"lax-1","host":"lax-1.us.uncletopia.com","port":27015,"enabled":true,"region":"us-west","cc":"us","latitude":33.94279,"longitude":-118.41004,"reserved":0,"last_update":"0001-01-01T00:00:00Z","name_a2s":"Uncletopia | Los Angeles | 1 | All Maps","protocol":17,"map":"pl_barnblitz","folder":"tf","game":"Team Fortress","app_id":440,"player_count":21,"max_players":24,"Bots":0,"server_type":"Dedicated","server_os":"Linux","password":true,"vac":true,"version":"7961495","steam_id":85568392924469991,"keywords":["nocrits","nodmgspread","payload","uncletopia"],"game_id":440,"stv_port":27016,"stv_name":"Uncletopia | Los Angeles | 1 | All Maps | STV","players":[{"user_id":356,"name":"⚣ Horny Femboy ⚣","steam_id":76561199043463646,"connected_time":30000000000,"state":"active","ping":79},{"user_id":327,"name":"Rusty","steam_id":76561198055585129,"connected_time":2260000000000,"state":"active","ping":74},{"user_id":323,"name":"nat","steam_id":76561198179923093,"connected_time":2975000000000,"state":"active","ping":45},{"user_id":324,"name":"el wokismo","steam_id":76561198058617608,"connected_time":2780000000000,"state":"active","ping":51},{"user_id":319,"name":"stick","steam_id":76561198134334367,"connected_time":3816000000000,"state":"active","ping":70},{"user_id":315,"name":"Goose-8","steam_id":76561198795950093,"connected_time":3939000000000,"state":"active","ping":112},{"user_id":355,"name":"Christian Brutal Sniper","steam_id":76561198103653795,"connected_time":419000000000,"state":"active","ping":45},{"user_id":339,"name":"_Ati","steam_id":76561198339777801,"connected_time":1166000000000,"state":"active","ping":69},{"user_id":351,"name":"gayass","steam_id":76561199137369871,"connected_time":649000000000,"state":"active","ping":157},{"user_id":341,"name":"I Want That Hat","steam_id":76561198378325489,"connected_time":1118000000000,"state":"active","ping":73},{"user_id":342,"name":"sniper tf2","steam_id":76561198117573601,"connected_time":1079000000000,"state":"active","ping":152},{"user_id":357,"name":"Defeat","steam_id":76561198065203818,"connected_time":23000000000,"state":"active","ping":51},{"user_id":343,"name":"Talulah","steam_id":76561198348354629,"connected_time":1070000000000,"state":"active","ping":48},{"user_id":268,"name":"sobaka","steam_id":76561198116008934,"connected_time":8027000000000,"state":"active","ping":56},{"user_id":330,"name":"Wendigo","steam_id":76561198045937454,"connected_time":2135000000000,"state":"active","ping":86},{"user_id":358,"name":"Jivin' Jigger","steam_id":76561198211677460,"connected_time":16000000000,"state":"spawning","ping":114},{"user_id":354,"name":"the rat","steam_id":76561198442468979,"connected_time":538000000000,"state":"active","ping":57},{"user_id":328,"name":"ʀ.ʚɞ.","steam_id":76561198029580420,"connected_time":2162000000000,"state":"active","ping":162},{"user_id":345,"name":"V-Happy","steam_id":76561198095331845,"connected_time":1013000000000,"state":"active","ping":101},{"user_id":347,"name":"usedhalfcart","steam_id":76561198072621852,"connected_time":966000000000,"state":"active","ping":103},{"user_id":331,"name":"nella","steam_id":76561198079349621,"connected_time":2126000000000,"state":"active","ping":54}]},{"server_id":112,"name":"Uncletopia | Los Angeles | 2 | All Maps","name_short":"lax-2","host":"lax-1.us.uncletopia.com","port":27025,"enabled":true,"region":"us-west","cc":"us","latitude":33.94279,"longitude":-118.41004,"reserved":0,"last_update":"0001-01-01T00:00:00Z","name_a2s":"Uncletopia | Los Angeles | 2 | All Maps","protocol":17,"map":"cp_snakewater_final1","folder":"tf","game":"Team Fortress","app_id":440,"player_count":23,"max_players":24,"Bots":0,"server_type":"Dedicated","server_os":"Linux","password":true,"vac":true,"version":"7961495","steam_id":85568392924469992,"keywords":["cp","nocrits","nodmgspread","uncletopia"],"game_id":440,"stv_port":27026,"stv_name":"Uncletopia | Los Angeles | 2 | All Maps | STV","players":[{"user_id":250,"name":"gerg","steam_id":76561197997127387,"connected_time":3171000000000,"state":"active","ping":54},{"user_id":281,"name":"no name","steam_id":76561198312741335,"connected_time":768000000000,"state":"active","ping":91},{"user_id":274,"name":"Puppeteer","steam_id":76561198159928108,"connected_time":898000000000,"state":"active","ping":87},{"user_id":272,"name":"flame","steam_id":76561198079321914,"connected_time":955000000000,"state":"active","ping":69},{"user_id":283,"name":"untamed","steam_id":76561198336898193,"connected_time":734000000000,"state":"active","ping":110},{"user_id":208,"name":"SQbuilder","steam_id":76561198076473375,"connected_time":9010000000000,"state":"active","ping":48},{"user_id":270,"name":"meme","steam_id":76561199170771700,"connected_time":1054000000000,"state":"active","ping":54},{"user_id":290,"name":"fluffers arooba","steam_id":76561199229966247,"connected_time":282000000000,"state":"active","ping":52},{"user_id":285,"name":"endo","steam_id":76561197995204381,"connected_time":678000000000,"state":"active","ping":71},{"user_id":291,"name":"big car","steam_id":76561198067082350,"connected_time":270000000000,"state":"active","ping":60},{"user_id":277,"name":"dodo","steam_id":76561198045499487,"connected_time":816000000000,"state":"active","ping":87},{"user_id":279,"name":"The Bull","steam_id":76561198143826450,"connected_time":781000000000,"state":"active","ping":92},{"user_id":294,"name":"Ant","steam_id":76561198253062337,"connected_time":151000000000,"state":"active","ping":91},{"user_id":287,"name":"A bendy straw in disguise","steam_id":76561198257743986,"connected_time":629000000000,"state":"active","ping":64},{"user_id":288,"name":"feel the bean","steam_id":76561198858328080,"connected_time":617000000000,"state":"active","ping":43},{"user_id":295,"name":"Viktor Ludwig TTV","steam_id":76561198973370004,"connected_time":122000000000,"state":"active","ping":59},{"user_id":178,"name":"selvhat","steam_id":76561198114225509,"connected_time":12973000000000,"state":"active","ping":51},{"user_id":292,"name":"I'm Still Your Friend","steam_id":76561198436921672,"connected_time":258000000000,"state":"active","ping":71},{"user_id":293,"name":"JoshuaTheBunbun","steam_id":76561198306313297,"connected_time":251000000000,"state":"active","ping":55},{"user_id":296,"name":"Trips","steam_id":76561198054581597,"connected_time":105000000000,"state":"active","ping":53},{"user_id":297,"name":"SomeFatPoptart","steam_id":76561198085433807,"connected_time":51000000000,"state":"active","ping":92},{"user_id":298,"name":"ena - d","steam_id":76561198072329335,"connected_time":46000000000,"state":"active","ping":95},{"user_id":246,"name":"achoo","steam_id":76561198009091066,"connected_time":3764000000000,"state":"active","ping":67}]},{"server_id":324,"name":"Uncletopia | Los Angeles | 3 | All Maps","name_short":"lax-3","host":"lax-1.us.uncletopia.com","port":27035,"enabled":true,"region":"us-west","cc":"us","latitude":33.94279,"longitude":-118.41004,"reserved":0,"last_update":"0001-01-01T00:00:00Z","name_a2s":"Uncletopia | Los Angeles | 3 | All Maps","protocol":17,"map":"cp_dustbowl","folder":"tf","game":"Team Fortress","app_id":440,"player_count":18,"max_players":24,"Bots":0,"server_type":"Dedicated","server_os":"Linux","password":true,"vac":true,"version":"7961495","steam_id":85568392924510198,"keywords":["cp","nocrits","nodmgspread","uncletopia"],"game_id":440,"stv_port":27036,"stv_name":"Uncletopia | Los Angeles | 3 | All Maps | STV","players":[{"user_id":302,"name":"Livin' Like Larry","steam_id":76561198313360974,"connected_time":3062000000000,"state":"active","ping":42},{"user_id":292,"name":"scruhlman","steam_id":76561198212448060,"connected_time":3843000000000,"state":"active","ping":106},{"user_id":339,"name":"/!\\ ZOLASKI /!\\ trade.tf","steam_id":76561198101096707,"connected_time":274000000000,"state":"active","ping":163},{"user_id":340,"name":"viedoamges","steam_id":76561198025295263,"connected_time":103000000000,"state":"active","ping":82},{"user_id":338,"name":"10HourNaps","steam_id":76561199082304859,"connected_time":279000000000,"state":"active","ping":80},{"user_id":327,"name":"set","steam_id":76561198294281809,"connected_time":1245000000000,"state":"active","ping":54},{"user_id":342,"name":"lamborghini revuelto","steam_id":76561198319442494,"connected_time":32000000000,"state":"active","ping":54},{"user_id":337,"name":"PrinceBean","steam_id":76561199055077408,"connected_time":282000000000,"state":"active","ping":100},{"user_id":288,"name":"baldo","steam_id":76561198178431338,"connected_time":4000000000000,"state":"active","ping":47},{"user_id":328,"name":"M4 Sherman","steam_id":76561198011096132,"connected_time":1198000000000,"state":"active","ping":53},{"user_id":315,"name":"demo that laughs at sentries","steam_id":76561198083561382,"connected_time":1706000000000,"state":"active","ping":99},{"user_id":334,"name":"Kenny","steam_id":76561198031540741,"connected_time":721000000000,"state":"active","ping":53},{"user_id":329,"name":"Lone_Explorer","steam_id":76561198081972715,"connected_time":1167000000000,"state":"active","ping":89},{"user_id":318,"name":"azureglxy","steam_id":76561198861388315,"connected_time":1649000000000,"state":"active","ping":44},{"user_id":320,"name":"Heisenberg","steam_id":76561198086608978,"connected_time":1605000000000,"state":"active","ping":102},{"user_id":301,"name":"Tosh","steam_id":76561198026948976,"connected_time":3240000000000,"state":"active","ping":75},{"user_id":324,"name":"Subject Delta","steam_id":76561199109118980,"connected_time":1436000000000,"state":"active","ping":56},{"user_id":309,"name":"Tech Deck","steam_id":76561199070437675,"connected_time":2524000000000,"state":"active","ping":56}]},{"server_id":25,"name":"Uncletopia | Los Angeles | 4 | Stopwatch Beta","name_short":"lax-4","host":"lax-1.us.uncletopia.com","port":27045,"enabled":true,"region":"us-west","cc":"us","latitude":33.94279,"longitude":-118.41004,"reserved":0,"last_update":"0001-01-01T00:00:00Z","name_a2s":"Uncletopia | Los Angeles | 4 | Stopwatch Beta","protocol":17,"map":"pl_frontier_final","folder":"tf","game":"Team Fortress","app_id":440,"player_count":1,"max_players":24,"Bots":0,"server_type":"Dedicated","server_os":"Linux","password":true,"vac":true,"version":"7961495","steam_id":85568392924510199,"keywords":["nocrits","nodmgspread","payload","uncletopia"],"game_id":440,"stv_port":27046,"stv_name":"Uncletopia | Los Angeles | 4 | Stopwatch Beta | STV","players":[{"user_id":15,"name":"Buter","steam_id":76561198202305826,"connected_time":88000000000,"state":"active","ping":54}]},{"server_id":11,"name":"Uncletopia | London | 1 | All Maps","name_short":"lon-1","host":"lon-1.uk.uncletopia.com","port":27015,"enabled":true,"region":"eu","cc":"gb","latitude":51.509865,"longitude":-0.118092,"reserved":0,"last_update":"0001-01-01T00:00:00Z","name_a2s":"Uncletopia | London | 1 | All Maps","protocol":17,"map":"pl_barnblitz","folder":"tf","game":"Team Fortress","app_id":440,"player_count":24,"max_players":24,"Bots":0,"server_type":"Dedicated","server_os":"Linux","password":true,"vac":true,"version":"7961495","steam_id":85568392924367362,"keywords":["nocrits","nodmgspread","payload","uncletopia"],"game_id":440,"stv_port":27016,"stv_name":"Uncletopia | London | 1 | All Maps | STV","players":[{"user_id":4,"name":"costco-pilled individual","steam_id":76561198818037965,"connected_time":9615000000000,"state":"active","ping":105},{"user_id":131,"name":"the doctor's smoke n' toke","steam_id":76561198105978107,"connected_time":96000000000,"state":"active","ping":79},{"user_id":94,"name":"leonardini.w","steam_id":76561199097963071,"connected_time":3749000000000,"state":"active","ping":116},{"user_id":128,"name":"Artiary","steam_id":76561199081853292,"connected_time":307000000000,"state":"active","ping":174},{"user_id":125,"name":"gravity displeases me","steam_id":76561198342570528,"connected_time":587000000000,"state":"active","ping":67},{"user_id":127,"name":"Dacia Sandero","steam_id":76561199052062415,"connected_time":437000000000,"state":"active","ping":87},{"user_id":105,"name":"sciencenerd42","steam_id":76561198274563320,"connected_time":2612000000000,"state":"active","ping":111},{"user_id":119,"name":"lunaire","steam_id":76561198163344452,"connected_time":1098000000000,"state":"active","ping":81},{"user_id":86,"name":"Asmodeus","steam_id":76561198283156425,"connected_time":4428000000000,"state":"active","ping":88},{"user_id":126,"name":"Zembis","steam_id":76561198008017918,"connected_time":560000000000,"state":"active","ping":89},{"user_id":121,"name":"dmEngineer_tf2 #SaveTF2","steam_id":76561199388956338,"connected_time":855000000000,"state":"active","ping":85},{"user_id":117,"name":"nymph","steam_id":76561199249569889,"connected_time":1235000000000,"state":"active","ping":60},{"user_id":111,"name":"Ded","steam_id":76561198186054573,"connected_time":1801000000000,"state":"active","ping":82},{"user_id":95,"name":"Cosmetic brain","steam_id":76561198055936410,"connected_time":3467000000000,"state":"active","ping":75},{"user_id":122,"name":"Larry Penus","steam_id":76561198207546233,"connected_time":838000000000,"state":"active","ping":44},{"user_id":112,"name":"a chair","steam_id":76561199085472085,"connected_time":1785000000000,"state":"active","ping":73},{"user_id":24,"name":"one silly guy","steam_id":76561198219901556,"connected_time":8560000000000,"state":"active","ping":105},{"user_id":132,"name":"fat cսnt","steam_id":76561198845550388,"connected_time":23000000000,"state":"spawning","ping":95},{"user_id":97,"name":"going bananas","steam_id":76561199480942903,"connected_time":3386000000000,"state":"active","ping":75},{"user_id":114,"name":"modavak","steam_id":76561198946290908,"connected_time":1510000000000,"state":"active","ping":103},{"user_id":80,"name":"K'aax Itzam","steam_id":76561198044024509,"connected_time":4727000000000,"state":"active","ping":78},{"user_id":130,"name":"CEO of Racism","steam_id":76561198211814371,"connected_time":195000000000,"state":"active","ping":78},{"user_id":123,"name":"(wm) Das Fleisch","steam_id":76561198001250715,"connected_time":821000000000,"state":"active","ping":62},{"user_id":47,"name":"zasert82","steam_id":76561199043016316,"connected_time":6893000000000,"state":"active","ping":95}]},{"server_id":114,"name":"Uncletopia | London | 2 | All Maps","name_short":"lon-2","host":"lon-1.uk.uncletopia.com","port":27025,"enabled":true,"region":"eu","cc":"gb","latitude":51.509865,"longitude":-0.118092,"reserved":0,"last_update":"0001-01-01T00:00:00Z","name_a2s":"Uncletopia | London | 2 | All Maps","protocol":17,"map":"pl_badwater","folder":"tf","game":"Team Fortress","app_id":440,"player_count":0,"max_players":24,"Bots":0,"server_type":"Dedicated","server_os":"Linux","password":true,"vac":true,"version":"7961495","steam_id":85568392924470941,"keywords":["nocrits","nodmgspread","payload","uncletopia"],"game_id":440,"stv_port":27026,"stv_name":"Uncletopia | London | 2 | All Maps | STV","players":null},{"server_id":320,"name":"Uncletopia | London | 3 | All Maps","name_short":"lon-3","host":"lon-1.uk.uncletopia.com","port":27035,"enabled":true,"region":"eu","cc":"gb","latitude":51.509865,"longitude":-0.118092,"reserved":0,"last_update":"0001-01-01T00:00:00Z","name_a2s":"Uncletopia | London | 3 | All Maps","protocol":17,"map":"pl_barnblitz","folder":"tf","game":"Team Fortress","app_id":440,"player_count":0,"max_players":24,"Bots":0,"server_type":"Dedicated","server_os":"Linux","password":true,"vac":true,"version":"7961495","steam_id":85568392924510192,"keywords":["nocrits","nodmgspread","payload","uncletopia"],"game_id":440,"stv_port":27036,"stv_name":"Uncletopia | London | 3 | All Maps | STV","players":null},{"server_id":321,"name":"Uncletopia | London | 4 | All Maps","name_short":"lon-4","host":"lon-1.uk.uncletopia.com","port":27045,"enabled":true,"region":"eu","cc":"gb","latitude":51.509865,"longitude":-0.118092,"reserved":0,"last_update":"0001-01-01T00:00:00Z","name_a2s":"Uncletopia | London | 4 | All Maps","protocol":17,"map":"koth_cascade","folder":"tf","game":"Team Fortress","app_id":440,"player_count":0,"max_players":24,"Bots":0,"server_type":"Dedicated","server_os":"Linux","password":true,"vac":true,"version":"7961495","steam_id":85568392924510193,"keywords":["cp","nocrits","nodmgspread","uncletopia"],"game_id":440,"stv_port":27046,"stv_name":"Uncletopia | London | 4 | All Maps | STV","players":null},{"server_id":21,"name":"Uncletopia | London | 5 | All Maps","name_short":"lon-5","host":"lon-1.uk.uncletopia.com","port":27055,"enabled":true,"region":"eu","cc":"gb","latitude":51.509865,"longitude":-0.118092,"reserved":0,"last_update":"0001-01-01T00:00:00Z","name_a2s":"Uncletopia | London | 5 | All Maps","protocol":17,"map":"pl_snowycoast","folder":"tf","game":"Team Fortress","app_id":440,"player_count":0,"max_players":24,"Bots":0,"server_type":"Dedicated","server_os":"Linux","password":true,"vac":true,"version":"7961495","steam_id":85568392924742829,"keywords":["nocrits","nodmgspread","payload","uncletopia"],"game_id":440,"stv_port":27056,"stv_name":"Uncletopia | London | 5 | All Maps | STV","players":null},{"server_id":22,"name":"Uncletopia | London | 6 | All Maps","name_short":"lon-6","host":"lon-1.uk.uncletopia.com","port":27065,"enabled":true,"region":"eu","cc":"gb","latitude":51.509865,"longitude":-0.118092,"reserved":0,"last_update":"0001-01-01T00:00:00Z","name_a2s":"Uncletopia | London | 6 | All Maps","protocol":17,"map":"koth_lakeside_final","folder":"tf","game":"Team Fortress","app_id":440,"player_count":0,"max_players":24,"Bots":0,"server_type":"Dedicated","server_os":"Linux","password":true,"vac":true,"version":"7961495","steam_id":85568392924742830,"keywords":["cp","nocrits","nodmgspread","uncletopia"],"game_id":440,"stv_port":27066,"stv_name":"Uncletopia | London | 6 | All Maps | STV","players":null},{"server_id":40,"name":"Uncletopia | London | 7 | No Payload","name_short":"lon-7","host":"lon-1.uk.uncletopia.com","port":27075,"enabled":true,"region":"eu","cc":"gb","latitude":51.509865,"longitude":-0.118092,"reserved":0,"last_update":"0001-01-01T00:00:00Z","name_a2s":"Uncletopia | London | 7 | No Payload","protocol":17,"map":"pl_snowycoast","folder":"tf","game":"Team Fortress","app_id":440,"player_count":0,"max_players":24,"Bots":0,"server_type":"Dedicated","server_os":"Linux","password":true,"vac":true,"version":"7961495","steam_id":85568392924964314,"keywords":["nocrits","nodmgspread","payload","uncletopia"],"game_id":440,"stv_port":27076,"stv_name":"Uncletopia | London | 7 | No Payload | STV","players":null},{"server_id":41,"name":"Uncletopia | London | 8 | Community","name_short":"lon-8","host":"lon-1.uk.uncletopia.com","port":27085,"enabled":true,"region":"eu","cc":"gb","latitude":51.509865,"longitude":-0.118092,"reserved":0,"last_update":"0001-01-01T00:00:00Z","name_a2s":"Uncletopia | London | 8 | Community","protocol":17,"map":"koth_viaduct","folder":"tf","game":"Team Fortress","app_id":440,"player_count":0,"max_players":24,"Bots":0,"server_type":"Dedicated","server_os":"Linux","password":true,"vac":true,"version":"7961495","steam_id":85568392924964315,"keywords":["cp","nocrits","nodmgspread","uncletopia"],"game_id":440,"stv_port":27086,"stv_name":"Uncletopia | London | 8 | Community | STV","players":null},{"server_id":300,"name":"Uncletopia | Montréal | 1 | All Maps","name_short":"mtl-1","host":"mtl-1.ca.uncletopia.com","port":27015,"enabled":true,"region":"us-east","cc":"ca","latitude":45.50889,"longitude":-73.56167,"reserved":0,"last_update":"0001-01-01T00:00:00Z","name_a2s":"Uncletopia | Montréal | 1 | All Maps","protocol":17,"map":"koth_cascade","folder":"tf","game":"Team Fortress","app_id":440,"player_count":0,"max_players":24,"Bots":0,"server_type":"Dedicated","server_os":"Linux","password":true,"vac":true,"version":"7961495","steam_id":85568392924500087,"keywords":["cp","nocrits","nodmgspread","uncletopia"],"game_id":440,"stv_port":27016,"stv_name":"Uncletopia | Montréal | 1 | All Maps | STV","players":null},{"server_id":301,"name":"Uncletopia | Montréal | 2 | All Maps","name_short":"mtl-2","host":"mtl-1.ca.uncletopia.com","port":27025,"enabled":true,"region":"us-east","cc":"ca","latitude":45.50889,"longitude":-73.56167,"reserved":0,"last_update":"0001-01-01T00:00:00Z","name_a2s":"Uncletopia | Montréal | 2 | All Maps","protocol":17,"map":"pl_frontier_final","folder":"tf","game":"Team Fortress","app_id":440,"player_count":0,"max_players":24,"Bots":0,"server_type":"Dedicated","server_os":"Linux","password":true,"vac":true,"version":"7961495","steam_id":85568392924500088,"keywords":["nocrits","nodmgspread","payload","uncletopia"],"game_id":440,"stv_port":27026,"stv_name":"Uncletopia | Montréal | 2 | All Maps | STV","players":null},{"server_id":302,"name":"Uncletopia | Montréal | 3 | All Maps","name_short":"mtl-3","host":"mtl-1.ca.uncletopia.com","port":27035,"enabled":true,"region":"us-east","cc":"ca","latitude":45.50889,"longitude":-73.56167,"reserved":0,"last_update":"0001-01-01T00:00:00Z","name_a2s":"Uncletopia | Montréal | 3 | All Maps","protocol":17,"map":"koth_viaduct","folder":"tf","game":"Team Fortress","app_id":440,"player_count":0,"max_players":24,"Bots":0,"server_type":"Dedicated","server_os":"Linux","password":true,"vac":true,"version":"7961495","steam_id":85568392924500089,"keywords":["cp","nocrits","nodmgspread","uncletopia"],"game_id":440,"stv_port":27036,"stv_name":"Uncletopia | Montréal | 3 | All Maps | STV","players":null},{"server_id":303,"name":"Uncletopia | Montréal | 4 | No Payload","name_short":"mtl-4","host":"mtl-1.ca.uncletopia.com","port":27045,"enabled":true,"region":"us-east","cc":"ca","latitude":45.50889,"longitude":-73.56167,"reserved":0,"last_update":"0001-01-01T00:00:00Z","name_a2s":"Uncletopia | Montréal | 4 | No Payload","protocol":17,"map":"cp_mountainlab","folder":"tf","game":"Team Fortress","app_id":440,"player_count":0,"max_players":24,"Bots":0,"server_type":"Dedicated","server_os":"Linux","password":true,"vac":true,"version":"7961495","steam_id":85568392924500090,"keywords":["cp","nocrits","nodmgspread","uncletopia"],"game_id":440,"stv_port":27046,"stv_name":"Uncletopia | Montréal | 4 | No Payload | STV","players":null},{"server_id":13,"name":"Uncletopia | New York City | 1 | All Maps","name_short":"nyc-1","host":"nyc-1.us.uncletopia.com","port":27015,"enabled":true,"region":"us-east","cc":"us","latitude":40.73061,"longitude":-73.93524,"reserved":0,"last_update":"0001-01-01T00:00:00Z","name_a2s":"Uncletopia | New York City | 1 | All Maps","protocol":17,"map":"cp_dustbowl","folder":"tf","game":"Team Fortress","app_id":440,"player_count":0,"max_players":24,"Bots":0,"server_type":"Dedicated","server_os":"Linux","password":true,"vac":true,"version":"7961495","steam_id":85568392924469993,"keywords":["cp","nocrits","nodmgspread","uncletopia"],"game_id":440,"stv_port":27016,"stv_name":"Uncletopia | New York City | 1 | All Maps | STV","players":null},{"server_id":14,"name":"Uncletopia | New York City | 2 | All Maps","name_short":"nyc-2","host":"nyc-1.us.uncletopia.com","port":27025,"enabled":true,"region":"us-east","cc":"us","latitude":40.73061,"longitude":-73.93524,"reserved":0,"last_update":"0001-01-01T00:00:00Z","name_a2s":"Uncletopia | New York City | 2 | All Maps","protocol":17,"map":"cp_dustbowl","folder":"tf","game":"Team Fortress","app_id":440,"player_count":1,"max_players":24,"Bots":0,"server_type":"Dedicated","server_os":"Linux","password":true,"vac":true,"version":"7961495","steam_id":85568392924469994,"keywords":["cp","nocrits","nodmgspread","uncletopia"],"game_id":440,"stv_port":27026,"stv_name":"Uncletopia | New York City | 2 | All Maps | STV","players":[{"user_id":392,"name":"Periculosum PhD in Funny","steam_id":76561198123370914,"connected_time":3561000000000,"state":"active","ping":85}]},{"server_id":15,"name":"Uncletopia | New York City | 3 | Stopwatch Beta","name_short":"nyc-3","host":"nyc-1.us.uncletopia.com","port":27035,"enabled":true,"region":"us-east","cc":"us","latitude":40.73061,"longitude":-73.93524,"reserved":0,"last_update":"0001-01-01T00:00:00Z","name_a2s":"Uncletopia | New York City | 3 | Stopwatch Beta","protocol":17,"map":"workshop/pl_badwater_pro_v12.ugc2142942074","folder":"tf","game":"Team Fortress","app_id":440,"player_count":0,"max_players":24,"Bots":0,"server_type":"Dedicated","server_os":"Linux","password":true,"vac":true,"version":"7961495","steam_id":85568392924742820,"keywords":["nocrits","nodmgspread","payload","uncletopia"],"game_id":440,"stv_port":27036,"stv_name":"Uncletopia | New York City | 3 | Stopwatch Beta | STV","players":null},{"server_id":16,"name":"Uncletopia | New York City | 4 | Community","name_short":"nyc-4","host":"nyc-1.us.uncletopia.com","port":27045,"enabled":true,"region":"us-east","cc":"us","latitude":40.73061,"longitude":-73.93524,"reserved":0,"last_update":"0001-01-01T00:00:00Z","name_a2s":"Uncletopia | New York City | 4 | Community","protocol":17,"map":"workshop/pl_corrode_rc2.ugc546577989","folder":"tf","game":"Team Fortress","app_id":440,"player_count":0,"max_players":24,"Bots":0,"server_type":"Dedicated","server_os":"Linux","password":true,"vac":true,"version":"7961495","steam_id":85568392924742821,"keywords":["nocrits","nodmgspread","payload","uncletopia"],"game_id":440,"stv_port":27046,"stv_name":"Uncletopia | New York City | 4 | Community | STV","players":null},{"server_id":142,"name":"Uncletopia | São Paulo | 1 | All Maps","name_short":"sao-1","host":"sao-1.br.uncletopia.com","port":27015,"enabled":true,"region":"sa","cc":"br","latitude":-23.533773,"longitude":-46.62529,"reserved":0,"last_update":"0001-01-01T00:00:00Z","name_a2s":"Uncletopia | São Paulo | 1 | All Maps","protocol":17,"map":"cp_process_final","folder":"tf","game":"Team Fortress","app_id":440,"player_count":0,"max_players":24,"Bots":0,"server_type":"Dedicated","server_os":"Linux","password":true,"vac":true,"version":"7961495","steam_id":85568392924469996,"keywords":["cp","nocrits","nodmgspread","uncletopia"],"game_id":440,"stv_port":27016,"stv_name":"Uncletopia | São Paulo | 1 | All Maps | STV","players":null},{"server_id":143,"name":"Uncletopia | São Paulo | 2 | All Maps","name_short":"sao-2","host":"sao-2.br.uncletopia.com","port":27015,"enabled":true,"region":"sa","cc":"br","latitude":-23.533773,"longitude":-46.62529,"reserved":0,"last_update":"0001-01-01T00:00:00Z","name_a2s":"Uncletopia | São Paulo | 2 | All Maps","protocol":17,"map":"koth_lakeside_final","folder":"tf","game":"Team Fortress","app_id":440,"player_count":0,"max_players":24,"Bots":0,"server_type":"Dedicated","server_os":"Linux","password":true,"vac":true,"version":"7961495","steam_id":85568392924485349,"keywords":["cp","nocrits","nodmgspread","uncletopia"],"game_id":440,"stv_port":27016,"stv_name":"Uncletopia | São Paulo | 2 | All Maps | STV","players":null},{"server_id":7,"name":"Uncletopia | Seattle | 1 | All Maps","name_short":"sea-1","host":"sea-1.us.uncletopia.com","port":27015,"enabled":true,"region":"us-west","cc":"us","latitude":47.608013,"longitude":-122.33517,"reserved":0,"last_update":"0001-01-01T00:00:00Z","name_a2s":"Uncletopia | Seattle | 1 | All Maps","protocol":17,"map":"pl_borneo","folder":"tf","game":"Team Fortress","app_id":440,"player_count":24,"max_players":24,"Bots":0,"server_type":"Dedicated","server_os":"Linux","password":true,"vac":true,"version":"7961495","steam_id":85568392924469997,"keywords":["nocrits","nodmgspread","payload","uncletopia"],"game_id":440,"stv_port":27016,"stv_name":"Uncletopia | Seattle | 1 | All Maps | STV","players":[{"user_id":389,"name":"swarm of bee","steam_id":76561198059604047,"connected_time":1900000000000,"state":"active","ping":34},{"user_id":315,"name":"Finkly","steam_id":76561198049828110,"connected_time":8060000000000,"state":"active","ping":42},{"user_id":295,"name":"Luca","steam_id":76561198125087140,"connected_time":11101000000000,"state":"active","ping":47},{"user_id":388,"name":"colespudzo","steam_id":76561198051127147,"connected_time":1901000000000,"state":"active","ping":48},{"user_id":406,"name":"fartstreaks enraged","steam_id":76561198046073848,"connected_time":444000000000,"state":"active","ping":47},{"user_id":370,"name":"delight","steam_id":76561197980280272,"connected_time":3907000000000,"state":"active","ping":49},{"user_id":407,"name":"shane","steam_id":76561198060491451,"connected_time":430000000000,"state":"active","ping":120},{"user_id":399,"name":"Scout that makes you look up","steam_id":76561198137627873,"connected_time":1397000000000,"state":"active","ping":49},{"user_id":331,"name":"rat gets the cheese","steam_id":76561198031234032,"connected_time":6751000000000,"state":"active","ping":98},{"user_id":391,"name":"A UsedNom","steam_id":76561198402832756,"connected_time":1886000000000,"state":"active","ping":87},{"user_id":387,"name":"Bishuhp","steam_id":76561198015062850,"connected_time":1905000000000,"state":"active","ping":44},{"user_id":403,"name":"gorlab","steam_id":76561198025089694,"connected_time":469000000000,"state":"active","ping":63},{"user_id":358,"name":"im mr ____hed look at me","steam_id":76561198051751133,"connected_time":4456000000000,"state":"active","ping":61},{"user_id":404,"name":"Mii Guest C, From Wii Sports","steam_id":76561198197964803,"connected_time":466000000000,"state":"active","ping":63},{"user_id":318,"name":"fwoov","steam_id":76561198129166260,"connected_time":7527000000000,"state":"active","ping":77},{"user_id":401,"name":"squash","steam_id":76561198150281353,"connected_time":920000000000,"state":"active","ping":59},{"user_id":396,"name":"Ducks","steam_id":76561198130038345,"connected_time":1708000000000,"state":"active","ping":69},{"user_id":402,"name":"roryisveryoutofit","steam_id":76561198065825165,"connected_time":882000000000,"state":"active","ping":126},{"user_id":376,"name":"Doctor™","steam_id":76561198134309750,"connected_time":3625000000000,"state":"active","ping":109},{"user_id":405,"name":"oil","steam_id":76561198099980149,"connected_time":458000000000,"state":"active","ping":80},{"user_id":408,"name":"Yammie","steam_id":76561197987304489,"connected_time":393000000000,"state":"active","ping":45},{"user_id":384,"name":"reiidaya","steam_id":76561198325306660,"connected_time":2964000000000,"state":"active","ping":55},{"user_id":208,"name":"lusty","steam_id":76561198138478947,"connected_time":15064000000000,"state":"active","ping":43},{"user_id":311,"name":"NEBULA","steam_id":76561198086878595,"connected_time":8604000000000,"state":"active","ping":102}]},{"server_id":119,"name":"Uncletopia | Seattle | 2 | All Maps","name_short":"sea-2","host":"sea-1.us.uncletopia.com","port":27025,"enabled":true,"region":"us-west","cc":"us","latitude":47.608013,"longitude":-122.33517,"reserved":0,"last_update":"0001-01-01T00:00:00Z","name_a2s":"Uncletopia | Seattle | 2 | All Maps","protocol":17,"map":"pl_pier","folder":"tf","game":"Team Fortress","app_id":440,"player_count":18,"max_players":24,"Bots":0,"server_type":"Dedicated","server_os":"Linux","password":true,"vac":true,"version":"7961495","steam_id":85568392924469998,"keywords":["nocrits","nodmgspread","payload","uncletopia"],"game_id":440,"stv_port":27026,"stv_name":"Uncletopia | Seattle | 2 | All Maps | STV","players":[{"user_id":396,"name":"Scorpianswag","steam_id":76561198260651036,"connected_time":53000000000,"state":"active","ping":75},{"user_id":392,"name":"how do i control my guy?","steam_id":76561198158855211,"connected_time":754000000000,"state":"active","ping":45},{"user_id":395,"name":"Rabblerouser","steam_id":76561198127930963,"connected_time":373000000000,"state":"active","ping":56},{"user_id":397,"name":"smeasly","steam_id":76561198028718812,"connected_time":30000000000,"state":"active","ping":44},{"user_id":383,"name":"Stev the Prurient Oxymoron","steam_id":76561197999442625,"connected_time":1399000000000,"state":"active","ping":66},{"user_id":398,"name":"Tavern Dweller","steam_id":76561198033349519,"connected_time":9000000000,"state":"spawning","ping":103},{"user_id":384,"name":"Cheezbeargur","steam_id":76561198164702899,"connected_time":1381000000000,"state":"active","ping":96},{"user_id":362,"name":"FireQuiz","steam_id":76561198107357249,"connected_time":2606000000000,"state":"active","ping":63},{"user_id":377,"name":"mmmBoyo","steam_id":76561198821360261,"connected_time":1833000000000,"state":"active","ping":49},{"user_id":391,"name":"Arsonist Goose","steam_id":76561198147441830,"connected_time":1174000000000,"state":"active","ping":69},{"user_id":375,"name":"Tuba","steam_id":76561198209166329,"connected_time":1978000000000,"state":"active","ping":113},{"user_id":389,"name":"Brathic","steam_id":76561198966232163,"connected_time":1341000000000,"state":"active","ping":109},{"user_id":379,"name":"beeble!","steam_id":76561198219538525,"connected_time":1623000000000,"state":"active","ping":106},{"user_id":368,"name":"Sock Monkey Palooza","steam_id":76561198049483143,"connected_time":2348000000000,"state":"active","ping":59},{"user_id":311,"name":"crumblejon","steam_id":76561198111273302,"connected_time":7004000000000,"state":"active","ping":60},{"user_id":390,"name":"Drapph","steam_id":76561199384213314,"connected_time":1316000000000,"state":"active","ping":105},{"user_id":388,"name":"ed","steam_id":76561198080475712,"connected_time":1367000000000,"state":"active","ping":100},{"user_id":370,"name":"Wendigo","steam_id":76561197994528974,"connected_time":2285000000000,"state":"active","ping":81}]},{"server_id":406,"name":"Uncletopia | Seattle | 3 | Stopwatch Beta","name_short":"sea-3","host":"sea-1.us.uncletopia.com","port":27035,"enabled":true,"region":"us-west","cc":"us","latitude":47.608013,"longitude":-122.33517,"reserved":0,"last_update":"0001-01-01T00:00:00Z","name_a2s":"Uncletopia | Seattle | 3 | Stopwatch Beta","protocol":17,"map":"pl_swiftwater_final1","folder":"tf","game":"Team Fortress","app_id":440,"player_count":0,"max_players":24,"Bots":0,"server_type":"Dedicated","server_os":"Linux","password":true,"vac":true,"version":"7961495","steam_id":85568392924515217,"keywords":["nocrits","nodmgspread","payload","uncletopia"],"game_id":440,"stv_port":27036,"stv_name":"Uncletopia | Seattle | 3 | Stopwatch Beta | STV","players":null},{"server_id":17,"name":"Uncletopia | San Francisco | 1 | All Maps","name_short":"sfo-1","host":"sfo-1.us.uncletopia.com","port":27015,"enabled":true,"region":"us-west","cc":"us","latitude":37.77397,"longitude":-122.4313,"reserved":0,"last_update":"0001-01-01T00:00:00Z","name_a2s":"Uncletopia | San Francisco | 1 | All Maps","protocol":17,"map":"pl_frontier_final","folder":"tf","game":"Team Fortress","app_id":440,"player_count":0,"max_players":24,"Bots":0,"server_type":"Dedicated","server_os":"Linux","password":true,"vac":true,"version":"7932396","steam_id":85568392924469999,"keywords":["nocrits","nodmgspread","payload","uncletopia"],"game_id":440,"stv_port":27016,"stv_name":"Uncletopia | San Francisco | 1 | All Maps | STV","players":null},{"server_id":18,"name":"Uncletopia | San Francisco | 2 | All Maps","name_short":"sfo-2","host":"sfo-1.us.uncletopia.com","port":27025,"enabled":true,"region":"us-west","cc":"us","latitude":37.77397,"longitude":-122.4313,"reserved":0,"last_update":"0001-01-01T00:00:00Z","name_a2s":"Uncletopia | San Francisco | 2 | All Maps","protocol":17,"map":"cp_snakewater_final1","folder":"tf","game":"Team Fortress","app_id":440,"player_count":0,"max_players":24,"Bots":0,"server_type":"Dedicated","server_os":"Linux","password":true,"vac":true,"version":"7932396","steam_id":85568392924470000,"keywords":["cp","nocrits","nodmgspread","uncletopia"],"game_id":440,"stv_port":27026,"stv_name":"Uncletopia | San Francisco | 2 | All Maps | STV","players":null},{"server_id":19,"name":"Uncletopia | San Francisco | 3 | Stopwatch Beta","name_short":"sfo-3","host":"sfo-1.us.uncletopia.com","port":27035,"enabled":true,"region":"us-west","cc":"us","latitude":37.77397,"longitude":-122.4313,"reserved":0,"last_update":"0001-01-01T00:00:00Z","name_a2s":"Uncletopia | San Francisco | 3 | Stopwatch Beta","protocol":17,"map":"koth_lakeside_final","folder":"tf","game":"Team Fortress","app_id":440,"player_count":0,"max_players":24,"Bots":0,"server_type":"Dedicated","server_os":"Linux","password":true,"vac":true,"version":"7932396","steam_id":85568392924742824,"keywords":["cp","nocrits","nodmgspread","uncletopia"],"game_id":440,"stv_port":27036,"stv_name":"Uncletopia | San Francisco | 3 | Stopwatch Beta | STV","players":null},{"server_id":20,"name":"Uncletopia | San Francisco | 4 | Community","name_short":"sfo-4","host":"sfo-1.us.uncletopia.com","port":27045,"enabled":true,"region":"us-west","cc":"us","latitude":37.77397,"longitude":-122.4313,"reserved":0,"last_update":"0001-01-01T00:00:00Z","name_a2s":"Uncletopia | San Francisco | 4 | Community","protocol":17,"map":"pl_borneo","folder":"tf","game":"Team Fortress","app_id":440,"player_count":0,"max_players":24,"Bots":0,"server_type":"Dedicated","server_os":"Linux","password":true,"vac":true,"version":"7932396","steam_id":85568392924742826,"keywords":["nocrits","nodmgspread","payload","uncletopia"],"game_id":440,"stv_port":27046,"stv_name":"Uncletopia | San Francisco | 4 | Community | STV","players":null},{"server_id":141,"name":"Uncletopia | Sydney | 1 | All Maps","name_short":"syd-1","host":"syd-1.au.uncletopia.com","port":27015,"enabled":true,"region":"au","cc":"au","latitude":-33.865143,"longitude":151.2099,"reserved":0,"last_update":"0001-01-01T00:00:00Z","name_a2s":"Uncletopia | Sydney | 1 | All Maps","protocol":17,"map":"koth_cascade","folder":"tf","game":"Team Fortress","app_id":440,"player_count":5,"max_players":24,"Bots":0,"server_type":"Dedicated","server_os":"Linux","password":true,"vac":true,"version":"7961495","steam_id":85568392924470001,"keywords":["cp","nocrits","nodmgspread","uncletopia"],"game_id":440,"stv_port":27016,"stv_name":"Uncletopia | Sydney | 1 | All Maps | STV","players":[{"user_id":157,"name":"pepsi_bottle","steam_id":76561199123087971,"connected_time":551000000000,"state":"active","ping":70},{"user_id":158,"name":"andrewhammo","steam_id":76561198312849831,"connected_time":304000000000,"state":"active","ping":68},{"user_id":161,"name":"ncook87","steam_id":76561199437977017,"connected_time":121000000000,"state":"spawning","ping":53},{"user_id":164,"name":"c-c-calm down","steam_id":76561198238031616,"connected_time":36000000000,"state":"active","ping":83},{"user_id":120,"name":"Hawk","steam_id":76561198135164277,"connected_time":3216000000000,"state":"active","ping":59}]},{"server_id":123,"name":"Uncletopia | Sydney | 2 | All Maps","name_short":"syd-2","host":"syd-1.au.uncletopia.com","port":27025,"enabled":true,"region":"au","cc":"au","latitude":-33.865143,"longitude":151.2099,"reserved":0,"last_update":"0001-01-01T00:00:00Z","name_a2s":"Uncletopia | Sydney | 2 | All Maps","protocol":17,"map":"cp_altitude","folder":"tf","game":"Team Fortress","app_id":440,"player_count":23,"max_players":24,"Bots":0,"server_type":"Dedicated","server_os":"Linux","password":true,"vac":true,"version":"7961495","steam_id":85568392924470002,"keywords":["cp","nocrits","nodmgspread","uncletopia"],"game_id":440,"stv_port":27026,"stv_name":"Uncletopia | Sydney | 2 | All Maps | STV","players":[{"user_id":100,"name":"Evil Dragons 11","steam_id":76561199010001803,"connected_time":1076000000000,"state":"active","ping":133},{"user_id":87,"name":"shark","steam_id":76561198088192753,"connected_time":1554000000000,"state":"spawning","ping":43},{"user_id":103,"name":"BingusLover❤","steam_id":76561198168709587,"connected_time":660000000000,"state":"spawning","ping":203},{"user_id":107,"name":"CoolGuyMatt","steam_id":76561198009757360,"connected_time":330000000000,"state":"active","ping":63},{"user_id":109,"name":"Qwertles","steam_id":76561198033779273,"connected_time":43000000000,"state":"active","ping":54},{"user_id":83,"name":"\u003e:FrozenDragon:\u003c","steam_id":76561198227960928,"connected_time":2024000000000,"state":"spawning","ping":83},{"user_id":44,"name":"A Burnt Cheeseburger","steam_id":76561198044178223,"connected_time":4655000000000,"state":"active","ping":62},{"user_id":104,"name":"spy exterminator","steam_id":76561199262584655,"connected_time":593000000000,"state":"active","ping":111},{"user_id":105,"name":"movablellama","steam_id":76561199466321887,"connected_time":571000000000,"state":"spawning","ping":71},{"user_id":102,"name":"Doodles ♛","steam_id":76561198023807247,"connected_time":882000000000,"state":"active","ping":88},{"user_id":93,"name":"SECT","steam_id":76561199122367855,"connected_time":1242000000000,"state":"active","ping":152},{"user_id":56,"name":"wom","steam_id":76561199375834537,"connected_time":3716000000000,"state":"spawning","ping":137},{"user_id":108,"name":"The Goon","steam_id":76561198434696450,"connected_time":219000000000,"state":"spawning","ping":164},{"user_id":58,"name":"Editor_Billy","steam_id":76561199165608946,"connected_time":3628000000000,"state":"active","ping":74},{"user_id":110,"name":"Penguin Wielder","steam_id":76561198169038889,"connected_time":32000000000,"state":"active","ping":52},{"user_id":92,"name":"kisses u","steam_id":76561198288970258,"connected_time":1334000000000,"state":"active","ping":45},{"user_id":95,"name":"xshibex","steam_id":76561198282096345,"connected_time":1209000000000,"state":"active","ping":102},{"user_id":96,"name":"the children yearn for the mine","steam_id":76561198025225448,"connected_time":1162000000000,"state":"active","ping":236},{"user_id":63,"name":"Sterlingpace","steam_id":76561198217945053,"connected_time":3301000000000,"state":"active","ping":95},{"user_id":99,"name":"we stay silly :3","steam_id":76561198132937542,"connected_time":1128000000000,"state":"spawning","ping":51},{"user_id":106,"name":"no teles 4 u","steam_id":76561198018478297,"connected_time":569000000000,"state":"spawning","ping":45},{"user_id":98,"name":"come chill under the blanket!","steam_id":76561198150293480,"connected_time":1145000000000,"state":"active","ping":74},{"user_id":101,"name":"human lie detector","steam_id":76561197980015398,"connected_time":1024000000000,"state":"active","ping":43}]},{"server_id":395,"name":"Uncletopia | Sydney | 3 | All Maps","name_short":"syd-3","host":"syd-1.au.uncletopia.com","port":27035,"enabled":true,"region":"au","cc":"au","latitude":-33.865143,"longitude":151.2099,"reserved":0,"last_update":"0001-01-01T00:00:00Z","name_a2s":"Uncletopia | Sydney | 3 | All Maps","protocol":17,"map":"cp_dustbowl","folder":"tf","game":"Team Fortress","app_id":440,"player_count":0,"max_players":24,"Bots":0,"server_type":"Dedicated","server_os":"Linux","password":true,"vac":true,"version":"7961495","steam_id":85568392925194467,"keywords":["cp","nocrits","nodmgspread","uncletopia"],"game_id":440,"stv_port":27036,"stv_name":"Uncletopia | Sydney | 3 | All Maps | STV","players":null},{"server_id":396,"name":"Uncletopia | Sydney | 4 | All Maps","name_short":"syd-4","host":"syd-1.au.uncletopia.com","port":27045,"enabled":true,"region":"au","cc":"au","latitude":-33.865143,"longitude":151.2099,"reserved":0,"last_update":"0001-01-01T00:00:00Z","name_a2s":"Uncletopia | Sydney | 4 | All Maps","protocol":17,"map":"koth_cascade","folder":"tf","game":"Team Fortress","app_id":440,"player_count":0,"max_players":24,"Bots":0,"server_type":"Dedicated","server_os":"Linux","password":true,"vac":true,"version":"7961495","steam_id":85568392925397958,"keywords":["cp","nocrits","nodmgspread","uncletopia"],"game_id":440,"stv_port":27046,"stv_name":"Uncletopia | Sydney | 4 | All Maps | STV","players":null},{"server_id":58,"name":"Uncletopia | Sydney | 5 | Stopwatch Beta","name_short":"syd-5","host":"syd-1.au.uncletopia.com","port":27055,"enabled":true,"region":"au","cc":"au","latitude":-33.865143,"longitude":151.2099,"reserved":0,"last_update":"0001-01-01T00:00:00Z","name_a2s":"Uncletopia | Sydney | 5 | Stopwatch Beta","protocol":17,"map":"koth_viaduct","folder":"tf","game":"Team Fortress","app_id":440,"player_count":0,"max_players":24,"Bots":0,"server_type":"Dedicated","server_os":"Linux","password":true,"vac":true,"version":"7961495","steam_id":85568392925397959,"keywords":["cp","nocrits","nodmgspread","uncletopia"],"game_id":440,"stv_port":27056,"stv_name":"Uncletopia | Sydney | 5 | Stopwatch Beta | STV","players":null},{"server_id":59,"name":"Uncletopia | Sydney | 6 | Community","name_short":"syd-6","host":"syd-1.au.uncletopia.com","port":27065,"enabled":true,"region":"au","cc":"au","latitude":-33.865143,"longitude":151.2099,"reserved":0,"last_update":"0001-01-01T00:00:00Z","name_a2s":"Uncletopia | Sydney | 6 | Community","protocol":17,"map":"pl_barnblitz","folder":"tf","game":"Team Fortress","app_id":440,"player_count":0,"max_players":24,"Bots":0,"server_type":"Dedicated","server_os":"Linux","password":true,"vac":true,"version":"7961495","steam_id":85568392925397960,"keywords":["nocrits","nodmgspread","payload","uncletopia"],"game_id":440,"stv_port":27066,"stv_name":"Uncletopia | Sydney | 6 | Community | STV","players":null},{"server_id":49,"name":"Uncletopia | Warsaw | 1 | All Maps","name_short":"waw-1","host":"waw-1.pl.uncletopia.com","port":27015,"enabled":true,"region":"eu","cc":"pl","latitude":52.2297,"longitude":21.017532,"reserved":0,"last_update":"0001-01-01T00:00:00Z","name_a2s":"","protocol":0,"map":"","folder":"","game":"","app_id":0,"player_count":0,"max_players":0,"Bots":0,"server_type":"","server_os":"","password":false,"vac":false,"version":"","steam_id":0,"keywords":null,"game_id":0,"stv_port":0,"stv_name":"","players":null},{"server_id":50,"name":"Uncletopia | Warsaw | 2 | All Maps","name_short":"waw-2","host":"waw-1.pl.uncletopia.com","port":27025,"enabled":true,"region":"eu","cc":"pl","latitude":52.2297,"longitude":21.017532,"reserved":0,"last_update":"0001-01-01T00:00:00Z","name_a2s":"Uncletopia | Warsaw | 2 | All Maps","protocol":17,"map":"cp_mountainlab","folder":"tf","game":"Team Fortress","app_id":440,"player_count":0,"max_players":24,"Bots":0,"server_type":"Dedicated","server_os":"Linux","password":true,"vac":true,"version":"7961495","steam_id":85568392925397851,"keywords":["cp","nocrits","nodmgspread","uncletopia"],"game_id":440,"stv_port":27026,"stv_name":"Uncletopia | Warsaw | 2 | All Maps | STV","players":null},{"server_id":51,"name":"Uncletopia | Warsaw | 3 | All Maps","name_short":"waw-3","host":"waw-1.pl.uncletopia.com","port":27035,"enabled":true,"region":"eu","cc":"pl","latitude":52.2297,"longitude":21.017532,"reserved":0,"last_update":"0001-01-01T00:00:00Z","name_a2s":"Uncletopia | Warsaw | 3 | All Maps","protocol":17,"map":"pl_barnblitz","folder":"tf","game":"Team Fortress","app_id":440,"player_count":0,"max_players":24,"Bots":0,"server_type":"Dedicated","server_os":"Linux","password":true,"vac":true,"version":"7961495","steam_id":85568392925397852,"keywords":["nocrits","nodmgspread","payload","uncletopia"],"game_id":440,"stv_port":27036,"stv_name":"Uncletopia | Warsaw | 3 | All Maps | STV","players":null},{"server_id":52,"name":"Uncletopia | Warsaw | 4 | All Maps","name_short":"waw-4","host":"waw-1.pl.uncletopia.com","port":27045,"enabled":true,"region":"eu","cc":"pl","latitude":52.2297,"longitude":21.017532,"reserved":0,"last_update":"0001-01-01T00:00:00Z","name_a2s":"Uncletopia | Warsaw | 4 | All Maps","protocol":17,"map":"cp_dustbowl","folder":"tf","game":"Team Fortress","app_id":440,"player_count":0,"max_players":24,"Bots":0,"server_type":"Dedicated","server_os":"Linux","password":true,"vac":true,"version":"7961495","steam_id":85568392925397853,"keywords":["cp","nocrits","nodmgspread","uncletopia"],"game_id":440,"stv_port":27046,"stv_name":"Uncletopia | Warsaw | 4 | All Maps | STV","players":null},{"server_id":53,"name":"Uncletopia | Warsaw | 5 | Stopwatch Beta","name_short":"waw-5","host":"waw-1.pl.uncletopia.com","port":27055,"enabled":true,"region":"eu","cc":"pl","latitude":52.2297,"longitude":21.017532,"reserved":0,"last_update":"0001-01-01T00:00:00Z","name_a2s":"Uncletopia | Warsaw | 5 | Stopwatch Beta","protocol":17,"map":"pl_snowycoast","folder":"tf","game":"Team Fortress","app_id":440,"player_count":0,"max_players":24,"Bots":0,"server_type":"Dedicated","server_os":"Linux","password":true,"vac":true,"version":"7961495","steam_id":85568392925397854,"keywords":["nocrits","nodmgspread","payload","uncletopia"],"game_id":440,"stv_port":27056,"stv_name":"Uncletopia | Warsaw | 5 | Stopwatch Beta | STV","players":null},{"server_id":54,"name":"Uncletopia | Warsaw | 6 | Community","name_short":"waw-6","host":"waw-1.pl.uncletopia.com","port":27065,"enabled":true,"region":"eu","cc":"pl","latitude":52.2297,"longitude":21.017532,"reserved":0,"last_update":"0001-01-01T00:00:00Z","name_a2s":"Uncletopia | Warsaw | 6 | Community","protocol":17,"map":"pl_borneo","folder":"tf","game":"Team Fortress","app_id":440,"player_count":0,"max_players":24,"Bots":0,"server_type":"Dedicated","server_os":"Linux","password":true,"vac":true,"version":"7961495","steam_id":85568392925397856,"keywords":["nocrits","nodmgspread","payload","uncletopia"],"game_id":440,"stv_port":27066,"stv_name":"Uncletopia | Warsaw | 6 | Community | STV","players":null}]}