{"status":true,"message":"","result":[{"server_id":9,"name":"Uncletopia | Atlanta | 1 | All Maps","name_short":"atl-1","host":"atl-1.us.uncletopia.com","port":27015,"enabled":true,"region":"us-east","cc":"us","latitude":33.753746,"longitude":-84.38633,"reserved":0,"last_update":"0001-01-01T00:00:00Z","name_a2s":"Uncletopia | Atlanta | 1 | All Maps","protocol":17,"map":"cp_dustbowl","folder":"tf","game":"Team Fortress","app_id":440,"player_count":23,"max_players":24,"Bots":0,"server_type":"Dedicated","server_os":"Linux","password":true,"vac":true,"version":"7723704","steam_id":85568392924469982,"keywords":["cp","nocrits","nodmgspread","uncletopia"],"game_id":440,"stv_port":27016,"stv_name":"Uncletopia | Atlanta | 1 | All Maps | STV","players":[{"user_id":1242,"name":"ImmortalFrost","steam_id":76561199094827794,"connected_time":1573000000000,"state":"active","ping":74},{"user_id":1146,"name":"Brain","steam_id":76561198237850206,"connected_time":6243000000000,"state":"active","ping":66},{"user_id":1183,"name":"vid_","steam_id":76561198065159053,"connected_time":4056000000000,"state":"active","ping":45},{"user_id":1243,"name":"Alltrex","steam_id":76561198202254225,"connected_time":1548000000000,"state":"active","ping":109},{"user_id":1241,"name":"Jin Gulilo","steam_id":76561198065151242,"connected_time":1600000000000,"state":"active","ping":64},{"user_id":1254,"name":"Comedian","steam_id":76561197973506581,"connected_time":573000000000,"state":"active","ping":176},{"user_id":1251,"name":"Zeetch","steam_id":76561198110579765,"connected_time":855000000000,"state":"active","ping":72},{"user_id":1244,"name":"lamp installer muhammed","steam_id":76561198152818418,"connected_time":1530000000000,"state":"active","ping":70},{"user_id":1245,"name":"Hernandez$","steam_id":76561198019324588,"connected_time":1524000000000,"state":"active","ping":105},{"user_id":1240,"name":"tavorraX0","steam_id":76561198042465206,"connected_time":1607000000000,"state":"active","ping":118},{"user_id":1258,"name":"MateMO","steam_id":76561198146180114,"connected_time":300000000000,"state":"active","ping":175},{"user_id":1256,"name":"miki","steam_id":76561198331374895,"connected_time":453000000000,"state":"active","ping":81},{"user_id":1227,"name":"PaintMyMeow","steam_id":76561198056860387,"connected_time":2694000000000,"state":"active","ping":82},{"user_id":1253,"name":"Disliked Candy","steam_id":76561198000405232,"connected_time":681000000000,"state":"active","ping":87},{"user_id":1154,"name":"Bali","steam_id":76561198038693845,"connected_time":5547000000000,"state":"active","ping":110},{"user_id":1257,"name":"raya","steam_id":76561198051504581,"connected_time":371000000000,"state":"active","ping":75},{"user_id":1199,"name":"xZackAttack27x","steam_id":76561198035446639,"connected_time":3618000000000,"state":"active","ping":61},{"user_id":1247,"name":"crusherty7","steam_id":76561199158729541,"connected_time":1481000000000,"state":"active","ping":45},{"user_id":1248,"name":"Cinderace:)","steam_id":76561198132899671,"connected_time":1473000000000,"state":"active","ping":75},{"user_id":1255,"name":"suffrage for frogs","steam_id":76561198024661591,"connected_time":533000000000,"state":"active","ping":115},{"user_id":1250,"name":"0","steam_id":76561197961095970,"connected_time":1326000000000,"state":"active","ping":75},{"user_id":1249,"name":"09robcraft2","steam_id":76561199073189184,"connected_time":1401000000000,"state":"active","ping":78},{"user_id":1163,"name":"dog","steam_id":76561198257924603,"connected_time":4793000000000,"state":"active","ping":77}]},{"server_id":400,"name":"Uncletopia | Atlanta | 3 | Stopwatch Beta","name_short":"atl-3","host":"atl-1.us.uncletopia.com","port":27035,"enabled":true,"region":"us-east","cc":"us","latitude":33.753746,"longitude":-84.38633,"reserved":0,"last_update":"0001-01-01T00:00:00Z","name_a2s":"Uncletopia | Atlanta | 3 | Stopwatch Beta","protocol":17,"map":"pl_borneo","folder":"tf","game":"Team Fortress","app_id":440,"player_count":0,"max_players":24,"Bots":0,"server_type":"Dedicated","server_os":"Linux","password":true,"vac":true,"version":"7723704","steam_id":85568392924515187,"keywords":["nocrits","nodmgspread","payload","uncletopia"],"game_id":440,"stv_port":27036,"stv_name":"Uncletopia | Atlanta | 3 | Stopwatch Beta | STV","players":null},{"server_id":401,"name":"Uncletopia | Atlanta | 4 | No Payload","name_short":"atl-4","host":"atl-1.us.uncletopia.com","port":27045,"enabled":true,"region":"us-east","cc":"us","latitude":33.753746,"longitude":-84.38633,"reserved":0,"last_update":"0001-01-01T00:00:00Z","name_a2s":"Uncletopia | Atlanta | 4 | No Payload","protocol":17,"map":"koth_badlands","folder":"tf","game":"Team Fortress","app_id":440,"player_count":0,"max_players":24,"Bots":0,"server_type":"Dedicated","server_os":"Linux","password":true,"vac":true,"version":"7723704","steam_id":85568392924515188,"keywords":["cp","nocrits","nodmgspread","uncletopia"],"game_id":440,"stv_port":27046,"stv_name":"Uncletopia | Atlanta | 4 | No Payload | STV","players":null},{"server_id":2,"name":"Uncletopia | Chicago | 1 | All Maps","name_short":"chi-1","host":"chi-1.us.uncletopia.com","port":27015,"enabled":true,"region":"us-central","cc":"us","latitude":41.881832,"longitude":-87.62318,"reserved":0,"last_update":"0001-01-01T00:00:00Z","name_a2s":"Uncletopia | Chicago | 1 | All Maps","protocol":17,"map":"pl_swiftwater_final1","folder":"tf","game":"Team Fortress","app_id":440,"player_count":0,"max_players":24,"Bots":0,"server_type":"Dedicated","server_os":"Linux","password":true,"vac":true,"version":"7723704","steam_id":85568392924469984,"keywords":["nocrits","nodmgspread","payload","uncletopia"],"game_id":440,"stv_port":27016,"stv_name":"Uncletopia | Chicago | 1 | All Maps | STV","players":null},{"server_id":106,"name":"Uncletopia | Chicago | 2 | All Maps","name_short":"chi-2","host":"chi-1.us.uncletopia.com","port":27025,"enabled":true,"region":"us-central","cc":"us","latitude":41.881832,"longitude":-87.62318,"reserved":0,"last_update":"0001-01-01T00:00:00Z","name_a2s":"Uncletopia | Chicago | 2 | All Maps","protocol":17,"map":"koth_lakeside_final","folder":"tf","game":"Team Fortress","app_id":440,"player_count":22,"max_players":24,"Bots":0,"server_type":"Dedicated","server_os":"Linux","password":true,"vac":true,"version":"7723704","steam_id":85568392924469985,"keywords":["cp","nocrits","nodmgspread","uncletopia"],"game_id":440,"stv_port":27026,"stv_name":"Uncletopia | Chicago | 2 | All Maps | STV","players":[{"user_id":705,"name":"1000 Ping","steam_id":76561198098330939,"connected_time":528000000000,"state":"active","ping":116},{"user_id":677,"name":"Top text","steam_id":76561198906113871,"connected_time":3042000000000,"state":"active","ping":72},{"user_id":686,"name":"PotatoIsUs","steam_id":76561198241109482,"connected_time":2305000000000,"state":"active","ping":75},{"user_id":690,"name":"mischevious","steam_id":76561198058209703,"connected_time":1628000000000,"state":"active","ping":48},{"user_id":691,"name":"Gears the Proto","steam_id":76561198442285002,"connected_time":1573000000000,"state":"active","ping":59},{"user_id":693,"name":"daemon","steam_id":76561198001541433,"connected_time":1027000000000,"state":"active","ping":56},{"user_id":694,"name":"C papi","steam_id":76561198027779564,"connected_time":1024000000000,"state":"active","ping":59},{"user_id":695,"name":"Jeremy","steam_id":76561198286240347,"connected_time":1020000000000,"state":"active","ping":56},{"user_id":704,"name":"Goofball","steam_id":76561198074189084,"connected_time":613000000000,"state":"active","ping":58},{"user_id":697,"name":"Vladikr1","steam_id":76561198401495362,"connected_time":976000000000,"state":"active","ping":51},{"user_id":706,"name":"papersamurai","steam_id":76561198313608698,"connected_time":421000000000,"state":"active","ping":58},{"user_id":707,"name":"jerma enthusiast","steam_id":76561198359466264,"connected_time":414000000000,"state":"active","ping":67},{"user_id":699,"name":"mista wayne","steam_id":76561198056249150,"connected_time":818000000000,"state":"active","ping":94},{"user_id":700,"name":"valtiel","steam_id":76561198165212575,"connected_time":747000000000,"state":"active","ping":75},{"user_id":701,"name":"Gunkzilla","steam_id":76561198068228415,"connected_time":721000000000,"state":"active","ping":66},{"user_id":708,"name":"kingkd0508","steam_id":76561199446667546,"connected_time":406000000000,"state":"active","ping":105},{"user_id":703,"name":"Seething Swine","steam_id":76561198079147566,"connected_time":671000000000,"state":"active","ping":66},{"user_id":709,"name":"Raven","steam_id":76561198393887732,"connected_time":178000000000,"state":"active","ping":84},{"user_id":710,"name":"dispenser (exotic.balls)","steam_id":76561198126466112,"connected_time":174000000000,"state":"active","ping":46},{"user_id":711,"name":"Andrew","steam_id":76561198216167781,"connected_time":142000000000,"state":"active","ping":63},{"user_id":712,"name":"whiteferrari","steam_id":76561198097086916,"connected_time":62000000000,"state":"active","ping":61},{"user_id":713,"name":"bigstanky","steam_id":76561198055417915,"connected_time":12000000000,"state":"spawning","ping":105}]},{"server_id":402,"name":"Uncletopia | Chicago | 3 | All Maps","name_short":"chi-3","host":"chi-1.us.uncletopia.com","port":27035,"enabled":true,"region":"us-central","cc":"us","latitude":41.881832,"longitude":-87.62318,"reserved":0,"last_update":"0001-01-01T00:00:00Z","name_a2s":"Uncletopia | Chicago | 3 | All Maps","protocol":17,"map":"koth_highpass","folder":"tf","game":"Team Fortress","app_id":440,"player_count":0,"max_players":24,"Bots":0,"server_type":"Dedicated","server_os":"Linux","password":true,"vac":true,"version":"7723704","steam_id":85568392924515191,"keywords":["cp","nocrits","nodmgspread","uncletopia"],"game_id":440,"stv_port":27036,"stv_name":"Uncletopia | Chicago | 3 | All Maps | STV","players":null},{"server_id":403,"name":"Uncletopia | Chicago | 4 | All Maps","name_short":"chi-4","host":"chi-1.us.uncletopia.com","port":27045,"enabled":true,"region":"us-central","cc":"us","latitude":41.881832,"longitude":-87.62318,"reserved":0,"last_update":"0001-01-01T00:00:00Z","name_a2s":"Uncletopia | Chicago | 4 | All Maps","protocol":17,"map":"koth_cascade","folder":"tf","game":"Team Fortress","app_id":440,"player_count":0,"max_players":24,"Bots":0,"server_type":"Dedicated","server_os":"Linux","password":true,"vac":true,"version":"7723704","steam_id":85568392924515193,"keywords":["cp","nocrits","nodmgspread","uncletopia"],"game_id":440,"stv_port":27046,"stv_name":"Uncletopia | Chicago | 4 | All Maps | STV","players":null},{"server_id":36,"name":"Uncletopia | Chicago | 5 | All Maps","name_short":"chi-5","host":"chi-2.us.uncletopia.com","port":27015,"enabled":true,"region":"us-central","cc":"us","latitude":41.881832,"longitude":-87.62318,"reserved":0,"last_update":"0001-01-01T00:00:00Z","name_a2s":"Uncletopia | Chicago | 5 | All Maps","protocol":17,"map":"koth_viaduct","folder":"tf","game":"Team Fortress","app_id":440,"player_count":17,"max_players":24,"Bots":0,"server_type":"Dedicated","server_os":"Linux","password":true,"vac":true,"version":"7723704","steam_id":85568392924866362,"keywords":["cp","nocrits","nodmgspread","uncletopia"],"game_id":440,"stv_port":27016,"stv_name":"Uncletopia | Chicago | 5 | All Maps | STV","players":[{"user_id":343,"name":"Itgel","steam_id":76561198188572226,"connected_time":1192000000000,"state":"active","ping":65},{"user_id":323,"name":"Happy Yaoi Wednesday","steam_id":76561198111290441,"connected_time":2013000000000,"state":"active","ping":51},{"user_id":325,"name":"Mattaroo","steam_id":76561198333076483,"connected_time":1985000000000,"state":"active","ping":68},{"user_id":318,"name":"a table","steam_id":76561198158461279,"connected_time":2470000000000,"state":"active","ping":63},{"user_id":328,"name":"Scaffie","steam_id":76561198216968391,"connected_time":1952000000000,"state":"active","ping":62},{"user_id":321,"name":"M.L.JEW","steam_id":76561198997375055,"connected_time":2161000000000,"state":"active","ping":76},{"user_id":331,"name":"Blueboy1024","steam_id":76561198257520854,"connected_time":1917000000000,"state":"active","ping":60},{"user_id":346,"name":"Rein","steam_id":76561198300340427,"connected_time":693000000000,"state":"active","ping":59},{"user_id":330,"name":"THEGGLET","steam_id":76561198056803007,"connected_time":1929000000000,"state":"active","ping":45},{"user_id":339,"name":"Û†Ä°Û†Ä°","steam_id":76561198027546178,"connected_time":1606000000000,"state":"active","ping":99},{"user_id":344,"name":"stuporvillian","steam_id":76561198083796225,"connected_time":728000000000,"state":"active","ping":59},{"user_id":333,"name":"Osaka!!!","steam_id":76561199015692132,"connected_time":1864000000000,"state":"active","ping":91},{"user_id":342,"name":"AFloatingShoppinList","steam_id":76561198300216562,"connected_time":1293000000000,"state":"active","ping":61},{"user_id":340,"name":"remnar","steam_id":76561197995454090,"connected_time":1371000000000,"state":"active","ping":64},{"user_id":288,"name":"loco503","steam_id":76561198827495121,"connected_time":5332000000000,"state":"active","ping":103},{"user_id":320,"name":"Snoopy","steam_id":76561198273735974,"connected_time":2356000000000,"state":"active","ping":97},{"user_id":338,"name":"Lictor of Vaal Hazak","steam_id":76561198018580803,"connected_time":1778000000000,"state":"active","ping":161}]},{"server_id":37,"name":"Uncletopia | Chicago | 6 | All Maps","name_short":"chi-6","host":"chi-2.us.uncletopia.com","port":27025,"enabled":true,"region":"us-central","cc":"us","latitude":41.881832,"longitude":-87.62318,"reserved":0,"last_update":"0001-01-01T00:00:00Z","name_a2s":"Uncletopia | Chicago | 6 | All Maps","protocol":17,"map":"koth_cascade","folder":"tf","game":"Team Fortress","app_id":440,"player_count":0,"max_players":24,"Bots":0,"server_type":"Dedicated","server_os":"Linux","password":true,"vac":true,"version":"7723704","steam_id":85568392924866363,"keywords":["cp","nocrits","nodmgspread","uncletopia"],"game_id":440,"stv_port":27026,"stv_name":"Uncletopia | Chicago | 6 | All Maps | STV","players":null},{"server_id":38,"name":"Uncletopia | Chicago | 7 | Stopwatch Beta","name_short":"chi-7","host":"chi-2.us.uncletopia.com","port":27035,"enabled":true,"region":"us-central","cc":"us","latitude":41.881832,"longitude":-87.62318,"reserved":0,"last_update":"0001-01-01T00:00:00Z","name_a2s":"Uncletopia | Chicago | 7 | Stopwatch Beta","protocol":17,"map":"workshop/koth_clearcut_b15.ugc2107050255","folder":"tf","game":"Team Fortress","app_id":440,"player_count":0,"max_players":24,"Bots":0,"server_type":"Dedicated","server_os":"Linux","password":true,"vac":true,"version":"7723704","steam_id":85568392924866364,"keywords":["cp","nocrits","nodmgspread","uncletopia"],"game_id":440,"stv_port":27036,"stv_name":"Uncletopia | Chicago | 7 | Stopwatch Beta | STV","players":null},{"server_id":39,"name":"Uncletopia | Chicago | 8 | Community","name_short":"chi-8","host":"chi-2.us.uncletopia.com","port":27045,"enabled":true,"region":"us-central","cc":"us","latitude":41.881832,"longitude":-87.62318,"reserved":0,"last_update":"0001-01-01T00:00:00Z","name_a2s":"Uncletopia | Chicago | 8 | Community","protocol":17,"map":"workshop/cp_overgrown_rc7b.ugc503939302","folder":"tf","game":"Team Fortress","app_id":440,"player_count":0,"max_players":24,"Bots":0,"server_type":"Dedicated","server_os":"Linux","password":true,"vac":true,"version":"7723704","steam_id":85568392924866365,"keywords":["cp","nocrits","nodmgspread","uncletopia"],"game_id":440,"stv_port":27046,"stv_name":"Uncletopia | Chicago | 8 | Community | STV","players":null},{"server_id":8,"name":"Uncletopia | Dallas | 1 | All Maps","name_short":"dal-1","host":"dal-1.us.uncletopia.com","port":27015,"enabled":true,"region":"us-central","cc":"us","latitude":32.779167,"longitude":-96.80889,"reserved":0,"last_update":"0001-01-01T00:00:00Z","name_a2s":"Uncletopia | Dallas | 1 | All Maps","protocol":17,"map":"pl_borneo","folder":"tf","game":"Team Fortress","app_id":440,"player_count":24,"max_players":24,"Bots":0,"server_type":"Dedicated","server_os":"Linux","password":true,"vac":true,"version":"7723704","steam_id":85568392924469986,"keywords":["nocrits","nodmgspread","payload","uncletopia"],"game_id":440,"stv_port":27016,"stv_name":"Uncletopia | Dallas | 1 | All Maps | STV","players":[{"user_id":797,"name":"Merry Matches_","steam_id":76561198048925904,"connected_time":1990000000000,"state":"active","ping":87},{"user_id":815,"name":"BurnN8or101","steam_id":76561198132668224,"connected_time":982000000000,"state":"active","ping":81},{"user_id":822,"name":"jennco","steam_id":76561198212421513,"connected_time":132000000000,"state":"active","ping":79},{"user_id":793,"name":"Ap1hw","steam_id":76561199122883466,"connected_time":2482000000000,"state":"active","ping":51},{"user_id":804,"name":"forktails","steam_id":76561198046185082,"connected_time":1391000000000,"state":"active","ping":75},{"user_id":803,"name":"fitotutus","steam_id":76561197974993253,"connected_time":1442000000000,"state":"active","ping":85},{"user_id":808,"name":"Amy","steam_id":76561198071896932,"connected_time":1281000000000,"state":"active","ping":81},{"user_id":788,"name":"Souper Scott","steam_id":76561198045518926,"connected_time":2898000000000,"state":"active","ping":78},{"user_id":809,"name":"CFGU || RAWRWAFL","steam_id":76561198032118386,"connected_time":1249000000000,"state":"active","ping":68},{"user_id":807,"name":"Randy \"the Man\" Johnson","steam_id":76561198039124445,"connected_time":1326000000000,"state":"active","ping":94},{"user_id":823,"name":"Milk T34","steam_id":76561198116115227,"connected_time":50000000000,"state":"active","ping":74},{"user_id":745,"name":"namaste at home dad","steam_id":76561198056971063,"connected_time":6501000000000,"state":"active","ping":59},{"user_id":763,"name":"UncleJunkle","steam_id":76561198289559487,"connected_time":5104000000000,"state":"active","ping":53},{"user_id":818,"name":"sollarious101","steam_id":76561199086649385,"connected_time":502000000000,"state":"active","ping":45},{"user_id":819,"name":"Triwq","steam_id":76561198054810406,"connected_time":485000000000,"state":"active","ping":45},{"user_id":806,"name":"drugsmoker117289","steam_id":76561198079009899,"connected_time":1358000000000,"state":"active","ping":61},{"user_id":813,"name":"HanakoToast","steam_id":76561198045233131,"connected_time":1175000000000,"state":"active","ping":76},{"user_id":814,"name":"Kuyumiester","steam_id":76561198126835302,"connected_time":1146000000000,"state":"active","ping":62},{"user_id":724,"name":"G. Howard Dee","steam_id":76561198058382812,"connected_time":7861000000000,"state":"active","ping":70},{"user_id":820,"name":"THIRDPIERCE","steam_id":76561198405366314,"connected_time":485000000000,"state":"active","ping":64},{"user_id":801,"name":"rlty","steam_id":76561198009395055,"connected_time":1657000000000,"state":"active","ping":80},{"user_id":785,"name":"The Muffin Man","steam_id":76561199088286427,"connected_time":3230000000000,"state":"active","ping":99},{"user_id":796,"name":"FG7","steam_id":76561198381197197,"connected_time":2438000000000,"state":"active","ping":141},{"user_id":758,"name":"Arcana","steam_id":76561198120924164,"connected_time":5810000000000,"state":"active","ping":55}]},{"server_id":108,"name":"Uncletopia | Dallas | 2 | All Maps","name_short":"dal-2","host":"dal-1.us.uncletopia.com","port":27025,"enabled":true,"region":"us-central","cc":"us","latitude":32.779167,"longitude":-96.80889,"reserved":0,"last_update":"0001-01-01T00:00:00Z","name_a2s":"Uncletopia | Dallas | 2 | All Maps","protocol":17,"map":"ctf_turbine","folder":"tf","game":"Team Fortress","app_id":440,"player_count":13,"max_players":24,"Bots":0,"server_type":"Dedicated","server_os":"Linux","password":true,"vac":true,"version":"7723704","steam_id":85568392924469988,"keywords":["ctf","nocrits","nodmgspread","uncletopia"],"game_id":440,"stv_port":27026,"stv_name":"Uncletopia | Dallas | 2 | All Maps | STV","players":[{"user_id":702,"name":"Skeleblood","steam_id":76561198153323281,"connected_time":674000000000,"state":"active","ping":68},{"user_id":690,"name":"MrButter","steam_id":76561198845773528,"connected_time":1331000000000,"state":"active","ping":78},{"user_id":695,"name":"üê∫-Iwky-ü¶ä","steam_id":76561198185616311,"connected_time":990000000000,"state":"active","ping":65},{"user_id":670,"name":"„ÄåSaint„Äç","steam_id":76561198241943070,"connected_time":2299000000000,"state":"active","ping":83},{"user_id":707,"name":"Monitor \u0026 Abuse Her","steam_id":76561198076240901,"connected_time":606000000000,"state":"active","ping":62},{"user_id":699,"name":"Unrulymarine","steam_id":76561198395195193,"connected_time":782000000000,"state":"active","ping":75},{"user_id":700,"name":"ihave80hp","steam_id":76561199251621911,"connected_time":780000000000,"state":"active","ping":89},{"user_id":713,"name":"BillyChili960","steam_id":76561198163528159,"connected_time":436000000000,"state":"active","ping":47},{"user_id":672,"name":"+","steam_id":76561198262422184,"connected_time":2265000000000,"state":"active","ping":43},{"user_id":632,"name":"Sylvaris","steam_id":76561198156678773,"connected_time":5193000000000,"state":"active","ping":49},{"user_id":712,"name":"Antwan","steam_id":76561198246200638,"connected_time":496000000000,"state":"active","ping":44},{"user_id":667,"name":"Glass Joe","steam_id":76561198317365741,"connected_time":2963000000000,"state":"active","ping":82},{"user_id":687,"name":"swooce","steam_id":76561198156232484,"connected_time":1647000000000,"state":"active","ping":75}]},{"server_id":5,"name":"Uncletopia | Frankfurt | 1 | All Maps","name_short":"frk-1","host":"frk-1.de.uncletopia.com","port":27015,"enabled":true,"region":"eu","cc":"de","latitude":50.110924,"longitude":8.682127,"reserved":0,"last_update":"0001-01-01T00:00:00Z","name_a2s":"Uncletopia | Frankfurt | 1 | All Maps","protocol":17,"map":"pl_pier","folder":"tf","game":"Team Fortress","app_id":440,"player_count":0,"max_players":24,"Bots":0,"server_type":"Dedicated","server_os":"Linux","password":true,"vac":true,"version":"7723704","steam_id":85568392924469989,"keywords":["nocrits","nodmgspread","payload","uncletopia"],"game_id":440,"stv_port":27016,"stv_name":"Uncletopia | Frankfurt | 1 | All Maps | STV","players":null},{"server_id":110,"name":"Uncletopia | Frankfurt | 2 | All Maps","name_short":"frk-2","host":"frk-1.de.uncletopia.com","port":27025,"enabled":true,"region":"eu","cc":"de","latitude":50.110924,"longitude":8.682127,"reserved":0,"last_update":"0001-01-01T00:00:00Z","name_a2s":"Uncletopia | Frankfurt | 2 | All Maps","protocol":17,"map":"cp_snakewater_final1","folder":"tf","game":"Team Fortress","app_id":440,"player_count":0,"max_players":24,"Bots":0,"server_type":"Dedicated","server_os":"Linux","password":true,"vac":true,"version":"7723704","steam_id":85568392924469990,"keywords":["cp","nocrits","nodmgspread","uncletopia"],"game_id":440,"stv_port":27026,"stv_name":"Uncletopia | Frankfurt | 2 | All Maps | STV","players":null},{"server_id":308,"name":"Uncletopia | Frankfurt | 3 | All Maps","name_short":"frk-3","host":"frk-1.de.uncletopia.com","port":27035,"enabled":true,"region":"eu","cc":"de","latitude":50.110924,"longitude":8.682127,"reserved":0,"last_update":"0001-01-01T00:00:00Z","name_a2s":"Uncletopia | Frankfurt | 3 | All Maps","protocol":17,"map":"pl_barnblitz","folder":"tf","game":"Team Fortress","app_id":440,"player_count":0,"max_players":24,"Bots":0,"server_type":"Dedicated","server_os":"Linux","password":true,"vac":true,"version":"7723704","steam_id":85568392924504274,"keywords":["nocrits","nodmgspread","payload","uncletopia"],"game_id":440,"stv_port":27036,"stv_name":"Uncletopia | Frankfurt | 3 | All Maps | STV","players":null},{"server_id":309,"name":"Uncletopia | Frankfurt | 4 | All Maps","name_short":"frk-4","host":"frk-1.de.uncletopia.com","port":27045,"enabled":true,"region":"eu","cc":"de","latitude":50.110924,"longitude":8.682127,"reserved":0,"last_update":"0001-01-01T00:00:00Z","name_a2s":"Uncletopia | Frankfurt | 4 | All Maps","protocol":17,"map":"pl_snowycoast","folder":"tf","game":"Team Fortress","app_id":440,"player_count":0,"max_players":24,"Bots":0,"server_type":"Dedicated","server_os":"Linux","password":true,"vac":true,"version":"7723704","steam_id":85568392924504275,"keywords":["nocrits","nodmgspread","payload","uncletopia"],"game_id":440,"stv_port":27046,"stv_name":"Uncletopia | Frankfurt | 4 | All Maps | STV","players":null},{"server_id":310,"name":"Uncletopia | Frankfurt | 5 | All Maps","name_short":"frk-5","host":"frk-1.de.uncletopia.com","port":27055,"enabled":true,"region":"eu","cc":"de","latitude":50.110924,"longitude":8.682127,"reserved":0,"last_update":"0001-01-01T00:00:00Z","name_a2s":"Uncletopia | Frankfurt | 5 | All Maps","protocol":17,"map":"cp_altitude","folder":"tf","game":"Team Fortress","app_id":440,"player_count":0,"max_players":24,"Bots":0,"server_type":"Dedicated","server_os":"Linux","password":true,"vac":true,"version":"7723704","steam_id":85568392924504277,"keywords":["cp","nocrits","nodmgspread","uncletopia"],"game_id":440,"stv_port":27056,"stv_name":"Uncletopia | Frankfurt | 5 | All Maps | STV","players":null},{"server_id":311,"name":"Uncletopia | Frankfurt | 6 | All Maps","name_short":"frk-6","host":"frk-1.de.uncletopia.com","port":27065,"enabled":true,"region":"eu","cc":"de","latitude":50.110924,"longitude":8.682127,"reserved":0,"last_update":"0001-01-01T00:00:00Z","name_a2s":"Uncletopia | Frankfurt | 6 | All Maps","protocol":17,"map":"pl_upward","folder":"tf","game":"Team Fortress","app_id":440,"player_count":0,"max_players":24,"Bots":0,"server_type":"Dedicated","server_os":"Linux","password":true,"vac":true,"version":"7723704","steam_id":85568392924504278,"keywords":["nocrits","nodmgspread","payload","uncletopia"],"game_id":440,"stv_port":27066,"stv_name":"Uncletopia | Frankfurt | 6 | All Maps | STV","players":null},{"server_id":23,"name":"Uncletopia | Frankfurt | 7 | Stopwatch Beta","name_short":"frk-7","host":"frk-1.de.uncletopia.com","port":27075,"enabled":true,"region":"eu","cc":"de","latitude":50.110924,"longitude":8.682127,"reserved":0,"last_update":"0001-01-01T00:00:00Z","name_a2s":"Uncletopia | Frankfurt | 7 | Stopwatch Beta","protocol":17,"map":"koth_viaduct","folder":"tf","game":"Team Fortress","app_id":440,"player_count":0,"max_players":24,"Bots":0,"server_type":"Dedicated","server_os":"Linux","password":true,"vac":true,"version":"7723704","steam_id":85568392924742827,"keywords":["cp","nocrits","nodmgspread","uncletopia"],"game_id":440,"stv_port":27076,"stv_name":"Uncletopia | Frankfurt | 7 | Stopwatch Beta | STV","players":null},{"server_id":24,"name":"Uncletopia | Frankfurt | 8 | Community","name_short":"frk-8","host":"frk-1.de.uncletopia.com","port":27085,"enabled":true,"region":"eu","cc":"de","latitude":50.110924,"longitude":8.682127,"reserved":0,"last_update":"0001-01-01T00:00:00Z","name_a2s":"Uncletopia | Frankfurt | 8 | Community","protocol":17,"map":"pl_frontier_final","folder":"tf","game":"Team Fortress","app_id":440,"player_count":0,"max_players":24,"Bots":0,"server_type":"Dedicated","server_os":"Linux","password":true,"vac":true,"version":"7723704","steam_id":85568392924742828,"keywords":["nocrits","nodmgspread","payload","uncletopia"],"game_id":440,"stv_port":27086,"stv_name":"Uncletopia | Frankfurt | 8 | Community | STV","players":null},{"server_id":202,"name":"Uncletopia | Hong Kong | 1 | All Maps","name_short":"hgk-1","host":"hgk-1.hk.uncletopia.com","port":27015,"enabled":true,"region":"asia","cc":"hk","latitude":22.302711,"longitude":114.177216,"reserved":0,"last_update":"0001-01-01T00:00:00Z","name_a2s":"Uncletopia | Hong Kong | 1 | All Maps","protocol":17,"map":"cp_dustbowl","folder":"tf","game":"Team Fortress","app_id":440,"player_count":24,"max_players":24,"Bots":0,"server_type":"Dedicated","server_os":"Linux","password":true,"vac":true,"version":"7723704","steam_id":85568392924494504,"keywords":["cp","nocrits","nodmgspread","uncletopia"],"game_id":440,"stv_port":27016,"stv_name":"Uncletopia | Hong Kong | 1 | All Maps | STV","players":[{"user_id":255,"name":"Ville","steam_id":76561199077881472,"connected_time":122000000000,"state":"active","ping":63},{"user_id":206,"name":"blahaj","steam_id":76561198061628689,"connected_time":4749000000000,"state":"active","ping":57},{"user_id":247,"name":"ZUdolph, the Robo-reindeer","steam_id":76561198179320563,"connected_time":538000000000,"state":"active","ping":93},{"user_id":229,"name":"water tastes good","steam_id":76561199375947670,"connected_time":2374000000000,"state":"active","ping":83},{"user_id":230,"name":"Ocha","steam_id":76561199224096189,"connected_time":2323000000000,"state":"active","ping":101},{"user_id":191,"name":"Milk‚ù§ (most hated guy in ut)","steam_id":76561198163911560,"connected_time":6380000000000,"state":"active","ping":111},{"user_id":251,"name":"sett.","steam_id":76561199010718657,"connected_time":367000000000,"state":"active","ping":67},{"user_id":254,"name":"Lud","steam_id":76561198828840546,"connected_time":191000000000,"state":"active","ping":75},{"user_id":154,"name":"3wfFbdrjEze5d2G","steam_id":76561198435900451,"connected_time":9551000000000,"state":"active","ping":71},{"user_id":219,"name":"Kiyomi","steam_id":76561198240627872,"connected_time":3211000000000,"state":"active","ping":50},{"user_id":188,"name":"Firefang099","steam_id":76561198136685157,"connected_time":6571000000000,"state":"active","ping":59},{"user_id":189,"name":"vintage","steam_id":76561198230213828,"connected_time":6428000000000,"state":"active","ping":66},{"user_id":198,"name":"u/Plencers2","steam_id":76561198311052198,"connected_time":5487000000000,"state":"active","ping":85},{"user_id":242,"name":"CaptainBozo","steam_id":76561199151959977,"connected_time":760000000000,"state":"active","ping":62},{"user_id":221,"name":"The Dad","steam_id":76561198369523192,"connected_time":3188000000000,"state":"active","ping":63},{"user_id":211,"name":"hpeed","steam_id":76561198808595586,"connected_time":4174000000000,"state":"active","ping":76},{"user_id":231,"name":"‡∏±sunfleur","steam_id":76561199085790568,"connected_time":1560000000000,"state":"active","ping":109},{"user_id":137,"name":"Me is gaming","steam_id":76561199025438331,"connected_time":10847000000000,"state":"active","ping":64},{"user_id":185,"name":"Lym0n","steam_id":76561199192420260,"connected_time":6692000000000,"state":"active","ping":110},{"user_id":250,"name":"ProgressorBread24","steam_id":76561199070629046,"connected_time":428000000000,"state":"active","ping":140},{"user_id":164,"name":"Zacy","steam_id":76561198114841670,"connected_time":8580000000000,"state":"active","ping":69},{"user_id":226,"name":"Owmyn","steam_id":76561199239651098,"connected_time":2601000000000,"state":"active","ping":99},{"user_id":214,"name":"+","steam_id":76561198121311286,"connected_time":4147000000000,"state":"active","ping":99},{"user_id":202,"name":"Krayken","steam_id":76561197997933283,"connected_time":5078000000000,"state":"active","ping":91}]},{"server_id":1,"name":"Uncletopia | Los Angeles | 1 | All Maps","name_short":"lax-1","host":"lax-1.us.uncletopia.com","port":27015,"enabled":true,"region":"us-west","cc":"us","latitude":33.94279,"longitude":-118.41004,"reserved":0,"last_update":"0001-01-01T00:00:00Z","name_a2s":"Uncletopia | Los Angeles | 1 | All Maps","protocol":17,"map":"pl_badwater","folder":"tf","game":"Team Fortress","app_id":440,"player_count":15,"max_players":24,"Bots":0,"server_type":"Dedicated","server_os":"Linux","password":true,"vac":true,"version":"7723704","steam_id":85568392924469991,"keywords":["nocrits","nodmgspread","payload","uncletopia"],"game_id":440,"stv_port":27016,"stv_name":"Uncletopia | Los Angeles | 1 | All Maps | STV","players":[{"user_id":482,"name":"HammerHead","steam_id":76561197975668646,"connected_time":129000000000,"state":"active","ping":68},{"user_id":460,"name":"Drool","steam_id":76561199045901994,"connected_time":2783000000000,"state":"active","ping":49},{"user_id":484,"name":"Grogly_Lazy","steam_id":76561198160237448,"connected_time":99000000000,"state":"active","ping":105},{"user_id":478,"name":"bee","steam_id":76561198025553902,"connected_time":809000000000,"state":"active","ping":90},{"user_id":472,"name":"benglengler","steam_id":76561198150137369,"connected_time":1315000000000,"state":"active","ping":46},{"user_id":485,"name":"Lt. Shrub","steam_id":76561198136621952,"connected_time":83000000000,"state":"active","ping":98},{"user_id":480,"name":"la loveiathenne","steam_id":76561198046394237,"connected_time":572000000000,"state":"active","ping":75},{"user_id":466,"name":"Anthoneeee","steam_id":76561199209220671,"connected_time":2370000000000,"state":"active","ping":72},{"user_id":445,"name":"blue bird","steam_id":76561198438886184,"connected_time":4478000000000,"state":"active","ping":58},{"user_id":400,"name":"AStarryEyedPlayer","steam_id":76561199069003499,"connected_time":8441000000000,"state":"active","ping":54},{"user_id":467,"name":"Toasterduds","steam_id":76561198163477584,"connected_time":2243000000000,"state":"active","ping":45},{"user_id":442,"name":"squinzi","steam_id":76561198086520846,"connected_time":4488000000000,"state":"active","ping":50},{"user_id":441,"name":"Black Jesus","steam_id":76561198076148442,"connected_time":4524000000000,"state":"active","ping":59},{"user_id":401,"name":"Tako","steam_id":76561199264073138,"connected_time":8341000000000,"state":"active","ping":37},{"user_id":449,"name":"Logan601 #savetf2","steam_id":76561198263116731,"connected_time":4385000000000,"state":"active","ping":60}]},{"server_id":112,"name":"Uncletopia | Los Angeles | 2 | All Maps","name_short":"lax-2","host":"lax-1.us.uncletopia.com","port":27025,"enabled":true,"region":"us-west","cc":"us","latitude":33.94279,"longitude":-118.41004,"reserved":0,"last_update":"0001-01-01T00:00:00Z","name_a2s":"Uncletopia | Los Angeles | 2 | All Maps","protocol":17,"map":"koth_cascade","folder":"tf","game":"Team Fortress","app_id":440,"player_count":0,"max_players":24,"Bots":0,"server_type":"Dedicated","server_os":"Linux","password":true,"vac":true,"version":"7723704","steam_id":85568392924469992,"keywords":["cp","nocrits","nodmgspread","uncletopia"],"game_id":440,"stv_port":27026,"stv_name":"Uncletopia | Los Angeles | 2 | All Maps | STV","players":null},{"server_id":324,"name":"Uncletopia | Los Angeles | 3 | All Maps","name_short":"lax-3","host":"lax-1.us.uncletopia.com","port":27035,"enabled":true,"region":"us-west","cc":"us","latitude":33.94279,"longitude":-118.41004,"reserved":0,"last_update":"0001-01-01T00:00:00Z","name_a2s":"Uncletopia | Los Angeles | 3 | All Maps","protocol":17,"map":"cp_sunshine","folder":"tf","game":"Team Fortress","app_id":440,"player_count":24,"max_players":24,"Bots":0,"server_type":"Dedicated","server_os":"Linux","password":true,"vac":true,"version":"7723704","steam_id":85568392924510198,"keywords":["cp","nocrits","nodmgspread","uncletopia"],"game_id":440,"stv_port":27036,"stv_name":"Uncletopia | Los Angeles | 3 | All Maps | STV","players":[{"user_id":369,"name":"Jerimiah :)","steam_id":76561198092084090,"connected_time":2932000000000,"state":"active","ping":45},{"user_id":368,"name":"andruwu","steam_id":76561198096912831,"connected_time":2943000000000,"state":"active","ping":54},{"user_id":396,"name":"Cookiesnc","steam_id":76561199041503034,"connected_time":1308000000000,"state":"active","ping":47},{"user_id":390,"name":"victordead121","steam_id":76561199180843121,"connected_time":1769000000000,"state":"active","ping":75},{"user_id":343,"name":"NooBHatteR","steam_id":76561198077662703,"connected_time":4202000000000,"state":"active","ping":57},{"user_id":385,"name":"jefe","steam_id":76561198025909307,"connected_time":2117000000000,"state":"active","ping":47},{"user_id":403,"name":"Swag5","steam_id":76561198065311356,"connected_time":530000000000,"state":"active","ping":54},{"user_id":386,"name":"Jarryl97","steam_id":76561198055451373,"connected_time":2089000000000,"state":"active","ping":91},{"user_id":371,"name":"Pvt. Pahrts","steam_id":76561198260965241,"connected_time":2929000000000,"state":"active","ping":66},{"user_id":382,"name":"demon girl","steam_id":76561198100650222,"connected_time":2539000000000,"state":"active","ping":51},{"user_id":330,"name":"OutspokenWeeb","steam_id":76561198062984704,"connected_time":5898000000000,"state":"active","ping":50},{"user_id":398,"name":"goldhed","steam_id":76561198051751133,"connected_time":1164000000000,"state":"active","ping":81},{"user_id":379,"name":"MR. MODE","steam_id":76561198046775352,"connected_time":2745000000000,"state":"active","ping":59},{"user_id":303,"name":"Killroy NQP ‚ù§","steam_id":76561198006983771,"connected_time":7785000000000,"state":"active","ping":114},{"user_id":387,"name":"MissyAerrow","steam_id":76561198211278840,"connected_time":1929000000000,"state":"active","ping":104},{"user_id":404,"name":"TheBrocklobster","steam_id":76561198039682984,"connected_time":90000000000,"state":"active","ping":57},{"user_id":388,"name":"TheBig1","steam_id":76561198010766059,"connected_time":1873000000000,"state":"active","ping":76},{"user_id":400,"name":"Woshingo","steam_id":76561199164819248,"connected_time":1140000000000,"state":"active","ping":47},{"user_id":394,"name":"samuel 'dont uber me' linguine","steam_id":76561199121829116,"connected_time":1350000000000,"state":"active","ping":38},{"user_id":354,"name":"Biznickel","steam_id":76561199422511230,"connected_time":3859000000000,"state":"active","ping":75},{"user_id":378,"name":"Santa Claus","steam_id":76561199057899661,"connected_time":2803000000000,"state":"active","ping":64},{"user_id":355,"name":"Big Herm","steam_id":76561199135213338,"connected_time":3849000000000,"state":"active","ping":84},{"user_id":391,"name":"El Monte","steam_id":76561198263562991,"connected_time":1714000000000,"state":"active","ping":43},{"user_id":358,"name":"merge without looking","steam_id":76561198975450630,"connected_time":3547000000000,"state":"active","ping":76}]},{"server_id":25,"name":"Uncletopia | Los Angeles | 4 | Stopwatch Beta","name_short":"lax-4","host":"lax-1.us.uncletopia.com","port":27045,"enabled":true,"region":"us-west","cc":"us","latitude":33.94279,"longitude":-118.41004,"reserved":0,"last_update":"0001-01-01T00:00:00Z","name_a2s":"Uncletopia | Los Angeles | 4 | Stopwatch Beta","protocol":17,"map":"workshop/pl_barnblitz_pro7.ugc582280235","folder":"tf","game":"Team Fortress","app_id":440,"player_count":0,"max_players":24,"Bots":0,"server_type":"Dedicated","server_os":"Linux","password":true,"vac":true,"version":"7723704","steam_id":85568392924510199,"keywords":["nocrits","nodmgspread","payload","uncletopia"],"game_id":440,"stv_port":27046,"stv_name":"Uncletopia | Los Angeles | 4 | Stopwatch Beta | STV","players":null},{"server_id":11,"name":"Uncletopia | London | 1 | All Maps","name_short":"lon-1","host":"lon-1.uk.uncletopia.com","port":27015,"enabled":true,"region":"eu","cc":"gb","latitude":51.509865,"longitude":-0.118092,"reserved":0,"last_update":"0001-01-01T00:00:00Z","name_a2s":"Uncletopia | London | 1 | All Maps","protocol":17,"map":"koth_viaduct","folder":"tf","game":"Team Fortress","app_id":440,"player_count":0,"max_players":24,"Bots":0,"server_type":"Dedicated","server_os":"Linux","password":true,"vac":true,"version":"7723704","steam_id":85568392924367362,"keywords":["cp","nocrits","nodmgspread","uncletopia"],"game_id":440,"stv_port":27016,"stv_name":"Uncletopia | London | 1 | All Maps | STV","players":null},{"server_id":114,"name":"Uncletopia | London | 2 | All Maps","name_short":"lon-2","host":"lon-1.uk.uncletopia.com","port":27025,"enabled":true,"region":"eu","cc":"gb","latitude":51.509865,"longitude":-0.118092,"reserved":0,"last_update":"0001-01-01T00:00:00Z","name_a2s":"Uncletopia | London | 2 | All Maps","protocol":17,"map":"pl_pier","folder":"tf","game":"Team Fortress","app_id":440,"player_count":17,"max_players":24,"Bots":0,"server_type":"Dedicated","server_os":"Linux","password":true,"vac":true,"version":"7723704","steam_id":85568392924470941,"keywords":["nocrits","nodmgspread","payload","uncletopia"],"game_id":440,"stv_port":27026,"stv_name":"Uncletopia | London | 2 | All Maps | STV","players":[{"user_id":30,"name":"Atomic_spaghetti (f2p)","steam_id":76561199023611229,"connected_time":95000000000,"state":"active","ping":142},{"user_id":4,"name":"peruna","steam_id":76561198000721196,"connected_time":3267000000000,"state":"active","ping":88},{"user_id":5,"name":"Atomic homo","steam_id":76561198058944826,"connected_time":2775000000000,"state":"active","ping":52},{"user_id":24,"name":"weed fairy","steam_id":76561197998843096,"connected_time":689000000000,"state":"active","ping":83},{"user_id":25,"name":"(Hu$tl3r) E1s","steam_id":76561198894958917,"connected_time":684000000000,"state":"active","ping":53},{"user_id":9,"name":"snoowbrigade","steam_id":76561197989507394,"connected_time":2025000000000,"state":"active","ping":61},{"user_id":10,"name":"leaf eater","steam_id":76561198083359604,"connected_time":2006000000000,"state":"active","ping":63},{"user_id":26,"name":"nark02","steam_id":76561198351190625,"connected_time":563000000000,"state":"active","ping":105},{"user_id":12,"name":"insanitY","steam_id":76561198055666742,"connected_time":1666000000000,"state":"active","ping":90},{"user_id":13,"name":"Penguin gaming","steam_id":76561198376504136,"connected_time":1592000000000,"state":"active","ping":83},{"user_id":27,"name":"scott steiners strongest warrio","steam_id":76561198148888622,"connected_time":446000000000,"state":"active","ping":49},{"user_id":17,"name":"Grand Wizard","steam_id":76561199414716848,"connected_time":1198000000000,"state":"active","ping":67},{"user_id":18,"name":"Sklandu Rausis","steam_id":76561198150212823,"connected_time":1192000000000,"state":"active","ping":99},{"user_id":28,"name":"techno","steam_id":76561198172101254,"connected_time":429000000000,"state":"active","ping":75},{"user_id":21,"name":"stun","steam_id":76561198276681691,"connected_time":999000000000,"state":"active","ping":44},{"user_id":22,"name":"OSwaldd","steam_id":76561199078712899,"connected_time":974000000000,"state":"active","ping":53},{"user_id":29,"name":"aph","steam_id":76561198057722639,"connected_time":339000000000,"state":"active","ping":75}]},{"server_id":320,"name":"Uncletopia | London | 3 | All Maps","name_short":"lon-3","host":"lon-1.uk.uncletopia.com","port":27035,"enabled":true,"region":"eu","cc":"gb","latitude":51.509865,"longitude":-0.118092,"reserved":0,"last_update":"0001-01-01T00:00:00Z","name_a2s":"Uncletopia | London | 3 | All Maps","protocol":17,"map":"pl_snowycoast","folder":"tf","game":"Team Fortress","app_id":440,"player_count":0,"max_players":24,"Bots":0,"server_type":"Dedicated","server_os":"Linux","password":true,"vac":true,"version":"7723704","steam_id":85568392924510192,"keywords":["nocrits","nodmgspread","payload","uncletopia"],"game_id":440,"stv_port":27036,"stv_name":"Uncletopia | London | 3 | All Maps | STV","players":null},{"server_id":321,"name":"Uncletopia | London | 4 | All Maps","name_short":"lon-4","host":"lon-1.uk.uncletopia.com","port":27045,"enabled":true,"region":"eu","cc":"gb","latitude":51.509865,"longitude":-0.118092,"reserved":0,"last_update":"0001-01-01T00:00:00Z","name_a2s":"Uncletopia | London | 4 | All Maps","protocol":17,"map":"koth_lakeside_final","folder":"tf","game":"Team Fortress","app_id":440,"player_count":0,"max_players":24,"Bots":0,"server_type":"Dedicated","server_os":"Linux","password":true,"vac":true,"version":"7723704","steam_id":85568392924510193,"keywords":["cp","nocrits","nodmgspread","uncletopia"],"game_id":440,"stv_port":27046,"stv_name":"Uncletopia | London | 4 | All Maps | STV","players":null},{"server_id":21,"name":"Uncletopia | London | 5 | All Maps","name_short":"lon-5","host":"lon-1.uk.uncletopia.com","port":27055,"enabled":true,"region":"eu","cc":"gb","latitude":51.509865,"longitude":-0.118092,"reserved":0,"last_update":"0001-01-01T00:00:00Z","name_a2s":"Uncletopia | London | 5 | All Maps","protocol":17,"map":"cp_snakewater_final1","folder":"tf","game":"Team Fortress","app_id":440,"player_count":0,"max_players":24,"Bots":0,"server_type":"Dedicated","server_os":"Linux","password":true,"vac":true,"version":"7723704","steam_id":85568392924742829,"keywords":["cp","nocrits","nodmgspread","uncletopia"],"game_id":440,"stv_port":27056,"stv_name":"Uncletopia | London | 5 | All Maps | STV","players":null},{"server_id":22,"name":"Uncletopia | London | 6 | All Maps","name_short":"lon-6","host":"lon-1.uk.uncletopia.com","port":27065,"enabled":true,"region":"eu","cc":"gb","latitude":51.509865,"longitude":-0.118092,"reserved":0,"last_update":"0001-01-01T00:00:00Z","name_a2s":"Uncletopia | London | 6 | All Maps","protocol":17,"map":"cp_process_final","folder":"tf","game":"Team Fortress","app_id":440,"player_count":0,"max_players":24,"Bots":0,"server_type":"Dedicated","server_os":"Linux","password":true,"vac":true,"version":"7723704","steam_id":85568392924742830,"keywords":["cp","nocrits","nodmgspread","uncletopia"],"game_id":440,"stv_port":27066,"stv_name":"Uncletopia | London | 6 | All Maps | STV","players":null},{"server_id":40,"name":"Uncletopia | London | 7 | No Payload","name_short":"lon-7","host":"lon-1.uk.uncletopia.com","port":27075,"enabled":true,"region":"eu","cc":"gb","latitude":51.509865,"longitude":-0.118092,"reserved":0,"last_update":"0001-01-01T00:00:00Z","name_a2s":"Uncletopia | London | 7 | No Payload","protocol":17,"map":"koth_viaduct","folder":"tf","game":"Team Fortress","app_id":440,"player_count":0,"max_players":24,"Bots":0,"server_type":"Dedicated","server_os":"Linux","password":true,"vac":true,"version":"7723704","steam_id":85568392924964314,"keywords":["cp","nocrits","nodmgspread","uncletopia"],"game_id":440,"stv_port":27076,"stv_name":"Uncletopia | London | 7 | No Payload | STV","players":null},{"server_id":41,"name":"Uncletopia | London | 8 | Community","name_short":"lon-8","host":"lon-1.uk.uncletopia.com","port":27085,"enabled":true,"region":"eu","cc":"gb","latitude":51.509865,"longitude":-0.118092,"reserved":0,"last_update":"0001-01-01T00:00:00Z","name_a2s":"Uncletopia | London | 8 | Community","protocol":17,"map":"koth_highpass","folder":"tf","game":"Team Fortress","app_id":440,"player_count":0,"max_players":24,"Bots":0,"server_type":"Dedicated","server_os":"Linux","password":true,"vac":true,"version":"7723704","steam_id":85568392924964315,"keywords":["cp","nocrits","nodmgspread","uncletopia"],"game_id":440,"stv_port":27086,"stv_name":"Uncletopia | London | 8 | Community | STV","players":null},{"server_id":300,"name":"Uncletopia | Montr√©al | 1 | All Maps","name_short":"mtl-1","host":"mtl-1.ca.uncletopia.com","port":27015,"enabled":true,"region":"us-east","cc":"ca","latitude":45.50889,"longitude":-73.56167,"reserved":0,"last_update":"0001-01-01T00:00:00Z","name_a2s":"Uncletopia | Montr√©al | 1 | All Maps","protocol":17,"map":"koth_lakeside_final","folder":"tf","game":"Team Fortress","app_id":440,"player_count":2,"max_players":24,"Bots":0,"server_type":"Dedicated","server_os":"Linux","password":true,"vac":true,"version":"7723704","steam_id":85568392924500087,"keywords":["cp","nocrits","nodmgspread","uncletopia"],"game_id":440,"stv_port":27016,"stv_name":"Uncletopia | Montr√©al | 1 | All Maps | STV","players":[{"user_id":11,"name":"Sonic Meerkat","steam_id":76561198839631940,"connected_time":2354000000000,"state":"active","ping":210},{"user_id":12,"name":"Kray-Z","steam_id":76561198797699901,"connected_time":2328000000000,"state":"active","ping":64}]},{"server_id":301,"name":"Uncletopia | Montr√©al | 2 | All Maps","name_short":"mtl-2","host":"mtl-1.ca.uncletopia.com","port":27025,"enabled":true,"region":"us-east","cc":"ca","latitude":45.50889,"longitude":-73.56167,"reserved":0,"last_update":"0001-01-01T00:00:00Z","name_a2s":"Uncletopia | Montr√©al | 2 | All Maps","protocol":17,"map":"koth_cascade","folder":"tf","game":"Team Fortress","app_id":440,"player_count":0,"max_players":24,"Bots":0,"server_type":"Dedicated","server_os":"Linux","password":true,"vac":true,"version":"7723704","steam_id":85568392924500088,"keywords":["cp","nocrits","nodmgspread","uncletopia"],"game_id":440,"stv_port":27026,"stv_name":"Uncletopia | Montr√©al | 2 | All Maps | STV","players":null},{"server_id":302,"name":"Uncletopia | Montr√©al | 3 | All Maps","name_short":"mtl-3","host":"mtl-1.ca.uncletopia.com","port":27035,"enabled":true,"region":"us-east","cc":"ca","latitude":45.50889,"longitude":-73.56167,"reserved":0,"last_update":"0001-01-01T00:00:00Z","name_a2s":"Uncletopia | Montr√©al | 3 | All Maps","protocol":17,"map":"pl_barnblitz","folder":"tf","game":"Team Fortress","app_id":440,"player_count":0,"max_players":24,"Bots":0,"server_type":"Dedicated","server_os":"Linux","password":true,"vac":true,"version":"7723704","steam_id":85568392924500089,"keywords":["nocrits","nodmgspread","payload","uncletopia"],"game_id":440,"stv_port":27036,"stv_name":"Uncletopia | Montr√©al | 3 | All Maps | STV","players":null},{"server_id":303,"name":"Uncletopia | Montr√©al | 4 | No Payload","name_short":"mtl-4","host":"mtl-1.ca.uncletopia.com","port":27045,"enabled":true,"region":"us-east","cc":"ca","latitude":45.50889,"longitude":-73.56167,"reserved":0,"last_update":"0001-01-01T00:00:00Z","name_a2s":"Uncletopia | Montr√©al | 4 | No Payload","protocol":17,"map":"koth_cascade","folder":"tf","game":"Team Fortress","app_id":440,"player_count":0,"max_players":24,"Bots":0,"server_type":"Dedicated","server_os":"Linux","password":true,"vac":true,"version":"7723704","steam_id":85568392924500090,"keywords":["cp","nocrits","nodmgspread","uncletopia"],"game_id":440,"stv_port":27046,"stv_name":"Uncletopia | Montr√©al | 4 | No Payload | STV","players":null},{"server_id":13,"name":"Uncletopia | New York City | 1 | All Maps","name_short":"nyc-1","host":"nyc-1.us.uncletopia.com","port":27015,"enabled":true,"region":"us-east","cc":"us","latitude":40.73061,"longitude":-73.93524,"reserved":0,"last_update":"0001-01-01T00:00:00Z","name_a2s":"Uncletopia | New York City | 1 | All Maps","protocol":17,"map":"pl_upward","folder":"tf","game":"Team Fortress","app_id":440,"player_count":16,"max_players":24,"Bots":0,"server_type":"Dedicated","server_os":"Linux","password":true,"vac":true,"version":"7723704","steam_id":85568392924469993,"keywords":["nocrits","nodmgspread","payload","uncletopia"],"game_id":440,"stv_port":27016,"stv_name":"Uncletopia | New York City | 1 | All Maps | STV","players":[{"user_id":427,"name":"Look Behind You","steam_id":76561198250458682,"connected_time":428000000000,"state":"active","ping":69},{"user_id":428,"name":"Colonel Chikara","steam_id":76561198010021087,"connected_time":256000000000,"state":"active","ping":109},{"user_id":421,"name":"CoryBaxterWH","steam_id":76561198060041823,"connected_time":1334000000000,"state":"active","ping":49},{"user_id":422,"name":"give me your baby faces blaster","steam_id":76561199013442982,"connected_time":1289000000000,"state":"active","ping":81},{"user_id":429,"name":"KRELLAH","steam_id":76561198287045069,"connected_time":164000000000,"state":"active","ping":57},{"user_id":419,"name":"Moose","steam_id":76561198212779115,"connected_time":1369000000000,"state":"active","ping":76},{"user_id":415,"name":"iL","steam_id":76561198086331015,"connected_time":1710000000000,"state":"active","ping":29},{"user_id":414,"name":"Braamklauw","steam_id":76561198283287697,"connected_time":1999000000000,"state":"active","ping":141},{"user_id":300,"name":"Nilantive","steam_id":76561198177565082,"connected_time":10217000000000,"state":"active","ping":50},{"user_id":424,"name":"Sabaman55","steam_id":76561198212267979,"connected_time":1153000000000,"state":"active","ping":64},{"user_id":392,"name":"Wique","steam_id":76561198071217597,"connected_time":4849000000000,"state":"active","ping":61},{"user_id":335,"name":"THGAwesome","steam_id":76561198162847218,"connected_time":8711000000000,"state":"active","ping":55},{"user_id":405,"name":"primordialheath","steam_id":76561199386942638,"connected_time":4339000000000,"state":"active","ping":74},{"user_id":410,"name":"Skadewsh","steam_id":76561198102772209,"connected_time":4016000000000,"state":"active","ping":59},{"user_id":426,"name":"blibulon","steam_id":76561198370642854,"connected_time":1048000000000,"state":"active","ping":88},{"user_id":343,"name":"Squishie","steam_id":76561198321025400,"connected_time":8543000000000,"state":"active","ping":115}]},{"server_id":14,"name":"Uncletopia | New York City | 2 | All Maps","name_short":"nyc-2","host":"nyc-1.us.uncletopia.com","port":27025,"enabled":true,"region":"us-east","cc":"us","latitude":40.73061,"longitude":-73.93524,"reserved":0,"last_update":"0001-01-01T00:00:00Z","name_a2s":"Uncletopia | New York City | 2 | All Maps","protocol":17,"map":"pl_barnblitz","folder":"tf","game":"Team Fortress","app_id":440,"player_count":15,"max_players":24,"Bots":0,"server_type":"Dedicated","server_os":"Linux","password":true,"vac":true,"version":"7723704","steam_id":85568392924469994,"keywords":["nocrits","nodmgspread","payload","uncletopia"],"game_id":440,"stv_port":27026,"stv_name":"Uncletopia | New York City | 2 | All Maps | STV","players":[{"user_id":262,"name":"·óúÀ¨·óú","steam_id":76561198049076233,"connected_time":4059000000000,"state":"active","ping":53},{"user_id":310,"name":"IIP","steam_id":76561198286102406,"connected_time":522000000000,"state":"active","ping":68},{"user_id":311,"name":"Jon Snuh","steam_id":76561198075298635,"connected_time":473000000000,"state":"active","ping":61},{"user_id":284,"name":"Bloo (KTGB)","steam_id":76561198126672549,"connected_time":2948000000000,"state":"active","ping":73},{"user_id":313,"name":"OFF DA GLOOP!!","steam_id":76561198126549311,"connected_time":234000000000,"state":"active","ping":77},{"user_id":280,"name":"Lumpy","steam_id":76561198058840585,"connected_time":3413000000000,"state":"active","ping":54},{"user_id":292,"name":"Mymy","steam_id":76561198040619296,"connected_time":2473000000000,"state":"active","ping":120},{"user_id":309,"name":"InkAnarch","steam_id":76561198121033853,"connected_time":724000000000,"state":"active","ping":105},{"user_id":300,"name":"hashmap","steam_id":76561198043794014,"connected_time":1692000000000,"state":"active","ping":62},{"user_id":294,"name":"pew pew user","steam_id":76561198307845869,"connected_time":2385000000000,"state":"active","ping":63},{"user_id":287,"name":"Ch4rl33","steam_id":76561198037008621,"connected_time":2719000000000,"state":"active","ping":67},{"user_id":301,"name":"plutonium isotope","steam_id":76561198319442494,"connected_time":1638000000000,"state":"active","ping":111},{"user_id":307,"name":"Dura","steam_id":76561198334676366,"connected_time":1276000000000,"state":"active","ping":88},{"user_id":303,"name":"xxxDABGODxxx","steam_id":76561199061979040,"connected_time":1609000000000,"state":"active","ping":126},{"user_id":289,"name":"lauren/","steam_id":76561198048745798,"connected_time":2698000000000,"state":"active","ping":61}]},{"server_id":15,"name":"Uncletopia | New York City | 3 | Stopwatch Beta","name_short":"nyc-3","host":"nyc-1.us.uncletopia.com","port":27035,"enabled":true,"region":"us-east","cc":"us","latitude":40.73061,"longitude":-73.93524,"reserved":0,"last_update":"0001-01-01T00:00:00Z","name_a2s":"Uncletopia | New York City | 3 | Stopwatch Beta","protocol":17,"map":"cp_sunshine","folder":"tf","game":"Team Fortress","app_id":440,"player_count":0,"max_players":24,"Bots":0,"server_type":"Dedicated","server_os":"Linux","password":true,"vac":true,"version":"7723704","steam_id":85568392924742820,"keywords":["cp","nocrits","nodmgspread","uncletopia"],"game_id":440,"stv_port":27036,"stv_name":"Uncletopia | New York City | 3 | Stopwatch Beta | STV","players":null},{"server_id":16,"name":"Uncletopia | New York City | 4 | Community","name_short":"nyc-4","host":"nyc-1.us.uncletopia.com","port":27045,"enabled":true,"region":"us-east","cc":"us","latitude":40.73061,"longitude":-73.93524,"reserved":0,"last_update":"0001-01-01T00:00:00Z","name_a2s":"Uncletopia | New York City | 4 | Community","protocol":17,"map":"workshop/koth_synthetic_rc6a.ugc1549817316","folder":"tf","game":"Team Fortress","app_id":440,"player_count":0,"max_players":24,"Bots":0,"server_type":"Dedicated","server_os":"Linux","password":true,"vac":true,"version":"7723704","steam_id":85568392924742821,"keywords":["cp","nocrits","nodmgspread","uncletopia"],"game_id":440,"stv_port":27046,"stv_name":"Uncletopia | New York City | 4 | Community | STV","players":null},{"server_id":142,"name":"Uncletopia | S√£o Paulo | 1 | All Maps","name_short":"sao-1","host":"sao-1.br.uncletopia.com","port":27015,"enabled":true,"region":"sa","cc":"br","latitude":-23.533773,"longitude":-46.62529,"reserved":0,"last_update":"0001-01-01T00:00:00Z","name_a2s":"Uncletopia | S√£o Paulo | 1 | All Maps","protocol":17,"map":"koth_lakeside_final","folder":"tf","game":"Team Fortress","app_id":440,"player_count":0,"max_players":24,"Bots":0,"server_type":"Dedicated","server_os":"Linux","password":true,"vac":true,"version":"7723704","steam_id":85568392924469996,"keywords":["cp","nocrits","nodmgspread","uncletopia"],"game_id":440,"stv_port":27016,"stv_name":"Uncletopia | S√£o Paulo | 1 | All Maps | STV","players":null},{"server_id":143,"name":"Uncletopia | S√£o Paulo | 2 | All Maps","name_short":"sao-2","host":"sao-2.br.uncletopia.com","port":27015,"enabled":true,"region":"sa","cc":"br","latitude":-23.533773,"longitude":-46.62529,"reserved":0,"last_update":"0001-01-01T00:00:00Z","name_a2s":"Uncletopia | S√£o Paulo | 2 | All Maps","protocol":17,"map":"cp_mountainlab","folder":"tf","game":"Team Fortress","app_id":440,"player_count":0,"max_players":24,"Bots":0,"server_type":"Dedicated","server_os":"Linux","password":true,"vac":true,"version":"7723704","steam_id":85568392924485349,"keywords":["cp","nocrits","nodmgspread","uncletopia"],"game_id":440,"stv_port":27016,"stv_name":"Uncletopia | S√£o Paulo | 2 | All Maps | STV","players":null},{"server_id":7,"name":"Uncletopia | Seattle | 1 | All Maps","name_short":"sea-1","host":"sea-1.us.uncletopia.com","port":27015,"enabled":true,"region":"us-west","cc":"us","latitude":47.608013,"longitude":-122.33517,"reserved":0,"last_update":"0001-01-01T00:00:00Z","name_a2s":"Uncletopia | Seattle | 1 | All Maps","protocol":17,"map":"pl_barnblitz","folder":"tf","game":"Team Fortress","app_id":440,"player_count":24,"max_players":24,"Bots":0,"server_type":"Dedicated","server_os":"Linux","password":true,"vac":true,"version":"7723704","steam_id":85568392924469997,"keywords":["nocrits","nodmgspread","payload","uncletopia"],"game_id":440,"stv_port":27016,"stv_name":"Uncletopia | Seattle | 1 | All Maps | STV","players":[{"user_id":909,"name":"Conseq","steam_id":76561198335652179,"connected_time":4859000000000,"state":"active","ping":52},{"user_id":921,"name":"haj","steam_id":76561198043902911,"connected_time":3397000000000,"state":"active","ping":48},{"user_id":923,"name":"pooping.peter.2009","steam_id":76561198171368867,"connected_time":3381000000000,"state":"active","ping":76},{"user_id":933,"name":"Defeat","steam_id":76561198065203818,"connected_time":2138000000000,"state":"active","ping":41},{"user_id":918,"name":"Shah","steam_id":76561198047508851,"connected_time":4038000000000,"state":"active","ping":59},{"user_id":912,"name":"Marzbee115","steam_id":76561198095821025,"connected_time":4799000000000,"state":"active","ping":85},{"user_id":936,"name":"Skabbety","steam_id":76561198168044257,"connected_time":1231000000000,"state":"active","ping":40},{"user_id":887,"name":"bad spy player","steam_id":76561198873699671,"connected_time":7125000000000,"state":"active","ping":43},{"user_id":913,"name":"krootonitron","steam_id":76561198114113037,"connected_time":4757000000000,"state":"active","ping":63},{"user_id":922,"name":"gorlab","steam_id":76561198025089694,"connected_time":3391000000000,"state":"active","ping":59},{"user_id":927,"name":"RecklessRoadRage","steam_id":76561199089562026,"connected_time":2590000000000,"state":"active","ping":47},{"user_id":934,"name":"CheeseCake488","steam_id":76561199407617942,"connected_time":2097000000000,"state":"active","ping":138},{"user_id":943,"name":"Foyboy‚Ñ¢","steam_id":76561198072305817,"connected_time":1073000000000,"state":"active","ping":95},{"user_id":924,"name":"Sailor","steam_id":76561199081983517,"connected_time":3370000000000,"state":"active","ping":95},{"user_id":937,"name":"Ahzain","steam_id":76561198035894333,"connected_time":1229000000000,"state":"active","ping":79},{"user_id":900,"name":"Aardappel","steam_id":76561198030894676,"connected_time":4917000000000,"state":"active","ping":64},{"user_id":901,"name":"0xFUL","steam_id":76561198081684676,"connected_time":4914000000000,"state":"active","ping":69},{"user_id":929,"name":"Savant","steam_id":76561197969881916,"connected_time":2460000000000,"state":"active","ping":57},{"user_id":914,"name":"sticky earth monkey","steam_id":76561198062763756,"connected_time":4727000000000,"state":"active","ping":103},{"user_id":931,"name":"Psycho Tech","steam_id":76561198130480412,"connected_time":2220000000000,"state":"active","ping":63},{"user_id":935,"name":"booch","steam_id":76561198017030029,"connected_time":2014000000000,"state":"active","ping":68},{"user_id":945,"name":"Google","steam_id":76561198857237473,"connected_time":478000000000,"state":"active","ping":51},{"user_id":941,"name":"Ash Of Ruins","steam_id":76561198017744507,"connected_time":1130000000000,"state":"active","ping":51},{"user_id":920,"name":"BlookyBlock","steam_id":76561198117009300,"connected_time":4026000000000,"state":"active","ping":64}]},{"server_id":119,"name":"Uncletopia | Seattle | 2 | All Maps","name_short":"sea-2","host":"sea-1.us.uncletopia.com","port":27025,"enabled":true,"region":"us-west","cc":"us","latitude":47.608013,"longitude":-122.33517,"reserved":0,"last_update":"0001-01-01T00:00:00Z","name_a2s":"Uncletopia | Seattle | 2 | All Maps","protocol":17,"map":"koth_cascade","folder":"tf","game":"Team Fortress","app_id":440,"player_count":18,"max_players":24,"Bots":0,"server_type":"Dedicated","server_os":"Linux","password":true,"vac":true,"version":"7723704","steam_id":85568392924469998,"keywords":["cp","nocrits","nodmgspread","uncletopia"],"game_id":440,"stv_port":27026,"stv_name":"Uncletopia | Seattle | 2 | All Maps | STV","players":[{"user_id":433,"name":"Cardamon","steam_id":76561199048487548,"connected_time":218000000000,"state":"active","ping":103},{"user_id":401,"name":"Kay Z1014","steam_id":76561198374228296,"connected_time":2176000000000,"state":"active","ping":64},{"user_id":430,"name":"Kay","steam_id":76561198353517569,"connected_time":450000000000,"state":"active","ping":106},{"user_id":429,"name":"sonks","steam_id":76561198028398745,"connected_time":497000000000,"state":"active","ping":50},{"user_id":425,"name":"Shima","steam_id":76561198996459518,"connected_time":868000000000,"state":"active","ping":125},{"user_id":432,"name":"crumbles","steam_id":76561198168707036,"connected_time":334000000000,"state":"active","ping":64},{"user_id":431,"name":"Shitty_Wizard","steam_id":76561198047889979,"connected_time":439000000000,"state":"active","ping":89},{"user_id":436,"name":"SPYTRICK","steam_id":76561199213223573,"connected_time":29000000000,"state":"active","ping":218},{"user_id":405,"name":"Jettzky","steam_id":76561198305540151,"connected_time":1799000000000,"state":"active","ping":54},{"user_id":414,"name":"padder b0i","steam_id":76561198088131563,"connected_time":1473000000000,"state":"active","ping":77},{"user_id":435,"name":"My Name A Borat","steam_id":76561198077713291,"connected_time":94000000000,"state":"active","ping":62},{"user_id":411,"name":"Sol","steam_id":76561198803824764,"connected_time":1548000000000,"state":"active","ping":73},{"user_id":424,"name":"streetfighter4hater199X","steam_id":76561198017748754,"connected_time":937000000000,"state":"active","ping":96},{"user_id":385,"name":"cracky","steam_id":76561197971365444,"connected_time":3831000000000,"state":"active","ping":46},{"user_id":427,"name":"seeping","steam_id":76561198063862967,"connected_time":806000000000,"state":"active","ping":99},{"user_id":413,"name":"NickoDeeBz","steam_id":76561198294657867,"connected_time":1495000000000,"state":"active","ping":93},{"user_id":383,"name":"Patio","steam_id":76561197986082608,"connected_time":3975000000000,"state":"active","ping":51},{"user_id":421,"name":"mean penguin","steam_id":76561198174751517,"connected_time":1154000000000,"state":"active","ping":79}]},{"server_id":406,"name":"Uncletopia | Seattle | 3 | Stopwatch Beta","name_short":"sea-3","host":"sea-1.us.uncletopia.com","port":27035,"enabled":true,"region":"us-west","cc":"us","latitude":47.608013,"longitude":-122.33517,"reserved":0,"last_update":"0001-01-01T00:00:00Z","name_a2s":"Uncletopia | Seattle | 3 | Stopwatch Beta","protocol":17,"map":"cp_altitude","folder":"tf","game":"Team Fortress","app_id":440,"player_count":0,"max_players":24,"Bots":0,"server_type":"Dedicated","server_os":"Linux","password":true,"vac":false,"version":"7723704","steam_id":0,"keywords":["cp","nocrits","nodmgspread","uncletopia"],"game_id":440,"stv_port":27036,"stv_name":"Uncletopia | Seattle | 3 | Stopwatch Beta | STV","players":null},{"server_id":17,"name":"Uncletopia | San Francisco | 1 | All Maps","name_short":"sfo-1","host":"sfo-1.us.uncletopia.com","port":27015,"enabled":true,"region":"us-west","cc":"us","latitude":37.77397,"longitude":-122.4313,"reserved":0,"last_update":"0001-01-01T00:00:00Z","name_a2s":"Uncletopia | San Francisco | 1 | All Maps","protocol":17,"map":"pl_borneo","folder":"tf","game":"Team Fortress","app_id":440,"player_count":24,"max_players":24,"Bots":0,"server_type":"Dedicated","server_os":"Linux","password":true,"vac":true,"version":"7723704","steam_id":85568392924469999,"keywords":["nocrits","nodmgspread","payload","uncletopia"],"game_id":440,"stv_port":27016,"stv_name":"Uncletopia | San Francisco | 1 | All Maps | STV","players":[{"user_id":461,"name":"Zee‚ù§","steam_id":76561198274550638,"connected_time":215000000000,"state":"active","ping":78},{"user_id":447,"name":"MG","steam_id":76561197980131846,"connected_time":1337000000000,"state":"active","ping":54},{"user_id":446,"name":"eggo-on-a-stick","steam_id":76561198799357966,"connected_time":1359000000000,"state":"active","ping":77},{"user_id":448,"name":"served","steam_id":76561199438267625,"connected_time":1319000000000,"state":"active","ping":48},{"user_id":420,"name":"Testicular Torsion","steam_id":76561197968179862,"connected_time":2665000000000,"state":"active","ping":56},{"user_id":462,"name":"Branz","steam_id":76561198076632143,"connected_time":206000000000,"state":"active","ping":75},{"user_id":464,"name":"Amogous Supreme","steam_id":76561198025476774,"connected_time":28000000000,"state":"active","ping":50},{"user_id":313,"name":"tweet","steam_id":76561198166515735,"connected_time":11014000000000,"state":"active","ping":47},{"user_id":457,"name":"Mr. Poi","steam_id":76561198967112222,"connected_time":426000000000,"state":"active","ping":53},{"user_id":424,"name":"FestiveAnarchist","steam_id":76561199116042550,"connected_time":2461000000000,"state":"active","ping":106},{"user_id":463,"name":"xxxnickthesick69420xxx","steam_id":76561198056329143,"connected_time":154000000000,"state":"active","ping":65},{"user_id":454,"name":"Jeb Wins","steam_id":76561198075614895,"connected_time":543000000000,"state":"active","ping":73},{"user_id":460,"name":"video games","steam_id":76561198334059206,"connected_time":320000000000,"state":"active","ping":58},{"user_id":453,"name":"stevie","steam_id":76561198096144081,"connected_time":781000000000,"state":"active","ping":45},{"user_id":442,"name":"JustaTroll","steam_id":76561198351004116,"connected_time":1500000000000,"state":"active","ping":66},{"user_id":436,"name":"Protoshake","steam_id":76561198840276176,"connected_time":1870000000000,"state":"active","ping":77},{"user_id":437,"name":"sniffy","steam_id":76561198184933255,"connected_time":1862000000000,"state":"active","ping":54},{"user_id":458,"name":"Livin' Like Larry","steam_id":76561198313360974,"connected_time":345000000000,"state":"active","ping":42},{"user_id":438,"name":"ExplosiveGamer21","steam_id":76561198132370955,"connected_time":1826000000000,"state":"active","ping":78},{"user_id":445,"name":"hardfork","steam_id":76561197960958019,"connected_time":1409000000000,"state":"active","ping":62},{"user_id":406,"name":"moe","steam_id":76561198929586245,"connected_time":3598000000000,"state":"active","ping":55},{"user_id":407,"name":"spacetoven","steam_id":76561198115821131,"connected_time":3584000000000,"state":"active","ping":45},{"user_id":443,"name":"‚Ä∫ We Are You.j2 [NO SOUND]","steam_id":76561197995242200,"connected_time":1459000000000,"state":"active","ping":47},{"user_id":456,"name":"EatSomeBEES","steam_id":76561198047334307,"connected_time":480000000000,"state":"active","ping":64}]},{"server_id":18,"name":"Uncletopia | San Francisco | 2 | All Maps","name_short":"sfo-2","host":"sfo-1.us.uncletopia.com","port":27025,"enabled":true,"region":"us-west","cc":"us","latitude":37.77397,"longitude":-122.4313,"reserved":0,"last_update":"0001-01-01T00:00:00Z","name_a2s":"Uncletopia | San Francisco | 2 | All Maps","protocol":17,"map":"pl_snowycoast","folder":"tf","game":"Team Fortress","app_id":440,"player_count":0,"max_players":24,"Bots":0,"server_type":"Dedicated","server_os":"Linux","password":true,"vac":true,"version":"7723704","steam_id":85568392924470000,"keywords":["nocrits","nodmgspread","payload","uncletopia"],"game_id":440,"stv_port":27026,"stv_name":"Uncletopia | San Francisco | 2 | All Maps | STV","players":null},{"server_id":19,"name":"Uncletopia | San Francisco | 3 | Stopwatch Beta","name_short":"sfo-3","host":"sfo-1.us.uncletopia.com","port":27035,"enabled":true,"region":"us-west","cc":"us","latitude":37.77397,"longitude":-122.4313,"reserved":0,"last_update":"0001-01-01T00:00:00Z","name_a2s":"Uncletopia | San Francisco | 3 | Stopwatch Beta","protocol":17,"map":"pl_pier","folder":"tf","game":"Team Fortress","app_id":440,"player_count":0,"max_players":24,"Bots":0,"server_type":"Dedicated","server_os":"Linux","password":true,"vac":true,"version":"7723704","steam_id":85568392924742824,"keywords":["nocrits","nodmgspread","payload","uncletopia"],"game_id":440,"stv_port":27036,"stv_name":"Uncletopia | San Francisco | 3 | Stopwatch Beta | STV","players":null},{"server_id":20,"name":"Uncletopia | San Francisco | 4 | Community","name_short":"sfo-4","host":"sfo-1.us.uncletopia.com","port":27045,"enabled":true,"region":"us-west","cc":"us","latitude":37.77397,"longitude":-122.4313,"reserved":0,"last_update":"0001-01-01T00:00:00Z","name_a2s":"Uncletopia | San Francisco | 4 | Community","protocol":17,"map":"workshop/pl_fifthcurve_rc1.ugc648227046","folder":"tf","game":"Team Fortress","app_id":440,"player_count":0,"max_players":24,"Bots":0,"server_type":"Dedicated","server_os":"Linux","password":true,"vac":true,"version":"7723704","steam_id":85568392924742826,"keywords":["nocrits","nodmgspread","payload","uncletopia"],"game_id":440,"stv_port":27046,"stv_name":"Uncletopia | San Francisco | 4 | Community | STV","players":null},{"server_id":141,"name":"Uncletopia | Sydney | 1 | All Maps","name_short":"syd-1","host":"syd-1.au.uncletopia.com","port":27015,"enabled":true,"region":"au","cc":"au","latitude":-33.865143,"longitude":151.2099,"reserved":0,"last_update":"0001-01-01T00:00:00Z","name_a2s":"Uncletopia | Sydney | 1 | All Maps","protocol":17,"map":"pl_borneo","folder":"tf","game":"Team Fortress","app_id":440,"player_count":24,"max_players":24,"Bots":0,"server_type":"Dedicated","server_os":"Linux","password":true,"vac":true,"version":"7723704","steam_id":85568392924470001,"keywords":["nocrits","nodmgspread","payload","uncletopia"],"game_id":440,"stv_port":27016,"stv_name":"Uncletopia | Sydney | 1 | All Maps | STV","players":[{"user_id":298,"name":"gon","steam_id":76561198059906626,"connected_time":5179000000000,"state":"active","ping":74},{"user_id":357,"name":"invidia","steam_id":76561198096251579,"connected_time":1537000000000,"state":"active","ping":93},{"user_id":366,"name":"Chom Shum","steam_id":76561198124581221,"connected_time":956000000000,"state":"active","ping":88},{"user_id":342,"name":"Mr. Venom","steam_id":76561198155354590,"connected_time":2519000000000,"state":"active","ping":53},{"user_id":376,"name":"enemy gamer","steam_id":76561198127848228,"connected_time":330000000000,"state":"active","ping":60},{"user_id":377,"name":"malicious meddler","steam_id":76561198052118118,"connected_time":220000000000,"state":"active","ping":51},{"user_id":362,"name":"ben","steam_id":76561198223331996,"connected_time":1338000000000,"state":"active","ping":70},{"user_id":373,"name":"Acespider","steam_id":76561199129319202,"connected_time":541000000000,"state":"active","ping":31},{"user_id":369,"name":"LightningBlock","steam_id":76561198289997742,"connected_time":843000000000,"state":"active","ping":40},{"user_id":339,"name":"robor","steam_id":76561198084686835,"connected_time":2905000000000,"state":"active","ping":58},{"user_id":372,"name":"Vincent van Goku","steam_id":76561197999443975,"connected_time":576000000000,"state":"active","ping":46},{"user_id":333,"name":"clout","steam_id":76561198073310502,"connected_time":3305000000000,"state":"active","ping":75},{"user_id":335,"name":"rambo in da lambo","steam_id":76561198383642609,"connected_time":3226000000000,"state":"active","ping":75},{"user_id":345,"name":"duster huffer","steam_id":76561198836003115,"connected_time":2468000000000,"state":"active","ping":60},{"user_id":347,"name":"sheytoon","steam_id":76561198060824434,"connected_time":2412000000000,"state":"active","ping":53},{"user_id":296,"name":"EpicGuy4227","steam_id":76561198094132328,"connected_time":5264000000000,"state":"active","ping":52},{"user_id":361,"name":"Wolf","steam_id":76561198067256350,"connected_time":1342000000000,"state":"active","ping":55},{"user_id":336,"name":"no teles 4 u","steam_id":76561198018478297,"connected_time":3144000000000,"state":"active","ping":66},{"user_id":374,"name":"Fridge","steam_id":76561199005896640,"connected_time":471000000000,"state":"active","ping":66},{"user_id":368,"name":"The church of bonk","steam_id":76561198431895445,"connected_time":852000000000,"state":"active","ping":67},{"user_id":375,"name":"Rob-Roy","steam_id":76561198012749888,"connected_time":434000000000,"state":"active","ping":67},{"user_id":365,"name":"ice_freeze101","steam_id":76561198060902496,"connected_time":1129000000000,"state":"active","ping":59},{"user_id":363,"name":"skidmark2000","steam_id":76561198446126519,"connected_time":1324000000000,"state":"active","ping":45},{"user_id":379,"name":"Spycrab","steam_id":76561198118928113,"connected_time":216000000000,"state":"active","ping":51}]},{"server_id":123,"name":"Uncletopia | Sydney | 2 | All Maps","name_short":"syd-2","host":"syd-1.au.uncletopia.com","port":27025,"enabled":true,"region":"au","cc":"au","latitude":-33.865143,"longitude":151.2099,"reserved":0,"last_update":"0001-01-01T00:00:00Z","name_a2s":"Uncletopia | Sydney | 2 | All Maps","protocol":17,"map":"koth_highpass","folder":"tf","game":"Team Fortress","app_id":440,"player_count":23,"max_players":24,"Bots":0,"server_type":"Dedicated","server_os":"Linux","password":true,"vac":true,"version":"7723704","steam_id":85568392924470002,"keywords":["cp","nocrits","nodmgspread","uncletopia"],"game_id":440,"stv_port":27026,"stv_name":"Uncletopia | Sydney | 2 | All Maps | STV","players":[{"user_id":46,"name":"Mama Origami","steam_id":76561198330338645,"connected_time":2035000000000,"state":"active","ping":69},{"user_id":25,"name":"|Jamin|","steam_id":76561198151843157,"connected_time":3740000000000,"state":"spawning","ping":105},{"user_id":84,"name":"El Chupacabra","steam_id":76561198070641651,"connected_time":42000000000,"state":"active","ping":47},{"user_id":26,"name":"BluejayAU","steam_id":76561198079766872,"connected_time":3647000000000,"state":"active","ping":67},{"user_id":55,"name":"fritzz_2343","steam_id":76561198284667941,"connected_time":1702000000000,"state":"active","ping":53},{"user_id":59,"name":"cade is sleepy","steam_id":76561198126719182,"connected_time":1499000000000,"state":"spawning","ping":44},{"user_id":29,"name":"lavendermelody","steam_id":76561198238001880,"connected_time":3040000000000,"state":"active","ping":43},{"user_id":85,"name":"Atlas","steam_id":76561198069332870,"connected_time":41000000000,"state":"active","ping":37},{"user_id":83,"name":"Huski","steam_id":76561198108956967,"connected_time":206000000000,"state":"spawning","ping":75},{"user_id":87,"name":"Flak","steam_id":76561198205833232,"connected_time":17000000000,"state":"active","ping":41},{"user_id":79,"name":"Ninjanoah5","steam_id":76561198858613596,"connected_time":619000000000,"state":"active","ping":45},{"user_id":68,"name":"ToadFungus","steam_id":76561199219667039,"connected_time":1168000000000,"state":"active","ping":160},{"user_id":38,"name":"Who the fuck","steam_id":76561198053433380,"connected_time":2785000000000,"state":"active","ping":67},{"user_id":67,"name":"doris","steam_id":76561198985688207,"connected_time":1196000000000,"state":"active","ping":44},{"user_id":43,"name":"seKor","steam_id":76561198840121830,"connected_time":2372000000000,"state":"active","ping":70},{"user_id":88,"name":"WIKE MIZOWSKI","steam_id":76561198084596123,"connected_time":8000000000,"state":"active","ping":141},{"user_id":74,"name":"boboisgud","steam_id":76561199044667462,"connected_time":927000000000,"state":"active","ping":54},{"user_id":81,"name":"scuba cat... my beloved","steam_id":76561198203917953,"connected_time":356000000000,"state":"active","ping":58},{"user_id":57,"name":"The Inked Rabbit","steam_id":76561199158680285,"connected_time":1576000000000,"state":"active","ping":35},{"user_id":50,"name":"hyak","steam_id":76561198175700625,"connected_time":1913000000000,"state":"active","ping":98},{"user_id":71,"name":"Smokey","steam_id":76561198147091459,"connected_time":1036000000000,"state":"active","ping":88},{"user_id":76,"name":"duskdancer ‚ô•","steam_id":76561198351034537,"connected_time":817000000000,"state":"active","ping":56},{"user_id":80,"name":"HannahIsMrSeal","steam_id":76561198951098305,"connected_time":602000000000,"state":"active","ping":40}]},{"server_id":395,"name":"Uncletopia | Sydney | 3 | All Maps","name_short":"syd-3","host":"syd-1.au.uncletopia.com","port":27035,"enabled":true,"region":"au","cc":"au","latitude":-33.865143,"longitude":151.2099,"reserved":0,"last_update":"0001-01-01T00:00:00Z","name_a2s":"Uncletopia | Sydney | 3 | All Maps","protocol":17,"map":"pl_barnblitz","folder":"tf","game":"Team Fortress","app_id":440,"player_count":0,"max_players":24,"Bots":0,"server_type":"Dedicated","server_os":"Linux","password":true,"vac":true,"version":"7723704","steam_id":85568392925194467,"keywords":["nocrits","nodmgspread","payload","uncletopia"],"game_id":440,"stv_port":27036,"stv_name":"Uncletopia | Sydney | 3 | All Maps | STV","players":null},{"server_id":396,"name":"Uncletopia | Sydney | 4 | All Maps","name_short":"syd-4","host":"syd-1.au.uncletopia.com","port":27045,"enabled":true,"region":"au","cc":"au","latitude":-33.865143,"longitude":151.2099,"reserved":0,"last_update":"0001-01-01T00:00:00Z","name_a2s":"Uncletopia | Sydney | 4 | All Maps","protocol":17,"map":"cp_sunshine","folder":"tf","game":"Team Fortress","app_id":440,"player_count":0,"max_players":24,"Bots":0,"server_type":"Dedicated","server_os":"Linux","password":true,"vac":true,"version":"7723704","steam_id":85568392925397958,"keywords":["cp","nocrits","nodmgspread","uncletopia"],"game_id":440,"stv_port":27046,"stv_name":"Uncletopia | Sydney | 4 | All Maps | STV","players":null},{"server_id":58,"name":"Uncletopia | Sydney | 5 | Stopwatch Beta","name_short":"syd-5","host":"syd-1.au.uncletopia.com","port":27055,"enabled":true,"region":"au","cc":"au","latitude":-33.865143,"longitude":151.2099,"reserved":0,"last_update":"0001-01-01T00:00:00Z","name_a2s":"Uncletopia | Sydney | 5 | Stopwatch Beta","protocol":17,"map":"cp_altitude","folder":"tf","game":"Team Fortress","app_id":440,"player_count":0,"max_players":24,"Bots":0,"server_type":"Dedicated","server_os":"Linux","password":true,"vac":true,"version":"7723704","steam_id":85568392925397959,"keywords":["cp","nocrits","nodmgspread","uncletopia"],"game_id":440,"stv_port":27056,"stv_name":"Uncletopia | Sydney | 5 | Stopwatch Beta | STV","players":null},{"server_id":59,"name":"Uncletopia | Sydney | 6 | Community","name_short":"syd-6","host":"syd-1.au.uncletopia.com","port":27065,"enabled":true,"region":"au","cc":"au","latitude":-33.865143,"longitude":151.2099,"reserved":0,"last_update":"0001-01-01T00:00:00Z","name_a2s":"Uncletopia | Sydney | 6 | Community","protocol":17,"map":"workshop/pl_fifthcurve_rc1.ugc648227046","folder":"tf","game":"Team Fortress","app_id":440,"player_count":0,"max_players":24,"Bots":0,"server_type":"Dedicated","server_os":"Linux","password":true,"vac":true,"version":"7723704","steam_id":85568392925397960,"keywords":["nocrits","nodmgspread","payload","uncletopia"],"game_id":440,"stv_port":27066,"stv_name":"Uncletopia | Sydney | 6 | Community | STV","players":null},{"server_id":49,"name":"Uncletopia | Warsaw | 1 | All Maps","name_short":"waw-1","host":"waw-1.pl.uncletopia.com","port":27015,"enabled":true,"region":"eu","cc":"pl","latitude":52.2297,"longitude":21.017532,"reserved":0,"last_update":"0001-01-01T00:00:00Z","name_a2s":"Uncletopia | Warsaw | 1 | All Maps","protocol":17,"map":"cp_snakewater_final1","folder":"tf","game":"Team Fortress","app_id":440,"player_count":0,"max_players":24,"Bots":0,"server_type":"Dedicated","server_os":"Linux","password":true,"vac":true,"version":"7723704","steam_id":85568392925397850,"keywords":["cp","nocrits","nodmgspread","uncletopia"],"game_id":440,"stv_port":27016,"stv_name":"Uncletopia | Warsaw | 1 | All Maps | STV","players":null},{"server_id":50,"name":"Uncletopia | Warsaw | 2 | All Maps","name_short":"waw-2","host":"waw-1.pl.uncletopia.com","port":27025,"enabled":true,"region":"eu","cc":"pl","latitude":52.2297,"longitude":21.017532,"reserved":0,"last_update":"0001-01-01T00:00:00Z","name_a2s":"Uncletopia | Warsaw | 2 | All Maps","protocol":17,"map":"pl_barnblitz","folder":"tf","game":"Team Fortress","app_id":440,"player_count":0,"max_players":24,"Bots":0,"server_type":"Dedicated","server_os":"Linux","password":true,"vac":true,"version":"7723704","steam_id":85568392925397851,"keywords":["nocrits","nodmgspread","payload","uncletopia"],"game_id":440,"stv_port":27026,"stv_name":"Uncletopia | Warsaw | 2 | All Maps | STV","players":null},{"server_id":51,"name":"Uncletopia | Warsaw | 3 | All Maps","name_short":"waw-3","host":"waw-1.pl.uncletopia.com","port":27035,"enabled":true,"region":"eu","cc":"pl","latitude":52.2297,"longitude":21.017532,"reserved":0,"last_update":"0001-01-01T00:00:00Z","name_a2s":"Uncletopia | Warsaw | 3 | All Maps","protocol":17,"map":"pl_barnblitz","folder":"tf","game":"Team Fortress","app_id":440,"player_count":0,"max_players":24,"Bots":0,"server_type":"Dedicated","server_os":"Linux","password":true,"vac":true,"version":"7723704","steam_id":85568392925397852,"keywords":["nocrits","nodmgspread","payload","uncletopia"],"game_id":440,"stv_port":27036,"stv_name":"Uncletopia | Warsaw | 3 | All Maps | STV","players":null},{"server_id":52,"name":"Uncletopia | Warsaw | 4 | All Maps","name_short":"waw-4","host":"waw-1.pl.uncletopia.com","port":27045,"enabled":true,"region":"eu","cc":"pl","latitude":52.2297,"longitude":21.017532,"reserved":0,"last_update":"0001-01-01T00:00:00Z","name_a2s":"Uncletopia | Warsaw | 4 | All Maps","protocol":17,"map":"pl_upward","folder":"tf","game":"Team Fortress","app_id":440,"player_count":0,"max_players":24,"Bots":0,"server_type":"Dedicated","server_os":"Linux","password":true,"vac":true,"version":"7723704","steam_id":85568392925397853,"keywords":["nocrits","nodmgspread","payload","uncletopia"],"game_id":440,"stv_port":27046,"stv_name":"Uncletopia | Warsaw | 4 | All Maps | STV","players":null},{"server_id":53,"name":"Uncletopia | Warsaw | 5 | Stopwatch Beta","name_short":"waw-5","host":"waw-1.pl.uncletopia.com","port":27055,"enabled":true,"region":"eu","cc":"pl","latitude":52.2297,"longitude":21.017532,"reserved":0,"last_update":"0001-01-01T00:00:00Z","name_a2s":"Uncletopia | Warsaw | 5 | Stopwatch Beta","protocol":17,"map":"cp_sunshine","folder":"tf","game":"Team Fortress","app_id":440,"player_count":0,"max_players":24,"Bots":0,"server_type":"Dedicated","server_os":"Linux","password":true,"vac":true,"version":"7723704","steam_id":85568392925397854,"keywords":["cp","nocrits","nodmgspread","uncletopia"],"game_id":440,"stv_port":27056,"stv_name":"Uncletopia | Warsaw | 5 | Stopwatch Beta | STV","players":null},{"server_id":54,"name":"Uncletopia | Warsaw | 6 | Community","name_short":"waw-6","host":"waw-1.pl.uncletopia.com","port":27065,"enabled":true,"region":"eu","cc":"pl","latitude":52.2297,"longitude":21.017532,"reserved":0,"last_update":"0001-01-01T00:00:00Z","name_a2s":"Uncletopia | Warsaw | 6 | Community","protocol":17,"map":"pl_snowycoast","folder":"tf","game":"Team Fortress","app_id":440,"player_count":0,"max_players":24,"Bots":0,"server_type":"Dedicated","server_os":"Linux","password":true,"vac":true,"version":"7723704","steam_id":85568392925397856,"keywords":["nocrits","nodmgspread","payload","uncletopia"],"game_id":440,"stv_port":27066,"stv_name":"Uncletopia | Warsaw | 6 | Community | STV","players":null}]}