{"status":true,"message":"","result":[{"server_id":9,"name":"Uncletopia | Atlanta | 1 | All Maps","name_short":"atl-1","host":"atl-1.us.uncletopia.com","port":27015,"enabled":true,"region":"us-east","cc":"us","latitude":33.753746,"longitude":-84.38633,"reserved":0,"last_update":"0001-01-01T00:00:00Z","name_a2s":"Uncletopia | Atlanta | 1 | All Maps","protocol":17,"map":"cp_dustbowl","folder":"tf","game":"Team Fortress","app_id":440,"player_count":15,"max_players":24,"Bots":0,"server_type":"Dedicated","server_os":"Linux","password":true,"vac":true,"version":"7757534","steam_id":85568392924469982,"keywords":["cp","nocrits","nodmgspread","uncletopia"],"game_id":440,"stv_port":27016,"stv_name":"Uncletopia | Atlanta | 1 | All Maps | STV","players":[{"user_id":688,"name":"Jin","steam_id":76561198119873148,"connected_time":1105000000000,"state":"active","ping":59},{"user_id":691,"name":"nom","steam_id":76561198105374054,"connected_time":785000000000,"state":"active","ping":105},{"user_id":668,"name":"Miro","steam_id":76561198936412406,"connected_time":2706000000000,"state":"active","ping":73},{"user_id":694,"name":"whats an egg","steam_id":76561198991039398,"connected_time":526000000000,"state":"active","ping":54},{"user_id":611,"name":"DFR Le4n!!!","steam_id":76561198045522596,"connected_time":8108000000000,"state":"active","ping":60},{"user_id":695,"name":"okuz_baban","steam_id":76561198369013907,"connected_time":465000000000,"state":"active","ping":204},{"user_id":652,"name":"Sophie","steam_id":76561198170408057,"connected_time":4169000000000,"state":"active","ping":48},{"user_id":700,"name":"SIGMA [BS]","steam_id":76561197962604879,"connected_time":164000000000,"state":"active","ping":67},{"user_id":653,"name":"Walter White","steam_id":76561198875469297,"connected_time":3806000000000,"state":"active","ping":76},{"user_id":701,"name":"jumbo","steam_id":76561198024192770,"connected_time":13000000000,"state":"spawning","ping":86},{"user_id":698,"name":"butters","steam_id":76561198396432029,"connected_time":261000000000,"state":"active","ping":116},{"user_id":664,"name":"eish","steam_id":76561198089463603,"connected_time":3028000000000,"state":"active","ping":111},{"user_id":661,"name":"substance","steam_id":76561198050103868,"connected_time":3386000000000,"state":"active","ping":116},{"user_id":682,"name":"yomo","steam_id":76561198063175935,"connected_time":1944000000000,"state":"active","ping":51},{"user_id":666,"name":"morphine","steam_id":76561198072124799,"connected_time":2935000000000,"state":"active","ping":93}]},{"server_id":104,"name":"Uncletopia | Atlanta | 2 | All Maps","name_short":"atl-2","host":"atl-1.us.uncletopia.com","port":27025,"enabled":true,"region":"us-east","cc":"us","latitude":33.753746,"longitude":-84.38633,"reserved":0,"last_update":"0001-01-01T00:00:00Z","name_a2s":"Uncletopia | Atlanta | 2 | All Maps","protocol":17,"map":"pl_borneo","folder":"tf","game":"Team Fortress","app_id":440,"player_count":24,"max_players":24,"Bots":0,"server_type":"Dedicated","server_os":"Linux","password":true,"vac":true,"version":"7757534","steam_id":85568392924469983,"keywords":["nocrits","nodmgspread","payload","uncletopia"],"game_id":440,"stv_port":27026,"stv_name":"Uncletopia | Atlanta | 2 | All Maps | STV","players":[{"user_id":542,"name":"FireQuiz","steam_id":76561198107357249,"connected_time":4689000000000,"state":"active","ping":119},{"user_id":565,"name":"SEWER RODENT","steam_id":76561198858984051,"connected_time":3327000000000,"state":"active","ping":71},{"user_id":596,"name":"inventor1214","steam_id":76561198062317696,"connected_time":42000000000,"state":"active","ping":125},{"user_id":567,"name":"puss","steam_id":76561198409588134,"connected_time":3233000000000,"state":"active","ping":65},{"user_id":543,"name":"Kevin Edwards","steam_id":76561197998808319,"connected_time":4640000000000,"state":"active","ping":66},{"user_id":527,"name":"Terror-Billy #SaveTF2","steam_id":76561198328141870,"connected_time":5873000000000,"state":"active","ping":74},{"user_id":592,"name":"SureWN","steam_id":76561198059929441,"connected_time":207000000000,"state":"active","ping":102},{"user_id":593,"name":"Dungeon Keeper","steam_id":76561199475507686,"connected_time":172000000000,"state":"active","ping":52},{"user_id":597,"name":"Keirb","steam_id":76561198027031567,"connected_time":6000000000,"state":"active","ping":329},{"user_id":579,"name":"Not Humanz","steam_id":76561198366693517,"connected_time":2429000000000,"state":"active","ping":120},{"user_id":550,"name":"Soupman_Official","steam_id":76561198314308732,"connected_time":4405000000000,"state":"active","ping":85},{"user_id":587,"name":"[78] Rabbit","steam_id":76561198110554292,"connected_time":721000000000,"state":"active","ping":47},{"user_id":591,"name":"ED","steam_id":76561198043316859,"connected_time":223000000000,"state":"active","ping":59},{"user_id":580,"name":"CEO of non-economic inflation","steam_id":76561198258126130,"connected_time":2223000000000,"state":"active","ping":63},{"user_id":535,"name":"loldewdz","steam_id":76561198067562811,"connected_time":5372000000000,"state":"active","ping":75},{"user_id":577,"name":"aversa","steam_id":76561198840460101,"connected_time":2871000000000,"state":"active","ping":60},{"user_id":555,"name":"GKEmperor","steam_id":76561197995187011,"connected_time":4279000000000,"state":"active","ping":75},{"user_id":570,"name":"Gamermax1440","steam_id":76561198238174754,"connected_time":3214000000000,"state":"active","ping":46},{"user_id":585,"name":"ARGON Soulidity","steam_id":76561198429603550,"connected_time":897000000000,"state":"active","ping":66},{"user_id":560,"name":"roman","steam_id":76561198170066797,"connected_time":4090000000000,"state":"active","ping":61},{"user_id":586,"name":"Devon","steam_id":76561198151801996,"connected_time":787000000000,"state":"active","ping":52},{"user_id":578,"name":"89","steam_id":76561198106308056,"connected_time":2850000000000,"state":"active","ping":106},{"user_id":594,"name":"Pho","steam_id":76561198306515742,"connected_time":170000000000,"state":"active","ping":106},{"user_id":595,"name":"HELLifornian","steam_id":76561198004962124,"connected_time":170000000000,"state":"active","ping":115}]},{"server_id":400,"name":"Uncletopia | Atlanta | 3 | Community","name_short":"atl-3","host":"atl-1.us.uncletopia.com","port":27035,"enabled":true,"region":"us-east","cc":"us","latitude":33.753746,"longitude":-84.38633,"reserved":0,"last_update":"0001-01-01T00:00:00Z","name_a2s":"Uncletopia | Atlanta | 3 | Community","protocol":17,"map":"workshop/cp_glacier_rc6.ugc2905735376","folder":"tf","game":"Team Fortress","app_id":440,"player_count":0,"max_players":24,"Bots":0,"server_type":"Dedicated","server_os":"Linux","password":true,"vac":true,"version":"7757534","steam_id":85568392924515187,"keywords":["cp","nocrits","nodmgspread","uncletopia"],"game_id":440,"stv_port":27036,"stv_name":"Uncletopia | Atlanta | 3 | Community | STV","players":null},{"server_id":401,"name":"Uncletopia | Atlanta | 4 | No Payload","name_short":"atl-4","host":"atl-1.us.uncletopia.com","port":27045,"enabled":true,"region":"us-east","cc":"us","latitude":33.753746,"longitude":-84.38633,"reserved":0,"last_update":"0001-01-01T00:00:00Z","name_a2s":"","protocol":0,"map":"","folder":"","game":"","app_id":0,"player_count":0,"max_players":0,"Bots":0,"server_type":"","server_os":"","password":false,"vac":false,"version":"","steam_id":0,"keywords":null,"game_id":0,"stv_port":0,"stv_name":"","players":null},{"server_id":2,"name":"Uncletopia | Chicago | 1 | All Maps","name_short":"chi-1","host":"chi-1.us.uncletopia.com","port":27015,"enabled":true,"region":"us-central","cc":"us","latitude":41.881832,"longitude":-87.62318,"reserved":0,"last_update":"0001-01-01T00:00:00Z","name_a2s":"Uncletopia | Chicago | 1 | All Maps","protocol":17,"map":"pl_swiftwater_final1","folder":"tf","game":"Team Fortress","app_id":440,"player_count":21,"max_players":24,"Bots":0,"server_type":"Dedicated","server_os":"Linux","password":true,"vac":true,"version":"7757534","steam_id":85568392924469984,"keywords":["nocrits","nodmgspread","payload","uncletopia"],"game_id":440,"stv_port":27016,"stv_name":"Uncletopia | Chicago | 1 | All Maps | STV","players":[{"user_id":879,"name":"alan","steam_id":76561198281442409,"connected_time":39000000000,"state":"spawning","ping":47},{"user_id":880,"name":"Goku","steam_id":76561198064143198,"connected_time":38000000000,"state":"active","ping":52},{"user_id":858,"name":"Giggles‚Ñ¢","steam_id":76561198058708019,"connected_time":1990000000000,"state":"active","ping":52},{"user_id":860,"name":"girl smell","steam_id":76561198118962168,"connected_time":1897000000000,"state":"active","ping":87},{"user_id":865,"name":"Camaleon","steam_id":76561198041329791,"connected_time":1522000000000,"state":"active","ping":96},{"user_id":877,"name":"bad","steam_id":76561198090531755,"connected_time":559000000000,"state":"active","ping":76},{"user_id":833,"name":"Forshard","steam_id":76561197989742293,"connected_time":3446000000000,"state":"active","ping":71},{"user_id":834,"name":"Lleo","steam_id":76561198012293101,"connected_time":3426000000000,"state":"active","ping":79},{"user_id":819,"name":"_","steam_id":76561198191199554,"connected_time":5146000000000,"state":"active","ping":60},{"user_id":866,"name":"Drinking on the Job","steam_id":76561199158508890,"connected_time":1452000000000,"state":"active","ping":63},{"user_id":869,"name":"Unc4nny","steam_id":76561198131507408,"connected_time":1183000000000,"state":"active","ping":58},{"user_id":876,"name":"xFactr","steam_id":76561198129007422,"connected_time":626000000000,"state":"active","ping":51},{"user_id":870,"name":"toilethumor","steam_id":76561197962028780,"connected_time":1148000000000,"state":"active","ping":75},{"user_id":851,"name":"be","steam_id":76561198000824533,"connected_time":2666000000000,"state":"active","ping":88},{"user_id":875,"name":"Digresser","steam_id":76561198016426367,"connected_time":657000000000,"state":"active","ping":60},{"user_id":797,"name":"Skill Saw Stan","steam_id":76561199013064727,"connected_time":7294000000000,"state":"active","ping":84},{"user_id":811,"name":"Kng","steam_id":76561198993248203,"connected_time":6248000000000,"state":"active","ping":80},{"user_id":871,"name":"Atlas (Skylar)","steam_id":76561198041531774,"connected_time":1075000000000,"state":"active","ping":51},{"user_id":868,"name":"Eden Hazard","steam_id":76561198089241053,"connected_time":1348000000000,"state":"active","ping":58},{"user_id":878,"name":"LloydMann","steam_id":76561198025392778,"connected_time":367000000000,"state":"active","ping":56},{"user_id":841,"name":"Germs kill","steam_id":76561199327664719,"connected_time":3248000000000,"state":"active","ping":129}]},{"server_id":106,"name":"Uncletopia | Chicago | 2 | All Maps","name_short":"chi-2","host":"chi-1.us.uncletopia.com","port":27025,"enabled":true,"region":"us-central","cc":"us","latitude":41.881832,"longitude":-87.62318,"reserved":0,"last_update":"0001-01-01T00:00:00Z","name_a2s":"Uncletopia | Chicago | 2 | All Maps","protocol":17,"map":"pl_borneo","folder":"tf","game":"Team Fortress","app_id":440,"player_count":23,"max_players":24,"Bots":0,"server_type":"Dedicated","server_os":"Linux","password":true,"vac":true,"version":"7757534","steam_id":85568392924469985,"keywords":["nocrits","nodmgspread","payload","uncletopia"],"game_id":440,"stv_port":27026,"stv_name":"Uncletopia | Chicago | 2 | All Maps | STV","players":[{"user_id":949,"name":"Zoraster","steam_id":76561198119446375,"connected_time":947000000000,"state":"active","ping":72},{"user_id":937,"name":"volar","steam_id":76561198954814358,"connected_time":2667000000000,"state":"active","ping":53},{"user_id":947,"name":"briggs","steam_id":76561198045655893,"connected_time":1015000000000,"state":"active","ping":54},{"user_id":926,"name":"Eden","steam_id":76561198075587475,"connected_time":3105000000000,"state":"active","ping":44},{"user_id":940,"name":"ìÜèCayenne Pepper ìÜè","steam_id":76561198124881810,"connected_time":2622000000000,"state":"active","ping":128},{"user_id":959,"name":"wicky_woo","steam_id":76561197980010812,"connected_time":42000000000,"state":"active","ping":77},{"user_id":898,"name":"duneblaster0","steam_id":76561198040364680,"connected_time":5790000000000,"state":"active","ping":44},{"user_id":950,"name":"ooblz","steam_id":76561198361326855,"connected_time":880000000000,"state":"active","ping":61},{"user_id":945,"name":"GuyGoom","steam_id":76561198254522178,"connected_time":1694000000000,"state":"active","ping":56},{"user_id":881,"name":"{FITH}‚Ñ¢ Tnega Libram","steam_id":76561197997973526,"connected_time":7387000000000,"state":"active","ping":71},{"user_id":941,"name":"EatinABurgerWithNoHoneyMustard","steam_id":76561198044493669,"connected_time":2222000000000,"state":"active","ping":58},{"user_id":952,"name":"fuzze","steam_id":76561198214461775,"connected_time":708000000000,"state":"active","ping":75},{"user_id":863,"name":"Serbian Stalker","steam_id":76561199182959265,"connected_time":7845000000000,"state":"active","ping":72},{"user_id":917,"name":"PootisLife","steam_id":76561198074400568,"connected_time":4040000000000,"state":"active","ping":90},{"user_id":865,"name":"justapikmin","steam_id":76561199023650282,"connected_time":7838000000000,"state":"active","ping":86},{"user_id":953,"name":"golem","steam_id":76561198355040593,"connected_time":671000000000,"state":"active","ping":77},{"user_id":944,"name":"Voodo133","steam_id":76561198042670351,"connected_time":1903000000000,"state":"active","ping":89},{"user_id":932,"name":"Ask Nicely For Heals","steam_id":76561198138478907,"connected_time":3030000000000,"state":"active","ping":46},{"user_id":956,"name":"Mikidy","steam_id":76561197972958970,"connected_time":369000000000,"state":"active","ping":66},{"user_id":955,"name":"(TPT) Ghost","steam_id":76561198123262873,"connected_time":583000000000,"state":"active","ping":115},{"user_id":958,"name":"Pineapple Mango Lemonade","steam_id":76561198127421560,"connected_time":182000000000,"state":"active","ping":66},{"user_id":921,"name":"Mush","steam_id":76561198393461065,"connected_time":3931000000000,"state":"active","ping":74},{"user_id":935,"name":"kris the deer (angry)","steam_id":76561198170928310,"connected_time":2937000000000,"state":"active","ping":62}]},{"server_id":402,"name":"Uncletopia | Chicago | 3 | All Maps","name_short":"chi-3","host":"chi-1.us.uncletopia.com","port":27035,"enabled":true,"region":"us-central","cc":"us","latitude":41.881832,"longitude":-87.62318,"reserved":0,"last_update":"0001-01-01T00:00:00Z","name_a2s":"Uncletopia | Chicago | 3 | All Maps","protocol":17,"map":"pl_barnblitz","folder":"tf","game":"Team Fortress","app_id":440,"player_count":0,"max_players":24,"Bots":0,"server_type":"Dedicated","server_os":"Linux","password":true,"vac":true,"version":"7757534","steam_id":85568392924515191,"keywords":["nocrits","nodmgspread","payload","uncletopia"],"game_id":440,"stv_port":27036,"stv_name":"Uncletopia | Chicago | 3 | All Maps | STV","players":null},{"server_id":403,"name":"Uncletopia | Chicago | 4 | All Maps","name_short":"chi-4","host":"chi-1.us.uncletopia.com","port":27045,"enabled":true,"region":"us-central","cc":"us","latitude":41.881832,"longitude":-87.62318,"reserved":0,"last_update":"0001-01-01T00:00:00Z","name_a2s":"Uncletopia | Chicago | 4 | All Maps","protocol":17,"map":"koth_highpass","folder":"tf","game":"Team Fortress","app_id":440,"player_count":0,"max_players":24,"Bots":0,"server_type":"Dedicated","server_os":"Linux","password":true,"vac":true,"version":"7757534","steam_id":85568392924515193,"keywords":["cp","nocrits","nodmgspread","uncletopia"],"game_id":440,"stv_port":27046,"stv_name":"Uncletopia | Chicago | 4 | All Maps | STV","players":null},{"server_id":36,"name":"Uncletopia | Chicago | 5 | All Maps","name_short":"chi-5","host":"chi-2.us.uncletopia.com","port":27015,"enabled":true,"region":"us-central","cc":"us","latitude":41.881832,"longitude":-87.62318,"reserved":0,"last_update":"0001-01-01T00:00:00Z","name_a2s":"Uncletopia | Chicago | 5 | All Maps","protocol":17,"map":"cp_sunshine","folder":"tf","game":"Team Fortress","app_id":440,"player_count":4,"max_players":24,"Bots":0,"server_type":"Dedicated","server_os":"Linux","password":true,"vac":true,"version":"7757534","steam_id":85568392924866362,"keywords":["cp","nocrits","nodmgspread","uncletopia"],"game_id":440,"stv_port":27016,"stv_name":"Uncletopia | Chicago | 5 | All Maps | STV","players":[{"user_id":574,"name":"sneakyflamingo","steam_id":76561199093026056,"connected_time":2339000000000,"state":"active","ping":71},{"user_id":540,"name":"Cynicalrage #TF2center","steam_id":76561198085805532,"connected_time":7185000000000,"state":"active","ping":32},{"user_id":486,"name":"TacticalFluke","steam_id":76561198403291862,"connected_time":10609000000000,"state":"active","ping":80},{"user_id":502,"name":"ProbiusSC","steam_id":76561198379167322,"connected_time":10375000000000,"state":"active","ping":74}]},{"server_id":37,"name":"Uncletopia | Chicago | 6 | All Maps","name_short":"chi-6","host":"chi-2.us.uncletopia.com","port":27025,"enabled":true,"region":"us-central","cc":"us","latitude":41.881832,"longitude":-87.62318,"reserved":0,"last_update":"0001-01-01T00:00:00Z","name_a2s":"Uncletopia | Chicago | 6 | All Maps","protocol":17,"map":"cp_dustbowl","folder":"tf","game":"Team Fortress","app_id":440,"player_count":0,"max_players":24,"Bots":0,"server_type":"Dedicated","server_os":"Linux","password":true,"vac":true,"version":"7757534","steam_id":85568392924866363,"keywords":["cp","nocrits","nodmgspread","uncletopia"],"game_id":440,"stv_port":27026,"stv_name":"Uncletopia | Chicago | 6 | All Maps | STV","players":null},{"server_id":38,"name":"Uncletopia | Chicago | 7 | Stopwatch Beta","name_short":"chi-7","host":"chi-2.us.uncletopia.com","port":27035,"enabled":true,"region":"us-central","cc":"us","latitude":41.881832,"longitude":-87.62318,"reserved":0,"last_update":"0001-01-01T00:00:00Z","name_a2s":"Uncletopia | Chicago | 7 | Stopwatch Beta","protocol":17,"map":"workshop/koth_ramjam_rc1.ugc459778887","folder":"tf","game":"Team Fortress","app_id":440,"player_count":0,"max_players":24,"Bots":0,"server_type":"Dedicated","server_os":"Linux","password":true,"vac":true,"version":"7757534","steam_id":85568392924866364,"keywords":["cp","nocrits","nodmgspread","uncletopia"],"game_id":440,"stv_port":27036,"stv_name":"Uncletopia | Chicago | 7 | Stopwatch Beta | STV","players":null},{"server_id":39,"name":"Uncletopia | Chicago | 8 | Community","name_short":"chi-8","host":"chi-2.us.uncletopia.com","port":27045,"enabled":true,"region":"us-central","cc":"us","latitude":41.881832,"longitude":-87.62318,"reserved":0,"last_update":"0001-01-01T00:00:00Z","name_a2s":"Uncletopia | Chicago | 8 | Community","protocol":17,"map":"workshop/koth_bagel_rc6.ugc2514036946","folder":"tf","game":"Team Fortress","app_id":440,"player_count":0,"max_players":24,"Bots":0,"server_type":"Dedicated","server_os":"Linux","password":true,"vac":true,"version":"7757534","steam_id":85568392924866365,"keywords":["cp","nocrits","nodmgspread","uncletopia"],"game_id":440,"stv_port":27046,"stv_name":"Uncletopia | Chicago | 8 | Community | STV","players":null},{"server_id":8,"name":"Uncletopia | Dallas | 1 | All Maps","name_short":"dal-1","host":"dal-1.us.uncletopia.com","port":27015,"enabled":true,"region":"us-central","cc":"us","latitude":32.779167,"longitude":-96.80889,"reserved":0,"last_update":"0001-01-01T00:00:00Z","name_a2s":"Uncletopia | Dallas | 1 | All Maps","protocol":17,"map":"pl_barnblitz","folder":"tf","game":"Team Fortress","app_id":440,"player_count":24,"max_players":24,"Bots":0,"server_type":"Dedicated","server_os":"Linux","password":true,"vac":true,"version":"7757534","steam_id":85568392924469986,"keywords":["nocrits","nodmgspread","payload","uncletopia"],"game_id":440,"stv_port":27016,"stv_name":"Uncletopia | Dallas | 1 | All Maps | STV","players":[{"user_id":681,"name":"Juno","steam_id":76561198294421196,"connected_time":957000000000,"state":"active","ping":75},{"user_id":682,"name":"King (Who's on a budget)","steam_id":76561199086357213,"connected_time":913000000000,"state":"active","ping":80},{"user_id":690,"name":"Marc G","steam_id":76561198062650363,"connected_time":158000000000,"state":"active","ping":45},{"user_id":571,"name":"sweets n treats","steam_id":76561198013039087,"connected_time":9265000000000,"state":"active","ping":67},{"user_id":661,"name":"Byrdseed","steam_id":76561198110709656,"connected_time":2245000000000,"state":"active","ping":101},{"user_id":686,"name":"Team Fartpiss Poo","steam_id":76561199163591880,"connected_time":667000000000,"state":"active","ping":96},{"user_id":642,"name":"GhastlyGhostJr","steam_id":76561198037484203,"connected_time":3142000000000,"state":"active","ping":70},{"user_id":650,"name":"TF3 Medic gaming","steam_id":76561199053687718,"connected_time":2418000000000,"state":"active","ping":120},{"user_id":662,"name":"!! BRO IS FLABBERGASTED !!","steam_id":76561198135036396,"connected_time":2234000000000,"state":"active","ping":55},{"user_id":615,"name":"{ST} Oxythemoron","steam_id":76561198060089965,"connected_time":5365000000000,"state":"active","ping":55},{"user_id":684,"name":"Mag","steam_id":76561198084168526,"connected_time":752000000000,"state":"active","ping":73},{"user_id":600,"name":"calcium","steam_id":76561198103598619,"connected_time":6907000000000,"state":"active","ping":74},{"user_id":616,"name":"Faraday","steam_id":76561198089928357,"connected_time":5358000000000,"state":"active","ping":50},{"user_id":687,"name":"basilberry","steam_id":76561198145275937,"connected_time":603000000000,"state":"active","ping":67},{"user_id":688,"name":"‚ö¢","steam_id":76561199117637890,"connected_time":330000000000,"state":"active","ping":80},{"user_id":689,"name":"Rat_king","steam_id":76561199465689129,"connected_time":321000000000,"state":"active","ping":53},{"user_id":675,"name":"kortz","steam_id":76561198200508355,"connected_time":1418000000000,"state":"active","ping":78},{"user_id":654,"name":"tesagi","steam_id":76561198026664629,"connected_time":2349000000000,"state":"active","ping":74},{"user_id":678,"name":"*_*","steam_id":76561198937717599,"connected_time":1287000000000,"state":"active","ping":45},{"user_id":674,"name":"b0urbaki7","steam_id":76561198141342345,"connected_time":1482000000000,"state":"active","ping":91},{"user_id":691,"name":"Yesmar","steam_id":76561198236328806,"connected_time":141000000000,"state":"active","ping":73},{"user_id":563,"name":"A Straw","steam_id":76561199367935846,"connected_time":10567000000000,"state":"active","ping":73},{"user_id":645,"name":"deb","steam_id":76561198414336279,"connected_time":2596000000000,"state":"active","ping":61},{"user_id":596,"name":"sqgly","steam_id":76561198105508955,"connected_time":7255000000000,"state":"active","ping":74}]},{"server_id":108,"name":"Uncletopia | Dallas | 2 | All Maps","name_short":"dal-2","host":"dal-1.us.uncletopia.com","port":27025,"enabled":true,"region":"us-central","cc":"us","latitude":32.779167,"longitude":-96.80889,"reserved":0,"last_update":"0001-01-01T00:00:00Z","name_a2s":"Uncletopia | Dallas | 2 | All Maps","protocol":17,"map":"pl_borneo","folder":"tf","game":"Team Fortress","app_id":440,"player_count":16,"max_players":24,"Bots":0,"server_type":"Dedicated","server_os":"Linux","password":true,"vac":true,"version":"7757534","steam_id":85568392924469988,"keywords":["nocrits","nodmgspread","payload","uncletopia"],"game_id":440,"stv_port":27026,"stv_name":"Uncletopia | Dallas | 2 | All Maps | STV","players":[{"user_id":530,"name":"Yume","steam_id":76561198018060136,"connected_time":2942000000000,"state":"active","ping":71},{"user_id":546,"name":"lucil3 on Bandcamp","steam_id":76561198149063013,"connected_time":692000000000,"state":"active","ping":58},{"user_id":536,"name":"oomper","steam_id":76561199189982701,"connected_time":2242000000000,"state":"active","ping":91},{"user_id":550,"name":"ccat","steam_id":76561198281773224,"connected_time":332000000000,"state":"active","ping":82},{"user_id":515,"name":"I Have A Name","steam_id":76561198011699246,"connected_time":4679000000000,"state":"active","ping":102},{"user_id":533,"name":"Yosh","steam_id":76561198027078899,"connected_time":2729000000000,"state":"active","ping":74},{"user_id":527,"name":"Dattallguy","steam_id":76561198873155093,"connected_time":3407000000000,"state":"active","ping":65},{"user_id":548,"name":"ShapedSilver","steam_id":76561199073305310,"connected_time":471000000000,"state":"active","ping":45},{"user_id":547,"name":"Shylo","steam_id":76561199276858045,"connected_time":561000000000,"state":"active","ping":54},{"user_id":551,"name":"Is MISATO REAL?","steam_id":76561198088024854,"connected_time":316000000000,"state":"active","ping":47},{"user_id":552,"name":"nyxia- \u003c3","steam_id":76561198174415170,"connected_time":176000000000,"state":"active","ping":62},{"user_id":506,"name":"Koffy","steam_id":76561198184386039,"connected_time":5953000000000,"state":"active","ping":82},{"user_id":553,"name":"Salt","steam_id":76561198312176333,"connected_time":159000000000,"state":"active","ping":70},{"user_id":554,"name":"brock","steam_id":76561199015537819,"connected_time":86000000000,"state":"spawning","ping":62},{"user_id":555,"name":"dreamySylph","steam_id":76561199000573308,"connected_time":59000000000,"state":"active","ping":68},{"user_id":473,"name":"FullMetalSlugCat","steam_id":76561199193784099,"connected_time":9813000000000,"state":"active","ping":66}]},{"server_id":5,"name":"Uncletopia | Frankfurt | 1 | All Maps","name_short":"frk-1","host":"frk-1.de.uncletopia.com","port":27015,"enabled":true,"region":"eu","cc":"de","latitude":50.110924,"longitude":8.682127,"reserved":0,"last_update":"0001-01-01T00:00:00Z","name_a2s":"Uncletopia | Frankfurt | 1 | All Maps","protocol":17,"map":"pl_upward","folder":"tf","game":"Team Fortress","app_id":440,"player_count":0,"max_players":24,"Bots":0,"server_type":"Dedicated","server_os":"Linux","password":true,"vac":true,"version":"7757534","steam_id":85568392924469989,"keywords":["nocrits","nodmgspread","payload","uncletopia"],"game_id":440,"stv_port":27016,"stv_name":"Uncletopia | Frankfurt | 1 | All Maps | STV","players":null},{"server_id":110,"name":"Uncletopia | Frankfurt | 2 | All Maps","name_short":"frk-2","host":"frk-1.de.uncletopia.com","port":27025,"enabled":true,"region":"eu","cc":"de","latitude":50.110924,"longitude":8.682127,"reserved":0,"last_update":"0001-01-01T00:00:00Z","name_a2s":"Uncletopia | Frankfurt | 2 | All Maps","protocol":17,"map":"cp_snakewater_final1","folder":"tf","game":"Team Fortress","app_id":440,"player_count":0,"max_players":24,"Bots":0,"server_type":"Dedicated","server_os":"Linux","password":true,"vac":true,"version":"7757534","steam_id":85568392924469990,"keywords":["cp","nocrits","nodmgspread","uncletopia"],"game_id":440,"stv_port":27026,"stv_name":"Uncletopia | Frankfurt | 2 | All Maps | STV","players":null},{"server_id":308,"name":"Uncletopia | Frankfurt | 3 | All Maps","name_short":"frk-3","host":"frk-1.de.uncletopia.com","port":27035,"enabled":true,"region":"eu","cc":"de","latitude":50.110924,"longitude":8.682127,"reserved":0,"last_update":"0001-01-01T00:00:00Z","name_a2s":"Uncletopia | Frankfurt | 3 | All Maps","protocol":17,"map":"pl_swiftwater_final1","folder":"tf","game":"Team Fortress","app_id":440,"player_count":0,"max_players":24,"Bots":0,"server_type":"Dedicated","server_os":"Linux","password":true,"vac":true,"version":"7757534","steam_id":85568392924504274,"keywords":["nocrits","nodmgspread","payload","uncletopia"],"game_id":440,"stv_port":27036,"stv_name":"Uncletopia | Frankfurt | 3 | All Maps | STV","players":null},{"server_id":309,"name":"Uncletopia | Frankfurt | 4 | All Maps","name_short":"frk-4","host":"frk-1.de.uncletopia.com","port":27045,"enabled":true,"region":"eu","cc":"de","latitude":50.110924,"longitude":8.682127,"reserved":0,"last_update":"0001-01-01T00:00:00Z","name_a2s":"Uncletopia | Frankfurt | 4 | All Maps","protocol":17,"map":"koth_viaduct","folder":"tf","game":"Team Fortress","app_id":440,"player_count":0,"max_players":24,"Bots":0,"server_type":"Dedicated","server_os":"Linux","password":true,"vac":true,"version":"7757534","steam_id":85568392924504275,"keywords":["cp","nocrits","nodmgspread","uncletopia"],"game_id":440,"stv_port":27046,"stv_name":"Uncletopia | Frankfurt | 4 | All Maps | STV","players":null},{"server_id":310,"name":"Uncletopia | Frankfurt | 5 | All Maps","name_short":"frk-5","host":"frk-1.de.uncletopia.com","port":27055,"enabled":true,"region":"eu","cc":"de","latitude":50.110924,"longitude":8.682127,"reserved":0,"last_update":"0001-01-01T00:00:00Z","name_a2s":"Uncletopia | Frankfurt | 5 | All Maps","protocol":17,"map":"koth_lakeside_final","folder":"tf","game":"Team Fortress","app_id":440,"player_count":0,"max_players":24,"Bots":0,"server_type":"Dedicated","server_os":"Linux","password":true,"vac":true,"version":"7757534","steam_id":85568392924504277,"keywords":["cp","nocrits","nodmgspread","uncletopia"],"game_id":440,"stv_port":27056,"stv_name":"Uncletopia | Frankfurt | 5 | All Maps | STV","players":null},{"server_id":311,"name":"Uncletopia | Frankfurt | 6 | All Maps","name_short":"frk-6","host":"frk-1.de.uncletopia.com","port":27065,"enabled":true,"region":"eu","cc":"de","latitude":50.110924,"longitude":8.682127,"reserved":0,"last_update":"0001-01-01T00:00:00Z","name_a2s":"Uncletopia | Frankfurt | 6 | All Maps","protocol":17,"map":"pl_frontier_final","folder":"tf","game":"Team Fortress","app_id":440,"player_count":0,"max_players":24,"Bots":0,"server_type":"Dedicated","server_os":"Linux","password":true,"vac":true,"version":"7757534","steam_id":85568392924504278,"keywords":["nocrits","nodmgspread","payload","uncletopia"],"game_id":440,"stv_port":27066,"stv_name":"Uncletopia | Frankfurt | 6 | All Maps | STV","players":null},{"server_id":23,"name":"Uncletopia | Frankfurt | 7 | Stopwatch Beta","name_short":"frk-7","host":"frk-1.de.uncletopia.com","port":27075,"enabled":true,"region":"eu","cc":"de","latitude":50.110924,"longitude":8.682127,"reserved":0,"last_update":"0001-01-01T00:00:00Z","name_a2s":"Uncletopia | Frankfurt | 7 | Stopwatch Beta","protocol":17,"map":"cp_sunshine","folder":"tf","game":"Team Fortress","app_id":440,"player_count":0,"max_players":24,"Bots":0,"server_type":"Dedicated","server_os":"Linux","password":true,"vac":true,"version":"7757534","steam_id":85568392924742827,"keywords":["cp","nocrits","nodmgspread","uncletopia"],"game_id":440,"stv_port":27076,"stv_name":"Uncletopia | Frankfurt | 7 | Stopwatch Beta | STV","players":null},{"server_id":24,"name":"Uncletopia | Frankfurt | 8 | Community","name_short":"frk-8","host":"frk-1.de.uncletopia.com","port":27085,"enabled":true,"region":"eu","cc":"de","latitude":50.110924,"longitude":8.682127,"reserved":0,"last_update":"0001-01-01T00:00:00Z","name_a2s":"Uncletopia | Frankfurt | 8 | Community","protocol":17,"map":"workshop/koth_ashville_final.ugc2130459942","folder":"tf","game":"Team Fortress","app_id":440,"player_count":0,"max_players":24,"Bots":0,"server_type":"Dedicated","server_os":"Linux","password":true,"vac":true,"version":"7757534","steam_id":85568392924742828,"keywords":["cp","nocrits","nodmgspread","uncletopia"],"game_id":440,"stv_port":27086,"stv_name":"Uncletopia | Frankfurt | 8 | Community | STV","players":null},{"server_id":202,"name":"Uncletopia | Hong Kong | 1 | All Maps","name_short":"hgk-1","host":"hgk-1.hk.uncletopia.com","port":27015,"enabled":true,"region":"asia","cc":"hk","latitude":22.302711,"longitude":114.177216,"reserved":0,"last_update":"0001-01-01T00:00:00Z","name_a2s":"Uncletopia | Hong Kong | 1 | All Maps","protocol":17,"map":"cp_dustbowl","folder":"tf","game":"Team Fortress","app_id":440,"player_count":0,"max_players":24,"Bots":0,"server_type":"Dedicated","server_os":"Linux","password":true,"vac":true,"version":"7757534","steam_id":85568392924494504,"keywords":["cp","nocrits","nodmgspread","uncletopia"],"game_id":440,"stv_port":27016,"stv_name":"Uncletopia | Hong Kong | 1 | All Maps | STV","players":null},{"server_id":1,"name":"Uncletopia | Los Angeles | 1 | All Maps","name_short":"lax-1","host":"lax-1.us.uncletopia.com","port":27015,"enabled":true,"region":"us-west","cc":"us","latitude":33.94279,"longitude":-118.41004,"reserved":0,"last_update":"0001-01-01T00:00:00Z","name_a2s":"Uncletopia | Los Angeles | 1 | All Maps","protocol":17,"map":"koth_cascade","folder":"tf","game":"Team Fortress","app_id":440,"player_count":0,"max_players":24,"Bots":0,"server_type":"Dedicated","server_os":"Linux","password":true,"vac":true,"version":"7757534","steam_id":85568392924469991,"keywords":["cp","nocrits","nodmgspread","uncletopia"],"game_id":440,"stv_port":27016,"stv_name":"Uncletopia | Los Angeles | 1 | All Maps | STV","players":null},{"server_id":112,"name":"Uncletopia | Los Angeles | 2 | All Maps","name_short":"lax-2","host":"lax-1.us.uncletopia.com","port":27025,"enabled":true,"region":"us-west","cc":"us","latitude":33.94279,"longitude":-118.41004,"reserved":0,"last_update":"0001-01-01T00:00:00Z","name_a2s":"Uncletopia | Los Angeles | 2 | All Maps","protocol":17,"map":"pl_borneo","folder":"tf","game":"Team Fortress","app_id":440,"player_count":6,"max_players":24,"Bots":0,"server_type":"Dedicated","server_os":"Linux","password":true,"vac":true,"version":"7757534","steam_id":85568392924469992,"keywords":["nocrits","nodmgspread","payload","uncletopia"],"game_id":440,"stv_port":27026,"stv_name":"Uncletopia | Los Angeles | 2 | All Maps | STV","players":[{"user_id":641,"name":"Cynical-Mania","steam_id":76561198871011158,"connected_time":288000000000,"state":"active","ping":59},{"user_id":642,"name":"WATCH EMESIS BLUE RIGHT NOW!!!","steam_id":76561198356426602,"connected_time":172000000000,"state":"active","ping":36},{"user_id":637,"name":"ooga booga","steam_id":76561197985807310,"connected_time":1037000000000,"state":"active","ping":65},{"user_id":638,"name":"BoX_hEaD101","steam_id":76561198200875467,"connected_time":1006000000000,"state":"active","ping":63},{"user_id":643,"name":"FayeTheGay | trade.tf","steam_id":76561199366682904,"connected_time":163000000000,"state":"active","ping":96},{"user_id":640,"name":"t2day","steam_id":76561198232213192,"connected_time":888000000000,"state":"active","ping":80}]},{"server_id":324,"name":"Uncletopia | Los Angeles | 3 | All Maps","name_short":"lax-3","host":"lax-1.us.uncletopia.com","port":27035,"enabled":true,"region":"us-west","cc":"us","latitude":33.94279,"longitude":-118.41004,"reserved":0,"last_update":"0001-01-01T00:00:00Z","name_a2s":"Uncletopia | Los Angeles | 3 | All Maps","protocol":17,"map":"pl_pier","folder":"tf","game":"Team Fortress","app_id":440,"player_count":22,"max_players":24,"Bots":0,"server_type":"Dedicated","server_os":"Linux","password":true,"vac":true,"version":"7757534","steam_id":85568392924510198,"keywords":["nocrits","nodmgspread","payload","uncletopia"],"game_id":440,"stv_port":27036,"stv_name":"Uncletopia | Los Angeles | 3 | All Maps | STV","players":[{"user_id":323,"name":"Deryn Sharp","steam_id":76561198047017346,"connected_time":185000000000,"state":"active","ping":54},{"user_id":299,"name":"MFNNS","steam_id":76561198057868006,"connected_time":2250000000000,"state":"active","ping":103},{"user_id":214,"name":"Cosmic Visor","steam_id":76561197990817172,"connected_time":9033000000000,"state":"active","ping":79},{"user_id":309,"name":"Max","steam_id":76561197961272955,"connected_time":1753000000000,"state":"active","ping":38},{"user_id":248,"name":"ketsu","steam_id":76561197966171554,"connected_time":6486000000000,"state":"active","ping":168},{"user_id":324,"name":"Breadbunbun","steam_id":76561199065668941,"connected_time":172000000000,"state":"active","ping":115},{"user_id":325,"name":"69 odd goat","steam_id":76561198116908911,"connected_time":143000000000,"state":"active","ping":120},{"user_id":326,"name":"Buyer's Market Gardener","steam_id":76561197995200743,"connected_time":138000000000,"state":"active","ping":39},{"user_id":327,"name":"Big Oil","steam_id":76561199238964574,"connected_time":117000000000,"state":"active","ping":66},{"user_id":316,"name":"dabbed out","steam_id":76561198357132470,"connected_time":1056000000000,"state":"active","ping":60},{"user_id":331,"name":"Blackbeard","steam_id":76561198046952265,"connected_time":62000000000,"state":"active","ping":75},{"user_id":305,"name":"Mozz","steam_id":76561198132892873,"connected_time":2077000000000,"state":"active","ping":56},{"user_id":317,"name":"goongremlin","steam_id":76561198278196215,"connected_time":992000000000,"state":"active","ping":61},{"user_id":321,"name":"Walrus","steam_id":76561198001799905,"connected_time":332000000000,"state":"active","ping":46},{"user_id":318,"name":"sweaterfan","steam_id":76561199389567214,"connected_time":980000000000,"state":"active","ping":99},{"user_id":319,"name":"OG Izzy","steam_id":76561198162715742,"connected_time":949000000000,"state":"active","ping":31},{"user_id":307,"name":"Scorpianswag","steam_id":76561198260651036,"connected_time":2049000000000,"state":"active","ping":30},{"user_id":330,"name":":^|","steam_id":76561198119826352,"connected_time":75000000000,"state":"active","ping":75},{"user_id":311,"name":"monkey squirts","steam_id":76561197983101644,"connected_time":1314000000000,"state":"active","ping":43},{"user_id":275,"name":"Arcane Flame","steam_id":76561198360024422,"connected_time":5115000000000,"state":"active","ping":62},{"user_id":322,"name":"FROYO b4nny","steam_id":76561197970669109,"connected_time":318000000000,"state":"active","ping":55},{"user_id":312,"name":"vioxynteris","steam_id":76561198161428666,"connected_time":1314000000000,"state":"active","ping":50}]},{"server_id":25,"name":"Uncletopia | Los Angeles | 4 | Stopwatch Beta","name_short":"lax-4","host":"lax-1.us.uncletopia.com","port":27045,"enabled":true,"region":"us-west","cc":"us","latitude":33.94279,"longitude":-118.41004,"reserved":0,"last_update":"0001-01-01T00:00:00Z","name_a2s":"Uncletopia | Los Angeles | 4 | Stopwatch Beta","protocol":17,"map":"pl_swiftwater_final1","folder":"tf","game":"Team Fortress","app_id":440,"player_count":0,"max_players":24,"Bots":0,"server_type":"Dedicated","server_os":"Linux","password":true,"vac":true,"version":"7757534","steam_id":85568392924510199,"keywords":["nocrits","nodmgspread","payload","uncletopia"],"game_id":440,"stv_port":27046,"stv_name":"Uncletopia | Los Angeles | 4 | Stopwatch Beta | STV","players":null},{"server_id":11,"name":"Uncletopia | London | 1 | All Maps","name_short":"lon-1","host":"lon-1.uk.uncletopia.com","port":27015,"enabled":true,"region":"eu","cc":"gb","latitude":51.509865,"longitude":-0.118092,"reserved":0,"last_update":"0001-01-01T00:00:00Z","name_a2s":"Uncletopia | London | 1 | All Maps","protocol":17,"map":"koth_highpass","folder":"tf","game":"Team Fortress","app_id":440,"player_count":0,"max_players":24,"Bots":0,"server_type":"Dedicated","server_os":"Linux","password":true,"vac":true,"version":"7757534","steam_id":85568392924367362,"keywords":["cp","nocrits","nodmgspread","uncletopia"],"game_id":440,"stv_port":27016,"stv_name":"Uncletopia | London | 1 | All Maps | STV","players":null},{"server_id":114,"name":"Uncletopia | London | 2 | All Maps","name_short":"lon-2","host":"lon-1.uk.uncletopia.com","port":27025,"enabled":true,"region":"eu","cc":"gb","latitude":51.509865,"longitude":-0.118092,"reserved":0,"last_update":"0001-01-01T00:00:00Z","name_a2s":"Uncletopia | London | 2 | All Maps","protocol":17,"map":"koth_viaduct","folder":"tf","game":"Team Fortress","app_id":440,"player_count":1,"max_players":24,"Bots":0,"server_type":"Dedicated","server_os":"Linux","password":true,"vac":true,"version":"7757534","steam_id":85568392924470941,"keywords":["cp","nocrits","nodmgspread","uncletopia"],"game_id":440,"stv_port":27026,"stv_name":"Uncletopia | London | 2 | All Maps | STV","players":[{"user_id":3,"name":"dRumata","steam_id":76561198022150210,"connected_time":363000000000,"state":"active","ping":115}]},{"server_id":320,"name":"Uncletopia | London | 3 | All Maps","name_short":"lon-3","host":"lon-1.uk.uncletopia.com","port":27035,"enabled":true,"region":"eu","cc":"gb","latitude":51.509865,"longitude":-0.118092,"reserved":0,"last_update":"0001-01-01T00:00:00Z","name_a2s":"Uncletopia | London | 3 | All Maps","protocol":17,"map":"cp_dustbowl","folder":"tf","game":"Team Fortress","app_id":440,"player_count":0,"max_players":24,"Bots":0,"server_type":"Dedicated","server_os":"Linux","password":true,"vac":true,"version":"7757534","steam_id":85568392924510192,"keywords":["cp","nocrits","nodmgspread","uncletopia"],"game_id":440,"stv_port":27036,"stv_name":"Uncletopia | London | 3 | All Maps | STV","players":null},{"server_id":321,"name":"Uncletopia | London | 4 | All Maps","name_short":"lon-4","host":"lon-1.uk.uncletopia.com","port":27045,"enabled":true,"region":"eu","cc":"gb","latitude":51.509865,"longitude":-0.118092,"reserved":0,"last_update":"0001-01-01T00:00:00Z","name_a2s":"Uncletopia | London | 4 | All Maps","protocol":17,"map":"cp_dustbowl","folder":"tf","game":"Team Fortress","app_id":440,"player_count":1,"max_players":24,"Bots":0,"server_type":"Dedicated","server_os":"Linux","password":true,"vac":true,"version":"7757534","steam_id":85568392924510193,"keywords":["cp","nocrits","nodmgspread","uncletopia"],"game_id":440,"stv_port":27046,"stv_name":"Uncletopia | London | 4 | All Maps | STV","players":[{"user_id":3,"name":"Salty_shark","steam_id":76561198300798280,"connected_time":474000000000,"state":"active","ping":71}]},{"server_id":21,"name":"Uncletopia | London | 5 | All Maps","name_short":"lon-5","host":"lon-1.uk.uncletopia.com","port":27055,"enabled":true,"region":"eu","cc":"gb","latitude":51.509865,"longitude":-0.118092,"reserved":0,"last_update":"0001-01-01T00:00:00Z","name_a2s":"Uncletopia | London | 5 | All Maps","protocol":17,"map":"cp_altitude","folder":"tf","game":"Team Fortress","app_id":440,"player_count":0,"max_players":24,"Bots":0,"server_type":"Dedicated","server_os":"Linux","password":true,"vac":true,"version":"7757534","steam_id":85568392924742829,"keywords":["cp","nocrits","nodmgspread","uncletopia"],"game_id":440,"stv_port":27056,"stv_name":"Uncletopia | London | 5 | All Maps | STV","players":null},{"server_id":22,"name":"Uncletopia | London | 6 | All Maps","name_short":"lon-6","host":"lon-1.uk.uncletopia.com","port":27065,"enabled":true,"region":"eu","cc":"gb","latitude":51.509865,"longitude":-0.118092,"reserved":0,"last_update":"0001-01-01T00:00:00Z","name_a2s":"Uncletopia | London | 6 | All Maps","protocol":17,"map":"cp_mountainlab","folder":"tf","game":"Team Fortress","app_id":440,"player_count":0,"max_players":24,"Bots":0,"server_type":"Dedicated","server_os":"Linux","password":true,"vac":true,"version":"7757534","steam_id":85568392924742830,"keywords":["cp","nocrits","nodmgspread","uncletopia"],"game_id":440,"stv_port":27066,"stv_name":"Uncletopia | London | 6 | All Maps | STV","players":null},{"server_id":40,"name":"Uncletopia | London | 7 | No Payload","name_short":"lon-7","host":"lon-1.uk.uncletopia.com","port":27075,"enabled":true,"region":"eu","cc":"gb","latitude":51.509865,"longitude":-0.118092,"reserved":0,"last_update":"0001-01-01T00:00:00Z","name_a2s":"Uncletopia | London | 7 | No Payload","protocol":17,"map":"pl_badwater","folder":"tf","game":"Team Fortress","app_id":440,"player_count":0,"max_players":24,"Bots":0,"server_type":"Dedicated","server_os":"Linux","password":true,"vac":true,"version":"7757534","steam_id":85568392924964314,"keywords":["nocrits","nodmgspread","payload","uncletopia"],"game_id":440,"stv_port":27076,"stv_name":"Uncletopia | London | 7 | No Payload | STV","players":null},{"server_id":41,"name":"Uncletopia | London | 8 | Community","name_short":"lon-8","host":"lon-1.uk.uncletopia.com","port":27085,"enabled":true,"region":"eu","cc":"gb","latitude":51.509865,"longitude":-0.118092,"reserved":0,"last_update":"0001-01-01T00:00:00Z","name_a2s":"Uncletopia | London | 8 | Community","protocol":17,"map":"pl_barnblitz","folder":"tf","game":"Team Fortress","app_id":440,"player_count":0,"max_players":24,"Bots":0,"server_type":"Dedicated","server_os":"Linux","password":true,"vac":true,"version":"7757534","steam_id":85568392924964315,"keywords":["nocrits","nodmgspread","payload","uncletopia"],"game_id":440,"stv_port":27086,"stv_name":"Uncletopia | London | 8 | Community | STV","players":null},{"server_id":300,"name":"Uncletopia | Montr√©al | 1 | All Maps","name_short":"mtl-1","host":"mtl-1.ca.uncletopia.com","port":27015,"enabled":true,"region":"us-east","cc":"ca","latitude":45.50889,"longitude":-73.56167,"reserved":0,"last_update":"0001-01-01T00:00:00Z","name_a2s":"Uncletopia | Montr√©al | 1 | All Maps","protocol":17,"map":"cp_snakewater_final1","folder":"tf","game":"Team Fortress","app_id":440,"player_count":0,"max_players":24,"Bots":0,"server_type":"Dedicated","server_os":"Linux","password":true,"vac":true,"version":"7757534","steam_id":85568392924500087,"keywords":["cp","nocrits","nodmgspread","uncletopia"],"game_id":440,"stv_port":27016,"stv_name":"Uncletopia | Montr√©al | 1 | All Maps | STV","players":null},{"server_id":301,"name":"Uncletopia | Montr√©al | 2 | All Maps","name_short":"mtl-2","host":"mtl-1.ca.uncletopia.com","port":27025,"enabled":true,"region":"us-east","cc":"ca","latitude":45.50889,"longitude":-73.56167,"reserved":0,"last_update":"0001-01-01T00:00:00Z","name_a2s":"Uncletopia | Montr√©al | 2 | All Maps","protocol":17,"map":"cp_process_final","folder":"tf","game":"Team Fortress","app_id":440,"player_count":0,"max_players":24,"Bots":0,"server_type":"Dedicated","server_os":"Linux","password":true,"vac":true,"version":"7757534","steam_id":85568392924500088,"keywords":["cp","nocrits","nodmgspread","uncletopia"],"game_id":440,"stv_port":27026,"stv_name":"Uncletopia | Montr√©al | 2 | All Maps | STV","players":null},{"server_id":302,"name":"Uncletopia | Montr√©al | 3 | All Maps","name_short":"mtl-3","host":"mtl-1.ca.uncletopia.com","port":27035,"enabled":true,"region":"us-east","cc":"ca","latitude":45.50889,"longitude":-73.56167,"reserved":0,"last_update":"0001-01-01T00:00:00Z","name_a2s":"Uncletopia | Montr√©al | 3 | All Maps","protocol":17,"map":"koth_cascade","folder":"tf","game":"Team Fortress","app_id":440,"player_count":0,"max_players":24,"Bots":0,"server_type":"Dedicated","server_os":"Linux","password":true,"vac":true,"version":"7757534","steam_id":85568392924500089,"keywords":["cp","nocrits","nodmgspread","uncletopia"],"game_id":440,"stv_port":27036,"stv_name":"Uncletopia | Montr√©al | 3 | All Maps | STV","players":null},{"server_id":303,"name":"Uncletopia | Montr√©al | 4 | No Payload","name_short":"mtl-4","host":"mtl-1.ca.uncletopia.com","port":27045,"enabled":true,"region":"us-east","cc":"ca","latitude":45.50889,"longitude":-73.56167,"reserved":0,"last_update":"0001-01-01T00:00:00Z","name_a2s":"Uncletopia | Montr√©al | 4 | No Payload","protocol":17,"map":"koth_harvest_final","folder":"tf","game":"Team Fortress","app_id":440,"player_count":0,"max_players":24,"Bots":0,"server_type":"Dedicated","server_os":"Linux","password":true,"vac":true,"version":"7757534","steam_id":85568392924500090,"keywords":["cp","nocrits","nodmgspread","uncletopia"],"game_id":440,"stv_port":27046,"stv_name":"Uncletopia | Montr√©al | 4 | No Payload | STV","players":null},{"server_id":13,"name":"Uncletopia | New York City | 1 | All Maps","name_short":"nyc-1","host":"nyc-1.us.uncletopia.com","port":27015,"enabled":true,"region":"us-east","cc":"us","latitude":40.73061,"longitude":-73.93524,"reserved":0,"last_update":"0001-01-01T00:00:00Z","name_a2s":"Uncletopia | New York City | 1 | All Maps","protocol":17,"map":"pl_borneo","folder":"tf","game":"Team Fortress","app_id":440,"player_count":3,"max_players":24,"Bots":0,"server_type":"Dedicated","server_os":"Linux","password":true,"vac":true,"version":"7757534","steam_id":85568392924469993,"keywords":["nocrits","nodmgspread","payload","uncletopia"],"game_id":440,"stv_port":27016,"stv_name":"Uncletopia | New York City | 1 | All Maps | STV","players":[{"user_id":769,"name":"queen jagged ‚ô•","steam_id":76561197972514037,"connected_time":2049000000000,"state":"active","ping":70},{"user_id":670,"name":"Ludcmorais","steam_id":76561198359217809,"connected_time":10007000000000,"state":"active","ping":172},{"user_id":772,"name":"Ted Cruise","steam_id":76561198055345723,"connected_time":1915000000000,"state":"active","ping":58}]},{"server_id":14,"name":"Uncletopia | New York City | 2 | All Maps","name_short":"nyc-2","host":"nyc-1.us.uncletopia.com","port":27025,"enabled":true,"region":"us-east","cc":"us","latitude":40.73061,"longitude":-73.93524,"reserved":0,"last_update":"0001-01-01T00:00:00Z","name_a2s":"Uncletopia | New York City | 2 | All Maps","protocol":17,"map":"koth_lakeside_final","folder":"tf","game":"Team Fortress","app_id":440,"player_count":0,"max_players":24,"Bots":0,"server_type":"Dedicated","server_os":"Linux","password":true,"vac":true,"version":"7757534","steam_id":85568392924469994,"keywords":["cp","nocrits","nodmgspread","uncletopia"],"game_id":440,"stv_port":27026,"stv_name":"Uncletopia | New York City | 2 | All Maps | STV","players":null},{"server_id":15,"name":"Uncletopia | New York City | 3 | Stopwatch Beta","name_short":"nyc-3","host":"nyc-1.us.uncletopia.com","port":27035,"enabled":true,"region":"us-east","cc":"us","latitude":40.73061,"longitude":-73.93524,"reserved":0,"last_update":"0001-01-01T00:00:00Z","name_a2s":"Uncletopia | New York City | 3 | Stopwatch Beta","protocol":17,"map":"workshop/koth_ashville_final.ugc2130459942","folder":"tf","game":"Team Fortress","app_id":440,"player_count":0,"max_players":24,"Bots":0,"server_type":"Dedicated","server_os":"Linux","password":true,"vac":true,"version":"7757534","steam_id":85568392924742820,"keywords":["cp","nocrits","nodmgspread","uncletopia"],"game_id":440,"stv_port":27036,"stv_name":"Uncletopia | New York City | 3 | Stopwatch Beta | STV","players":null},{"server_id":16,"name":"Uncletopia | New York City | 4 | Community","name_short":"nyc-4","host":"nyc-1.us.uncletopia.com","port":27045,"enabled":true,"region":"us-east","cc":"us","latitude":40.73061,"longitude":-73.93524,"reserved":0,"last_update":"0001-01-01T00:00:00Z","name_a2s":"Uncletopia | New York City | 4 | Community","protocol":17,"map":"workshop/cp_sulfur_rc2.ugc619869471","folder":"tf","game":"Team Fortress","app_id":440,"player_count":0,"max_players":24,"Bots":0,"server_type":"Dedicated","server_os":"Linux","password":true,"vac":true,"version":"7757534","steam_id":85568392924742821,"keywords":["cp","nocrits","nodmgspread","uncletopia"],"game_id":440,"stv_port":27046,"stv_name":"Uncletopia | New York City | 4 | Community | STV","players":null},{"server_id":142,"name":"Uncletopia | S√£o Paulo | 1 | All Maps","name_short":"sao-1","host":"sao-1.br.uncletopia.com","port":27015,"enabled":true,"region":"sa","cc":"br","latitude":-23.533773,"longitude":-46.62529,"reserved":0,"last_update":"0001-01-01T00:00:00Z","name_a2s":"Uncletopia | S√£o Paulo | 1 | All Maps","protocol":17,"map":"cp_process_final","folder":"tf","game":"Team Fortress","app_id":440,"player_count":0,"max_players":24,"Bots":0,"server_type":"Dedicated","server_os":"Linux","password":true,"vac":true,"version":"7757534","steam_id":85568392924469996,"keywords":["cp","nocrits","nodmgspread","uncletopia"],"game_id":440,"stv_port":27016,"stv_name":"Uncletopia | S√£o Paulo | 1 | All Maps | STV","players":null},{"server_id":143,"name":"Uncletopia | S√£o Paulo | 2 | All Maps","name_short":"sao-2","host":"sao-2.br.uncletopia.com","port":27015,"enabled":true,"region":"sa","cc":"br","latitude":-23.533773,"longitude":-46.62529,"reserved":0,"last_update":"0001-01-01T00:00:00Z","name_a2s":"Uncletopia | S√£o Paulo | 2 | All Maps","protocol":17,"map":"koth_lakeside_final","folder":"tf","game":"Team Fortress","app_id":440,"player_count":0,"max_players":24,"Bots":0,"server_type":"Dedicated","server_os":"Linux","password":true,"vac":true,"version":"7757534","steam_id":85568392924485349,"keywords":["cp","nocrits","nodmgspread","uncletopia"],"game_id":440,"stv_port":27016,"stv_name":"Uncletopia | S√£o Paulo | 2 | All Maps | STV","players":null},{"server_id":7,"name":"Uncletopia | Seattle | 1 | All Maps","name_short":"sea-1","host":"sea-1.us.uncletopia.com","port":27015,"enabled":true,"region":"us-west","cc":"us","latitude":47.608013,"longitude":-122.33517,"reserved":0,"last_update":"0001-01-01T00:00:00Z","name_a2s":"Uncletopia | Seattle | 1 | All Maps","protocol":17,"map":"pl_snowycoast","folder":"tf","game":"Team Fortress","app_id":440,"player_count":17,"max_players":24,"Bots":0,"server_type":"Dedicated","server_os":"Linux","password":true,"vac":true,"version":"7757534","steam_id":85568392924469997,"keywords":["nocrits","nodmgspread","payload","uncletopia"],"game_id":440,"stv_port":27016,"stv_name":"Uncletopia | Seattle | 1 | All Maps | STV","players":[{"user_id":776,"name":"epic5","steam_id":76561198853066534,"connected_time":348000000000,"state":"active","ping":100},{"user_id":777,"name":"truck sex 1989","steam_id":76561198062712676,"connected_time":276000000000,"state":"active","ping":53},{"user_id":748,"name":"Austin the Forecaster","steam_id":76561198141635855,"connected_time":4334000000000,"state":"active","ping":88},{"user_id":765,"name":"Artyom","steam_id":76561198152149679,"connected_time":1753000000000,"state":"active","ping":45},{"user_id":778,"name":"pigswill","steam_id":76561197999081865,"connected_time":226000000000,"state":"active","ping":120},{"user_id":779,"name":"SvicidalBug","steam_id":76561198221390504,"connected_time":212000000000,"state":"active","ping":62},{"user_id":780,"name":"RapidXenophage","steam_id":76561198175149973,"connected_time":207000000000,"state":"active","ping":53},{"user_id":782,"name":"s4lmon","steam_id":76561198055882807,"connected_time":156000000000,"state":"active","ping":49},{"user_id":783,"name":"Aribari (She/Her)","steam_id":76561198117327938,"connected_time":54000000000,"state":"active","ping":122},{"user_id":784,"name":"squid","steam_id":76561198070236972,"connected_time":50000000000,"state":"active","ping":88},{"user_id":770,"name":"Username","steam_id":76561198855586261,"connected_time":1250000000000,"state":"active","ping":63},{"user_id":771,"name":"El Duderino","steam_id":76561199427900685,"connected_time":1114000000000,"state":"active","ping":90},{"user_id":775,"name":"Royal_Wanderer","steam_id":76561199214092306,"connected_time":462000000000,"state":"active","ping":68},{"user_id":682,"name":"mysterious stranger","steam_id":76561198308449320,"connected_time":10467000000000,"state":"active","ping":92},{"user_id":769,"name":"Gay Bowser","steam_id":76561198880420876,"connected_time":1347000000000,"state":"active","ping":75},{"user_id":754,"name":"doozy","steam_id":76561198033106776,"connected_time":3457000000000,"state":"active","ping":88},{"user_id":763,"name":"‡∏∏","steam_id":76561198084134025,"connected_time":1835000000000,"state":"active","ping":74}]},{"server_id":119,"name":"Uncletopia | Seattle | 2 | All Maps","name_short":"sea-2","host":"sea-1.us.uncletopia.com","port":27025,"enabled":true,"region":"us-west","cc":"us","latitude":47.608013,"longitude":-122.33517,"reserved":0,"last_update":"0001-01-01T00:00:00Z","name_a2s":"Uncletopia | Seattle | 2 | All Maps","protocol":17,"map":"pl_upward","folder":"tf","game":"Team Fortress","app_id":440,"player_count":24,"max_players":24,"Bots":0,"server_type":"Dedicated","server_os":"Linux","password":true,"vac":true,"version":"7757534","steam_id":85568392924469998,"keywords":["nocrits","nodmgspread","payload","uncletopia"],"game_id":440,"stv_port":27026,"stv_name":"Uncletopia | Seattle | 2 | All Maps | STV","players":[{"user_id":740,"name":"glue eater","steam_id":76561198210322871,"connected_time":288000000000,"state":"active","ping":66},{"user_id":701,"name":"Clagger","steam_id":76561198066701092,"connected_time":4393000000000,"state":"active","ping":42},{"user_id":717,"name":"goop on ya grinch","steam_id":76561198025020072,"connected_time":3370000000000,"state":"active","ping":60},{"user_id":725,"name":"Spray and Pray","steam_id":76561199062326425,"connected_time":2161000000000,"state":"active","ping":52},{"user_id":734,"name":"Peef","steam_id":76561198035657911,"connected_time":1566000000000,"state":"active","ping":54},{"user_id":727,"name":"oil","steam_id":76561198099980149,"connected_time":2104000000000,"state":"active","ping":83},{"user_id":685,"name":"exephur","steam_id":76561198135763234,"connected_time":6608000000000,"state":"active","ping":65},{"user_id":737,"name":"gorlab","steam_id":76561198025089694,"connected_time":365000000000,"state":"active","ping":60},{"user_id":713,"name":"Degenerieren","steam_id":76561198353547984,"connected_time":3665000000000,"state":"active","ping":60},{"user_id":741,"name":"oximoe","steam_id":76561198835590034,"connected_time":42000000000,"state":"active","ping":83},{"user_id":728,"name":"ITSPICE","steam_id":76561198173274042,"connected_time":2050000000000,"state":"active","ping":65},{"user_id":680,"name":"delight","steam_id":76561197980280272,"connected_time":7198000000000,"state":"active","ping":46},{"user_id":715,"name":"mega","steam_id":76561198089520959,"connected_time":3442000000000,"state":"active","ping":94},{"user_id":729,"name":"0cho","steam_id":76561198014092640,"connected_time":2044000000000,"state":"active","ping":62},{"user_id":735,"name":"BuncusBeffer","steam_id":76561198285936616,"connected_time":1127000000000,"state":"active","ping":83},{"user_id":739,"name":"Tazzz","steam_id":76561198280897107,"connected_time":348000000000,"state":"active","ping":45},{"user_id":721,"name":"ùì°ùîÇùì™ùì∑","steam_id":76561198067641129,"connected_time":3049000000000,"state":"active","ping":57},{"user_id":738,"name":"Grill Skills","steam_id":76561198053575147,"connected_time":364000000000,"state":"active","ping":63},{"user_id":705,"name":"Mr. Pine","steam_id":76561198112203861,"connected_time":4331000000000,"state":"active","ping":67},{"user_id":706,"name":"HammerHead","steam_id":76561197975668646,"connected_time":4326000000000,"state":"active","ping":92},{"user_id":720,"name":"Aircraft Carrier Princess","steam_id":76561198348354629,"connected_time":3268000000000,"state":"active","ping":80},{"user_id":710,"name":"squash","steam_id":76561198150281353,"connected_time":4233000000000,"state":"active","ping":56},{"user_id":723,"name":"oof","steam_id":76561198068031860,"connected_time":2282000000000,"state":"active","ping":79},{"user_id":601,"name":"jorts","steam_id":76561199041179985,"connected_time":16198000000000,"state":"active","ping":71}]},{"server_id":406,"name":"Uncletopia | Seattle | 3 | Stopwatch Beta","name_short":"sea-3","host":"sea-1.us.uncletopia.com","port":27035,"enabled":true,"region":"us-west","cc":"us","latitude":47.608013,"longitude":-122.33517,"reserved":0,"last_update":"0001-01-01T00:00:00Z","name_a2s":"Uncletopia | Seattle | 3 | Stopwatch Beta","protocol":17,"map":"koth_lakeside_final","folder":"tf","game":"Team Fortress","app_id":440,"player_count":0,"max_players":24,"Bots":0,"server_type":"Dedicated","server_os":"Linux","password":true,"vac":true,"version":"7757534","steam_id":85568392924515217,"keywords":["cp","nocrits","nodmgspread","uncletopia"],"game_id":440,"stv_port":27036,"stv_name":"Uncletopia | Seattle | 3 | Stopwatch Beta | STV","players":null},{"server_id":17,"name":"Uncletopia | San Francisco | 1 | All Maps","name_short":"sfo-1","host":"sfo-1.us.uncletopia.com","port":27015,"enabled":true,"region":"us-west","cc":"us","latitude":37.77397,"longitude":-122.4313,"reserved":0,"last_update":"0001-01-01T00:00:00Z","name_a2s":"Uncletopia | San Francisco | 1 | All Maps","protocol":17,"map":"cp_sunshine","folder":"tf","game":"Team Fortress","app_id":440,"player_count":24,"max_players":24,"Bots":0,"server_type":"Dedicated","server_os":"Linux","password":true,"vac":true,"version":"7757534","steam_id":85568392924469999,"keywords":["cp","nocrits","nodmgspread","uncletopia"],"game_id":440,"stv_port":27016,"stv_name":"Uncletopia | San Francisco | 1 | All Maps | STV","players":[{"user_id":610,"name":"Kurtle","steam_id":76561199099898602,"connected_time":977000000000,"state":"active","ping":75},{"user_id":627,"name":"QUIRELL","steam_id":76561199070823831,"connected_time":185000000000,"state":"active","ping":176},{"user_id":613,"name":"Duty Enjoyer","steam_id":76561198831760421,"connected_time":905000000000,"state":"active","ping":133},{"user_id":535,"name":"Sidekick","steam_id":76561198392740835,"connected_time":7470000000000,"state":"active","ping":67},{"user_id":607,"name":"avant","steam_id":76561198344541787,"connected_time":1140000000000,"state":"active","ping":60},{"user_id":614,"name":"beet","steam_id":76561198285067367,"connected_time":901000000000,"state":"active","ping":77},{"user_id":598,"name":"TheRealChizz","steam_id":76561198016055769,"connected_time":1758000000000,"state":"active","ping":56},{"user_id":568,"name":"Livin' Like Larry","steam_id":76561198313360974,"connected_time":3807000000000,"state":"active","ping":33},{"user_id":599,"name":"Elmer J.","steam_id":76561199072479189,"connected_time":1749000000000,"state":"active","ping":96},{"user_id":554,"name":"Boomba","steam_id":76561198071101891,"connected_time":5524000000000,"state":"active","ping":101},{"user_id":623,"name":"Derpy Hooves???","steam_id":76561198101505695,"connected_time":289000000000,"state":"active","ping":55},{"user_id":580,"name":"boulder","steam_id":76561198347225801,"connected_time":2959000000000,"state":"active","ping":67},{"user_id":628,"name":"K.A.R.M.A.","steam_id":76561198240750142,"connected_time":95000000000,"state":"active","ping":52},{"user_id":572,"name":"Jazz Hands","steam_id":76561199225708271,"connected_time":3589000000000,"state":"active","ping":88},{"user_id":594,"name":"tenp","steam_id":76561198066389415,"connected_time":1960000000000,"state":"active","ping":59},{"user_id":625,"name":"Cinna Mon","steam_id":76561198005840633,"connected_time":269000000000,"state":"active","ping":72},{"user_id":624,"name":"Zesty Italian","steam_id":76561198117835053,"connected_time":284000000000,"state":"active","ping":90},{"user_id":536,"name":"Listerine","steam_id":76561199016293796,"connected_time":7272000000000,"state":"active","ping":63},{"user_id":606,"name":"mewtek","steam_id":76561198138599995,"connected_time":1245000000000,"state":"active","ping":64},{"user_id":552,"name":"square-","steam_id":76561198058143770,"connected_time":5680000000000,"state":"active","ping":89},{"user_id":601,"name":"TeCon","steam_id":76561198049127236,"connected_time":1718000000000,"state":"active","ping":67},{"user_id":622,"name":"ain","steam_id":76561197982521248,"connected_time":511000000000,"state":"active","ping":161},{"user_id":620,"name":"grugposter","steam_id":76561198035805348,"connected_time":639000000000,"state":"active","ping":58},{"user_id":626,"name":"Rakk","steam_id":76561198855176174,"connected_time":256000000000,"state":"active","ping":62}]},{"server_id":18,"name":"Uncletopia | San Francisco | 2 | All Maps","name_short":"sfo-2","host":"sfo-1.us.uncletopia.com","port":27025,"enabled":true,"region":"us-west","cc":"us","latitude":37.77397,"longitude":-122.4313,"reserved":0,"last_update":"0001-01-01T00:00:00Z","name_a2s":"Uncletopia | San Francisco | 2 | All Maps","protocol":17,"map":"pl_borneo","folder":"tf","game":"Team Fortress","app_id":440,"player_count":3,"max_players":24,"Bots":0,"server_type":"Dedicated","server_os":"Linux","password":true,"vac":true,"version":"7757534","steam_id":85568392924470000,"keywords":["nocrits","nodmgspread","payload","uncletopia"],"game_id":440,"stv_port":27026,"stv_name":"Uncletopia | San Francisco | 2 | All Maps | STV","players":[{"user_id":358,"name":"Sabaman55","steam_id":76561198212267979,"connected_time":1593000000000,"state":"active","ping":94},{"user_id":346,"name":"mrthugpug1732","steam_id":76561198881200768,"connected_time":2534000000000,"state":"active","ping":79},{"user_id":353,"name":"deokemi","steam_id":76561199480055194,"connected_time":2088000000000,"state":"active","ping":54}]},{"server_id":19,"name":"Uncletopia | San Francisco | 3 | Stopwatch Beta","name_short":"sfo-3","host":"sfo-1.us.uncletopia.com","port":27035,"enabled":true,"region":"us-west","cc":"us","latitude":37.77397,"longitude":-122.4313,"reserved":0,"last_update":"0001-01-01T00:00:00Z","name_a2s":"Uncletopia | San Francisco | 3 | Stopwatch Beta","protocol":17,"map":"workshop/pl_vigil_rc9.ugc1266210012","folder":"tf","game":"Team Fortress","app_id":440,"player_count":0,"max_players":24,"Bots":0,"server_type":"Dedicated","server_os":"Linux","password":true,"vac":true,"version":"7757534","steam_id":85568392924742824,"keywords":["nocrits","nodmgspread","payload","uncletopia"],"game_id":440,"stv_port":27036,"stv_name":"Uncletopia | San Francisco | 3 | Stopwatch Beta | STV","players":null},{"server_id":20,"name":"Uncletopia | San Francisco | 4 | Community","name_short":"sfo-4","host":"sfo-1.us.uncletopia.com","port":27045,"enabled":true,"region":"us-west","cc":"us","latitude":37.77397,"longitude":-122.4313,"reserved":0,"last_update":"0001-01-01T00:00:00Z","name_a2s":"Uncletopia | San Francisco | 4 | Community","protocol":17,"map":"workshop/koth_slaughter_rc1.ugc1712845210","folder":"tf","game":"Team Fortress","app_id":440,"player_count":0,"max_players":24,"Bots":0,"server_type":"Dedicated","server_os":"Linux","password":true,"vac":true,"version":"7757534","steam_id":85568392924742826,"keywords":["cp","nocrits","nodmgspread","uncletopia"],"game_id":440,"stv_port":27046,"stv_name":"Uncletopia | San Francisco | 4 | Community | STV","players":null},{"server_id":141,"name":"Uncletopia | Sydney | 1 | All Maps","name_short":"syd-1","host":"syd-1.au.uncletopia.com","port":27015,"enabled":true,"region":"au","cc":"au","latitude":-33.865143,"longitude":151.2099,"reserved":0,"last_update":"0001-01-01T00:00:00Z","name_a2s":"Uncletopia | Sydney | 1 | All Maps","protocol":17,"map":"koth_lakeside_final","folder":"tf","game":"Team Fortress","app_id":440,"player_count":24,"max_players":24,"Bots":0,"server_type":"Dedicated","server_os":"Linux","password":true,"vac":true,"version":"7757534","steam_id":85568392924470001,"keywords":["cp","nocrits","nodmgspread","uncletopia"],"game_id":440,"stv_port":27016,"stv_name":"Uncletopia | Sydney | 1 | All Maps | STV","players":[{"user_id":214,"name":"Turbo_dip","steam_id":76561198446508846,"connected_time":2051000000000,"state":"active","ping":68},{"user_id":220,"name":"seiran","steam_id":76561198880907232,"connected_time":1230000000000,"state":"active","ping":99},{"user_id":196,"name":"TwilightJericho","steam_id":76561198044875117,"connected_time":4061000000000,"state":"active","ping":69},{"user_id":238,"name":"4-Star Yelp Review","steam_id":76561197995258180,"connected_time":125000000000,"state":"active","ping":42},{"user_id":192,"name":"Sentry Gun (EpicGuy4227)","steam_id":76561198094132328,"connected_time":4233000000000,"state":"active","ping":77},{"user_id":235,"name":"Rashid Of The Dank Memes","steam_id":76561198281398078,"connected_time":301000000000,"state":"active","ping":60},{"user_id":242,"name":"mealuns","steam_id":76561198059318461,"connected_time":68000000000,"state":"active","ping":90},{"user_id":229,"name":"Sir Reality","steam_id":76561198045552695,"connected_time":936000000000,"state":"active","ping":90},{"user_id":228,"name":"weezer","steam_id":76561199439508788,"connected_time":967000000000,"state":"active","ping":63},{"user_id":233,"name":"the frail","steam_id":76561198025099660,"connected_time":432000000000,"state":"active","ping":30},{"user_id":227,"name":"saudi ambassador messi","steam_id":76561198031293430,"connected_time":994000000000,"state":"active","ping":87},{"user_id":239,"name":"Team Fartress Poo","steam_id":76561198139598106,"connected_time":117000000000,"state":"active","ping":58},{"user_id":240,"name":"itsjustmarvin77","steam_id":76561199375656301,"connected_time":111000000000,"state":"active","ping":74},{"user_id":226,"name":"Livid","steam_id":76561198060024585,"connected_time":996000000000,"state":"active","ping":42},{"user_id":209,"name":"Tiggerex","steam_id":76561198049006869,"connected_time":2288000000000,"state":"active","ping":104},{"user_id":232,"name":"Zoey","steam_id":76561198126153554,"connected_time":629000000000,"state":"active","ping":75},{"user_id":206,"name":"Krispy Kreme","steam_id":76561197997362731,"connected_time":2299000000000,"state":"active","ping":44},{"user_id":222,"name":"the normoaner","steam_id":76561198082423230,"connected_time":1107000000000,"state":"active","ping":75},{"user_id":241,"name":"LET THE INTRUSIVE THOUGHTS WIN","steam_id":76561199174449723,"connected_time":109000000000,"state":"active","ping":145},{"user_id":243,"name":"Poop2Hard","steam_id":76561198099383586,"connected_time":30000000000,"state":"spawning","ping":54},{"user_id":200,"name":"toblue","steam_id":76561198189137465,"connected_time":2720000000000,"state":"active","ping":86},{"user_id":234,"name":"Inplayed","steam_id":76561198450477626,"connected_time":404000000000,"state":"active","ping":47},{"user_id":207,"name":"helryeginn","steam_id":76561198202750573,"connected_time":2299000000000,"state":"active","ping":45},{"user_id":230,"name":"honkybus thruttlebop","steam_id":76561198063481761,"connected_time":753000000000,"state":"active","ping":44}]},{"server_id":123,"name":"Uncletopia | Sydney | 2 | All Maps","name_short":"syd-2","host":"syd-1.au.uncletopia.com","port":27025,"enabled":true,"region":"au","cc":"au","latitude":-33.865143,"longitude":151.2099,"reserved":0,"last_update":"0001-01-01T00:00:00Z","name_a2s":"Uncletopia | Sydney | 2 | All Maps","protocol":17,"map":"pl_snowycoast","folder":"tf","game":"Team Fortress","app_id":440,"player_count":0,"max_players":24,"Bots":0,"server_type":"Dedicated","server_os":"Linux","password":true,"vac":true,"version":"7757534","steam_id":85568392924470002,"keywords":["nocrits","nodmgspread","payload","uncletopia"],"game_id":440,"stv_port":27026,"stv_name":"Uncletopia | Sydney | 2 | All Maps | STV","players":null},{"server_id":395,"name":"Uncletopia | Sydney | 3 | All Maps","name_short":"syd-3","host":"syd-1.au.uncletopia.com","port":27035,"enabled":true,"region":"au","cc":"au","latitude":-33.865143,"longitude":151.2099,"reserved":0,"last_update":"0001-01-01T00:00:00Z","name_a2s":"Uncletopia | Sydney | 3 | All Maps","protocol":17,"map":"cp_sunshine","folder":"tf","game":"Team Fortress","app_id":440,"player_count":0,"max_players":24,"Bots":0,"server_type":"Dedicated","server_os":"Linux","password":true,"vac":true,"version":"7757534","steam_id":85568392925194467,"keywords":["cp","nocrits","nodmgspread","uncletopia"],"game_id":440,"stv_port":27036,"stv_name":"Uncletopia | Sydney | 3 | All Maps | STV","players":null},{"server_id":396,"name":"Uncletopia | Sydney | 4 | All Maps","name_short":"syd-4","host":"syd-1.au.uncletopia.com","port":27045,"enabled":true,"region":"au","cc":"au","latitude":-33.865143,"longitude":151.2099,"reserved":0,"last_update":"0001-01-01T00:00:00Z","name_a2s":"Uncletopia | Sydney | 4 | All Maps","protocol":17,"map":"koth_highpass","folder":"tf","game":"Team Fortress","app_id":440,"player_count":0,"max_players":24,"Bots":0,"server_type":"Dedicated","server_os":"Linux","password":true,"vac":true,"version":"7757534","steam_id":85568392925397958,"keywords":["cp","nocrits","nodmgspread","uncletopia"],"game_id":440,"stv_port":27046,"stv_name":"Uncletopia | Sydney | 4 | All Maps | STV","players":null},{"server_id":58,"name":"Uncletopia | Sydney | 5 | Stopwatch Beta","name_short":"syd-5","host":"syd-1.au.uncletopia.com","port":27055,"enabled":true,"region":"au","cc":"au","latitude":-33.865143,"longitude":151.2099,"reserved":0,"last_update":"0001-01-01T00:00:00Z","name_a2s":"Uncletopia | Sydney | 5 | Stopwatch Beta","protocol":17,"map":"workshop/pl_vigil_rc9.ugc1266210012","folder":"tf","game":"Team Fortress","app_id":440,"player_count":0,"max_players":24,"Bots":0,"server_type":"Dedicated","server_os":"Linux","password":true,"vac":true,"version":"7757534","steam_id":85568392925397959,"keywords":["nocrits","nodmgspread","payload","uncletopia"],"game_id":440,"stv_port":27056,"stv_name":"Uncletopia | Sydney | 5 | Stopwatch Beta | STV","players":null},{"server_id":59,"name":"Uncletopia | Sydney | 6 | Community","name_short":"syd-6","host":"syd-1.au.uncletopia.com","port":27065,"enabled":true,"region":"au","cc":"au","latitude":-33.865143,"longitude":151.2099,"reserved":0,"last_update":"0001-01-01T00:00:00Z","name_a2s":"Uncletopia | Sydney | 6 | Community","protocol":17,"map":"cp_snakewater_final1","folder":"tf","game":"Team Fortress","app_id":440,"player_count":0,"max_players":24,"Bots":0,"server_type":"Dedicated","server_os":"Linux","password":true,"vac":true,"version":"7757534","steam_id":85568392925397960,"keywords":["cp","nocrits","nodmgspread","uncletopia"],"game_id":440,"stv_port":27066,"stv_name":"Uncletopia | Sydney | 6 | Community | STV","players":null},{"server_id":49,"name":"Uncletopia | Warsaw | 1 | All Maps","name_short":"waw-1","host":"waw-1.pl.uncletopia.com","port":27015,"enabled":true,"region":"eu","cc":"pl","latitude":52.2297,"longitude":21.017532,"reserved":0,"last_update":"0001-01-01T00:00:00Z","name_a2s":"","protocol":0,"map":"","folder":"","game":"","app_id":0,"player_count":0,"max_players":0,"Bots":0,"server_type":"","server_os":"","password":false,"vac":false,"version":"","steam_id":0,"keywords":null,"game_id":0,"stv_port":0,"stv_name":"","players":null},{"server_id":50,"name":"Uncletopia | Warsaw | 2 | All Maps","name_short":"waw-2","host":"waw-1.pl.uncletopia.com","port":27025,"enabled":true,"region":"eu","cc":"pl","latitude":52.2297,"longitude":21.017532,"reserved":0,"last_update":"0001-01-01T00:00:00Z","name_a2s":"Uncletopia | Warsaw | 2 | All Maps","protocol":17,"map":"koth_harvest_final","folder":"tf","game":"Team Fortress","app_id":440,"player_count":19,"max_players":24,"Bots":0,"server_type":"Dedicated","server_os":"Linux","password":true,"vac":true,"version":"7757534","steam_id":85568392925397851,"keywords":["cp","nocrits","nodmgspread","uncletopia"],"game_id":440,"stv_port":27026,"stv_name":"Uncletopia | Warsaw | 2 | All Maps | STV","players":[{"user_id":53,"name":"BELADIT","steam_id":76561198011911501,"connected_time":545000000000,"state":"active","ping":88},{"user_id":57,"name":"Optique","steam_id":76561198020195322,"connected_time":414000000000,"state":"active","ping":96},{"user_id":40,"name":"babel","steam_id":76561198118412910,"connected_time":1636000000000,"state":"active","ping":179},{"user_id":55,"name":"I am piss man","steam_id":76561198039209685,"connected_time":490000000000,"state":"active","ping":58},{"user_id":16,"name":"man-made horrors","steam_id":76561199480942903,"connected_time":5002000000000,"state":"active","ping":90},{"user_id":32,"name":"imthegerman","steam_id":76561198053401077,"connected_time":1996000000000,"state":"active","ping":75},{"user_id":41,"name":"IVAN","steam_id":76561199013333685,"connected_time":1391000000000,"state":"active","ping":60},{"user_id":15,"name":"—Ç–æ–ª—è","steam_id":76561199098518615,"connected_time":5135000000000,"state":"active","ping":90},{"user_id":47,"name":"LoliLover69","steam_id":76561199001105496,"connected_time":962000000000,"state":"active","ping":62},{"user_id":61,"name":"DunkleG","steam_id":76561198053816186,"connected_time":179000000000,"state":"active","ping":41},{"user_id":63,"name":"Neimon","steam_id":76561198343485710,"connected_time":23000000000,"state":"active","ping":128},{"user_id":38,"name":"Oborawatabinost","steam_id":76561199052275857,"connected_time":1762000000000,"state":"active","ping":129},{"user_id":60,"name":"Scapegoat","steam_id":76561199184041852,"connected_time":237000000000,"state":"active","ping":106},{"user_id":46,"name":"maerd.","steam_id":76561198031942623,"connected_time":993000000000,"state":"active","ping":52},{"user_id":48,"name":"Least sadistic healer main","steam_id":76561198114164702,"connected_time":947000000000,"state":"active","ping":84},{"user_id":49,"name":"Greg","steam_id":76561198014131702,"connected_time":903000000000,"state":"active","ping":146},{"user_id":62,"name":"Ocelot","steam_id":76561198263386006,"connected_time":134000000000,"state":"active","ping":106},{"user_id":51,"name":"TF2 UPDATE?!?!?!?!?!","steam_id":76561198281521993,"connected_time":727000000000,"state":"active","ping":76},{"user_id":59,"name":"DarkFady","steam_id":76561198179099523,"connected_time":348000000000,"state":"active","ping":120}]},{"server_id":51,"name":"Uncletopia | Warsaw | 3 | All Maps","name_short":"waw-3","host":"waw-1.pl.uncletopia.com","port":27035,"enabled":true,"region":"eu","cc":"pl","latitude":52.2297,"longitude":21.017532,"reserved":0,"last_update":"0001-01-01T00:00:00Z","name_a2s":"Uncletopia | Warsaw | 3 | All Maps","protocol":17,"map":"pl_badwater","folder":"tf","game":"Team Fortress","app_id":440,"player_count":0,"max_players":24,"Bots":0,"server_type":"Dedicated","server_os":"Linux","password":true,"vac":true,"version":"7757534","steam_id":85568392925397852,"keywords":["nocrits","nodmgspread","payload","uncletopia"],"game_id":440,"stv_port":27036,"stv_name":"Uncletopia | Warsaw | 3 | All Maps | STV","players":null},{"server_id":52,"name":"Uncletopia | Warsaw | 4 | All Maps","name_short":"waw-4","host":"waw-1.pl.uncletopia.com","port":27045,"enabled":true,"region":"eu","cc":"pl","latitude":52.2297,"longitude":21.017532,"reserved":0,"last_update":"0001-01-01T00:00:00Z","name_a2s":"Uncletopia | Warsaw | 4 | All Maps","protocol":17,"map":"koth_lakeside_final","folder":"tf","game":"Team Fortress","app_id":440,"player_count":0,"max_players":24,"Bots":0,"server_type":"Dedicated","server_os":"Linux","password":true,"vac":true,"version":"7757534","steam_id":85568392925397853,"keywords":["cp","nocrits","nodmgspread","uncletopia"],"game_id":440,"stv_port":27046,"stv_name":"Uncletopia | Warsaw | 4 | All Maps | STV","players":null},{"server_id":53,"name":"Uncletopia | Warsaw | 5 | Stopwatch Beta","name_short":"waw-5","host":"waw-1.pl.uncletopia.com","port":27055,"enabled":true,"region":"eu","cc":"pl","latitude":52.2297,"longitude":21.017532,"reserved":0,"last_update":"0001-01-01T00:00:00Z","name_a2s":"Uncletopia | Warsaw | 5 | Stopwatch Beta","protocol":17,"map":"pl_borneo","folder":"tf","game":"Team Fortress","app_id":440,"player_count":0,"max_players":24,"Bots":0,"server_type":"Dedicated","server_os":"Linux","password":true,"vac":true,"version":"7757534","steam_id":85568392925397854,"keywords":["nocrits","nodmgspread","payload","uncletopia"],"game_id":440,"stv_port":27056,"stv_name":"Uncletopia | Warsaw | 5 | Stopwatch Beta | STV","players":null},{"server_id":54,"name":"Uncletopia | Warsaw | 6 | Community","name_short":"waw-6","host":"waw-1.pl.uncletopia.com","port":27065,"enabled":true,"region":"eu","cc":"pl","latitude":52.2297,"longitude":21.017532,"reserved":0,"last_update":"0001-01-01T00:00:00Z","name_a2s":"Uncletopia | Warsaw | 6 | Community","protocol":17,"map":"koth_lakeside_final","folder":"tf","game":"Team Fortress","app_id":440,"player_count":0,"max_players":24,"Bots":0,"server_type":"Dedicated","server_os":"Linux","password":true,"vac":true,"version":"7757534","steam_id":85568392925397856,"keywords":["cp","nocrits","nodmgspread","uncletopia"],"game_id":440,"stv_port":27066,"stv_name":"Uncletopia | Warsaw | 6 | Community | STV","players":null}]}