{"status":true,"message":"","result":[{"server_id":9,"name":"Uncletopia | Atlanta | 1 | All Maps","name_short":"atl-1","host":"atl-1.us.uncletopia.com","port":27015,"enabled":true,"region":"us-east","cc":"us","latitude":33.753746,"longitude":-84.38633,"reserved":0,"last_update":"0001-01-01T00:00:00Z","name_a2s":"Uncletopia | Atlanta | 1 | All Maps","protocol":17,"map":"koth_cascade","folder":"tf","game":"Team Fortress","app_id":440,"player_count":24,"max_players":24,"Bots":0,"server_type":"Dedicated","server_os":"Linux","password":true,"vac":true,"version":"7757534","steam_id":85568392924469982,"keywords":["cp","nocrits","nodmgspread","uncletopia"],"game_id":440,"stv_port":27016,"stv_name":"Uncletopia | Atlanta | 1 | All Maps | STV","players":[{"user_id":3,"name":"cola","steam_id":76561198374390458,"connected_time":708000000000,"state":"active","ping":49},{"user_id":4,"name":"roman","steam_id":76561198170066797,"connected_time":705000000000,"state":"active","ping":68},{"user_id":9,"name":"eish","steam_id":76561198089463603,"connected_time":702000000000,"state":"active","ping":117},{"user_id":7,"name":"ATL 1 | Save your wifi","steam_id":76561198286147372,"connected_time":703000000000,"state":"active","ping":54},{"user_id":8,"name":"Jin Gulilo","steam_id":76561198065151242,"connected_time":702000000000,"state":"active","ping":81},{"user_id":10,"name":"GiraffeMan","steam_id":76561198042104084,"connected_time":701000000000,"state":"active","ping":64},{"user_id":11,"name":"‚ô°Alyx‚ô°","steam_id":76561198024303978,"connected_time":698000000000,"state":"active","ping":60},{"user_id":12,"name":"chevy chevington","steam_id":76561198995705248,"connected_time":688000000000,"state":"active","ping":58},{"user_id":13,"name":"ATL1 | Pango","steam_id":76561198069811545,"connected_time":688000000000,"state":"active","ping":45},{"user_id":14,"name":"chexo4","steam_id":76561198150532531,"connected_time":681000000000,"state":"active","ping":49},{"user_id":31,"name":"titan","steam_id":76561198197388678,"connected_time":366000000000,"state":"active","ping":60},{"user_id":16,"name":"FemboyNate","steam_id":76561198146636410,"connected_time":678000000000,"state":"active","ping":58},{"user_id":32,"name":"[positive] milk","steam_id":76561198127457787,"connected_time":69000000000,"state":"active","ping":76},{"user_id":18,"name":"Ghetto Smosh Fan","steam_id":76561198097272509,"connected_time":668000000000,"state":"active","ping":33},{"user_id":19,"name":"lucil3 on Bandcamp","steam_id":76561198149063013,"connected_time":666000000000,"state":"active","ping":65},{"user_id":20,"name":"dash23‚Ñ¢","steam_id":76561198314951185,"connected_time":665000000000,"state":"active","ping":105},{"user_id":21,"name":"Perfume Department","steam_id":76561198128299594,"connected_time":665000000000,"state":"active","ping":107},{"user_id":22,"name":"propeller rat","steam_id":76561198339195930,"connected_time":665000000000,"state":"active","ping":103},{"user_id":24,"name":"gamestrategist22","steam_id":76561199081075913,"connected_time":658000000000,"state":"active","ping":97},{"user_id":25,"name":"brinks truck","steam_id":76561198126489501,"connected_time":658000000000,"state":"active","ping":66},{"user_id":26,"name":"Nz17 #StandWithUkraine","steam_id":76561197978221503,"connected_time":658000000000,"state":"active","ping":106},{"user_id":27,"name":"Metapod","steam_id":76561198008725465,"connected_time":652000000000,"state":"active","ping":82},{"user_id":28,"name":"Sheep","steam_id":76561198122705864,"connected_time":651000000000,"state":"active","ping":98},{"user_id":30,"name":"reis","steam_id":76561199232952016,"connected_time":547000000000,"state":"active","ping":181}]},{"server_id":104,"name":"Uncletopia | Atlanta | 2 | All Maps","name_short":"atl-2","host":"atl-1.us.uncletopia.com","port":27025,"enabled":true,"region":"us-east","cc":"us","latitude":33.753746,"longitude":-84.38633,"reserved":0,"last_update":"0001-01-01T00:00:00Z","name_a2s":"Uncletopia | Atlanta | 2 | All Maps","protocol":17,"map":"cp_dustbowl","folder":"tf","game":"Team Fortress","app_id":440,"player_count":7,"max_players":24,"Bots":0,"server_type":"Dedicated","server_os":"Linux","password":true,"vac":true,"version":"7757534","steam_id":85568392924469983,"keywords":["cp","nocrits","nodmgspread","uncletopia"],"game_id":440,"stv_port":27026,"stv_name":"Uncletopia | Atlanta | 2 | All Maps | STV","players":[{"user_id":19,"name":"Falleax","steam_id":76561198021154908,"connected_time":215000000000,"state":"active","ping":64},{"user_id":15,"name":"ballin ft.","steam_id":76561198822069026,"connected_time":625000000000,"state":"active","ping":99},{"user_id":20,"name":"blythe","steam_id":76561198254999149,"connected_time":97000000000,"state":"active","ping":66},{"user_id":18,"name":"pluto965","steam_id":76561198122743085,"connected_time":482000000000,"state":"active","ping":53},{"user_id":21,"name":"hashmap","steam_id":76561198043794014,"connected_time":53000000000,"state":"active","ping":60},{"user_id":8,"name":"SulfurFinest","steam_id":76561198039901632,"connected_time":678000000000,"state":"active","ping":74},{"user_id":10,"name":"Val-Simp","steam_id":76561198354437045,"connected_time":662000000000,"state":"active","ping":119}]},{"server_id":400,"name":"Uncletopia | Atlanta | 3 | Community","name_short":"atl-3","host":"atl-1.us.uncletopia.com","port":27035,"enabled":true,"region":"us-east","cc":"us","latitude":33.753746,"longitude":-84.38633,"reserved":0,"last_update":"0001-01-01T00:00:00Z","name_a2s":"Uncletopia | Atlanta | 3 | Community","protocol":17,"map":"cp_snakewater_final1","folder":"tf","game":"Team Fortress","app_id":440,"player_count":0,"max_players":24,"Bots":0,"server_type":"Dedicated","server_os":"Linux","password":true,"vac":true,"version":"7757534","steam_id":85568392924515187,"keywords":["cp","nocrits","nodmgspread","uncletopia"],"game_id":440,"stv_port":27036,"stv_name":"Uncletopia | Atlanta | 3 | Community | STV","players":null},{"server_id":401,"name":"Uncletopia | Atlanta | 4 | No Payload","name_short":"atl-4","host":"atl-1.us.uncletopia.com","port":27045,"enabled":true,"region":"us-east","cc":"us","latitude":33.753746,"longitude":-84.38633,"reserved":0,"last_update":"0001-01-01T00:00:00Z","name_a2s":"","protocol":0,"map":"","folder":"","game":"","app_id":0,"player_count":0,"max_players":0,"Bots":0,"server_type":"","server_os":"","password":false,"vac":false,"version":"","steam_id":0,"keywords":null,"game_id":0,"stv_port":0,"stv_name":"","players":null},{"server_id":2,"name":"Uncletopia | Chicago | 1 | All Maps","name_short":"chi-1","host":"chi-1.us.uncletopia.com","port":27015,"enabled":true,"region":"us-central","cc":"us","latitude":41.881832,"longitude":-87.62318,"reserved":0,"last_update":"0001-01-01T00:00:00Z","name_a2s":"Uncletopia | Chicago | 1 | All Maps","protocol":17,"map":"pl_barnblitz","folder":"tf","game":"Team Fortress","app_id":440,"player_count":24,"max_players":24,"Bots":0,"server_type":"Dedicated","server_os":"Linux","password":true,"vac":true,"version":"7757534","steam_id":85568392924469984,"keywords":["nocrits","nodmgspread","payload","uncletopia"],"game_id":440,"stv_port":27016,"stv_name":"Uncletopia | Chicago | 1 | All Maps | STV","players":[{"user_id":3,"name":"ARegularJohnDoe","steam_id":76561198015020139,"connected_time":713000000000,"state":"active","ping":55},{"user_id":4,"name":"Rashi","steam_id":76561198390962022,"connected_time":711000000000,"state":"active","ping":87},{"user_id":5,"name":"[ŸäŸáŸàÿØŸä] Bill Clinton [◊ê◊ú","steam_id":76561198163291190,"connected_time":711000000000,"state":"active","ping":83},{"user_id":6,"name":"debin","steam_id":76561198070711217,"connected_time":710000000000,"state":"active","ping":59},{"user_id":7,"name":"N√©oGothiqueüïØ","steam_id":76561198003467269,"connected_time":706000000000,"state":"active","ping":72},{"user_id":8,"name":"River Rat","steam_id":76561198116383976,"connected_time":705000000000,"state":"active","ping":114},{"user_id":9,"name":"PKBEAST_7","steam_id":76561198177136537,"connected_time":704000000000,"state":"active","ping":87},{"user_id":10,"name":"Shipmunk","steam_id":76561198063062670,"connected_time":704000000000,"state":"active","ping":63},{"user_id":11,"name":"the headphones you lost","steam_id":76561199201098634,"connected_time":701000000000,"state":"active","ping":55},{"user_id":12,"name":"Thatoneguybunchanumbers","steam_id":76561198028039160,"connected_time":700000000000,"state":"active","ping":79},{"user_id":13,"name":"chaffy","steam_id":76561198021754567,"connected_time":700000000000,"state":"active","ping":54},{"user_id":14,"name":"TheDieeg","steam_id":76561199443116996,"connected_time":699000000000,"state":"active","ping":99},{"user_id":30,"name":"Soil","steam_id":76561198943879122,"connected_time":371000000000,"state":"active","ping":59},{"user_id":16,"name":"bojack from the show bojack hor","steam_id":76561198053006712,"connected_time":697000000000,"state":"active","ping":60},{"user_id":17,"name":"Bloodrayne","steam_id":76561198116808497,"connected_time":696000000000,"state":"active","ping":78},{"user_id":18,"name":"grugposter","steam_id":76561198035805348,"connected_time":695000000000,"state":"active","ping":89},{"user_id":19,"name":"BurnN8or101","steam_id":76561198132668224,"connected_time":694000000000,"state":"active","ping":81},{"user_id":20,"name":"XinPing","steam_id":76561198174498174,"connected_time":692000000000,"state":"active","ping":95},{"user_id":31,"name":"drunksnowie","steam_id":76561198285819311,"connected_time":248000000000,"state":"active","ping":107},{"user_id":22,"name":"PirateJet","steam_id":76561198050858744,"connected_time":690000000000,"state":"active","ping":110},{"user_id":23,"name":"Lore","steam_id":76561198098407538,"connected_time":690000000000,"state":"active","ping":58},{"user_id":29,"name":"Kohbold","steam_id":76561198996480140,"connected_time":645000000000,"state":"active","ping":79},{"user_id":25,"name":"Quack Quack","steam_id":76561198040371105,"connected_time":689000000000,"state":"active","ping":91},{"user_id":32,"name":"cyclops","steam_id":76561197970370198,"connected_time":237000000000,"state":"active","ping":56}]},{"server_id":106,"name":"Uncletopia | Chicago | 2 | All Maps","name_short":"chi-2","host":"chi-1.us.uncletopia.com","port":27025,"enabled":true,"region":"us-central","cc":"us","latitude":41.881832,"longitude":-87.62318,"reserved":0,"last_update":"0001-01-01T00:00:00Z","name_a2s":"Uncletopia | Chicago | 2 | All Maps","protocol":17,"map":"cp_mountainlab","folder":"tf","game":"Team Fortress","app_id":440,"player_count":11,"max_players":24,"Bots":0,"server_type":"Dedicated","server_os":"Linux","password":true,"vac":true,"version":"7757534","steam_id":85568392924469985,"keywords":["cp","nocrits","nodmgspread","uncletopia"],"game_id":440,"stv_port":27026,"stv_name":"Uncletopia | Chicago | 2 | All Maps | STV","players":[{"user_id":15,"name":"Henry Ota-Clay","steam_id":76561198053232470,"connected_time":169000000000,"state":"active","ping":61},{"user_id":4,"name":"psy","steam_id":76561198013195018,"connected_time":692000000000,"state":"active","ping":71},{"user_id":17,"name":"Panckakebro","steam_id":76561198106419992,"connected_time":139000000000,"state":"active","ping":76},{"user_id":7,"name":"The Notorious RBG","steam_id":76561198014275148,"connected_time":662000000000,"state":"active","ping":68},{"user_id":8,"name":"Venk","steam_id":76561198251131422,"connected_time":657000000000,"state":"active","ping":60},{"user_id":9,"name":"RoverStorm","steam_id":76561198042096578,"connected_time":643000000000,"state":"active","ping":81},{"user_id":10,"name":"no bitches nigusman","steam_id":76561199466723428,"connected_time":627000000000,"state":"active","ping":174},{"user_id":16,"name":"rudy","steam_id":76561198088712799,"connected_time":167000000000,"state":"active","ping":80},{"user_id":18,"name":"Codo Sapien","steam_id":76561198014206810,"connected_time":134000000000,"state":"active","ping":30},{"user_id":19,"name":"Tomboslinger","steam_id":76561199216201591,"connected_time":124000000000,"state":"active","ping":237},{"user_id":20,"name":"Ace Chromatica","steam_id":76561198042211131,"connected_time":105000000000,"state":"active","ping":60}]},{"server_id":402,"name":"Uncletopia | Chicago | 3 | All Maps","name_short":"chi-3","host":"chi-1.us.uncletopia.com","port":27035,"enabled":true,"region":"us-central","cc":"us","latitude":41.881832,"longitude":-87.62318,"reserved":0,"last_update":"0001-01-01T00:00:00Z","name_a2s":"Uncletopia | Chicago | 3 | All Maps","protocol":17,"map":"cp_sunshine","folder":"tf","game":"Team Fortress","app_id":440,"player_count":24,"max_players":24,"Bots":0,"server_type":"Dedicated","server_os":"Linux","password":true,"vac":true,"version":"7757534","steam_id":85568392924515191,"keywords":["cp","nocrits","nodmgspread","uncletopia"],"game_id":440,"stv_port":27036,"stv_name":"Uncletopia | Chicago | 3 | All Maps | STV","players":[{"user_id":3,"name":"bur","steam_id":76561198004231658,"connected_time":691000000000,"state":"active","ping":58},{"user_id":11,"name":"Six Piece Chicken McNobody","steam_id":76561198129848222,"connected_time":665000000000,"state":"active","ping":62},{"user_id":5,"name":"Kiwimpediment","steam_id":76561198322781400,"connected_time":684000000000,"state":"active","ping":81},{"user_id":6,"name":"SomeScuffedKid","steam_id":76561198086113234,"connected_time":683000000000,"state":"active","ping":60},{"user_id":7,"name":"Loleo","steam_id":76561198348132374,"connected_time":681000000000,"state":"active","ping":59},{"user_id":9,"name":"the lesbianist pyroshark","steam_id":76561198374227766,"connected_time":668000000000,"state":"active","ping":70},{"user_id":10,"name":"threethree","steam_id":76561198177354155,"connected_time":667000000000,"state":"active","ping":60},{"user_id":12,"name":"Whorse","steam_id":76561198114141445,"connected_time":665000000000,"state":"active","ping":71},{"user_id":13,"name":"onsen episode","steam_id":76561197965022076,"connected_time":623000000000,"state":"active","ping":55},{"user_id":14,"name":"Joe Biden","steam_id":76561198238699798,"connected_time":615000000000,"state":"active","ping":78},{"user_id":34,"name":"SadVeggie","steam_id":76561198163430099,"connected_time":408000000000,"state":"active","ping":131},{"user_id":16,"name":"RussiasLastPope","steam_id":76561199096780056,"connected_time":609000000000,"state":"active","ping":119},{"user_id":17,"name":"LikeASir","steam_id":76561198042209721,"connected_time":608000000000,"state":"active","ping":50},{"user_id":19,"name":"real jewish space lasers","steam_id":76561198119536224,"connected_time":596000000000,"state":"active","ping":74},{"user_id":20,"name":"Jaguar","steam_id":76561197971152439,"connected_time":581000000000,"state":"active","ping":82},{"user_id":21,"name":"BigOrca54","steam_id":76561198181360271,"connected_time":567000000000,"state":"active","ping":63},{"user_id":22,"name":"chiswola","steam_id":76561198046920142,"connected_time":554000000000,"state":"active","ping":86},{"user_id":23,"name":"stfu im vibin rn","steam_id":76561198069407799,"connected_time":525000000000,"state":"active","ping":78},{"user_id":24,"name":"God's not dead, I am.","steam_id":76561198840484105,"connected_time":518000000000,"state":"active","ping":72},{"user_id":25,"name":"I Lead MLB In \"Bats Eaten\"","steam_id":76561198034079853,"connected_time":515000000000,"state":"active","ping":73},{"user_id":30,"name":"tools","steam_id":76561199010542612,"connected_time":450000000000,"state":"active","ping":46},{"user_id":35,"name":"AkimboAoki","steam_id":76561198158323058,"connected_time":198000000000,"state":"active","ping":89},{"user_id":29,"name":"St. Michael","steam_id":76561198037611052,"connected_time":464000000000,"state":"active","ping":67},{"user_id":33,"name":"Katy | Synr.gg","steam_id":76561198079395814,"connected_time":424000000000,"state":"active","ping":67}]},{"server_id":403,"name":"Uncletopia | Chicago | 4 | All Maps","name_short":"chi-4","host":"chi-1.us.uncletopia.com","port":27045,"enabled":true,"region":"us-central","cc":"us","latitude":41.881832,"longitude":-87.62318,"reserved":0,"last_update":"0001-01-01T00:00:00Z","name_a2s":"Uncletopia | Chicago | 4 | All Maps","protocol":17,"map":"koth_lakeside_final","folder":"tf","game":"Team Fortress","app_id":440,"player_count":23,"max_players":24,"Bots":0,"server_type":"Dedicated","server_os":"Linux","password":true,"vac":true,"version":"7757534","steam_id":85568392924515193,"keywords":["cp","nocrits","nodmgspread","uncletopia"],"game_id":440,"stv_port":27046,"stv_name":"Uncletopia | Chicago | 4 | All Maps | STV","players":[{"user_id":3,"name":"im really bad sorry","steam_id":76561198277163301,"connected_time":679000000000,"state":"active","ping":69},{"user_id":4,"name":"Phillip Jeffries","steam_id":76561198064052174,"connected_time":672000000000,"state":"active","ping":57},{"user_id":5,"name":"I stole your bike seat","steam_id":76561197975625699,"connected_time":669000000000,"state":"active","ping":89},{"user_id":6,"name":"trappy (showered)","steam_id":76561198402801140,"connected_time":661000000000,"state":"active","ping":56},{"user_id":7,"name":"Vladikr1","steam_id":76561198401495362,"connected_time":649000000000,"state":"active","ping":73},{"user_id":8,"name":"Wendigo","steam_id":76561199010582245,"connected_time":647000000000,"state":"active","ping":72},{"user_id":9,"name":"fish","steam_id":76561198054070811,"connected_time":644000000000,"state":"active","ping":103},{"user_id":10,"name":"Krissy","steam_id":76561197960848174,"connected_time":636000000000,"state":"active","ping":73},{"user_id":11,"name":"Medic BF","steam_id":76561198197422098,"connected_time":604000000000,"state":"active","ping":52},{"user_id":12,"name":"aqua","steam_id":76561199407709552,"connected_time":583000000000,"state":"active","ping":45},{"user_id":13,"name":"johnrp","steam_id":76561198139424047,"connected_time":574000000000,"state":"active","ping":81},{"user_id":14,"name":"Infinitytacos","steam_id":76561198884260211,"connected_time":463000000000,"state":"active","ping":45},{"user_id":15,"name":"weed cat","steam_id":76561198047449549,"connected_time":461000000000,"state":"active","ping":67},{"user_id":20,"name":"Araganor","steam_id":76561198041988085,"connected_time":263000000000,"state":"active","ping":69},{"user_id":17,"name":"Lamb","steam_id":76561199406964877,"connected_time":300000000000,"state":"active","ping":107},{"user_id":18,"name":"girl pisser","steam_id":76561198065848254,"connected_time":295000000000,"state":"active","ping":80},{"user_id":19,"name":"Ch4rl33","steam_id":76561198037008621,"connected_time":290000000000,"state":"active","ping":49},{"user_id":22,"name":"Coolshroomish","steam_id":76561199109440924,"connected_time":236000000000,"state":"active","ping":97},{"user_id":23,"name":"leeeeeeeeeeeeeeeeeeeeeeeeeee","steam_id":76561199083322731,"connected_time":236000000000,"state":"active","ping":94},{"user_id":24,"name":"Ninty","steam_id":76561199364725776,"connected_time":221000000000,"state":"active","ping":93},{"user_id":25,"name":"CroMaLaka","steam_id":76561198380926090,"connected_time":212000000000,"state":"active","ping":45},{"user_id":26,"name":"T√ñZI","steam_id":76561198045268695,"connected_time":211000000000,"state":"active","ping":62},{"user_id":27,"name":"Branz","steam_id":76561198076632143,"connected_time":209000000000,"state":"active","ping":71}]},{"server_id":36,"name":"Uncletopia | Chicago | 5 | All Maps","name_short":"chi-5","host":"chi-2.us.uncletopia.com","port":27015,"enabled":true,"region":"us-central","cc":"us","latitude":41.881832,"longitude":-87.62318,"reserved":0,"last_update":"0001-01-01T00:00:00Z","name_a2s":"Uncletopia | Chicago | 5 | All Maps","protocol":17,"map":"koth_cascade","folder":"tf","game":"Team Fortress","app_id":440,"player_count":1,"max_players":24,"Bots":0,"server_type":"Dedicated","server_os":"Linux","password":true,"vac":true,"version":"7757534","steam_id":85568392924866362,"keywords":["cp","nocrits","nodmgspread","uncletopia"],"game_id":440,"stv_port":27016,"stv_name":"Uncletopia | Chicago | 5 | All Maps | STV","players":[{"user_id":6,"name":"Rein","steam_id":76561198300340427,"connected_time":681000000000,"state":"active","ping":50}]},{"server_id":37,"name":"Uncletopia | Chicago | 6 | All Maps","name_short":"chi-6","host":"chi-2.us.uncletopia.com","port":27025,"enabled":true,"region":"us-central","cc":"us","latitude":41.881832,"longitude":-87.62318,"reserved":0,"last_update":"0001-01-01T00:00:00Z","name_a2s":"Uncletopia | Chicago | 6 | All Maps","protocol":17,"map":"pl_borneo","folder":"tf","game":"Team Fortress","app_id":440,"player_count":0,"max_players":24,"Bots":0,"server_type":"Dedicated","server_os":"Linux","password":true,"vac":true,"version":"7757534","steam_id":85568392924866363,"keywords":["nocrits","nodmgspread","payload","uncletopia"],"game_id":440,"stv_port":27026,"stv_name":"Uncletopia | Chicago | 6 | All Maps | STV","players":null},{"server_id":38,"name":"Uncletopia | Chicago | 7 | Stopwatch Beta","name_short":"chi-7","host":"chi-2.us.uncletopia.com","port":27035,"enabled":true,"region":"us-central","cc":"us","latitude":41.881832,"longitude":-87.62318,"reserved":0,"last_update":"0001-01-01T00:00:00Z","name_a2s":"Uncletopia | Chicago | 7 | Stopwatch Beta","protocol":17,"map":"pl_barnblitz","folder":"tf","game":"Team Fortress","app_id":440,"player_count":0,"max_players":24,"Bots":0,"server_type":"Dedicated","server_os":"Linux","password":true,"vac":true,"version":"7757534","steam_id":85568392924866364,"keywords":["nocrits","nodmgspread","payload","uncletopia"],"game_id":440,"stv_port":27036,"stv_name":"Uncletopia | Chicago | 7 | Stopwatch Beta | STV","players":null},{"server_id":39,"name":"Uncletopia | Chicago | 8 | Community","name_short":"chi-8","host":"chi-2.us.uncletopia.com","port":27045,"enabled":true,"region":"us-central","cc":"us","latitude":41.881832,"longitude":-87.62318,"reserved":0,"last_update":"0001-01-01T00:00:00Z","name_a2s":"Uncletopia | Chicago | 8 | Community","protocol":17,"map":"koth_cascade","folder":"tf","game":"Team Fortress","app_id":440,"player_count":0,"max_players":24,"Bots":0,"server_type":"Dedicated","server_os":"Linux","password":true,"vac":true,"version":"7757534","steam_id":85568392924866365,"keywords":["cp","nocrits","nodmgspread","uncletopia"],"game_id":440,"stv_port":27046,"stv_name":"Uncletopia | Chicago | 8 | Community | STV","players":null},{"server_id":8,"name":"Uncletopia | Dallas | 1 | All Maps","name_short":"dal-1","host":"dal-1.us.uncletopia.com","port":27015,"enabled":true,"region":"us-central","cc":"us","latitude":32.779167,"longitude":-96.80889,"reserved":0,"last_update":"0001-01-01T00:00:00Z","name_a2s":"Uncletopia | Dallas | 1 | All Maps","protocol":17,"map":"koth_cascade","folder":"tf","game":"Team Fortress","app_id":440,"player_count":24,"max_players":24,"Bots":0,"server_type":"Dedicated","server_os":"Linux","password":true,"vac":true,"version":"7757534","steam_id":85568392924469986,"keywords":["cp","nocrits","nodmgspread","uncletopia"],"game_id":440,"stv_port":27016,"stv_name":"Uncletopia | Dallas | 1 | All Maps | STV","players":[{"user_id":3,"name":"ribbonborn","steam_id":76561198001195423,"connected_time":705000000000,"state":"active","ping":53},{"user_id":4,"name":"peppy","steam_id":76561198361818082,"connected_time":700000000000,"state":"active","ping":69},{"user_id":5,"name":"Ryo31337","steam_id":76561198063083553,"connected_time":698000000000,"state":"active","ping":55},{"user_id":6,"name":"Pinder","steam_id":76561198176708643,"connected_time":683000000000,"state":"active","ping":56},{"user_id":24,"name":"Miss Pauling Gaming","steam_id":76561198078479083,"connected_time":594000000000,"state":"active","ping":66},{"user_id":8,"name":"Mak","steam_id":76561198089197922,"connected_time":671000000000,"state":"active","ping":105},{"user_id":11,"name":"finman","steam_id":76561198127639913,"connected_time":654000000000,"state":"active","ping":84},{"user_id":13,"name":"kabooomerang","steam_id":76561198808706122,"connected_time":643000000000,"state":"active","ping":88},{"user_id":14,"name":"b0urbaki7","steam_id":76561198141342345,"connected_time":637000000000,"state":"active","ping":90},{"user_id":15,"name":"tie dye die guy","steam_id":76561198049845337,"connected_time":634000000000,"state":"active","ping":89},{"user_id":16,"name":"tucker","steam_id":76561198348308711,"connected_time":627000000000,"state":"active","ping":103},{"user_id":17,"name":"Prince Peen","steam_id":76561198046217806,"connected_time":622000000000,"state":"active","ping":79},{"user_id":18,"name":"Akaya","steam_id":76561198180003349,"connected_time":620000000000,"state":"active","ping":99},{"user_id":19,"name":"Pleiades, the Sorceror","steam_id":76561198079590693,"connected_time":620000000000,"state":"active","ping":72},{"user_id":20,"name":"Poladroid","steam_id":76561198032005291,"connected_time":616000000000,"state":"active","ping":78},{"user_id":23,"name":"Fumpo","steam_id":76561198206873365,"connected_time":598000000000,"state":"active","ping":88},{"user_id":22,"name":"MantisToboggan","steam_id":76561197969447887,"connected_time":608000000000,"state":"active","ping":136},{"user_id":25,"name":"[rat] RaviRavioli","steam_id":76561198968636443,"connected_time":591000000000,"state":"active","ping":73},{"user_id":26,"name":"Chuck Finley","steam_id":76561198027411284,"connected_time":588000000000,"state":"active","ping":72},{"user_id":31,"name":"Pengu","steam_id":76561198007851610,"connected_time":453000000000,"state":"active","ping":80},{"user_id":28,"name":"Action_Quacktion","steam_id":76561198407062426,"connected_time":574000000000,"state":"active","ping":88},{"user_id":29,"name":"Rock Kickass","steam_id":76561198450510841,"connected_time":573000000000,"state":"active","ping":97},{"user_id":30,"name":"JaGirlLucy","steam_id":76561198445396340,"connected_time":570000000000,"state":"active","ping":48}]},{"server_id":108,"name":"Uncletopia | Dallas | 2 | All Maps","name_short":"dal-2","host":"dal-1.us.uncletopia.com","port":27025,"enabled":true,"region":"us-central","cc":"us","latitude":32.779167,"longitude":-96.80889,"reserved":0,"last_update":"0001-01-01T00:00:00Z","name_a2s":"Uncletopia | Dallas | 2 | All Maps","protocol":17,"map":"pl_upward","folder":"tf","game":"Team Fortress","app_id":440,"player_count":24,"max_players":24,"Bots":0,"server_type":"Dedicated","server_os":"Linux","password":true,"vac":true,"version":"7757534","steam_id":85568392924469988,"keywords":["nocrits","nodmgspread","payload","uncletopia"],"game_id":440,"stv_port":27026,"stv_name":"Uncletopia | Dallas | 2 | All Maps | STV","players":[{"user_id":3,"name":"xZackAttack27x","steam_id":76561198035446639,"connected_time":685000000000,"state":"active","ping":39},{"user_id":35,"name":"GLG MUTT","steam_id":76561198147785541,"connected_time":154000000000,"state":"active","ping":57},{"user_id":8,"name":"I am a mooshroom","steam_id":76561198104198295,"connected_time":660000000000,"state":"active","ping":65},{"user_id":11,"name":"Brittle Struggler","steam_id":76561198131737800,"connected_time":618000000000,"state":"active","ping":57},{"user_id":7,"name":"Burny Sanders","steam_id":76561197961879048,"connected_time":666000000000,"state":"active","ping":40},{"user_id":33,"name":"turnip","steam_id":76561197999375941,"connected_time":417000000000,"state":"active","ping":48},{"user_id":10,"name":"The Ultimate Coomer","steam_id":76561199128833757,"connected_time":632000000000,"state":"active","ping":48},{"user_id":12,"name":"TastyWheat","steam_id":76561198855061918,"connected_time":613000000000,"state":"active","ping":107},{"user_id":13,"name":"ElFunkiPunki","steam_id":76561199032181845,"connected_time":609000000000,"state":"active","ping":107},{"user_id":14,"name":"deadpixel","steam_id":76561198150249843,"connected_time":603000000000,"state":"active","ping":73},{"user_id":16,"name":"Phil Collins","steam_id":76561198068868644,"connected_time":597000000000,"state":"active","ping":77},{"user_id":17,"name":"jester","steam_id":76561198065970212,"connected_time":596000000000,"state":"active","ping":74},{"user_id":18,"name":"Pope","steam_id":76561198053768137,"connected_time":595000000000,"state":"active","ping":57},{"user_id":25,"name":"TastesLikeTriangle","steam_id":76561198109705599,"connected_time":561000000000,"state":"active","ping":104},{"user_id":20,"name":"Flainxps","steam_id":76561198937590235,"connected_time":586000000000,"state":"active","ping":109},{"user_id":21,"name":"||:‚ô©‚ô©‚ô©‚ô™:|| Opplydead","steam_id":76561198028630334,"connected_time":580000000000,"state":"active","ping":75},{"user_id":22,"name":"DiscoTraveler","steam_id":76561199240168088,"connected_time":573000000000,"state":"active","ping":81},{"user_id":23,"name":"Rat_king","steam_id":76561199465689129,"connected_time":573000000000,"state":"active","ping":65},{"user_id":24,"name":"frank","steam_id":76561198045436159,"connected_time":572000000000,"state":"active","ping":96},{"user_id":26,"name":"Doomagedden","steam_id":76561198272589475,"connected_time":548000000000,"state":"active","ping":83},{"user_id":27,"name":"Cassaronpa","steam_id":76561198112985518,"connected_time":540000000000,"state":"active","ping":151},{"user_id":28,"name":"dicksnip","steam_id":76561198356515396,"connected_time":537000000000,"state":"active","ping":55},{"user_id":31,"name":"Riggway (Reformed Rabbi)","steam_id":76561198078505353,"connected_time":518000000000,"state":"active","ping":85},{"user_id":34,"name":"Nugakku","steam_id":76561198082346219,"connected_time":188000000000,"state":"active","ping":84}]},{"server_id":5,"name":"Uncletopia | Frankfurt | 1 | All Maps","name_short":"frk-1","host":"frk-1.de.uncletopia.com","port":27015,"enabled":true,"region":"eu","cc":"de","latitude":50.110924,"longitude":8.682127,"reserved":0,"last_update":"0001-01-01T00:00:00Z","name_a2s":"Uncletopia | Frankfurt | 1 | All Maps","protocol":17,"map":"pl_snowycoast","folder":"tf","game":"Team Fortress","app_id":440,"player_count":0,"max_players":24,"Bots":0,"server_type":"Dedicated","server_os":"Linux","password":true,"vac":true,"version":"7757534","steam_id":85568392924469989,"keywords":["nocrits","nodmgspread","payload","uncletopia"],"game_id":440,"stv_port":27016,"stv_name":"Uncletopia | Frankfurt | 1 | All Maps | STV","players":null},{"server_id":110,"name":"Uncletopia | Frankfurt | 2 | All Maps","name_short":"frk-2","host":"frk-1.de.uncletopia.com","port":27025,"enabled":true,"region":"eu","cc":"de","latitude":50.110924,"longitude":8.682127,"reserved":0,"last_update":"0001-01-01T00:00:00Z","name_a2s":"Uncletopia | Frankfurt | 2 | All Maps","protocol":17,"map":"cp_snakewater_final1","folder":"tf","game":"Team Fortress","app_id":440,"player_count":0,"max_players":24,"Bots":0,"server_type":"Dedicated","server_os":"Linux","password":true,"vac":true,"version":"7757534","steam_id":85568392924469990,"keywords":["cp","nocrits","nodmgspread","uncletopia"],"game_id":440,"stv_port":27026,"stv_name":"Uncletopia | Frankfurt | 2 | All Maps | STV","players":null},{"server_id":308,"name":"Uncletopia | Frankfurt | 3 | All Maps","name_short":"frk-3","host":"frk-1.de.uncletopia.com","port":27035,"enabled":true,"region":"eu","cc":"de","latitude":50.110924,"longitude":8.682127,"reserved":0,"last_update":"0001-01-01T00:00:00Z","name_a2s":"Uncletopia | Frankfurt | 3 | All Maps","protocol":17,"map":"pl_swiftwater_final1","folder":"tf","game":"Team Fortress","app_id":440,"player_count":0,"max_players":24,"Bots":0,"server_type":"Dedicated","server_os":"Linux","password":true,"vac":true,"version":"7757534","steam_id":85568392924504274,"keywords":["nocrits","nodmgspread","payload","uncletopia"],"game_id":440,"stv_port":27036,"stv_name":"Uncletopia | Frankfurt | 3 | All Maps | STV","players":null},{"server_id":309,"name":"Uncletopia | Frankfurt | 4 | All Maps","name_short":"frk-4","host":"frk-1.de.uncletopia.com","port":27045,"enabled":true,"region":"eu","cc":"de","latitude":50.110924,"longitude":8.682127,"reserved":0,"last_update":"0001-01-01T00:00:00Z","name_a2s":"Uncletopia | Frankfurt | 4 | All Maps","protocol":17,"map":"koth_viaduct","folder":"tf","game":"Team Fortress","app_id":440,"player_count":0,"max_players":24,"Bots":0,"server_type":"Dedicated","server_os":"Linux","password":true,"vac":true,"version":"7757534","steam_id":85568392924504275,"keywords":["cp","nocrits","nodmgspread","uncletopia"],"game_id":440,"stv_port":27046,"stv_name":"Uncletopia | Frankfurt | 4 | All Maps | STV","players":null},{"server_id":310,"name":"Uncletopia | Frankfurt | 5 | All Maps","name_short":"frk-5","host":"frk-1.de.uncletopia.com","port":27055,"enabled":true,"region":"eu","cc":"de","latitude":50.110924,"longitude":8.682127,"reserved":0,"last_update":"0001-01-01T00:00:00Z","name_a2s":"Uncletopia | Frankfurt | 5 | All Maps","protocol":17,"map":"koth_lakeside_final","folder":"tf","game":"Team Fortress","app_id":440,"player_count":0,"max_players":24,"Bots":0,"server_type":"Dedicated","server_os":"Linux","password":true,"vac":true,"version":"7757534","steam_id":85568392924504277,"keywords":["cp","nocrits","nodmgspread","uncletopia"],"game_id":440,"stv_port":27056,"stv_name":"Uncletopia | Frankfurt | 5 | All Maps | STV","players":null},{"server_id":311,"name":"Uncletopia | Frankfurt | 6 | All Maps","name_short":"frk-6","host":"frk-1.de.uncletopia.com","port":27065,"enabled":true,"region":"eu","cc":"de","latitude":50.110924,"longitude":8.682127,"reserved":0,"last_update":"0001-01-01T00:00:00Z","name_a2s":"Uncletopia | Frankfurt | 6 | All Maps","protocol":17,"map":"pl_frontier_final","folder":"tf","game":"Team Fortress","app_id":440,"player_count":0,"max_players":24,"Bots":0,"server_type":"Dedicated","server_os":"Linux","password":true,"vac":true,"version":"7757534","steam_id":85568392924504278,"keywords":["nocrits","nodmgspread","payload","uncletopia"],"game_id":440,"stv_port":27066,"stv_name":"Uncletopia | Frankfurt | 6 | All Maps | STV","players":null},{"server_id":23,"name":"Uncletopia | Frankfurt | 7 | Stopwatch Beta","name_short":"frk-7","host":"frk-1.de.uncletopia.com","port":27075,"enabled":true,"region":"eu","cc":"de","latitude":50.110924,"longitude":8.682127,"reserved":0,"last_update":"0001-01-01T00:00:00Z","name_a2s":"Uncletopia | Frankfurt | 7 | Stopwatch Beta","protocol":17,"map":"cp_sunshine","folder":"tf","game":"Team Fortress","app_id":440,"player_count":0,"max_players":24,"Bots":0,"server_type":"Dedicated","server_os":"Linux","password":true,"vac":true,"version":"7757534","steam_id":85568392924742827,"keywords":["cp","nocrits","nodmgspread","uncletopia"],"game_id":440,"stv_port":27076,"stv_name":"Uncletopia | Frankfurt | 7 | Stopwatch Beta | STV","players":null},{"server_id":24,"name":"Uncletopia | Frankfurt | 8 | Community","name_short":"frk-8","host":"frk-1.de.uncletopia.com","port":27085,"enabled":true,"region":"eu","cc":"de","latitude":50.110924,"longitude":8.682127,"reserved":0,"last_update":"0001-01-01T00:00:00Z","name_a2s":"Uncletopia | Frankfurt | 8 | Community","protocol":17,"map":"koth_lakeside_final","folder":"tf","game":"Team Fortress","app_id":440,"player_count":0,"max_players":24,"Bots":0,"server_type":"Dedicated","server_os":"Linux","password":true,"vac":true,"version":"7757534","steam_id":85568392924742828,"keywords":["cp","nocrits","nodmgspread","uncletopia"],"game_id":440,"stv_port":27086,"stv_name":"Uncletopia | Frankfurt | 8 | Community | STV","players":null},{"server_id":202,"name":"Uncletopia | Hong Kong | 1 | All Maps","name_short":"hgk-1","host":"hgk-1.hk.uncletopia.com","port":27015,"enabled":true,"region":"asia","cc":"hk","latitude":22.302711,"longitude":114.177216,"reserved":0,"last_update":"0001-01-01T00:00:00Z","name_a2s":"Uncletopia | Hong Kong | 1 | All Maps","protocol":17,"map":"pl_borneo","folder":"tf","game":"Team Fortress","app_id":440,"player_count":0,"max_players":24,"Bots":0,"server_type":"Dedicated","server_os":"Linux","password":true,"vac":true,"version":"7757534","steam_id":85568392924494504,"keywords":["nocrits","nodmgspread","payload","uncletopia"],"game_id":440,"stv_port":27016,"stv_name":"Uncletopia | Hong Kong | 1 | All Maps | STV","players":null},{"server_id":1,"name":"Uncletopia | Los Angeles | 1 | All Maps","name_short":"lax-1","host":"lax-1.us.uncletopia.com","port":27015,"enabled":true,"region":"us-west","cc":"us","latitude":33.94279,"longitude":-118.41004,"reserved":0,"last_update":"0001-01-01T00:00:00Z","name_a2s":"Uncletopia | Los Angeles | 1 | All Maps","protocol":17,"map":"koth_lakeside_final","folder":"tf","game":"Team Fortress","app_id":440,"player_count":24,"max_players":24,"Bots":0,"server_type":"Dedicated","server_os":"Linux","password":true,"vac":true,"version":"7757534","steam_id":85568392924469991,"keywords":["cp","nocrits","nodmgspread","uncletopia"],"game_id":440,"stv_port":27016,"stv_name":"Uncletopia | Los Angeles | 1 | All Maps | STV","players":[{"user_id":6,"name":"LX-24","steam_id":76561198016168993,"connected_time":666000000000,"state":"active","ping":86},{"user_id":23,"name":"MonkeyMage101","steam_id":76561198354192200,"connected_time":461000000000,"state":"active","ping":66},{"user_id":34,"name":"puppy boy","steam_id":76561198255639473,"connected_time":279000000000,"state":"active","ping":114},{"user_id":10,"name":"Crazy Hungarian","steam_id":76561198025498172,"connected_time":654000000000,"state":"active","ping":65},{"user_id":25,"name":"Batso","steam_id":76561198106589452,"connected_time":434000000000,"state":"active","ping":50},{"user_id":14,"name":"snoogy woogy buggy","steam_id":76561198894676484,"connected_time":635000000000,"state":"active","ping":40},{"user_id":15,"name":"Krazy","steam_id":76561198835502709,"connected_time":628000000000,"state":"active","ping":45},{"user_id":12,"name":"ice cream (ÂÜ∞Ê∑áÊ∑ã)","steam_id":76561198976530881,"connected_time":647000000000,"state":"active","ping":30},{"user_id":16,"name":"TheRealChizz","steam_id":76561198016055769,"connected_time":600000000000,"state":"active","ping":66},{"user_id":17,"name":"Phlogging Solly","steam_id":76561198020580071,"connected_time":586000000000,"state":"active","ping":42},{"user_id":18,"name":"wAck","steam_id":76561198072385729,"connected_time":581000000000,"state":"active","ping":44},{"user_id":19,"name":"Atrix","steam_id":76561198084930312,"connected_time":578000000000,"state":"active","ping":46},{"user_id":20,"name":"Salamimander","steam_id":76561198036083292,"connected_time":562000000000,"state":"active","ping":64},{"user_id":21,"name":"bebo","steam_id":76561198385085005,"connected_time":536000000000,"state":"active","ping":55},{"user_id":36,"name":"Jolly","steam_id":76561198116357972,"connected_time":235000000000,"state":"active","ping":46},{"user_id":26,"name":"Dr. B Busta","steam_id":76561198206387303,"connected_time":432000000000,"state":"active","ping":33},{"user_id":27,"name":"Celia [ +/- ] ‚úî","steam_id":76561198067164431,"connected_time":413000000000,"state":"active","ping":34},{"user_id":39,"name":"Demo-Sans","steam_id":76561198067029049,"connected_time":26000000000,"state":"spawning","ping":44},{"user_id":38,"name":"Microsoft Office Word 2012","steam_id":76561198292049624,"connected_time":60000000000,"state":"active","ping":90},{"user_id":30,"name":"Many Bees' Chilling","steam_id":76561198079641282,"connected_time":337000000000,"state":"active","ping":90},{"user_id":31,"name":"Ceatharlach","steam_id":76561198318126190,"connected_time":335000000000,"state":"active","ping":154},{"user_id":32,"name":"*sammich","steam_id":76561198119621232,"connected_time":316000000000,"state":"active","ping":79},{"user_id":33,"name":"cilo","steam_id":76561198046163502,"connected_time":312000000000,"state":"active","ping":75},{"user_id":35,"name":"K33n","steam_id":76561198392025097,"connected_time":275000000000,"state":"active","ping":106}]},{"server_id":112,"name":"Uncletopia | Los Angeles | 2 | All Maps","name_short":"lax-2","host":"lax-1.us.uncletopia.com","port":27025,"enabled":true,"region":"us-west","cc":"us","latitude":33.94279,"longitude":-118.41004,"reserved":0,"last_update":"0001-01-01T00:00:00Z","name_a2s":"Uncletopia | Los Angeles | 2 | All Maps","protocol":17,"map":"pl_upward","folder":"tf","game":"Team Fortress","app_id":440,"player_count":0,"max_players":24,"Bots":0,"server_type":"Dedicated","server_os":"Linux","password":true,"vac":true,"version":"7757534","steam_id":85568392924469992,"keywords":["nocrits","nodmgspread","payload","uncletopia"],"game_id":440,"stv_port":27026,"stv_name":"Uncletopia | Los Angeles | 2 | All Maps | STV","players":null},{"server_id":324,"name":"Uncletopia | Los Angeles | 3 | All Maps","name_short":"lax-3","host":"lax-1.us.uncletopia.com","port":27035,"enabled":true,"region":"us-west","cc":"us","latitude":33.94279,"longitude":-118.41004,"reserved":0,"last_update":"0001-01-01T00:00:00Z","name_a2s":"Uncletopia | Los Angeles | 3 | All Maps","protocol":17,"map":"pl_barnblitz","folder":"tf","game":"Team Fortress","app_id":440,"player_count":0,"max_players":24,"Bots":0,"server_type":"Dedicated","server_os":"Linux","password":true,"vac":true,"version":"7757534","steam_id":85568392924510198,"keywords":["nocrits","nodmgspread","payload","uncletopia"],"game_id":440,"stv_port":27036,"stv_name":"Uncletopia | Los Angeles | 3 | All Maps | STV","players":null},{"server_id":25,"name":"Uncletopia | Los Angeles | 4 | Stopwatch Beta","name_short":"lax-4","host":"lax-1.us.uncletopia.com","port":27045,"enabled":true,"region":"us-west","cc":"us","latitude":33.94279,"longitude":-118.41004,"reserved":0,"last_update":"0001-01-01T00:00:00Z","name_a2s":"Uncletopia | Los Angeles | 4 | Stopwatch Beta","protocol":17,"map":"pl_swiftwater_final1","folder":"tf","game":"Team Fortress","app_id":440,"player_count":0,"max_players":24,"Bots":0,"server_type":"Dedicated","server_os":"Linux","password":true,"vac":true,"version":"7757534","steam_id":85568392924510199,"keywords":["nocrits","nodmgspread","payload","uncletopia"],"game_id":440,"stv_port":27046,"stv_name":"Uncletopia | Los Angeles | 4 | Stopwatch Beta | STV","players":null},{"server_id":11,"name":"Uncletopia | London | 1 | All Maps","name_short":"lon-1","host":"lon-1.uk.uncletopia.com","port":27015,"enabled":true,"region":"eu","cc":"gb","latitude":51.509865,"longitude":-0.118092,"reserved":0,"last_update":"0001-01-01T00:00:00Z","name_a2s":"Uncletopia | London | 1 | All Maps","protocol":17,"map":"koth_highpass","folder":"tf","game":"Team Fortress","app_id":440,"player_count":0,"max_players":24,"Bots":0,"server_type":"Dedicated","server_os":"Linux","password":true,"vac":true,"version":"7757534","steam_id":85568392924367362,"keywords":["cp","nocrits","nodmgspread","uncletopia"],"game_id":440,"stv_port":27016,"stv_name":"Uncletopia | London | 1 | All Maps | STV","players":null},{"server_id":114,"name":"Uncletopia | London | 2 | All Maps","name_short":"lon-2","host":"lon-1.uk.uncletopia.com","port":27025,"enabled":true,"region":"eu","cc":"gb","latitude":51.509865,"longitude":-0.118092,"reserved":0,"last_update":"0001-01-01T00:00:00Z","name_a2s":"Uncletopia | London | 2 | All Maps","protocol":17,"map":"koth_viaduct","folder":"tf","game":"Team Fortress","app_id":440,"player_count":0,"max_players":24,"Bots":0,"server_type":"Dedicated","server_os":"Linux","password":true,"vac":true,"version":"7757534","steam_id":85568392924470941,"keywords":["cp","nocrits","nodmgspread","uncletopia"],"game_id":440,"stv_port":27026,"stv_name":"Uncletopia | London | 2 | All Maps | STV","players":null},{"server_id":320,"name":"Uncletopia | London | 3 | All Maps","name_short":"lon-3","host":"lon-1.uk.uncletopia.com","port":27035,"enabled":true,"region":"eu","cc":"gb","latitude":51.509865,"longitude":-0.118092,"reserved":0,"last_update":"0001-01-01T00:00:00Z","name_a2s":"Uncletopia | London | 3 | All Maps","protocol":17,"map":"cp_dustbowl","folder":"tf","game":"Team Fortress","app_id":440,"player_count":0,"max_players":24,"Bots":0,"server_type":"Dedicated","server_os":"Linux","password":true,"vac":true,"version":"7757534","steam_id":85568392924510192,"keywords":["cp","nocrits","nodmgspread","uncletopia"],"game_id":440,"stv_port":27036,"stv_name":"Uncletopia | London | 3 | All Maps | STV","players":null},{"server_id":321,"name":"Uncletopia | London | 4 | All Maps","name_short":"lon-4","host":"lon-1.uk.uncletopia.com","port":27045,"enabled":true,"region":"eu","cc":"gb","latitude":51.509865,"longitude":-0.118092,"reserved":0,"last_update":"0001-01-01T00:00:00Z","name_a2s":"Uncletopia | London | 4 | All Maps","protocol":17,"map":"cp_dustbowl","folder":"tf","game":"Team Fortress","app_id":440,"player_count":0,"max_players":24,"Bots":0,"server_type":"Dedicated","server_os":"Linux","password":true,"vac":true,"version":"7757534","steam_id":85568392924510193,"keywords":["cp","nocrits","nodmgspread","uncletopia"],"game_id":440,"stv_port":27046,"stv_name":"Uncletopia | London | 4 | All Maps | STV","players":null},{"server_id":21,"name":"Uncletopia | London | 5 | All Maps","name_short":"lon-5","host":"lon-1.uk.uncletopia.com","port":27055,"enabled":true,"region":"eu","cc":"gb","latitude":51.509865,"longitude":-0.118092,"reserved":0,"last_update":"0001-01-01T00:00:00Z","name_a2s":"Uncletopia | London | 5 | All Maps","protocol":17,"map":"cp_altitude","folder":"tf","game":"Team Fortress","app_id":440,"player_count":0,"max_players":24,"Bots":0,"server_type":"Dedicated","server_os":"Linux","password":true,"vac":true,"version":"7757534","steam_id":85568392924742829,"keywords":["cp","nocrits","nodmgspread","uncletopia"],"game_id":440,"stv_port":27056,"stv_name":"Uncletopia | London | 5 | All Maps | STV","players":null},{"server_id":22,"name":"Uncletopia | London | 6 | All Maps","name_short":"lon-6","host":"lon-1.uk.uncletopia.com","port":27065,"enabled":true,"region":"eu","cc":"gb","latitude":51.509865,"longitude":-0.118092,"reserved":0,"last_update":"0001-01-01T00:00:00Z","name_a2s":"Uncletopia | London | 6 | All Maps","protocol":17,"map":"cp_mountainlab","folder":"tf","game":"Team Fortress","app_id":440,"player_count":0,"max_players":24,"Bots":0,"server_type":"Dedicated","server_os":"Linux","password":true,"vac":true,"version":"7757534","steam_id":85568392924742830,"keywords":["cp","nocrits","nodmgspread","uncletopia"],"game_id":440,"stv_port":27066,"stv_name":"Uncletopia | London | 6 | All Maps | STV","players":null},{"server_id":40,"name":"Uncletopia | London | 7 | No Payload","name_short":"lon-7","host":"lon-1.uk.uncletopia.com","port":27075,"enabled":true,"region":"eu","cc":"gb","latitude":51.509865,"longitude":-0.118092,"reserved":0,"last_update":"0001-01-01T00:00:00Z","name_a2s":"Uncletopia | London | 7 | No Payload","protocol":17,"map":"pl_badwater","folder":"tf","game":"Team Fortress","app_id":440,"player_count":0,"max_players":24,"Bots":0,"server_type":"Dedicated","server_os":"Linux","password":true,"vac":true,"version":"7757534","steam_id":85568392924964314,"keywords":["nocrits","nodmgspread","payload","uncletopia"],"game_id":440,"stv_port":27076,"stv_name":"Uncletopia | London | 7 | No Payload | STV","players":null},{"server_id":41,"name":"Uncletopia | London | 8 | Community","name_short":"lon-8","host":"lon-1.uk.uncletopia.com","port":27085,"enabled":true,"region":"eu","cc":"gb","latitude":51.509865,"longitude":-0.118092,"reserved":0,"last_update":"0001-01-01T00:00:00Z","name_a2s":"Uncletopia | London | 8 | Community","protocol":17,"map":"pl_barnblitz","folder":"tf","game":"Team Fortress","app_id":440,"player_count":0,"max_players":24,"Bots":0,"server_type":"Dedicated","server_os":"Linux","password":true,"vac":true,"version":"7757534","steam_id":85568392924964315,"keywords":["nocrits","nodmgspread","payload","uncletopia"],"game_id":440,"stv_port":27086,"stv_name":"Uncletopia | London | 8 | Community | STV","players":null},{"server_id":300,"name":"Uncletopia | Montr√©al | 1 | All Maps","name_short":"mtl-1","host":"mtl-1.ca.uncletopia.com","port":27015,"enabled":true,"region":"us-east","cc":"ca","latitude":45.50889,"longitude":-73.56167,"reserved":0,"last_update":"0001-01-01T00:00:00Z","name_a2s":"Uncletopia | Montr√©al | 1 | All Maps","protocol":17,"map":"pl_upward","folder":"tf","game":"Team Fortress","app_id":440,"player_count":0,"max_players":24,"Bots":0,"server_type":"Dedicated","server_os":"Linux","password":true,"vac":true,"version":"7757534","steam_id":85568392924500087,"keywords":["nocrits","nodmgspread","payload","uncletopia"],"game_id":440,"stv_port":27016,"stv_name":"Uncletopia | Montr√©al | 1 | All Maps | STV","players":null},{"server_id":301,"name":"Uncletopia | Montr√©al | 2 | All Maps","name_short":"mtl-2","host":"mtl-1.ca.uncletopia.com","port":27025,"enabled":true,"region":"us-east","cc":"ca","latitude":45.50889,"longitude":-73.56167,"reserved":0,"last_update":"0001-01-01T00:00:00Z","name_a2s":"Uncletopia | Montr√©al | 2 | All Maps","protocol":17,"map":"pl_snowycoast","folder":"tf","game":"Team Fortress","app_id":440,"player_count":0,"max_players":24,"Bots":0,"server_type":"Dedicated","server_os":"Linux","password":true,"vac":true,"version":"7757534","steam_id":85568392924500088,"keywords":["nocrits","nodmgspread","payload","uncletopia"],"game_id":440,"stv_port":27026,"stv_name":"Uncletopia | Montr√©al | 2 | All Maps | STV","players":null},{"server_id":302,"name":"Uncletopia | Montr√©al | 3 | All Maps","name_short":"mtl-3","host":"mtl-1.ca.uncletopia.com","port":27035,"enabled":true,"region":"us-east","cc":"ca","latitude":45.50889,"longitude":-73.56167,"reserved":0,"last_update":"0001-01-01T00:00:00Z","name_a2s":"Uncletopia | Montr√©al | 3 | All Maps","protocol":17,"map":"pl_swiftwater_final1","folder":"tf","game":"Team Fortress","app_id":440,"player_count":0,"max_players":24,"Bots":0,"server_type":"Dedicated","server_os":"Linux","password":true,"vac":true,"version":"7757534","steam_id":85568392924500089,"keywords":["nocrits","nodmgspread","payload","uncletopia"],"game_id":440,"stv_port":27036,"stv_name":"Uncletopia | Montr√©al | 3 | All Maps | STV","players":null},{"server_id":303,"name":"Uncletopia | Montr√©al | 4 | No Payload","name_short":"mtl-4","host":"mtl-1.ca.uncletopia.com","port":27045,"enabled":true,"region":"us-east","cc":"ca","latitude":45.50889,"longitude":-73.56167,"reserved":0,"last_update":"0001-01-01T00:00:00Z","name_a2s":"Uncletopia | Montr√©al | 4 | No Payload","protocol":17,"map":"pl_pier","folder":"tf","game":"Team Fortress","app_id":440,"player_count":0,"max_players":24,"Bots":0,"server_type":"Dedicated","server_os":"Linux","password":true,"vac":true,"version":"7757534","steam_id":85568392924500090,"keywords":["nocrits","nodmgspread","payload","uncletopia"],"game_id":440,"stv_port":27046,"stv_name":"Uncletopia | Montr√©al | 4 | No Payload | STV","players":null},{"server_id":13,"name":"Uncletopia | New York City | 1 | All Maps","name_short":"nyc-1","host":"nyc-1.us.uncletopia.com","port":27015,"enabled":true,"region":"us-east","cc":"us","latitude":40.73061,"longitude":-73.93524,"reserved":0,"last_update":"0001-01-01T00:00:00Z","name_a2s":"Uncletopia | New York City | 1 | All Maps","protocol":17,"map":"koth_viaduct","folder":"tf","game":"Team Fortress","app_id":440,"player_count":24,"max_players":24,"Bots":0,"server_type":"Dedicated","server_os":"Linux","password":true,"vac":true,"version":"7757534","steam_id":85568392924469993,"keywords":["cp","nocrits","nodmgspread","uncletopia"],"game_id":440,"stv_port":27016,"stv_name":"Uncletopia | New York City | 1 | All Maps | STV","players":[{"user_id":34,"name":"shanghai","steam_id":76561197997961542,"connected_time":137000000000,"state":"active","ping":71},{"user_id":10,"name":"The Horselords and Animal Gods","steam_id":76561197975094050,"connected_time":668000000000,"state":"active","ping":125},{"user_id":5,"name":"0","steam_id":76561197961095970,"connected_time":703000000000,"state":"active","ping":56},{"user_id":6,"name":"Chin","steam_id":76561198247426906,"connected_time":699000000000,"state":"active","ping":64},{"user_id":7,"name":"Orangecrust26","steam_id":76561199232443221,"connected_time":698000000000,"state":"active","ping":83},{"user_id":8,"name":"dicksouls26","steam_id":76561198838196266,"connected_time":696000000000,"state":"active","ping":65},{"user_id":11,"name":"PeopleLikeStuff","steam_id":76561198053416567,"connected_time":656000000000,"state":"active","ping":73},{"user_id":12,"name":"Horrizan","steam_id":76561197965028480,"connected_time":655000000000,"state":"active","ping":88},{"user_id":14,"name":"Mendo","steam_id":76561198068884273,"connected_time":627000000000,"state":"active","ping":55},{"user_id":16,"name":"Challenger Charles","steam_id":76561198005576553,"connected_time":597000000000,"state":"active","ping":71},{"user_id":27,"name":"somuch4stardust","steam_id":76561198174415170,"connected_time":260000000000,"state":"active","ping":44},{"user_id":18,"name":"Sneaky G.","steam_id":76561198823795781,"connected_time":462000000000,"state":"active","ping":67},{"user_id":23,"name":"Chicken Soup","steam_id":76561197989268948,"connected_time":283000000000,"state":"active","ping":113},{"user_id":20,"name":"Dr. Marvello","steam_id":76561198107573800,"connected_time":421000000000,"state":"active","ping":64},{"user_id":24,"name":"Underachiever Mako","steam_id":76561198207943169,"connected_time":282000000000,"state":"active","ping":55},{"user_id":25,"name":"The King","steam_id":76561198117344758,"connected_time":276000000000,"state":"active","ping":88},{"user_id":26,"name":"theghazinator","steam_id":76561198188027695,"connected_time":273000000000,"state":"active","ping":65},{"user_id":28,"name":"Alice in Rubberland","steam_id":76561198087328346,"connected_time":253000000000,"state":"active","ping":67},{"user_id":29,"name":"[_Dr.Scythe_]","steam_id":76561198845245858,"connected_time":227000000000,"state":"active","ping":104},{"user_id":30,"name":"DO NOT call me BART SIMPSON!!","steam_id":76561198069113375,"connected_time":221000000000,"state":"active","ping":57},{"user_id":31,"name":"Fiendish Frog","steam_id":76561198029478821,"connected_time":218000000000,"state":"active","ping":47},{"user_id":32,"name":"rad","steam_id":76561198413125750,"connected_time":200000000000,"state":"active","ping":49},{"user_id":33,"name":"CheeseCake488","steam_id":76561199407617942,"connected_time":184000000000,"state":"active","ping":201},{"user_id":35,"name":"smelly boy james(he stinkin)","steam_id":76561197997006216,"connected_time":129000000000,"state":"active","ping":69}]},{"server_id":14,"name":"Uncletopia | New York City | 2 | All Maps","name_short":"nyc-2","host":"nyc-1.us.uncletopia.com","port":27025,"enabled":true,"region":"us-east","cc":"us","latitude":40.73061,"longitude":-73.93524,"reserved":0,"last_update":"0001-01-01T00:00:00Z","name_a2s":"Uncletopia | New York City | 2 | All Maps","protocol":17,"map":"pl_badwater","folder":"tf","game":"Team Fortress","app_id":440,"player_count":0,"max_players":24,"Bots":0,"server_type":"Dedicated","server_os":"Linux","password":true,"vac":true,"version":"7757534","steam_id":85568392924469994,"keywords":["nocrits","nodmgspread","payload","uncletopia"],"game_id":440,"stv_port":27026,"stv_name":"Uncletopia | New York City | 2 | All Maps | STV","players":null},{"server_id":15,"name":"Uncletopia | New York City | 3 | Stopwatch Beta","name_short":"nyc-3","host":"nyc-1.us.uncletopia.com","port":27035,"enabled":true,"region":"us-east","cc":"us","latitude":40.73061,"longitude":-73.93524,"reserved":0,"last_update":"0001-01-01T00:00:00Z","name_a2s":"Uncletopia | New York City | 3 | Stopwatch Beta","protocol":17,"map":"pl_upward","folder":"tf","game":"Team Fortress","app_id":440,"player_count":0,"max_players":24,"Bots":0,"server_type":"Dedicated","server_os":"Linux","password":true,"vac":true,"version":"7757534","steam_id":85568392924742820,"keywords":["nocrits","nodmgspread","payload","uncletopia"],"game_id":440,"stv_port":27036,"stv_name":"Uncletopia | New York City | 3 | Stopwatch Beta | STV","players":null},{"server_id":16,"name":"Uncletopia | New York City | 4 | Community","name_short":"nyc-4","host":"nyc-1.us.uncletopia.com","port":27045,"enabled":true,"region":"us-east","cc":"us","latitude":40.73061,"longitude":-73.93524,"reserved":0,"last_update":"0001-01-01T00:00:00Z","name_a2s":"Uncletopia | New York City | 4 | Community","protocol":17,"map":"pl_swiftwater_final1","folder":"tf","game":"Team Fortress","app_id":440,"player_count":0,"max_players":24,"Bots":0,"server_type":"Dedicated","server_os":"Linux","password":true,"vac":true,"version":"7757534","steam_id":85568392924742821,"keywords":["nocrits","nodmgspread","payload","uncletopia"],"game_id":440,"stv_port":27046,"stv_name":"Uncletopia | New York City | 4 | Community | STV","players":null},{"server_id":142,"name":"Uncletopia | S√£o Paulo | 1 | All Maps","name_short":"sao-1","host":"sao-1.br.uncletopia.com","port":27015,"enabled":true,"region":"sa","cc":"br","latitude":-23.533773,"longitude":-46.62529,"reserved":0,"last_update":"0001-01-01T00:00:00Z","name_a2s":"Uncletopia | S√£o Paulo | 1 | All Maps","protocol":17,"map":"koth_lakeside_final","folder":"tf","game":"Team Fortress","app_id":440,"player_count":0,"max_players":24,"Bots":0,"server_type":"Dedicated","server_os":"Linux","password":true,"vac":true,"version":"7757534","steam_id":85568392924469996,"keywords":["cp","nocrits","nodmgspread","uncletopia"],"game_id":440,"stv_port":27016,"stv_name":"Uncletopia | S√£o Paulo | 1 | All Maps | STV","players":null},{"server_id":143,"name":"Uncletopia | S√£o Paulo | 2 | All Maps","name_short":"sao-2","host":"sao-2.br.uncletopia.com","port":27015,"enabled":true,"region":"sa","cc":"br","latitude":-23.533773,"longitude":-46.62529,"reserved":0,"last_update":"0001-01-01T00:00:00Z","name_a2s":"Uncletopia | S√£o Paulo | 2 | All Maps","protocol":17,"map":"pl_borneo","folder":"tf","game":"Team Fortress","app_id":440,"player_count":0,"max_players":24,"Bots":0,"server_type":"Dedicated","server_os":"Linux","password":true,"vac":true,"version":"7757534","steam_id":85568392924485349,"keywords":["nocrits","nodmgspread","payload","uncletopia"],"game_id":440,"stv_port":27016,"stv_name":"Uncletopia | S√£o Paulo | 2 | All Maps | STV","players":null},{"server_id":7,"name":"Uncletopia | Seattle | 1 | All Maps","name_short":"sea-1","host":"sea-1.us.uncletopia.com","port":27015,"enabled":true,"region":"us-west","cc":"us","latitude":47.608013,"longitude":-122.33517,"reserved":0,"last_update":"0001-01-01T00:00:00Z","name_a2s":"Uncletopia | Seattle | 1 | All Maps","protocol":17,"map":"koth_lakeside_final","folder":"tf","game":"Team Fortress","app_id":440,"player_count":24,"max_players":24,"Bots":0,"server_type":"Dedicated","server_os":"Linux","password":true,"vac":true,"version":"7757534","steam_id":85568392924469997,"keywords":["cp","nocrits","nodmgspread","uncletopia"],"game_id":440,"stv_port":27016,"stv_name":"Uncletopia | Seattle | 1 | All Maps | STV","players":[{"user_id":15,"name":"Matte :)","steam_id":76561198070631073,"connected_time":648000000000,"state":"active","ping":60},{"user_id":4,"name":"WaffleWithNoToppings","steam_id":76561199088280111,"connected_time":665000000000,"state":"active","ping":54},{"user_id":5,"name":"p9 thunderous prophet","steam_id":76561198131166135,"connected_time":665000000000,"state":"active","ping":33},{"user_id":6,"name":"Mom","steam_id":76561198207936000,"connected_time":662000000000,"state":"active","ping":59},{"user_id":7,"name":"pyrotechnic","steam_id":76561198043558709,"connected_time":661000000000,"state":"active","ping":46},{"user_id":8,"name":"\\m/ Cyfun (she/it)","steam_id":76561197960882221,"connected_time":659000000000,"state":"active","ping":88},{"user_id":17,"name":"(¬¥-Œπ_-ÔΩÄ)","steam_id":76561198007464245,"connected_time":639000000000,"state":"active","ping":120},{"user_id":10,"name":"gun spy gaming","steam_id":76561198880739963,"connected_time":658000000000,"state":"active","ping":67},{"user_id":11,"name":"what is","steam_id":76561198329367716,"connected_time":658000000000,"state":"active","ping":84},{"user_id":12,"name":"QTwitchy","steam_id":76561198296177186,"connected_time":657000000000,"state":"active","ping":65},{"user_id":14,"name":"NEBULA","steam_id":76561198086878595,"connected_time":651000000000,"state":"active","ping":75},{"user_id":18,"name":"CopperBox","steam_id":76561198068217248,"connected_time":638000000000,"state":"active","ping":90},{"user_id":19,"name":"An Old Lady","steam_id":76561198047480318,"connected_time":637000000000,"state":"active","ping":79},{"user_id":20,"name":"Ayayahuasca","steam_id":76561199002906056,"connected_time":634000000000,"state":"active","ping":53},{"user_id":21,"name":"The King of Piss World","steam_id":76561198082806956,"connected_time":633000000000,"state":"active","ping":121},{"user_id":22,"name":"SirBagettue","steam_id":76561199010270588,"connected_time":632000000000,"state":"active","ping":85},{"user_id":23,"name":"LemonPoppyMuffin","steam_id":76561198044813750,"connected_time":627000000000,"state":"active","ping":86},{"user_id":24,"name":"super-oofio64","steam_id":76561198954052123,"connected_time":627000000000,"state":"active","ping":73},{"user_id":25,"name":"rorywashere /·ê† - Àï -„Éû ‚≥ä","steam_id":76561198065825165,"connected_time":626000000000,"state":"active","ping":120},{"user_id":26,"name":"https://en.wikipedia.org/","steam_id":76561198261326806,"connected_time":624000000000,"state":"active","ping":74},{"user_id":27,"name":"Aardappel","steam_id":76561198030894676,"connected_time":623000000000,"state":"active","ping":75},{"user_id":28,"name":"littengamer1112","steam_id":76561198992690060,"connected_time":622000000000,"state":"active","ping":70},{"user_id":32,"name":"Bloom","steam_id":76561199065581662,"connected_time":557000000000,"state":"active","ping":102},{"user_id":33,"name":"p9 jorts weed syrup","steam_id":76561199041179985,"connected_time":543000000000,"state":"active","ping":63}]},{"server_id":119,"name":"Uncletopia | Seattle | 2 | All Maps","name_short":"sea-2","host":"sea-1.us.uncletopia.com","port":27025,"enabled":true,"region":"us-west","cc":"us","latitude":47.608013,"longitude":-122.33517,"reserved":0,"last_update":"0001-01-01T00:00:00Z","name_a2s":"Uncletopia | Seattle | 2 | All Maps","protocol":17,"map":"pl_badwater","folder":"tf","game":"Team Fortress","app_id":440,"player_count":24,"max_players":24,"Bots":0,"server_type":"Dedicated","server_os":"Linux","password":true,"vac":true,"version":"7757534","steam_id":85568392924469998,"keywords":["nocrits","nodmgspread","payload","uncletopia"],"game_id":440,"stv_port":27026,"stv_name":"Uncletopia | Seattle | 2 | All Maps | STV","players":[{"user_id":5,"name":"SwoopShoot","steam_id":76561199024079388,"connected_time":651000000000,"state":"active","ping":44},{"user_id":11,"name":"TrixieHap","steam_id":76561198728548389,"connected_time":633000000000,"state":"active","ping":58},{"user_id":6,"name":"Banzailizard","steam_id":76561197986785469,"connected_time":649000000000,"state":"active","ping":103},{"user_id":7,"name":"Darghul the Skeleton Lord","steam_id":76561198004140161,"connected_time":648000000000,"state":"active","ping":94},{"user_id":8,"name":"A UsedNom","steam_id":76561198402832756,"connected_time":648000000000,"state":"active","ping":55},{"user_id":9,"name":"Keamy","steam_id":76561199471434875,"connected_time":645000000000,"state":"active","ping":41},{"user_id":12,"name":"Algibruh","steam_id":76561199221599415,"connected_time":632000000000,"state":"active","ping":47},{"user_id":13,"name":"MonteJT","steam_id":76561198055409360,"connected_time":632000000000,"state":"active","ping":30},{"user_id":14,"name":"Grammaring","steam_id":76561198867366139,"connected_time":628000000000,"state":"active","ping":79},{"user_id":15,"name":"nathan","steam_id":76561198170402666,"connected_time":623000000000,"state":"active","ping":65},{"user_id":31,"name":"hardfork","steam_id":76561197960958019,"connected_time":261000000000,"state":"active","ping":45},{"user_id":17,"name":"Gary, 40, soul sucking 9-5","steam_id":76561198073812888,"connected_time":606000000000,"state":"active","ping":45},{"user_id":19,"name":"Internal Screaming","steam_id":76561198272327629,"connected_time":589000000000,"state":"active","ping":77},{"user_id":32,"name":"brhm","steam_id":76561198199604767,"connected_time":232000000000,"state":"active","ping":50},{"user_id":21,"name":"John Wick's puppy","steam_id":76561198064662875,"connected_time":579000000000,"state":"active","ping":64},{"user_id":22,"name":"Big Jon","steam_id":76561198402285099,"connected_time":567000000000,"state":"active","ping":84},{"user_id":23,"name":"Jaded","steam_id":76561198272575611,"connected_time":560000000000,"state":"active","ping":128},{"user_id":24,"name":"Rat","steam_id":76561199102985277,"connected_time":552000000000,"state":"active","ping":157},{"user_id":25,"name":"Big Mon","steam_id":76561198409907417,"connected_time":545000000000,"state":"active","ping":101},{"user_id":26,"name":"The_Pacific_gamer","steam_id":76561198089491446,"connected_time":536000000000,"state":"active","ping":45},{"user_id":27,"name":"chompmastr","steam_id":76561199121805899,"connected_time":530000000000,"state":"active","ping":57},{"user_id":28,"name":"Toastedtoast222","steam_id":76561198120756409,"connected_time":500000000000,"state":"active","ping":54},{"user_id":29,"name":"PokemzX","steam_id":76561198303574256,"connected_time":492000000000,"state":"active","ping":49},{"user_id":30,"name":"maggie","steam_id":76561198041874647,"connected_time":488000000000,"state":"active","ping":44}]},{"server_id":406,"name":"Uncletopia | Seattle | 3 | Stopwatch Beta","name_short":"sea-3","host":"sea-1.us.uncletopia.com","port":27035,"enabled":true,"region":"us-west","cc":"us","latitude":47.608013,"longitude":-122.33517,"reserved":0,"last_update":"0001-01-01T00:00:00Z","name_a2s":"Uncletopia | Seattle | 3 | Stopwatch Beta","protocol":17,"map":"cp_dustbowl","folder":"tf","game":"Team Fortress","app_id":440,"player_count":1,"max_players":24,"Bots":0,"server_type":"Dedicated","server_os":"Linux","password":true,"vac":true,"version":"7757534","steam_id":85568392924515217,"keywords":["cp","nocrits","nodmgspread","uncletopia"],"game_id":440,"stv_port":27036,"stv_name":"Uncletopia | Seattle | 3 | Stopwatch Beta | STV","players":[{"user_id":5,"name":"Dosario","steam_id":76561198298095535,"connected_time":199000000000,"state":"active","ping":55}]},{"server_id":17,"name":"Uncletopia | San Francisco | 1 | All Maps","name_short":"sfo-1","host":"sfo-1.us.uncletopia.com","port":27015,"enabled":true,"region":"us-west","cc":"us","latitude":37.77397,"longitude":-122.4313,"reserved":0,"last_update":"0001-01-01T00:00:00Z","name_a2s":"Uncletopia | San Francisco | 1 | All Maps","protocol":17,"map":"cp_process_final","folder":"tf","game":"Team Fortress","app_id":440,"player_count":9,"max_players":24,"Bots":0,"server_type":"Dedicated","server_os":"Linux","password":true,"vac":true,"version":"7757534","steam_id":85568392924469999,"keywords":["cp","nocrits","nodmgspread","uncletopia"],"game_id":440,"stv_port":27016,"stv_name":"Uncletopia | San Francisco | 1 | All Maps | STV","players":[{"user_id":7,"name":"possum gamer (noob)","steam_id":76561198057138795,"connected_time":596000000000,"state":"active","ping":74},{"user_id":4,"name":"Saggy","steam_id":76561198166706479,"connected_time":652000000000,"state":"active","ping":107},{"user_id":13,"name":"damnster","steam_id":76561199223077730,"connected_time":301000000000,"state":"active","ping":355},{"user_id":8,"name":"ferby","steam_id":76561198028229594,"connected_time":594000000000,"state":"active","ping":50},{"user_id":9,"name":"Sierra Foxtrot","steam_id":76561197996667382,"connected_time":588000000000,"state":"active","ping":99},{"user_id":10,"name":"Robogineer","steam_id":76561198026994739,"connected_time":586000000000,"state":"active","ping":60},{"user_id":11,"name":"Thunder","steam_id":76561198795676044,"connected_time":403000000000,"state":"active","ping":48},{"user_id":16,"name":"Superman123389","steam_id":76561198267472539,"connected_time":9000000000,"state":"active","ping":116},{"user_id":14,"name":"LProduct","steam_id":76561199442139670,"connected_time":223000000000,"state":"active","ping":100}]},{"server_id":18,"name":"Uncletopia | San Francisco | 2 | All Maps","name_short":"sfo-2","host":"sfo-1.us.uncletopia.com","port":27025,"enabled":true,"region":"us-west","cc":"us","latitude":37.77397,"longitude":-122.4313,"reserved":0,"last_update":"0001-01-01T00:00:00Z","name_a2s":"Uncletopia | San Francisco | 2 | All Maps","protocol":17,"map":"koth_highpass","folder":"tf","game":"Team Fortress","app_id":440,"player_count":18,"max_players":24,"Bots":0,"server_type":"Dedicated","server_os":"Linux","password":true,"vac":true,"version":"7757534","steam_id":85568392924470000,"keywords":["cp","nocrits","nodmgspread","uncletopia"],"game_id":440,"stv_port":27026,"stv_name":"Uncletopia | San Francisco | 2 | All Maps | STV","players":[{"user_id":3,"name":"Nuggies","steam_id":76561198272432592,"connected_time":656000000000,"state":"active","ping":56},{"user_id":4,"name":"89","steam_id":76561198106308056,"connected_time":651000000000,"state":"active","ping":51},{"user_id":5,"name":"landogg","steam_id":76561198049000586,"connected_time":650000000000,"state":"active","ping":61},{"user_id":15,"name":"megaroboleg","steam_id":76561198844644993,"connected_time":445000000000,"state":"active","ping":57},{"user_id":20,"name":"Magma@goblinzone.com","steam_id":76561198167279375,"connected_time":266000000000,"state":"active","ping":48},{"user_id":8,"name":"A Shiny Meat Bicycle","steam_id":76561198358757709,"connected_time":632000000000,"state":"active","ping":137},{"user_id":9,"name":"Barack Obama Gaming","steam_id":76561198129242016,"connected_time":621000000000,"state":"active","ping":75},{"user_id":10,"name":"Penguin","steam_id":76561198987947291,"connected_time":618000000000,"state":"active","ping":58},{"user_id":21,"name":"Ice cream sandwich","steam_id":76561198172748357,"connected_time":218000000000,"state":"active","ping":47},{"user_id":27,"name":"Juanelo","steam_id":76561199096390505,"connected_time":56000000000,"state":"spawning","ping":83},{"user_id":13,"name":"Butterfly Pancakes","steam_id":76561198286158414,"connected_time":514000000000,"state":"active","ping":61},{"user_id":14,"name":"Lv. 5 Grunt","steam_id":76561198800334545,"connected_time":502000000000,"state":"active","ping":61},{"user_id":23,"name":"Profile Name","steam_id":76561198083985586,"connected_time":165000000000,"state":"active","ping":45},{"user_id":24,"name":"Hotdog Flavoured Water","steam_id":76561198403730127,"connected_time":120000000000,"state":"active","ping":83},{"user_id":25,"name":"Johnny Bigair","steam_id":76561199082237494,"connected_time":108000000000,"state":"active","ping":76},{"user_id":26,"name":"Flyingcat9000","steam_id":76561198179561797,"connected_time":75000000000,"state":"active","ping":31},{"user_id":28,"name":"Ôº¨Ôº£Ôº¨","steam_id":76561198100083918,"connected_time":48000000000,"state":"active","ping":86},{"user_id":30,"name":"Copy","steam_id":76561198025031590,"connected_time":29000000000,"state":"active","ping":73}]},{"server_id":19,"name":"Uncletopia | San Francisco | 3 | Stopwatch Beta","name_short":"sfo-3","host":"sfo-1.us.uncletopia.com","port":27035,"enabled":true,"region":"us-west","cc":"us","latitude":37.77397,"longitude":-122.4313,"reserved":0,"last_update":"0001-01-01T00:00:00Z","name_a2s":"Uncletopia | San Francisco | 3 | Stopwatch Beta","protocol":17,"map":"koth_lakeside_final","folder":"tf","game":"Team Fortress","app_id":440,"player_count":0,"max_players":24,"Bots":0,"server_type":"Dedicated","server_os":"Linux","password":true,"vac":true,"version":"7757534","steam_id":85568392924742824,"keywords":["cp","nocrits","nodmgspread","uncletopia"],"game_id":440,"stv_port":27036,"stv_name":"Uncletopia | San Francisco | 3 | Stopwatch Beta | STV","players":null},{"server_id":20,"name":"Uncletopia | San Francisco | 4 | Community","name_short":"sfo-4","host":"sfo-1.us.uncletopia.com","port":27045,"enabled":true,"region":"us-west","cc":"us","latitude":37.77397,"longitude":-122.4313,"reserved":0,"last_update":"0001-01-01T00:00:00Z","name_a2s":"Uncletopia | San Francisco | 4 | Community","protocol":17,"map":"cp_altitude","folder":"tf","game":"Team Fortress","app_id":440,"player_count":0,"max_players":24,"Bots":0,"server_type":"Dedicated","server_os":"Linux","password":true,"vac":true,"version":"7757534","steam_id":85568392924742826,"keywords":["cp","nocrits","nodmgspread","uncletopia"],"game_id":440,"stv_port":27046,"stv_name":"Uncletopia | San Francisco | 4 | Community | STV","players":null},{"server_id":141,"name":"Uncletopia | Sydney | 1 | All Maps","name_short":"syd-1","host":"syd-1.au.uncletopia.com","port":27015,"enabled":true,"region":"au","cc":"au","latitude":-33.865143,"longitude":151.2099,"reserved":0,"last_update":"0001-01-01T00:00:00Z","name_a2s":"Uncletopia | Sydney | 1 | All Maps","protocol":17,"map":"koth_viaduct","folder":"tf","game":"Team Fortress","app_id":440,"player_count":20,"max_players":24,"Bots":0,"server_type":"Dedicated","server_os":"Linux","password":true,"vac":true,"version":"7757534","steam_id":85568392924470001,"keywords":["cp","nocrits","nodmgspread","uncletopia"],"game_id":440,"stv_port":27016,"stv_name":"Uncletopia | Sydney | 1 | All Maps | STV","players":[{"user_id":13,"name":"don't bully me, I'll cum :(","steam_id":76561198306660831,"connected_time":699000000000,"state":"active","ping":68},{"user_id":9,"name":"Zieria","steam_id":76561199261811388,"connected_time":708000000000,"state":"active","ping":34},{"user_id":8,"name":"Tees","steam_id":76561199174602317,"connected_time":708000000000,"state":"active","ping":51},{"user_id":6,"name":"Mikey","steam_id":76561198438203131,"connected_time":720000000000,"state":"active","ping":60},{"user_id":7,"name":"Sneevil Gladiator (Level 2)","steam_id":76561198301282416,"connected_time":717000000000,"state":"active","ping":56},{"user_id":31,"name":"Raypest","steam_id":76561197980678745,"connected_time":558000000000,"state":"active","ping":44},{"user_id":11,"name":"Fleetfoot","steam_id":76561198072845816,"connected_time":704000000000,"state":"active","ping":46},{"user_id":19,"name":"Pug","steam_id":76561198136794372,"connected_time":691000000000,"state":"active","ping":53},{"user_id":14,"name":"BruceWillis235","steam_id":76561198884324029,"connected_time":698000000000,"state":"active","ping":92},{"user_id":39,"name":"WMCheese1372 YT","steam_id":76561199107211696,"connected_time":108000000000,"state":"active","ping":54},{"user_id":16,"name":"Etihad Sponsorship (legal)","steam_id":76561198031293430,"connected_time":697000000000,"state":"active","ping":88},{"user_id":17,"name":"No Scrubs","steam_id":76561197969619053,"connected_time":694000000000,"state":"active","ping":70},{"user_id":26,"name":"alqwnq","steam_id":76561198133867907,"connected_time":667000000000,"state":"active","ping":66},{"user_id":20,"name":"Top Ramen","steam_id":76561198028969833,"connected_time":688000000000,"state":"active","ping":46},{"user_id":40,"name":"first time dementia haver","steam_id":76561198083700749,"connected_time":93000000000,"state":"active","ping":41},{"user_id":22,"name":"EpicGuy4227","steam_id":76561198094132328,"connected_time":684000000000,"state":"active","ping":53},{"user_id":42,"name":"Snake101","steam_id":76561198418910767,"connected_time":16000000000,"state":"active","ping":57},{"user_id":24,"name":"Niger (Country)","steam_id":76561198318514802,"connected_time":671000000000,"state":"active","ping":134},{"user_id":25,"name":"Gwarp","steam_id":76561198061960926,"connected_time":670000000000,"state":"active","ping":91},{"user_id":37,"name":"sencha","steam_id":76561198294645982,"connected_time":344000000000,"state":"active","ping":59}]},{"server_id":123,"name":"Uncletopia | Sydney | 2 | All Maps","name_short":"syd-2","host":"syd-1.au.uncletopia.com","port":27025,"enabled":true,"region":"au","cc":"au","latitude":-33.865143,"longitude":151.2099,"reserved":0,"last_update":"0001-01-01T00:00:00Z","name_a2s":"Uncletopia | Sydney | 2 | All Maps","protocol":17,"map":"cp_process_final","folder":"tf","game":"Team Fortress","app_id":440,"player_count":0,"max_players":24,"Bots":0,"server_type":"Dedicated","server_os":"Linux","password":true,"vac":true,"version":"7757534","steam_id":85568392924470002,"keywords":["cp","nocrits","nodmgspread","uncletopia"],"game_id":440,"stv_port":27026,"stv_name":"Uncletopia | Sydney | 2 | All Maps | STV","players":null},{"server_id":395,"name":"Uncletopia | Sydney | 3 | All Maps","name_short":"syd-3","host":"syd-1.au.uncletopia.com","port":27035,"enabled":true,"region":"au","cc":"au","latitude":-33.865143,"longitude":151.2099,"reserved":0,"last_update":"0001-01-01T00:00:00Z","name_a2s":"Uncletopia | Sydney | 3 | All Maps","protocol":17,"map":"pl_swiftwater_final1","folder":"tf","game":"Team Fortress","app_id":440,"player_count":0,"max_players":24,"Bots":0,"server_type":"Dedicated","server_os":"Linux","password":true,"vac":true,"version":"7757534","steam_id":85568392925194467,"keywords":["nocrits","nodmgspread","payload","uncletopia"],"game_id":440,"stv_port":27036,"stv_name":"Uncletopia | Sydney | 3 | All Maps | STV","players":null},{"server_id":396,"name":"Uncletopia | Sydney | 4 | All Maps","name_short":"syd-4","host":"syd-1.au.uncletopia.com","port":27045,"enabled":true,"region":"au","cc":"au","latitude":-33.865143,"longitude":151.2099,"reserved":0,"last_update":"0001-01-01T00:00:00Z","name_a2s":"Uncletopia | Sydney | 4 | All Maps","protocol":17,"map":"koth_highpass","folder":"tf","game":"Team Fortress","app_id":440,"player_count":0,"max_players":24,"Bots":0,"server_type":"Dedicated","server_os":"Linux","password":true,"vac":true,"version":"7757534","steam_id":85568392925397958,"keywords":["cp","nocrits","nodmgspread","uncletopia"],"game_id":440,"stv_port":27046,"stv_name":"Uncletopia | Sydney | 4 | All Maps | STV","players":null},{"server_id":58,"name":"Uncletopia | Sydney | 5 | Stopwatch Beta","name_short":"syd-5","host":"syd-1.au.uncletopia.com","port":27055,"enabled":true,"region":"au","cc":"au","latitude":-33.865143,"longitude":151.2099,"reserved":0,"last_update":"0001-01-01T00:00:00Z","name_a2s":"Uncletopia | Sydney | 5 | Stopwatch Beta","protocol":17,"map":"koth_cascade","folder":"tf","game":"Team Fortress","app_id":440,"player_count":0,"max_players":24,"Bots":0,"server_type":"Dedicated","server_os":"Linux","password":true,"vac":true,"version":"7757534","steam_id":85568392925397959,"keywords":["cp","nocrits","nodmgspread","uncletopia"],"game_id":440,"stv_port":27056,"stv_name":"Uncletopia | Sydney | 5 | Stopwatch Beta | STV","players":null},{"server_id":59,"name":"Uncletopia | Sydney | 6 | Community","name_short":"syd-6","host":"syd-1.au.uncletopia.com","port":27065,"enabled":true,"region":"au","cc":"au","latitude":-33.865143,"longitude":151.2099,"reserved":0,"last_update":"0001-01-01T00:00:00Z","name_a2s":"Uncletopia | Sydney | 6 | Community","protocol":17,"map":"cp_snakewater_final1","folder":"tf","game":"Team Fortress","app_id":440,"player_count":0,"max_players":24,"Bots":0,"server_type":"Dedicated","server_os":"Linux","password":true,"vac":true,"version":"7757534","steam_id":85568392925397960,"keywords":["cp","nocrits","nodmgspread","uncletopia"],"game_id":440,"stv_port":27066,"stv_name":"Uncletopia | Sydney | 6 | Community | STV","players":null},{"server_id":49,"name":"Uncletopia | Warsaw | 1 | All Maps","name_short":"waw-1","host":"waw-1.pl.uncletopia.com","port":27015,"enabled":true,"region":"eu","cc":"pl","latitude":52.2297,"longitude":21.017532,"reserved":0,"last_update":"0001-01-01T00:00:00Z","name_a2s":"","protocol":0,"map":"","folder":"","game":"","app_id":0,"player_count":0,"max_players":0,"Bots":0,"server_type":"","server_os":"","password":false,"vac":false,"version":"","steam_id":0,"keywords":null,"game_id":0,"stv_port":0,"stv_name":"","players":null},{"server_id":50,"name":"Uncletopia | Warsaw | 2 | All Maps","name_short":"waw-2","host":"waw-1.pl.uncletopia.com","port":27025,"enabled":true,"region":"eu","cc":"pl","latitude":52.2297,"longitude":21.017532,"reserved":0,"last_update":"0001-01-01T00:00:00Z","name_a2s":"Uncletopia | Warsaw | 2 | All Maps","protocol":17,"map":"koth_viaduct","folder":"tf","game":"Team Fortress","app_id":440,"player_count":0,"max_players":24,"Bots":0,"server_type":"Dedicated","server_os":"Linux","password":true,"vac":true,"version":"7757534","steam_id":85568392925397851,"keywords":["cp","nocrits","nodmgspread","uncletopia"],"game_id":440,"stv_port":27026,"stv_name":"Uncletopia | Warsaw | 2 | All Maps | STV","players":null},{"server_id":51,"name":"Uncletopia | Warsaw | 3 | All Maps","name_short":"waw-3","host":"waw-1.pl.uncletopia.com","port":27035,"enabled":true,"region":"eu","cc":"pl","latitude":52.2297,"longitude":21.017532,"reserved":0,"last_update":"0001-01-01T00:00:00Z","name_a2s":"Uncletopia | Warsaw | 3 | All Maps","protocol":17,"map":"pl_badwater","folder":"tf","game":"Team Fortress","app_id":440,"player_count":0,"max_players":24,"Bots":0,"server_type":"Dedicated","server_os":"Linux","password":true,"vac":true,"version":"7757534","steam_id":85568392925397852,"keywords":["nocrits","nodmgspread","payload","uncletopia"],"game_id":440,"stv_port":27036,"stv_name":"Uncletopia | Warsaw | 3 | All Maps | STV","players":null},{"server_id":52,"name":"Uncletopia | Warsaw | 4 | All Maps","name_short":"waw-4","host":"waw-1.pl.uncletopia.com","port":27045,"enabled":true,"region":"eu","cc":"pl","latitude":52.2297,"longitude":21.017532,"reserved":0,"last_update":"0001-01-01T00:00:00Z","name_a2s":"Uncletopia | Warsaw | 4 | All Maps","protocol":17,"map":"koth_lakeside_final","folder":"tf","game":"Team Fortress","app_id":440,"player_count":0,"max_players":24,"Bots":0,"server_type":"Dedicated","server_os":"Linux","password":true,"vac":true,"version":"7757534","steam_id":85568392925397853,"keywords":["cp","nocrits","nodmgspread","uncletopia"],"game_id":440,"stv_port":27046,"stv_name":"Uncletopia | Warsaw | 4 | All Maps | STV","players":null},{"server_id":53,"name":"Uncletopia | Warsaw | 5 | Stopwatch Beta","name_short":"waw-5","host":"waw-1.pl.uncletopia.com","port":27055,"enabled":true,"region":"eu","cc":"pl","latitude":52.2297,"longitude":21.017532,"reserved":0,"last_update":"0001-01-01T00:00:00Z","name_a2s":"Uncletopia | Warsaw | 5 | Stopwatch Beta","protocol":17,"map":"pl_borneo","folder":"tf","game":"Team Fortress","app_id":440,"player_count":0,"max_players":24,"Bots":0,"server_type":"Dedicated","server_os":"Linux","password":true,"vac":true,"version":"7757534","steam_id":85568392925397854,"keywords":["nocrits","nodmgspread","payload","uncletopia"],"game_id":440,"stv_port":27056,"stv_name":"Uncletopia | Warsaw | 5 | Stopwatch Beta | STV","players":null},{"server_id":54,"name":"Uncletopia | Warsaw | 6 | Community","name_short":"waw-6","host":"waw-1.pl.uncletopia.com","port":27065,"enabled":true,"region":"eu","cc":"pl","latitude":52.2297,"longitude":21.017532,"reserved":0,"last_update":"0001-01-01T00:00:00Z","name_a2s":"Uncletopia | Warsaw | 6 | Community","protocol":17,"map":"koth_lakeside_final","folder":"tf","game":"Team Fortress","app_id":440,"player_count":0,"max_players":24,"Bots":0,"server_type":"Dedicated","server_os":"Linux","password":true,"vac":true,"version":"7757534","steam_id":85568392925397856,"keywords":["cp","nocrits","nodmgspread","uncletopia"],"game_id":440,"stv_port":27066,"stv_name":"Uncletopia | Warsaw | 6 | Community | STV","players":null}]}