{"status":true,"message":"","result":[{"server_id":9,"name":"Uncletopia | Atlanta | 1 | All Maps","name_short":"atl-1","host":"atl-1.us.uncletopia.com","port":27015,"enabled":true,"region":"us-east","cc":"us","latitude":33.753746,"longitude":-84.38633,"reserved":0,"last_update":"0001-01-01T00:00:00Z","name_a2s":"Uncletopia | Atlanta | 1 | All Maps","protocol":17,"map":"pl_barnblitz","folder":"tf","game":"Team Fortress","app_id":440,"player_count":24,"max_players":24,"Bots":0,"server_type":"Dedicated","server_os":"Linux","password":true,"vac":true,"version":"7961495","steam_id":85568392924469982,"keywords":["cp","nocrits","nodmgspread","uncletopia"],"game_id":440,"stv_port":27016,"stv_name":"Uncletopia | Atlanta | 1 | All Maps | STV","players":[{"user_id":369,"name":"row","steam_id":76561198040946044,"connected_time":3453000000000,"state":"connecting","ping":74},{"user_id":388,"name":"harris teeter enthusiast","steam_id":76561198321627268,"connected_time":1905000000000,"state":"connecting","ping":118},{"user_id":378,"name":"are u five??","steam_id":76561198197058638,"connected_time":2549000000000,"state":"connecting","ping":59},{"user_id":309,"name":"pangos moms wife","steam_id":76561198128164970,"connected_time":4298000000000,"state":"connecting","ping":119},{"user_id":399,"name":"jpuck","steam_id":76561198025018960,"connected_time":879000000000,"state":"connecting","ping":57},{"user_id":371,"name":"Mr_Frosty","steam_id":76561199380389079,"connected_time":3438000000000,"state":"connecting","ping":86},{"user_id":421,"name":"Tyco","steam_id":76561197978414167,"connected_time":3000000000,"state":"connecting","ping":84},{"user_id":396,"name":"ae","steam_id":76561198185490827,"connected_time":1050000000000,"state":"connecting","ping":104},{"user_id":263,"name":"eish","steam_id":76561198089463603,"connected_time":7485000000000,"state":"connecting","ping":142},{"user_id":400,"name":"lil hog","steam_id":76561199230929836,"connected_time":878000000000,"state":"connecting","ping":101},{"user_id":422,"name":"ATL1 | to4st","steam_id":76561198981009008,"connected_time":1000000000,"state":"connecting","ping":0},{"user_id":365,"name":"[B|B] Krissy","steam_id":76561197960848174,"connected_time":3475000000000,"state":"connecting","ping":79},{"user_id":419,"name":"FIJI","steam_id":76561198126087725,"connected_time":18000000000,"state":"connecting","ping":74},{"user_id":401,"name":"Gheeotine","steam_id":76561198010181698,"connected_time":802000000000,"state":"connecting","ping":86},{"user_id":416,"name":"Chernov","steam_id":76561198014463424,"connected_time":417000000000,"state":"connecting","ping":78},{"user_id":391,"name":"Thotimus Begonimus","steam_id":76561197970275938,"connected_time":1889000000000,"state":"connecting","ping":59},{"user_id":420,"name":"Oxygen User","steam_id":76561199111975528,"connected_time":18000000000,"state":"connecting","ping":80},{"user_id":372,"name":"Ashes!","steam_id":76561197998475441,"connected_time":3437000000000,"state":"connecting","ping":80},{"user_id":373,"name":"Kitt(eh)  ‚àë:3","steam_id":76561198110858518,"connected_time":2941000000000,"state":"connecting","ping":102},{"user_id":375,"name":"young_gun_apc","steam_id":76561198964009346,"connected_time":2882000000000,"state":"connecting","ping":67},{"user_id":377,"name":"i misd :(","steam_id":76561198172454407,"connected_time":2832000000000,"state":"connecting","ping":142},{"user_id":306,"name":"NeptuneÀñ‚Å∫ÔΩ°Àö‚ãÜÀô‚ô•","steam_id":76561199054203198,"connected_time":4368000000000,"state":"connecting","ping":76},{"user_id":394,"name":"Dim","steam_id":76561198061411324,"connected_time":1294000000000,"state":"connecting","ping":83},{"user_id":387,"name":"joe","steam_id":76561198045781320,"connected_time":2071000000000,"state":"connecting","ping":77}]},{"server_id":104,"name":"Uncletopia | Atlanta | 2 | All Maps","name_short":"atl-2","host":"atl-1.us.uncletopia.com","port":27025,"enabled":true,"region":"us-east","cc":"us","latitude":33.753746,"longitude":-84.38633,"reserved":0,"last_update":"0001-01-01T00:00:00Z","name_a2s":"Uncletopia | Atlanta | 2 | All Maps","protocol":17,"map":"koth_highpass","folder":"tf","game":"Team Fortress","app_id":440,"player_count":24,"max_players":24,"Bots":0,"server_type":"Dedicated","server_os":"Linux","password":true,"vac":true,"version":"7961495","steam_id":85568392924469983,"keywords":["cp","nocrits","nodmgspread","uncletopia"],"game_id":440,"stv_port":27026,"stv_name":"Uncletopia | Atlanta | 2 | All Maps | STV","players":[{"user_id":183,"name":"donnie | iysmitl.xyz","steam_id":76561198148956323,"connected_time":2514000000000,"state":"active","ping":51},{"user_id":166,"name":"Jimjohn","steam_id":76561198018654088,"connected_time":3368000000000,"state":"active","ping":80},{"user_id":224,"name":"Dr. Virus","steam_id":76561198045723452,"connected_time":350000000000,"state":"active","ping":55},{"user_id":216,"name":"Strangelove","steam_id":76561198353773611,"connected_time":1129000000000,"state":"active","ping":86},{"user_id":225,"name":"Kirby","steam_id":76561199161858008,"connected_time":150000000000,"state":"active","ping":45},{"user_id":206,"name":"Tastyplate","steam_id":76561198028026017,"connected_time":1533000000000,"state":"active","ping":61},{"user_id":168,"name":"Verily","steam_id":76561198200558318,"connected_time":3260000000000,"state":"active","ping":59},{"user_id":211,"name":"[_Dr.Scythe_]","steam_id":76561198845245858,"connected_time":1334000000000,"state":"active","ping":74},{"user_id":223,"name":"Guava","steam_id":76561199187764012,"connected_time":519000000000,"state":"active","ping":72},{"user_id":169,"name":"Havok","steam_id":76561198063455003,"connected_time":3255000000000,"state":"active","ping":61},{"user_id":180,"name":"Ok-Par","steam_id":76561199221067945,"connected_time":2793000000000,"state":"active","ping":67},{"user_id":215,"name":"mini boss","steam_id":76561198062763756,"connected_time":1216000000000,"state":"active","ping":72},{"user_id":209,"name":"Sir Craig","steam_id":76561198116130491,"connected_time":1509000000000,"state":"active","ping":78},{"user_id":217,"name":"hobojoemama","steam_id":76561198108345568,"connected_time":1064000000000,"state":"active","ping":50},{"user_id":222,"name":"luxl1","steam_id":76561198975034056,"connected_time":612000000000,"state":"active","ping":123},{"user_id":227,"name":"theconqueror","steam_id":76561199229806456,"connected_time":47000000000,"state":"active","ping":38},{"user_id":157,"name":"King of Incoherency","steam_id":76561197998342159,"connected_time":3827000000000,"state":"active","ping":84},{"user_id":203,"name":"Hydroxianchaos","steam_id":76561198043786828,"connected_time":1714000000000,"state":"active","ping":73},{"user_id":200,"name":"hayes","steam_id":76561198057101042,"connected_time":1782000000000,"state":"active","ping":73},{"user_id":228,"name":"Fatpower","steam_id":76561198288024226,"connected_time":14000000000,"state":"active","ping":186},{"user_id":162,"name":"Nobody","steam_id":76561198004778080,"connected_time":3724000000000,"state":"active","ping":76},{"user_id":158,"name":"Mcfighter2","steam_id":76561198168073956,"connected_time":3799000000000,"state":"active","ping":57},{"user_id":207,"name":"Max_Attack","steam_id":76561198944028607,"connected_time":1524000000000,"state":"active","ping":80},{"user_id":220,"name":"Semi","steam_id":76561199105889252,"connected_time":760000000000,"state":"active","ping":165}]},{"server_id":400,"name":"Uncletopia | Atlanta | 3 | Stopwatch","name_short":"atl-3","host":"atl-1.us.uncletopia.com","port":27035,"enabled":true,"region":"us-east","cc":"us","latitude":33.753746,"longitude":-84.38633,"reserved":0,"last_update":"0001-01-01T00:00:00Z","name_a2s":"Uncletopia | Atlanta | 3 | Stopwatch","protocol":17,"map":"workshop/koth_clearcut_b15.ugc2107050255","folder":"tf","game":"Team Fortress","app_id":440,"player_count":0,"max_players":24,"Bots":0,"server_type":"Dedicated","server_os":"Linux","password":true,"vac":true,"version":"7961495","steam_id":85568392924515187,"keywords":["cp","nocrits","nodmgspread","uncletopia"],"game_id":440,"stv_port":27036,"stv_name":"Uncletopia | Atlanta | 3 | Stopwatch | STV","players":null},{"server_id":401,"name":"Uncletopia | Atlanta | 4 | Community","name_short":"atl-4","host":"atl-1.us.uncletopia.com","port":27045,"enabled":true,"region":"us-east","cc":"us","latitude":33.753746,"longitude":-84.38633,"reserved":0,"last_update":"0001-01-01T00:00:00Z","name_a2s":"Uncletopia | Atlanta | 4 | Community","protocol":17,"map":"workshop/koth_slaughter_rc1.ugc1712845210","folder":"tf","game":"Team Fortress","app_id":440,"player_count":0,"max_players":24,"Bots":0,"server_type":"Dedicated","server_os":"Linux","password":true,"vac":true,"version":"7961495","steam_id":85568392924515188,"keywords":["cp","nocrits","nodmgspread","uncletopia"],"game_id":440,"stv_port":27046,"stv_name":"Uncletopia | Atlanta | 4 | Community | STV","players":null},{"server_id":2,"name":"Uncletopia | Chicago | 1 | All Maps","name_short":"chi-1","host":"chi-1.us.uncletopia.com","port":27015,"enabled":true,"region":"us-central","cc":"us","latitude":41.881832,"longitude":-87.62318,"reserved":0,"last_update":"0001-01-01T00:00:00Z","name_a2s":"Uncletopia | Chicago | 1 | All Maps","protocol":17,"map":"koth_king","folder":"tf","game":"Team Fortress","app_id":440,"player_count":24,"max_players":24,"Bots":0,"server_type":"Dedicated","server_os":"Linux","password":true,"vac":true,"version":"7961495","steam_id":85568392924469984,"keywords":["cp","nocrits","nodmgspread","uncletopia"],"game_id":440,"stv_port":27016,"stv_name":"Uncletopia | Chicago | 1 | All Maps | STV","players":[{"user_id":560,"name":"FoulestPanda","steam_id":76561198966092920,"connected_time":2050000000000,"state":"active","ping":72},{"user_id":572,"name":"Xuey","steam_id":76561199120960187,"connected_time":1027000000000,"state":"active","ping":48},{"user_id":532,"name":"I.C.","steam_id":76561198049256017,"connected_time":4074000000000,"state":"active","ping":76},{"user_id":498,"name":"Acid","steam_id":76561198042538896,"connected_time":6286000000000,"state":"active","ping":112},{"user_id":583,"name":"LerN","steam_id":76561198083463877,"connected_time":361000000000,"state":"active","ping":52},{"user_id":557,"name":"artemisjackson2","steam_id":76561199094686268,"connected_time":2406000000000,"state":"active","ping":60},{"user_id":576,"name":"gravid baby","steam_id":76561198318646867,"connected_time":681000000000,"state":"active","ping":60},{"user_id":506,"name":"Equinox","steam_id":76561198274279754,"connected_time":5446000000000,"state":"active","ping":60},{"user_id":554,"name":"MikeLovesRabbit","steam_id":76561197997742625,"connected_time":2579000000000,"state":"active","ping":47},{"user_id":568,"name":"SPYCHECK ME","steam_id":76561198980994364,"connected_time":1678000000000,"state":"active","ping":107},{"user_id":563,"name":"Ferguson","steam_id":76561198121349387,"connected_time":1953000000000,"state":"active","ping":54},{"user_id":561,"name":"Oh, it's Zach","steam_id":76561198103309672,"connected_time":2042000000000,"state":"active","ping":60},{"user_id":586,"name":"Just washed","steam_id":76561199030160932,"connected_time":76000000000,"state":"active","ping":79},{"user_id":581,"name":"Tito","steam_id":76561198041702529,"connected_time":511000000000,"state":"active","ping":75},{"user_id":579,"name":"Cain Marko","steam_id":76561198086853755,"connected_time":605000000000,"state":"active","ping":60},{"user_id":577,"name":"TheCenturionGod","steam_id":76561199054176354,"connected_time":678000000000,"state":"active","ping":94},{"user_id":559,"name":"StudioMania (#SAVETF2)","steam_id":76561198211315795,"connected_time":2209000000000,"state":"active","ping":60},{"user_id":503,"name":"Celestial Bodies","steam_id":76561198212572955,"connected_time":5760000000000,"state":"active","ping":84},{"user_id":534,"name":"fresco","steam_id":76561199101199477,"connected_time":3909000000000,"state":"active","ping":50},{"user_id":542,"name":"wallace and gromit","steam_id":76561198260316294,"connected_time":3013000000000,"state":"active","ping":64},{"user_id":485,"name":"Kero","steam_id":76561198343231436,"connected_time":6901000000000,"state":"active","ping":60},{"user_id":515,"name":"I Generate Thrust","steam_id":76561198271907916,"connected_time":4906000000000,"state":"active","ping":59},{"user_id":584,"name":"jimmz","steam_id":76561199076776118,"connected_time":333000000000,"state":"active","ping":78},{"user_id":582,"name":"Music Theory","steam_id":76561199507405891,"connected_time":507000000000,"state":"active","ping":87}]},{"server_id":106,"name":"Uncletopia | Chicago | 2 | All Maps","name_short":"chi-2","host":"chi-1.us.uncletopia.com","port":27025,"enabled":true,"region":"us-central","cc":"us","latitude":41.881832,"longitude":-87.62318,"reserved":0,"last_update":"0001-01-01T00:00:00Z","name_a2s":"Uncletopia | Chicago | 2 | All Maps","protocol":17,"map":"koth_nucleus","folder":"tf","game":"Team Fortress","app_id":440,"player_count":23,"max_players":24,"Bots":0,"server_type":"Dedicated","server_os":"Linux","password":true,"vac":true,"version":"7961495","steam_id":85568392924469985,"keywords":["cp","nocrits","nodmgspread","uncletopia"],"game_id":440,"stv_port":27026,"stv_name":"Uncletopia | Chicago | 2 | All Maps | STV","players":[{"user_id":134,"name":"Truly Cryo","steam_id":76561198347497484,"connected_time":2725000000000,"state":"active","ping":63},{"user_id":97,"name":"Master of Wales","steam_id":76561198031400151,"connected_time":4156000000000,"state":"active","ping":59},{"user_id":89,"name":"berserker_tf2 )HE/SHE(","steam_id":76561198303464488,"connected_time":4639000000000,"state":"active","ping":59},{"user_id":126,"name":"Sprit ‚ô•","steam_id":76561198268780781,"connected_time":2908000000000,"state":"active","ping":49},{"user_id":175,"name":"Blue Eyes Ace Dragon.","steam_id":76561198048214237,"connected_time":269000000000,"state":"active","ping":60},{"user_id":177,"name":"DysfunctionJunction","steam_id":76561198051815183,"connected_time":78000000000,"state":"active","ping":53},{"user_id":166,"name":"Florian","steam_id":76561197998901116,"connected_time":1000000000000,"state":"active","ping":59},{"user_id":164,"name":"Lain","steam_id":76561198029303534,"connected_time":1144000000000,"state":"active","ping":66},{"user_id":123,"name":"Goldensliv","steam_id":76561198161673891,"connected_time":3003000000000,"state":"active","ping":93},{"user_id":139,"name":"Marco Pierre white","steam_id":76561198115714484,"connected_time":2647000000000,"state":"active","ping":134},{"user_id":169,"name":"CheekiBreeki","steam_id":76561198008596138,"connected_time":881000000000,"state":"active","ping":74},{"user_id":102,"name":"Boot Scootin Boogie","steam_id":76561198059171120,"connected_time":4017000000000,"state":"active","ping":67},{"user_id":140,"name":"Ajax","steam_id":76561197962240140,"connected_time":2473000000000,"state":"active","ping":55},{"user_id":151,"name":"Asanez3","steam_id":76561198037381436,"connected_time":1811000000000,"state":"active","ping":67},{"user_id":87,"name":"Sunshine","steam_id":76561198885528098,"connected_time":5001000000000,"state":"active","ping":74},{"user_id":141,"name":"Yam Jazzy Jim","steam_id":76561198000788950,"connected_time":2448000000000,"state":"active","ping":68},{"user_id":172,"name":"Gaiduk","steam_id":76561198112323877,"connected_time":487000000000,"state":"active","ping":70},{"user_id":178,"name":"Rude Dog","steam_id":76561197980385816,"connected_time":62000000000,"state":"active","ping":94},{"user_id":170,"name":"eduard","steam_id":76561198136550093,"connected_time":779000000000,"state":"active","ping":54},{"user_id":176,"name":"Osteo-Oligarch","steam_id":76561198164731896,"connected_time":195000000000,"state":"active","ping":61},{"user_id":95,"name":"adam0o0","steam_id":76561198052250279,"connected_time":4231000000000,"state":"active","ping":66},{"user_id":167,"name":"Space of Pud","steam_id":76561198400468740,"connected_time":946000000000,"state":"active","ping":60},{"user_id":165,"name":"TheREAL$wizz1eTTV","steam_id":76561198051666604,"connected_time":1132000000000,"state":"active","ping":60}]},{"server_id":402,"name":"Uncletopia | Chicago | 3 | All Maps","name_short":"chi-3","host":"chi-1.us.uncletopia.com","port":27035,"enabled":true,"region":"us-central","cc":"us","latitude":41.881832,"longitude":-87.62318,"reserved":0,"last_update":"0001-01-01T00:00:00Z","name_a2s":"Uncletopia | Chicago | 3 | All Maps","protocol":17,"map":"pl_frontier_final","folder":"tf","game":"Team Fortress","app_id":440,"player_count":24,"max_players":24,"Bots":0,"server_type":"Dedicated","server_os":"Linux","password":true,"vac":true,"version":"7961495","steam_id":85568392924515191,"keywords":["nocrits","nodmgspread","payload","uncletopia"],"game_id":440,"stv_port":27036,"stv_name":"Uncletopia | Chicago | 3 | All Maps | STV","players":[{"user_id":97,"name":"Gene Takovic","steam_id":76561198881039861,"connected_time":619000000000,"state":"active","ping":43},{"user_id":103,"name":"UUUURT","steam_id":76561198047468140,"connected_time":142000000000,"state":"active","ping":54},{"user_id":107,"name":"IdkProlly","steam_id":76561198269212968,"connected_time":73000000000,"state":"active","ping":61},{"user_id":96,"name":"Bandit Heeler","steam_id":76561198371858344,"connected_time":837000000000,"state":"active","ping":75},{"user_id":92,"name":"Zuriel","steam_id":76561198149673080,"connected_time":1054000000000,"state":"active","ping":87},{"user_id":89,"name":"WettyFap","steam_id":76561198393043568,"connected_time":1389000000000,"state":"active","ping":75},{"user_id":93,"name":"sentry turret","steam_id":76561198327057433,"connected_time":1048000000000,"state":"active","ping":74},{"user_id":105,"name":"Rukks","steam_id":76561197993918954,"connected_time":88000000000,"state":"active","ping":90},{"user_id":59,"name":"B.","steam_id":76561198040445907,"connected_time":3487000000000,"state":"active","ping":73},{"user_id":88,"name":"Blargh","steam_id":76561198044095816,"connected_time":1502000000000,"state":"active","ping":57},{"user_id":80,"name":"ark","steam_id":76561198041066271,"connected_time":1704000000000,"state":"active","ping":75},{"user_id":108,"name":"EnihX","steam_id":76561198175746787,"connected_time":29000000000,"state":"active","ping":44},{"user_id":109,"name":"Ama","steam_id":76561198077883218,"connected_time":14000000000,"state":"spawning","ping":45},{"user_id":61,"name":"big rammy","steam_id":76561198151989510,"connected_time":3437000000000,"state":"active","ping":59},{"user_id":64,"name":"Neco-Arc (real)","steam_id":76561198353010811,"connected_time":3095000000000,"state":"active","ping":61},{"user_id":82,"name":"ChozoChozo","steam_id":76561198272609196,"connected_time":1693000000000,"state":"active","ping":64},{"user_id":102,"name":"Stagspine","steam_id":76561198170090518,"connected_time":244000000000,"state":"active","ping":45},{"user_id":84,"name":"your moms car","steam_id":76561199389283507,"connected_time":1661000000000,"state":"active","ping":60},{"user_id":73,"name":"Crombun","steam_id":76561198031559642,"connected_time":1998000000000,"state":"active","ping":75},{"user_id":100,"name":"Kyle Krittenhouse","steam_id":76561199501497157,"connected_time":418000000000,"state":"active","ping":83},{"user_id":98,"name":"duBstep","steam_id":76561198353928965,"connected_time":606000000000,"state":"active","ping":60},{"user_id":75,"name":"Amtyk","steam_id":76561197979130554,"connected_time":1917000000000,"state":"active","ping":49},{"user_id":63,"name":"Bearly Playable","steam_id":76561197984011511,"connected_time":3411000000000,"state":"active","ping":61},{"user_id":104,"name":"1HandsomeLAD","steam_id":76561198807047496,"connected_time":117000000000,"state":"active","ping":62}]},{"server_id":403,"name":"Uncletopia | Chicago | 4 | All Maps","name_short":"chi-4","host":"chi-1.us.uncletopia.com","port":27045,"enabled":true,"region":"us-central","cc":"us","latitude":41.881832,"longitude":-87.62318,"reserved":0,"last_update":"0001-01-01T00:00:00Z","name_a2s":"Uncletopia | Chicago | 4 | All Maps","protocol":17,"map":"pl_rumford_event","folder":"tf","game":"Team Fortress","app_id":440,"player_count":0,"max_players":24,"Bots":0,"server_type":"Dedicated","server_os":"Linux","password":true,"vac":true,"version":"7961495","steam_id":85568392924515193,"keywords":["nocrits","nodmgspread","payload","uncletopia"],"game_id":440,"stv_port":27046,"stv_name":"Uncletopia | Chicago | 4 | All Maps | STV","players":null},{"server_id":36,"name":"Uncletopia | Chicago | 5 | All Maps","name_short":"chi-5","host":"chi-2.us.uncletopia.com","port":27015,"enabled":true,"region":"us-central","cc":"us","latitude":41.881832,"longitude":-87.62318,"reserved":0,"last_update":"0001-01-01T00:00:00Z","name_a2s":"Uncletopia | Chicago | 5 | All Maps","protocol":17,"map":"koth_lakeside_final","folder":"tf","game":"Team Fortress","app_id":440,"player_count":0,"max_players":24,"Bots":0,"server_type":"Dedicated","server_os":"Linux","password":true,"vac":true,"version":"7961495","steam_id":85568392924866362,"keywords":["cp","nocrits","nodmgspread","uncletopia"],"game_id":440,"stv_port":27016,"stv_name":"Uncletopia | Chicago | 5 | All Maps | STV","players":null},{"server_id":37,"name":"Uncletopia | Chicago | 6 | All Maps","name_short":"chi-6","host":"chi-2.us.uncletopia.com","port":27025,"enabled":true,"region":"us-central","cc":"us","latitude":41.881832,"longitude":-87.62318,"reserved":0,"last_update":"0001-01-01T00:00:00Z","name_a2s":"Uncletopia | Chicago | 6 | All Maps","protocol":17,"map":"cp_powerhouse","folder":"tf","game":"Team Fortress","app_id":440,"player_count":23,"max_players":24,"Bots":0,"server_type":"Dedicated","server_os":"Linux","password":true,"vac":true,"version":"7961495","steam_id":85568392924866363,"keywords":["cp","nocrits","nodmgspread","uncletopia"],"game_id":440,"stv_port":27026,"stv_name":"Uncletopia | Chicago | 6 | All Maps | STV","players":[{"user_id":460,"name":"The Looker","steam_id":76561198272961376,"connected_time":791000000000,"state":"active","ping":68},{"user_id":447,"name":"NUt","steam_id":76561198031007966,"connected_time":2477000000000,"state":"active","ping":82},{"user_id":457,"name":"jimmyfnaf172198yay","steam_id":76561198311446636,"connected_time":1604000000000,"state":"active","ping":59},{"user_id":474,"name":"Serene Salamander","steam_id":76561198001094770,"connected_time":504000000000,"state":"active","ping":103},{"user_id":463,"name":"Waos","steam_id":76561198329179651,"connected_time":658000000000,"state":"active","ping":106},{"user_id":412,"name":"cxx","steam_id":76561198111995277,"connected_time":4228000000000,"state":"active","ping":60},{"user_id":400,"name":"Kasane","steam_id":76561198209006780,"connected_time":5025000000000,"state":"active","ping":71},{"user_id":471,"name":"Lv3 Kobold Shadow Sorcerer","steam_id":76561198042068995,"connected_time":512000000000,"state":"active","ping":64},{"user_id":465,"name":"Always Here for You","steam_id":76561198219252313,"connected_time":612000000000,"state":"active","ping":61},{"user_id":443,"name":"‚Ä¢Scooby-Douche‚Ä¢","steam_id":76561197998922428,"connected_time":2709000000000,"state":"active","ping":70},{"user_id":452,"name":"StretchySnail59","steam_id":76561198073535005,"connected_time":1849000000000,"state":"active","ping":51},{"user_id":466,"name":"nav","steam_id":76561198872608266,"connected_time":605000000000,"state":"active","ping":107},{"user_id":446,"name":"on that zaza?","steam_id":76561198038713198,"connected_time":2595000000000,"state":"active","ping":66},{"user_id":479,"name":"Succulent Chinese Mayo","steam_id":76561198092483430,"connected_time":476000000000,"state":"active","ping":83},{"user_id":477,"name":"ma≈Çiƒô","steam_id":76561198337705174,"connected_time":492000000000,"state":"active","ping":74},{"user_id":469,"name":"Clucky","steam_id":76561198811603331,"connected_time":571000000000,"state":"active","ping":34},{"user_id":472,"name":"Yongle","steam_id":76561198068591156,"connected_time":511000000000,"state":"active","ping":95},{"user_id":473,"name":"Windows Gangster Edition","steam_id":76561198166982558,"connected_time":510000000000,"state":"active","ping":80},{"user_id":475,"name":"Portal2Player","steam_id":76561198062870114,"connected_time":504000000000,"state":"active","ping":78},{"user_id":476,"name":"Mantis","steam_id":76561197964316152,"connected_time":499000000000,"state":"active","ping":60},{"user_id":454,"name":"beans","steam_id":76561199082781884,"connected_time":1793000000000,"state":"active","ping":48},{"user_id":478,"name":"MichelangeloStark","steam_id":76561197976489900,"connected_time":492000000000,"state":"active","ping":75},{"user_id":297,"name":"Defender hunter","steam_id":76561198041458028,"connected_time":12300000000000,"state":"active","ping":197}]},{"server_id":38,"name":"Uncletopia | Chicago | 7 | Stopwatch","name_short":"chi-7","host":"chi-2.us.uncletopia.com","port":27035,"enabled":true,"region":"us-central","cc":"us","latitude":41.881832,"longitude":-87.62318,"reserved":0,"last_update":"0001-01-01T00:00:00Z","name_a2s":"Uncletopia | Chicago | 7 | Stopwatch","protocol":17,"map":"cp_snakewater_final1","folder":"tf","game":"Team Fortress","app_id":440,"player_count":0,"max_players":24,"Bots":0,"server_type":"Dedicated","server_os":"Linux","password":true,"vac":true,"version":"7961495","steam_id":85568392924866364,"keywords":["cp","nocrits","nodmgspread","uncletopia"],"game_id":440,"stv_port":27036,"stv_name":"Uncletopia | Chicago | 7 | Stopwatch | STV","players":null},{"server_id":39,"name":"Uncletopia | Chicago | 8 | Community","name_short":"chi-8","host":"chi-2.us.uncletopia.com","port":27045,"enabled":true,"region":"us-central","cc":"us","latitude":41.881832,"longitude":-87.62318,"reserved":0,"last_update":"0001-01-01T00:00:00Z","name_a2s":"Uncletopia | Chicago | 8 | Community","protocol":17,"map":"workshop/koth_slaughter_rc1.ugc1712845210","folder":"tf","game":"Team Fortress","app_id":440,"player_count":3,"max_players":24,"Bots":0,"server_type":"Dedicated","server_os":"Linux","password":true,"vac":true,"version":"7961495","steam_id":85568392924866365,"keywords":["cp","nocrits","nodmgspread","uncletopia"],"game_id":440,"stv_port":27046,"stv_name":"Uncletopia | Chicago | 8 | Community | STV","players":[{"user_id":6,"name":"RedPenguin_55","steam_id":76561199330977723,"connected_time":360000000000,"state":"active","ping":57},{"user_id":7,"name":"Heavy Gaming(Gaming)[Gaming]","steam_id":76561199366955312,"connected_time":347000000000,"state":"active","ping":69},{"user_id":8,"name":"super_padd","steam_id":76561199091514116,"connected_time":178000000000,"state":"active","ping":98}]},{"server_id":8,"name":"Uncletopia | Dallas | 1 | All Maps","name_short":"dal-1","host":"dal-1.us.uncletopia.com","port":27015,"enabled":true,"region":"us-central","cc":"us","latitude":32.779167,"longitude":-96.80889,"reserved":0,"last_update":"0001-01-01T00:00:00Z","name_a2s":"Uncletopia | Dallas | 1 | All Maps","protocol":17,"map":"pl_barnblitz","folder":"tf","game":"Team Fortress","app_id":440,"player_count":24,"max_players":24,"Bots":0,"server_type":"Dedicated","server_os":"Linux","password":true,"vac":true,"version":"7961495","steam_id":85568392924469986,"keywords":["nocrits","nodmgspread","payload","uncletopia"],"game_id":440,"stv_port":27016,"stv_name":"Uncletopia | Dallas | 1 | All Maps | STV","players":[{"user_id":390,"name":"Eomy","steam_id":76561198297783627,"connected_time":669000000000,"state":"active","ping":86},{"user_id":365,"name":"RedBaron","steam_id":76561198972426107,"connected_time":1976000000000,"state":"active","ping":61},{"user_id":394,"name":"Mr. Mime","steam_id":76561199197676776,"connected_time":496000000000,"state":"active","ping":51},{"user_id":378,"name":"you's a hoemar","steam_id":76561198973438214,"connected_time":1455000000000,"state":"active","ping":70},{"user_id":395,"name":"a rabbit with a keyboard","steam_id":76561198129051488,"connected_time":483000000000,"state":"active","ping":76},{"user_id":402,"name":"Melaza Bois","steam_id":76561199031977210,"connected_time":251000000000,"state":"active","ping":46},{"user_id":388,"name":"Dude","steam_id":76561199058616824,"connected_time":739000000000,"state":"active","ping":74},{"user_id":396,"name":"Styx","steam_id":76561198158334494,"connected_time":462000000000,"state":"active","ping":76},{"user_id":367,"name":"Tmiracle","steam_id":76561198052375275,"connected_time":1952000000000,"state":"active","ping":76},{"user_id":374,"name":"chaffy","steam_id":76561198021754567,"connected_time":1498000000000,"state":"active","ping":60},{"user_id":340,"name":"Sex Mode:ACTIVATE","steam_id":76561199219852129,"connected_time":4526000000000,"state":"active","ping":177},{"user_id":380,"name":"Gh0w0st","steam_id":76561199471261226,"connected_time":1377000000000,"state":"active","ping":51},{"user_id":375,"name":"shadowtaco69","steam_id":76561198112453714,"connected_time":1496000000000,"state":"active","ping":56},{"user_id":363,"name":"ShapedSilver","steam_id":76561199073305310,"connected_time":2057000000000,"state":"active","ping":105},{"user_id":389,"name":"kermitcreeper(ZAZA)","steam_id":76561199222829972,"connected_time":723000000000,"state":"active","ping":69},{"user_id":371,"name":"Keeby","steam_id":76561198279206610,"connected_time":1533000000000,"state":"active","ping":45},{"user_id":397,"name":"yatil","steam_id":76561198311004039,"connected_time":449000000000,"state":"active","ping":92},{"user_id":391,"name":"Brain Magic","steam_id":76561198010201477,"connected_time":656000000000,"state":"active","ping":82},{"user_id":398,"name":"Karma","steam_id":76561198320530905,"connected_time":423000000000,"state":"active","ping":57},{"user_id":379,"name":"liksaurus","steam_id":76561199058917043,"connected_time":1455000000000,"state":"active","ping":117},{"user_id":399,"name":"ManoloMilan","steam_id":76561199229644796,"connected_time":418000000000,"state":"active","ping":138},{"user_id":400,"name":"errant","steam_id":76561197961758410,"connected_time":415000000000,"state":"active","ping":46},{"user_id":401,"name":"i miss fauna","steam_id":76561198045144546,"connected_time":413000000000,"state":"active","ping":89},{"user_id":350,"name":"HFMurasama","steam_id":76561198272021214,"connected_time":3671000000000,"state":"active","ping":89}]},{"server_id":108,"name":"Uncletopia | Dallas | 2 | All Maps","name_short":"dal-2","host":"dal-1.us.uncletopia.com","port":27025,"enabled":true,"region":"us-central","cc":"us","latitude":32.779167,"longitude":-96.80889,"reserved":0,"last_update":"0001-01-01T00:00:00Z","name_a2s":"Uncletopia | Dallas | 2 | All Maps","protocol":17,"map":"pl_swiftwater_final1","folder":"tf","game":"Team Fortress","app_id":440,"player_count":24,"max_players":24,"Bots":0,"server_type":"Dedicated","server_os":"Linux","password":true,"vac":true,"version":"7961495","steam_id":85568392924469988,"keywords":["nocrits","nodmgspread","payload","uncletopia"],"game_id":440,"stv_port":27026,"stv_name":"Uncletopia | Dallas | 2 | All Maps | STV","players":[{"user_id":200,"name":"Zozbieta","steam_id":76561198010336265,"connected_time":201000000000,"state":"active","ping":55},{"user_id":173,"name":"Bea","steam_id":76561198197928515,"connected_time":2785000000000,"state":"active","ping":60},{"user_id":183,"name":"Easey","steam_id":76561198230316868,"connected_time":1834000000000,"state":"active","ping":62},{"user_id":177,"name":"DrywallDevourer","steam_id":76561199081580639,"connected_time":2268000000000,"state":"active","ping":72},{"user_id":168,"name":"Jefferton","steam_id":76561198406216568,"connected_time":3016000000000,"state":"active","ping":59},{"user_id":175,"name":"That Guy","steam_id":76561198028499814,"connected_time":2548000000000,"state":"active","ping":59},{"user_id":140,"name":"Bowl of Cereal Gaming","steam_id":76561199042252292,"connected_time":4772000000000,"state":"active","ping":70},{"user_id":185,"name":"the munch","steam_id":76561199164347838,"connected_time":1765000000000,"state":"active","ping":58},{"user_id":194,"name":"hyazz","steam_id":76561199100342013,"connected_time":1484000000000,"state":"active","ping":80},{"user_id":191,"name":"Provocator","steam_id":76561197961830410,"connected_time":1713000000000,"state":"active","ping":83},{"user_id":195,"name":"Digit","steam_id":76561198156589157,"connected_time":1037000000000,"state":"active","ping":80},{"user_id":197,"name":"violet","steam_id":76561198248461754,"connected_time":664000000000,"state":"active","ping":91},{"user_id":161,"name":"Gold_S4 #saveTF2","steam_id":76561199082435571,"connected_time":3735000000000,"state":"active","ping":67},{"user_id":196,"name":"Drakon","steam_id":76561198078210822,"connected_time":719000000000,"state":"active","ping":79},{"user_id":156,"name":"Teckn1cal","steam_id":76561198972914209,"connected_time":4005000000000,"state":"active","ping":72},{"user_id":188,"name":"Big Chad","steam_id":76561198015304658,"connected_time":1749000000000,"state":"active","ping":71},{"user_id":163,"name":"the girl girlkisser","steam_id":76561198438737908,"connected_time":3724000000000,"state":"active","ping":65},{"user_id":172,"name":"Ramblet","steam_id":76561199026783260,"connected_time":2800000000000,"state":"active","ping":81},{"user_id":199,"name":"Cpt. Dingle","steam_id":76561198025720199,"connected_time":549000000000,"state":"active","ping":125},{"user_id":198,"name":"loboto gaming","steam_id":76561199088321574,"connected_time":637000000000,"state":"active","ping":107},{"user_id":132,"name":"The Rat Bastard","steam_id":76561198112705880,"connected_time":5687000000000,"state":"active","ping":80},{"user_id":179,"name":"Certified Hood Classic","steam_id":76561199086159354,"connected_time":2049000000000,"state":"active","ping":50},{"user_id":147,"name":"potatoes or potatoes","steam_id":76561198268384671,"connected_time":4620000000000,"state":"active","ping":69},{"user_id":190,"name":"Poopballs","steam_id":76561197999254585,"connected_time":1730000000000,"state":"active","ping":55}]},{"server_id":404,"name":"Uncletopia | Dallas | 3 | All Maps","name_short":"dal-3","host":"dal-1.us.uncletopia.com","port":27035,"enabled":true,"region":"us-central","cc":"us","latitude":32.779167,"longitude":-96.80889,"reserved":0,"last_update":"0001-01-01T00:00:00Z","name_a2s":"Uncletopia | Dallas | 3 | All Maps","protocol":17,"map":"pl_badwater","folder":"tf","game":"Team Fortress","app_id":440,"player_count":7,"max_players":24,"Bots":0,"server_type":"Dedicated","server_os":"Linux","password":true,"vac":true,"version":"7961495","steam_id":85568392924515219,"keywords":["nocrits","nodmgspread","payload","uncletopia"],"game_id":440,"stv_port":27036,"stv_name":"Uncletopia | Dallas | 3 | All Maps | STV","players":[{"user_id":9,"name":"Scout","steam_id":76561198865519822,"connected_time":582000000000,"state":"active","ping":74},{"user_id":10,"name":"bookreader","steam_id":76561198978568007,"connected_time":296000000000,"state":"active","ping":78},{"user_id":12,"name":"Booty Warrior","steam_id":76561199197289548,"connected_time":193000000000,"state":"active","ping":75},{"user_id":13,"name":"Cat on Your Porch","steam_id":76561197979078330,"connected_time":179000000000,"state":"active","ping":89},{"user_id":14,"name":"HOOPLA","steam_id":76561198993451858,"connected_time":68000000000,"state":"active","ping":93},{"user_id":15,"name":"catface","steam_id":76561198096347625,"connected_time":49000000000,"state":"active","ping":74},{"user_id":16,"name":"Valiance","steam_id":76561198089697703,"connected_time":0,"state":"connecting","ping":0}]},{"server_id":405,"name":"Uncletopia | Dallas | 4 | Community","name_short":"dal-4","host":"dal-1.us.uncletopia.com","port":27045,"enabled":true,"region":"us-central","cc":"us","latitude":32.779167,"longitude":-96.80889,"reserved":0,"last_update":"0001-01-01T00:00:00Z","name_a2s":"Uncletopia | Dallas | 4 | Community","protocol":17,"map":"workshop/pl_fifthcurve_rc1.ugc648227046","folder":"tf","game":"Team Fortress","app_id":440,"player_count":0,"max_players":24,"Bots":0,"server_type":"Dedicated","server_os":"Linux","password":true,"vac":true,"version":"7961495","steam_id":85568392924515220,"keywords":["nocrits","nodmgspread","payload","uncletopia"],"game_id":440,"stv_port":27046,"stv_name":"Uncletopia | Dallas | 4 | Community | STV","players":null},{"server_id":5,"name":"Uncletopia | Frankfurt | 1 | All Maps","name_short":"frk-1","host":"frk-1.de.uncletopia.com","port":27015,"enabled":true,"region":"eu","cc":"de","latitude":50.110924,"longitude":8.682127,"reserved":0,"last_update":"0001-01-01T00:00:00Z","name_a2s":"Uncletopia | Frankfurt | 1 | All Maps","protocol":17,"map":"pl_snowycoast","folder":"tf","game":"Team Fortress","app_id":440,"player_count":0,"max_players":24,"Bots":0,"server_type":"Dedicated","server_os":"Linux","password":true,"vac":true,"version":"7961495","steam_id":85568392924469989,"keywords":["nocrits","nodmgspread","payload","uncletopia"],"game_id":440,"stv_port":27016,"stv_name":"Uncletopia | Frankfurt | 1 | All Maps | STV","players":null},{"server_id":110,"name":"Uncletopia | Frankfurt | 2 | All Maps","name_short":"frk-2","host":"frk-1.de.uncletopia.com","port":27025,"enabled":true,"region":"eu","cc":"de","latitude":50.110924,"longitude":8.682127,"reserved":0,"last_update":"0001-01-01T00:00:00Z","name_a2s":"Uncletopia | Frankfurt | 2 | All Maps","protocol":17,"map":"pl_badwater","folder":"tf","game":"Team Fortress","app_id":440,"player_count":0,"max_players":24,"Bots":0,"server_type":"Dedicated","server_os":"Linux","password":true,"vac":true,"version":"7961495","steam_id":85568392924469990,"keywords":["nocrits","nodmgspread","payload","uncletopia"],"game_id":440,"stv_port":27026,"stv_name":"Uncletopia | Frankfurt | 2 | All Maps | STV","players":null},{"server_id":308,"name":"Uncletopia | Frankfurt | 3 | All Maps","name_short":"frk-3","host":"frk-1.de.uncletopia.com","port":27035,"enabled":true,"region":"eu","cc":"de","latitude":50.110924,"longitude":8.682127,"reserved":0,"last_update":"0001-01-01T00:00:00Z","name_a2s":"Uncletopia | Frankfurt | 3 | All Maps","protocol":17,"map":"pl_borneo","folder":"tf","game":"Team Fortress","app_id":440,"player_count":24,"max_players":24,"Bots":0,"server_type":"Dedicated","server_os":"Linux","password":true,"vac":true,"version":"7961495","steam_id":85568392924504274,"keywords":["nocrits","nodmgspread","payload","uncletopia"],"game_id":440,"stv_port":27036,"stv_name":"Uncletopia | Frankfurt | 3 | All Maps | STV","players":[{"user_id":343,"name":"Doctor Marijuana","steam_id":76561198288289879,"connected_time":555000000000,"state":"active","ping":60},{"user_id":339,"name":"ChPerette üéÆ","steam_id":76561198060004887,"connected_time":1170000000000,"state":"active","ping":48},{"user_id":337,"name":"Outer","steam_id":76561199085041734,"connected_time":1330000000000,"state":"active","ping":79},{"user_id":342,"name":"Endi","steam_id":76561198914938199,"connected_time":563000000000,"state":"active","ping":75},{"user_id":335,"name":"Seigneur Des Cendres","steam_id":76561199249206889,"connected_time":1344000000000,"state":"active","ping":105},{"user_id":336,"name":"Vito","steam_id":76561198103978102,"connected_time":1335000000000,"state":"active","ping":70},{"user_id":350,"name":"Great recession of 2008","steam_id":76561198881151562,"connected_time":502000000000,"state":"active","ping":80},{"user_id":344,"name":"please do not the cat","steam_id":76561198089003514,"connected_time":552000000000,"state":"active","ping":45},{"user_id":333,"name":"Onions","steam_id":76561198150195195,"connected_time":1528000000000,"state":"active","ping":66},{"user_id":345,"name":"yuck","steam_id":76561197987249568,"connected_time":551000000000,"state":"active","ping":89},{"user_id":331,"name":"Monsy","steam_id":76561198025735006,"connected_time":1924000000000,"state":"active","ping":57},{"user_id":309,"name":"Zaanx","steam_id":76561199125603907,"connected_time":3381000000000,"state":"active","ping":104},{"user_id":341,"name":"teddy","steam_id":76561198007436837,"connected_time":719000000000,"state":"active","ping":46},{"user_id":326,"name":"tm`","steam_id":76561197993580412,"connected_time":2110000000000,"state":"active","ping":59},{"user_id":319,"name":"SeaKane","steam_id":76561198165453318,"connected_time":2564000000000,"state":"active","ping":56},{"user_id":346,"name":"Maximilian1359","steam_id":76561198152439608,"connected_time":543000000000,"state":"active","ping":43},{"user_id":349,"name":"Furious_Coder","steam_id":76561198146046621,"connected_time":510000000000,"state":"active","ping":104},{"user_id":316,"name":"else1","steam_id":76561197996558319,"connected_time":2776000000000,"state":"active","ping":75},{"user_id":348,"name":"Bobirulez","steam_id":76561198009125458,"connected_time":525000000000,"state":"active","ping":75},{"user_id":301,"name":"MR BUBBLES","steam_id":76561198019005259,"connected_time":4045000000000,"state":"active","ping":88},{"user_id":351,"name":"Voodoo Child","steam_id":76561198110788281,"connected_time":497000000000,"state":"active","ping":69},{"user_id":251,"name":"Ozzie","steam_id":76561197992915315,"connected_time":8465000000000,"state":"active","ping":75},{"user_id":330,"name":"Lao","steam_id":76561198004528684,"connected_time":2045000000000,"state":"active","ping":66},{"user_id":308,"name":"rob","steam_id":76561198122211848,"connected_time":3489000000000,"state":"active","ping":84}]},{"server_id":309,"name":"Uncletopia | Frankfurt | 4 | All Maps","name_short":"frk-4","host":"frk-1.de.uncletopia.com","port":27045,"enabled":true,"region":"eu","cc":"de","latitude":50.110924,"longitude":8.682127,"reserved":0,"last_update":"0001-01-01T00:00:00Z","name_a2s":"Uncletopia | Frankfurt | 4 | All Maps","protocol":17,"map":"cp_process_final","folder":"tf","game":"Team Fortress","app_id":440,"player_count":0,"max_players":24,"Bots":0,"server_type":"Dedicated","server_os":"Linux","password":true,"vac":true,"version":"7961495","steam_id":85568392924504275,"keywords":["cp","nocrits","nodmgspread","uncletopia"],"game_id":440,"stv_port":27046,"stv_name":"Uncletopia | Frankfurt | 4 | All Maps | STV","players":null},{"server_id":310,"name":"Uncletopia | Frankfurt | 5 | All Maps","name_short":"frk-5","host":"frk-1.de.uncletopia.com","port":27055,"enabled":true,"region":"eu","cc":"de","latitude":50.110924,"longitude":8.682127,"reserved":0,"last_update":"0001-01-01T00:00:00Z","name_a2s":"Uncletopia | Frankfurt | 5 | All Maps","protocol":17,"map":"pl_borneo","folder":"tf","game":"Team Fortress","app_id":440,"player_count":24,"max_players":24,"Bots":0,"server_type":"Dedicated","server_os":"Linux","password":true,"vac":true,"version":"7961495","steam_id":85568392924504277,"keywords":["nocrits","nodmgspread","payload","uncletopia"],"game_id":440,"stv_port":27056,"stv_name":"Uncletopia | Frankfurt | 5 | All Maps | STV","players":[{"user_id":165,"name":"GGlut","steam_id":76561198034281473,"connected_time":732000000000,"state":"active","ping":34},{"user_id":151,"name":"mini vegas stan","steam_id":76561198126029630,"connected_time":2045000000000,"state":"active","ping":150},{"user_id":68,"name":"obi","steam_id":76561198040154461,"connected_time":7046000000000,"state":"active","ping":51},{"user_id":169,"name":"etc","steam_id":76561197998394797,"connected_time":348000000000,"state":"active","ping":58},{"user_id":70,"name":"Pinkchup","steam_id":76561198106802803,"connected_time":6982000000000,"state":"active","ping":76},{"user_id":84,"name":"Doctor Medic","steam_id":76561198100957443,"connected_time":5928000000000,"state":"active","ping":60},{"user_id":116,"name":"chachiply","steam_id":76561198316355509,"connected_time":4426000000000,"state":"active","ping":70},{"user_id":129,"name":"Duncle322","steam_id":76561198258257247,"connected_time":3048000000000,"state":"active","ping":71},{"user_id":117,"name":"cherrypowder","steam_id":76561199006915718,"connected_time":4218000000000,"state":"active","ping":64},{"user_id":166,"name":"my mom","steam_id":76561199225201569,"connected_time":578000000000,"state":"active","ping":134},{"user_id":159,"name":"SnareBreaker","steam_id":76561198854045058,"connected_time":1366000000000,"state":"active","ping":65},{"user_id":167,"name":"Lucky Number 13","steam_id":76561198043951279,"connected_time":434000000000,"state":"active","ping":101},{"user_id":168,"name":"Laru","steam_id":76561197998838438,"connected_time":425000000000,"state":"active","ping":75},{"user_id":88,"name":"random gaming","steam_id":76561198087970118,"connected_time":5762000000000,"state":"active","ping":46},{"user_id":164,"name":"Murovelho","steam_id":76561198835081622,"connected_time":890000000000,"state":"active","ping":105},{"user_id":162,"name":"fem","steam_id":76561199103444466,"connected_time":1191000000000,"state":"active","ping":75},{"user_id":153,"name":"rediska2","steam_id":76561198015882125,"connected_time":1953000000000,"state":"active","ping":91},{"user_id":134,"name":"transfem spy","steam_id":76561198451638173,"connected_time":2931000000000,"state":"active","ping":67},{"user_id":135,"name":"Nugget","steam_id":76561198033660173,"connected_time":2903000000000,"state":"active","ping":60},{"user_id":154,"name":"Landan","steam_id":76561198102048004,"connected_time":1944000000000,"state":"active","ping":59},{"user_id":155,"name":"mrbeast109385079350229083479082","steam_id":76561198370687830,"connected_time":1865000000000,"state":"active","ping":134},{"user_id":158,"name":"Plop_","steam_id":76561198112567921,"connected_time":1621000000000,"state":"active","ping":46},{"user_id":111,"name":"Andy","steam_id":76561198046918834,"connected_time":4718000000000,"state":"active","ping":57},{"user_id":157,"name":"Spyker-M","steam_id":76561198040955540,"connected_time":1757000000000,"state":"active","ping":63}]},{"server_id":311,"name":"Uncletopia | Frankfurt | 6 | All Maps","name_short":"frk-6","host":"frk-1.de.uncletopia.com","port":27065,"enabled":true,"region":"eu","cc":"de","latitude":50.110924,"longitude":8.682127,"reserved":0,"last_update":"0001-01-01T00:00:00Z","name_a2s":"Uncletopia | Frankfurt | 6 | All Maps","protocol":17,"map":"koth_cascade","folder":"tf","game":"Team Fortress","app_id":440,"player_count":3,"max_players":24,"Bots":0,"server_type":"Dedicated","server_os":"Linux","password":true,"vac":true,"version":"7961495","steam_id":85568392924504278,"keywords":["cp","nocrits","nodmgspread","uncletopia"],"game_id":440,"stv_port":27066,"stv_name":"Uncletopia | Frankfurt | 6 | All Maps | STV","players":[{"user_id":588,"name":"FanFish","steam_id":76561199389558024,"connected_time":2012000000000,"state":"active","ping":60},{"user_id":590,"name":"jacob","steam_id":76561198982417906,"connected_time":1510000000000,"state":"active","ping":47},{"user_id":592,"name":"TrashBoat","steam_id":76561199089671432,"connected_time":1322000000000,"state":"active","ping":148}]},{"server_id":23,"name":"Uncletopia | Frankfurt | 7 | Stopwatch","name_short":"frk-7","host":"frk-1.de.uncletopia.com","port":27075,"enabled":true,"region":"eu","cc":"de","latitude":50.110924,"longitude":8.682127,"reserved":0,"last_update":"0001-01-01T00:00:00Z","name_a2s":"Uncletopia | Frankfurt | 7 | Stopwatch","protocol":17,"map":"workshop/koth_bagel_rc6.ugc2514036946","folder":"tf","game":"Team Fortress","app_id":440,"player_count":0,"max_players":24,"Bots":0,"server_type":"Dedicated","server_os":"Linux","password":true,"vac":true,"version":"7961495","steam_id":85568392924742827,"keywords":["cp","nocrits","nodmgspread","uncletopia"],"game_id":440,"stv_port":27076,"stv_name":"Uncletopia | Frankfurt | 7 | Stopwatch | STV","players":null},{"server_id":24,"name":"Uncletopia | Frankfurt | 8 | Community","name_short":"frk-8","host":"frk-1.de.uncletopia.com","port":27085,"enabled":true,"region":"eu","cc":"de","latitude":50.110924,"longitude":8.682127,"reserved":0,"last_update":"0001-01-01T00:00:00Z","name_a2s":"Uncletopia | Frankfurt | 8 | Community","protocol":17,"map":"workshop/cp_snowbase_b21.ugc2081770490","folder":"tf","game":"Team Fortress","app_id":440,"player_count":0,"max_players":24,"Bots":0,"server_type":"Dedicated","server_os":"Linux","password":true,"vac":true,"version":"7961495","steam_id":85568392924742828,"keywords":["cp","nocrits","nodmgspread","uncletopia"],"game_id":440,"stv_port":27086,"stv_name":"Uncletopia | Frankfurt | 8 | Community | STV","players":null},{"server_id":202,"name":"Uncletopia | Hong Kong | 1 | All Maps","name_short":"hgk-1","host":"hgk-1.hk.uncletopia.com","port":27015,"enabled":true,"region":"asia","cc":"hk","latitude":22.302711,"longitude":114.177216,"reserved":0,"last_update":"0001-01-01T00:00:00Z","name_a2s":"Uncletopia | Hong Kong | 1 | All Maps","protocol":17,"map":"cp_gravelpit","folder":"tf","game":"Team Fortress","app_id":440,"player_count":0,"max_players":24,"Bots":0,"server_type":"Dedicated","server_os":"Linux","password":true,"vac":true,"version":"7961495","steam_id":85568392924494504,"keywords":["cp","nocrits","nodmgspread","uncletopia"],"game_id":440,"stv_port":27016,"stv_name":"Uncletopia | Hong Kong | 1 | All Maps | STV","players":null},{"server_id":1,"name":"Uncletopia | Los Angeles | 1 | All Maps","name_short":"lax-1","host":"lax-1.us.uncletopia.com","port":27015,"enabled":true,"region":"us-west","cc":"us","latitude":33.94279,"longitude":-118.41004,"reserved":0,"last_update":"0001-01-01T00:00:00Z","name_a2s":"Uncletopia | Los Angeles | 1 | All Maps","protocol":17,"map":"cp_altitude","folder":"tf","game":"Team Fortress","app_id":440,"player_count":24,"max_players":24,"Bots":0,"server_type":"Dedicated","server_os":"Linux","password":true,"vac":true,"version":"7961495","steam_id":85568392924469991,"keywords":["cp","nocrits","nodmgspread","uncletopia"],"game_id":440,"stv_port":27016,"stv_name":"Uncletopia | Los Angeles | 1 | All Maps | STV","players":[{"user_id":266,"name":"EightySix","steam_id":76561198186678831,"connected_time":109000000000,"state":"active","ping":66},{"user_id":267,"name":"Drilly22","steam_id":76561198068838338,"connected_time":90000000000,"state":"active","ping":79},{"user_id":260,"name":"'Oddo","steam_id":76561198090866900,"connected_time":1380000000000,"state":"active","ping":98},{"user_id":264,"name":"infant daughter","steam_id":76561198168492250,"connected_time":496000000000,"state":"active","ping":52},{"user_id":235,"name":"MineOpal","steam_id":76561198044716407,"connected_time":2372000000000,"state":"active","ping":45},{"user_id":263,"name":"triph","steam_id":76561198067196509,"connected_time":1020000000000,"state":"active","ping":34},{"user_id":269,"name":"Cash","steam_id":76561199479266541,"connected_time":55000000000,"state":"spawning","ping":307},{"user_id":268,"name":"chok","steam_id":76561198242016100,"connected_time":83000000000,"state":"active","ping":90},{"user_id":262,"name":"KlassicLoL","steam_id":76561198081815303,"connected_time":1151000000000,"state":"active","ping":47},{"user_id":239,"name":"noceof","steam_id":76561198043656816,"connected_time":1964000000000,"state":"active","ping":164},{"user_id":219,"name":"TacoMan4Life","steam_id":76561198832562728,"connected_time":3176000000000,"state":"active","ping":51},{"user_id":249,"name":"fishies :)","steam_id":76561198317943203,"connected_time":1659000000000,"state":"active","ping":86},{"user_id":265,"name":"Anomet","steam_id":76561198060246255,"connected_time":391000000000,"state":"active","ping":68},{"user_id":224,"name":"SanitysEdge","steam_id":76561198130732813,"connected_time":3013000000000,"state":"active","ping":46},{"user_id":261,"name":"Mocha Josie","steam_id":76561198066452726,"connected_time":1178000000000,"state":"active","ping":90},{"user_id":237,"name":"shid","steam_id":76561198105374054,"connected_time":2171000000000,"state":"active","ping":71},{"user_id":85,"name":"Eden","steam_id":76561198081284664,"connected_time":15324000000000,"state":"active","ping":57},{"user_id":240,"name":"oobner","steam_id":76561198864545608,"connected_time":1963000000000,"state":"active","ping":60},{"user_id":229,"name":"Lysander Crow","steam_id":76561198214659356,"connected_time":2746000000000,"state":"active","ping":38},{"user_id":256,"name":"Nukenfutz","steam_id":76561198135666783,"connected_time":1581000000000,"state":"active","ping":74},{"user_id":236,"name":"a chicken","steam_id":76561198313121580,"connected_time":2264000000000,"state":"active","ping":53},{"user_id":232,"name":"Crazy Cane","steam_id":76561198993941174,"connected_time":2628000000000,"state":"active","ping":101},{"user_id":257,"name":"BigNut","steam_id":76561198073570489,"connected_time":1580000000000,"state":"active","ping":90},{"user_id":234,"name":"Jpxfred","steam_id":76561199414783749,"connected_time":2584000000000,"state":"active","ping":64}]},{"server_id":112,"name":"Uncletopia | Los Angeles | 2 | All Maps","name_short":"lax-2","host":"lax-1.us.uncletopia.com","port":27025,"enabled":true,"region":"us-west","cc":"us","latitude":33.94279,"longitude":-118.41004,"reserved":0,"last_update":"0001-01-01T00:00:00Z","name_a2s":"Uncletopia | Los Angeles | 2 | All Maps","protocol":17,"map":"koth_cascade","folder":"tf","game":"Team Fortress","app_id":440,"player_count":0,"max_players":24,"Bots":0,"server_type":"Dedicated","server_os":"Linux","password":true,"vac":true,"version":"7961495","steam_id":85568392924469992,"keywords":["cp","nocrits","nodmgspread","uncletopia"],"game_id":440,"stv_port":27026,"stv_name":"Uncletopia | Los Angeles | 2 | All Maps | STV","players":null},{"server_id":324,"name":"Uncletopia | Los Angeles | 3 | All Maps","name_short":"lax-3","host":"lax-1.us.uncletopia.com","port":27035,"enabled":true,"region":"us-west","cc":"us","latitude":33.94279,"longitude":-118.41004,"reserved":0,"last_update":"0001-01-01T00:00:00Z","name_a2s":"Uncletopia | Los Angeles | 3 | All Maps","protocol":17,"map":"cp_sunshine","folder":"tf","game":"Team Fortress","app_id":440,"player_count":0,"max_players":24,"Bots":0,"server_type":"Dedicated","server_os":"Linux","password":true,"vac":true,"version":"7961495","steam_id":85568392924510198,"keywords":["cp","nocrits","nodmgspread","uncletopia"],"game_id":440,"stv_port":27036,"stv_name":"Uncletopia | Los Angeles | 3 | All Maps | STV","players":null},{"server_id":25,"name":"Uncletopia | Los Angeles | 4 | Stopwatch","name_short":"lax-4","host":"lax-1.us.uncletopia.com","port":27045,"enabled":true,"region":"us-west","cc":"us","latitude":33.94279,"longitude":-118.41004,"reserved":0,"last_update":"0001-01-01T00:00:00Z","name_a2s":"Uncletopia | Los Angeles | 4 | Stopwatch","protocol":17,"map":"workshop/cp_process_f12.ugc2302948105","folder":"tf","game":"Team Fortress","app_id":440,"player_count":0,"max_players":24,"Bots":0,"server_type":"Dedicated","server_os":"Linux","password":true,"vac":true,"version":"7961495","steam_id":85568392924510199,"keywords":["cp","nocrits","nodmgspread","uncletopia"],"game_id":440,"stv_port":27046,"stv_name":"Uncletopia | Los Angeles | 4 | Stopwatch | STV","players":null},{"server_id":11,"name":"Uncletopia | London | 1 | All Maps","name_short":"lon-1","host":"lon-1.uk.uncletopia.com","port":27015,"enabled":true,"region":"eu","cc":"gb","latitude":51.509865,"longitude":-0.118092,"reserved":0,"last_update":"0001-01-01T00:00:00Z","name_a2s":"Uncletopia | London | 1 | All Maps","protocol":17,"map":"cp_gullywash_final1","folder":"tf","game":"Team Fortress","app_id":440,"player_count":19,"max_players":24,"Bots":0,"server_type":"Dedicated","server_os":"Linux","password":true,"vac":true,"version":"7961495","steam_id":85568392924367362,"keywords":["cp","nocrits","nodmgspread","uncletopia"],"game_id":440,"stv_port":27016,"stv_name":"Uncletopia | London | 1 | All Maps | STV","players":[{"user_id":595,"name":"vi","steam_id":76561198303147966,"connected_time":362000000000,"state":"active","ping":46},{"user_id":587,"name":"sel","steam_id":76561198049891411,"connected_time":761000000000,"state":"active","ping":43},{"user_id":592,"name":"Psyche","steam_id":76561198091662001,"connected_time":528000000000,"state":"active","ping":30},{"user_id":594,"name":"George W Bush","steam_id":76561198846784757,"connected_time":461000000000,"state":"active","ping":45},{"user_id":596,"name":"Paul Pogba","steam_id":76561199507298555,"connected_time":344000000000,"state":"active","ping":102},{"user_id":590,"name":"GoblinGaming","steam_id":76561198360395476,"connected_time":639000000000,"state":"active","ping":31},{"user_id":607,"name":"beebo","steam_id":76561199120277007,"connected_time":74000000000,"state":"active","ping":50},{"user_id":598,"name":"kadanov","steam_id":76561198055365234,"connected_time":310000000000,"state":"active","ping":73},{"user_id":599,"name":"King Nugget","steam_id":76561198134037464,"connected_time":231000000000,"state":"active","ping":60},{"user_id":604,"name":"i AM the medic gf","steam_id":76561198247284680,"connected_time":113000000000,"state":"active","ping":77},{"user_id":600,"name":"the rat","steam_id":76561198079101313,"connected_time":213000000000,"state":"active","ping":42},{"user_id":605,"name":"100 Red Mimi Sentry","steam_id":76561197967502407,"connected_time":104000000000,"state":"active","ping":49},{"user_id":579,"name":"Kora","steam_id":76561198343198306,"connected_time":1233000000000,"state":"active","ping":60},{"user_id":608,"name":"K4tSam","steam_id":76561198093692098,"connected_time":23000000000,"state":"spawning","ping":107},{"user_id":554,"name":"kelpie","steam_id":76561198128327529,"connected_time":1910000000000,"state":"active","ping":45},{"user_id":559,"name":"sora","steam_id":76561198096547662,"connected_time":1576000000000,"state":"active","ping":53},{"user_id":580,"name":"whimsy.","steam_id":76561198878171763,"connected_time":1223000000000,"state":"active","ping":51},{"user_id":606,"name":"NanoHound_","steam_id":76561198068621694,"connected_time":97000000000,"state":"active","ping":32},{"user_id":507,"name":"gnarly business","steam_id":76561198832688767,"connected_time":5718000000000,"state":"active","ping":46}]},{"server_id":114,"name":"Uncletopia | London | 2 | All Maps","name_short":"lon-2","host":"lon-1.uk.uncletopia.com","port":27025,"enabled":true,"region":"eu","cc":"gb","latitude":51.509865,"longitude":-0.118092,"reserved":0,"last_update":"0001-01-01T00:00:00Z","name_a2s":"Uncletopia | London | 2 | All Maps","protocol":17,"map":"cp_sunshine","folder":"tf","game":"Team Fortress","app_id":440,"player_count":0,"max_players":24,"Bots":0,"server_type":"Dedicated","server_os":"Linux","password":true,"vac":true,"version":"7961495","steam_id":85568392924470941,"keywords":["cp","nocrits","nodmgspread","uncletopia"],"game_id":440,"stv_port":27026,"stv_name":"Uncletopia | London | 2 | All Maps | STV","players":null},{"server_id":320,"name":"Uncletopia | London | 3 | All Maps","name_short":"lon-3","host":"lon-1.uk.uncletopia.com","port":27035,"enabled":true,"region":"eu","cc":"gb","latitude":51.509865,"longitude":-0.118092,"reserved":0,"last_update":"0001-01-01T00:00:00Z","name_a2s":"Uncletopia | London | 3 | All Maps","protocol":17,"map":"pl_pier","folder":"tf","game":"Team Fortress","app_id":440,"player_count":25,"max_players":24,"Bots":0,"server_type":"Dedicated","server_os":"Linux","password":true,"vac":true,"version":"7961495","steam_id":85568392924510192,"keywords":["nocrits","nodmgspread","payload","uncletopia"],"game_id":440,"stv_port":27036,"stv_name":"Uncletopia | London | 3 | All Maps | STV","players":[{"user_id":378,"name":"1 toke 4 mars bars","steam_id":76561198056460000,"connected_time":537000000000,"state":"active","ping":49},{"user_id":381,"name":"Mr.B","steam_id":76561199204478925,"connected_time":509000000000,"state":"active","ping":111},{"user_id":301,"name":"Imperial City Guard","steam_id":76561198083355845,"connected_time":5080000000000,"state":"active","ping":54},{"user_id":380,"name":"Fischer101","steam_id":76561198301481739,"connected_time":535000000000,"state":"active","ping":59},{"user_id":357,"name":"froglids","steam_id":76561198045466919,"connected_time":1282000000000,"state":"active","ping":73},{"user_id":382,"name":"cuddles","steam_id":76561198805181599,"connected_time":483000000000,"state":"active","ping":44},{"user_id":352,"name":"Lubrsi","steam_id":76561198040208195,"connected_time":1325000000000,"state":"active","ping":45},{"user_id":317,"name":"Nintails","steam_id":76561198075157560,"connected_time":3533000000000,"state":"active","ping":45},{"user_id":354,"name":"triple","steam_id":76561198119449463,"connected_time":1321000000000,"state":"active","ping":47},{"user_id":365,"name":"[SpA]Scatterbrain","steam_id":76561197998639769,"connected_time":776000000000,"state":"active","ping":45},{"user_id":291,"name":"smiley","steam_id":76561198042245117,"connected_time":5292000000000,"state":"active","ping":68},{"user_id":319,"name":"denimchicken","steam_id":76561197989061982,"connected_time":3520000000000,"state":"active","ping":75},{"user_id":321,"name":"senko","steam_id":76561198002990168,"connected_time":3492000000000,"state":"active","ping":45},{"user_id":383,"name":"sowakarana","steam_id":76561199405633261,"connected_time":463000000000,"state":"active","ping":46},{"user_id":366,"name":"OMacMacca","steam_id":76561198152547448,"connected_time":769000000000,"state":"active","ping":57},{"user_id":384,"name":"KittyKate ‚ù§","steam_id":76561198116340817,"connected_time":438000000000,"state":"active","ping":63},{"user_id":385,"name":"zayd","steam_id":76561198895235231,"connected_time":429000000000,"state":"active","ping":54},{"user_id":327,"name":"KO","steam_id":76561198325414022,"connected_time":3374000000000,"state":"active","ping":45},{"user_id":386,"name":"BuzzBees ‚ù§","steam_id":76561198101502273,"connected_time":426000000000,"state":"active","ping":50},{"user_id":370,"name":"Kestrel","steam_id":76561198144033005,"connected_time":701000000000,"state":"active","ping":45},{"user_id":391,"name":"Ryan Gosling (Literally me)","steam_id":76561198438150893,"connected_time":233000000000,"state":"active","ping":109},{"user_id":371,"name":"em ‚ù§","steam_id":76561198156678840,"connected_time":697000000000,"state":"active","ping":46},{"user_id":396,"name":"ChoppaBarkin","steam_id":76561198099296029,"connected_time":95000000000,"state":"active","ping":135},{"user_id":316,"name":"Coac","steam_id":76561198085265740,"connected_time":3848000000000,"state":"active","ping":71},{"user_id":397,"name":"Vince","steam_id":76561199103000131,"connected_time":21000000000,"state":"spawning","ping":44}]},{"server_id":321,"name":"Uncletopia | London | 4 | All Maps","name_short":"lon-4","host":"lon-1.uk.uncletopia.com","port":27045,"enabled":true,"region":"eu","cc":"gb","latitude":51.509865,"longitude":-0.118092,"reserved":0,"last_update":"0001-01-01T00:00:00Z","name_a2s":"Uncletopia | London | 4 | All Maps","protocol":17,"map":"cp_snakewater_final1","folder":"tf","game":"Team Fortress","app_id":440,"player_count":0,"max_players":24,"Bots":0,"server_type":"Dedicated","server_os":"Linux","password":true,"vac":true,"version":"7961495","steam_id":85568392924510193,"keywords":["cp","nocrits","nodmgspread","uncletopia"],"game_id":440,"stv_port":27046,"stv_name":"Uncletopia | London | 4 | All Maps | STV","players":null},{"server_id":21,"name":"Uncletopia | London | 5 | All Maps","name_short":"lon-5","host":"lon-1.uk.uncletopia.com","port":27055,"enabled":true,"region":"eu","cc":"gb","latitude":51.509865,"longitude":-0.118092,"reserved":0,"last_update":"0001-01-01T00:00:00Z","name_a2s":"Uncletopia | London | 5 | All Maps","protocol":17,"map":"cp_sunshine","folder":"tf","game":"Team Fortress","app_id":440,"player_count":22,"max_players":24,"Bots":0,"server_type":"Dedicated","server_os":"Linux","password":true,"vac":true,"version":"7961495","steam_id":85568392924742829,"keywords":["cp","nocrits","nodmgspread","uncletopia"],"game_id":440,"stv_port":27056,"stv_name":"Uncletopia | London | 5 | All Maps | STV","players":[{"user_id":501,"name":"sharkybro_nl","steam_id":76561198316862224,"connected_time":361000000000,"state":"active","ping":45},{"user_id":502,"name":"Vershal Smershal","steam_id":76561198116223995,"connected_time":316000000000,"state":"active","ping":56},{"user_id":450,"name":"Woad Raider","steam_id":76561198215485788,"connected_time":3921000000000,"state":"active","ping":66},{"user_id":499,"name":"Lorenzo Lovers","steam_id":76561198073973581,"connected_time":425000000000,"state":"active","ping":86},{"user_id":506,"name":"Scuffed katana+9 PvP stones+4","steam_id":76561199375170916,"connected_time":173000000000,"state":"active","ping":105},{"user_id":483,"name":"RuneShine","steam_id":76561198007098323,"connected_time":1324000000000,"state":"active","ping":37},{"user_id":431,"name":"Yoloswaggins2k16xx360Noscope","steam_id":76561198827011521,"connected_time":4562000000000,"state":"active","ping":47},{"user_id":432,"name":"Vinylord Scratch","steam_id":76561198023362800,"connected_time":4561000000000,"state":"active","ping":31},{"user_id":503,"name":"Lunarian","steam_id":76561198055811259,"connected_time":316000000000,"state":"active","ping":50},{"user_id":486,"name":"PIMPrenelle","steam_id":76561198021366058,"connected_time":1066000000000,"state":"active","ping":48},{"user_id":495,"name":"dirtmud","steam_id":76561199507018677,"connected_time":475000000000,"state":"active","ping":89},{"user_id":497,"name":"agent youppii","steam_id":76561198055264447,"connected_time":464000000000,"state":"active","ping":52},{"user_id":504,"name":"La Miia","steam_id":76561198147173457,"connected_time":298000000000,"state":"active","ping":76},{"user_id":505,"name":"BL√ÖHAJ","steam_id":76561197996473698,"connected_time":267000000000,"state":"active","ping":89},{"user_id":496,"name":"nomkeko","steam_id":76561198155447346,"connected_time":473000000000,"state":"active","ping":161},{"user_id":507,"name":"based roider","steam_id":76561198080524596,"connected_time":163000000000,"state":"active","ping":46},{"user_id":498,"name":"Ephix","steam_id":76561197977164055,"connected_time":451000000000,"state":"active","ping":56},{"user_id":508,"name":"gettin silly with it :P","steam_id":76561198209677271,"connected_time":145000000000,"state":"active","ping":43},{"user_id":509,"name":"Tusho","steam_id":76561198115447383,"connected_time":138000000000,"state":"active","ping":75},{"user_id":459,"name":"finbar","steam_id":76561198056812396,"connected_time":3450000000000,"state":"active","ping":75},{"user_id":510,"name":"tomydjoh","steam_id":76561198077421906,"connected_time":35000000000,"state":"spawning","ping":45},{"user_id":462,"name":"‚òπ","steam_id":76561198804763186,"connected_time":3368000000000,"state":"active","ping":116}]},{"server_id":22,"name":"Uncletopia | London | 6 | All Maps","name_short":"lon-6","host":"lon-1.uk.uncletopia.com","port":27065,"enabled":true,"region":"eu","cc":"gb","latitude":51.509865,"longitude":-0.118092,"reserved":0,"last_update":"0001-01-01T00:00:00Z","name_a2s":"Uncletopia | London | 6 | All Maps","protocol":17,"map":"koth_lakeside_final","folder":"tf","game":"Team Fortress","app_id":440,"player_count":9,"max_players":24,"Bots":0,"server_type":"Dedicated","server_os":"Linux","password":true,"vac":true,"version":"7961495","steam_id":85568392924742830,"keywords":["cp","nocrits","nodmgspread","uncletopia"],"game_id":440,"stv_port":27066,"stv_name":"Uncletopia | London | 6 | All Maps | STV","players":[{"user_id":517,"name":"R8N - Obismal","steam_id":76561198007482714,"connected_time":351000000000,"state":"active","ping":75},{"user_id":518,"name":"Red wine gaming","steam_id":76561198134378108,"connected_time":229000000000,"state":"active","ping":67},{"user_id":519,"name":"BloodyIceTea","steam_id":76561199122136447,"connected_time":33000000000,"state":"active","ping":117},{"user_id":504,"name":"KuraiHeka","steam_id":76561198025441882,"connected_time":1204000000000,"state":"active","ping":53},{"user_id":471,"name":"eMcP","steam_id":76561198382509396,"connected_time":3199000000000,"state":"active","ping":60},{"user_id":486,"name":"Squishie #SaveTF2","steam_id":76561198321025400,"connected_time":2320000000000,"state":"active","ping":40},{"user_id":481,"name":"Mudkip","steam_id":76561198055505997,"connected_time":2672000000000,"state":"active","ping":123},{"user_id":497,"name":"MATLAB R2021b","steam_id":76561198053440695,"connected_time":1576000000000,"state":"active","ping":44},{"user_id":484,"name":"tr4ce","steam_id":76561198085296732,"connected_time":2394000000000,"state":"active","ping":30}]},{"server_id":40,"name":"Uncletopia | London | 7 | Stopwatch","name_short":"lon-7","host":"lon-1.uk.uncletopia.com","port":27075,"enabled":true,"region":"eu","cc":"gb","latitude":51.509865,"longitude":-0.118092,"reserved":0,"last_update":"0001-01-01T00:00:00Z","name_a2s":"Uncletopia | London | 7 | Stopwatch","protocol":17,"map":"workshop/koth_clearcut_b15.ugc2107050255","folder":"tf","game":"Team Fortress","app_id":440,"player_count":0,"max_players":24,"Bots":0,"server_type":"Dedicated","server_os":"Linux","password":true,"vac":true,"version":"7961495","steam_id":85568392924964314,"keywords":["cp","nocrits","nodmgspread","uncletopia"],"game_id":440,"stv_port":27076,"stv_name":"Uncletopia | London | 7 | Stopwatch | STV","players":null},{"server_id":41,"name":"Uncletopia | London | 8 | Community","name_short":"lon-8","host":"lon-1.uk.uncletopia.com","port":27085,"enabled":true,"region":"eu","cc":"gb","latitude":51.509865,"longitude":-0.118092,"reserved":0,"last_update":"0001-01-01T00:00:00Z","name_a2s":"Uncletopia | London | 8 | Community","protocol":17,"map":"workshop/cp_croissant_final.ugc458840209","folder":"tf","game":"Team Fortress","app_id":440,"player_count":0,"max_players":24,"Bots":0,"server_type":"Dedicated","server_os":"Linux","password":true,"vac":true,"version":"7961495","steam_id":85568392924964315,"keywords":["cp","nocrits","nodmgspread","uncletopia"],"game_id":440,"stv_port":27086,"stv_name":"Uncletopia | London | 8 | Community | STV","players":null},{"server_id":300,"name":"Uncletopia | Montr√©al | 1 | One Thousand Uncles","name_short":"mtl-1","host":"mtl-1.ca.uncletopia.com","port":27015,"enabled":true,"region":"us-east","cc":"ca","latitude":45.50889,"longitude":-73.56167,"reserved":0,"last_update":"0001-01-01T00:00:00Z","name_a2s":"Uncletopia | Montr√©al | 1 | One Thousand Uncles","protocol":17,"map":"pl_goldrush","folder":"tf","game":"Team Fortress","app_id":440,"player_count":24,"max_players":32,"Bots":16,"server_type":"Dedicated","server_os":"Linux","password":true,"vac":true,"version":"7961495","steam_id":85568392924500087,"keywords":["alltalk","bots","danepve","increased_maxplayers","norespawntime","payload","uncletopia"],"game_id":440,"stv_port":0,"stv_name":"","players":[{"user_id":84,"name":"Cat","steam_id":76561198132362099,"connected_time":661000000000,"state":"active","ping":120},{"user_id":82,"name":"(1)Uncle Pain","steam_id":76561198889151082,"connected_time":833000000000,"state":"active","ping":86},{"user_id":54,"name":"MechanicalMenace14","steam_id":76561199063956054,"connected_time":2558000000000,"state":"active","ping":114},{"user_id":83,"name":"pan","steam_id":76561199019732036,"connected_time":733000000000,"state":"active","ping":66},{"user_id":86,"name":"brainboggler 2","steam_id":76561198000158531,"connected_time":403000000000,"state":"active","ping":86},{"user_id":87,"name":"Drake the Pixel","steam_id":76561198131824401,"connected_time":86000000000,"state":"active","ping":45},{"user_id":61,"name":"AGeerhead","steam_id":76561198090685132,"connected_time":1424000000000,"state":"active","ping":62},{"user_id":64,"name":"Jared","steam_id":76561198020432651,"connected_time":1305000000000,"state":"active","ping":57}]},{"server_id":301,"name":"Uncletopia | Montr√©al | 2 | One Thousand Uncles","name_short":"mtl-2","host":"mtl-1.ca.uncletopia.com","port":27025,"enabled":true,"region":"us-east","cc":"ca","latitude":45.50889,"longitude":-73.56167,"reserved":0,"last_update":"0001-01-01T00:00:00Z","name_a2s":"Uncletopia | Montr√©al | 2 | One Thousand Uncles","protocol":17,"map":"pl_chilly","folder":"tf","game":"Team Fortress","app_id":440,"player_count":0,"max_players":32,"Bots":0,"server_type":"Dedicated","server_os":"Linux","password":true,"vac":true,"version":"7961495","steam_id":85568392924500088,"keywords":["alltalk","danepve","increased_maxplayers","norespawntime","payload","uncletopia"],"game_id":440,"stv_port":0,"stv_name":"","players":null},{"server_id":302,"name":"Uncletopia | Montr√©al | 3 | One Thousand Uncles","name_short":"mtl-3","host":"mtl-1.ca.uncletopia.com","port":27035,"enabled":true,"region":"us-east","cc":"ca","latitude":45.50889,"longitude":-73.56167,"reserved":0,"last_update":"0001-01-01T00:00:00Z","name_a2s":"Uncletopia | Montr√©al | 3 | One Thousand Uncles","protocol":17,"map":"cp_egypt_final","folder":"tf","game":"Team Fortress","app_id":440,"player_count":0,"max_players":32,"Bots":0,"server_type":"Dedicated","server_os":"Linux","password":true,"vac":true,"version":"7961495","steam_id":85568392924500089,"keywords":["alltalk","cp","danepve","increased_maxplayers","norespawntime","uncletopia"],"game_id":440,"stv_port":0,"stv_name":"","players":null},{"server_id":13,"name":"Uncletopia | New York City | 1 | All Maps","name_short":"nyc-1","host":"nyc-1.us.uncletopia.com","port":27015,"enabled":true,"region":"us-east","cc":"us","latitude":40.73061,"longitude":-73.93524,"reserved":0,"last_update":"0001-01-01T00:00:00Z","name_a2s":"Uncletopia | New York City | 1 | All Maps","protocol":17,"map":"cp_gorge","folder":"tf","game":"Team Fortress","app_id":440,"player_count":23,"max_players":24,"Bots":0,"server_type":"Dedicated","server_os":"Linux","password":true,"vac":true,"version":"7961495","steam_id":85568392924469993,"keywords":["cp","nocrits","nodmgspread","uncletopia"],"game_id":440,"stv_port":27016,"stv_name":"Uncletopia | New York City | 1 | All Maps | STV","players":[{"user_id":248,"name":"McNamJam","steam_id":76561198028128686,"connected_time":366000000000,"state":"active","ping":120},{"user_id":246,"name":"milk","steam_id":76561198813251405,"connected_time":397000000000,"state":"active","ping":52},{"user_id":227,"name":"Bluebird","steam_id":76561199143106401,"connected_time":1124000000000,"state":"active","ping":44},{"user_id":141,"name":"Lemon Soda","steam_id":76561198140208761,"connected_time":7482000000000,"state":"active","ping":42},{"user_id":228,"name":"Andy","steam_id":76561198043115724,"connected_time":1117000000000,"state":"active","ping":118},{"user_id":249,"name":"izzo","steam_id":76561198206306996,"connected_time":346000000000,"state":"active","ping":45},{"user_id":183,"name":"Crazy Insane Proboscis Monkey","steam_id":76561198061011176,"connected_time":3721000000000,"state":"active","ping":75},{"user_id":230,"name":"Fitzybear","steam_id":76561198409189585,"connected_time":1079000000000,"state":"active","ping":81},{"user_id":200,"name":"Leon The Unprofessional","steam_id":76561198018408668,"connected_time":2800000000000,"state":"active","ping":82},{"user_id":177,"name":"lil bruh","steam_id":76561198198272770,"connected_time":4135000000000,"state":"active","ping":65},{"user_id":212,"name":"kibble","steam_id":76561198239909096,"connected_time":2186000000000,"state":"active","ping":46},{"user_id":250,"name":"jeff","steam_id":76561198059450566,"connected_time":328000000000,"state":"active","ping":60},{"user_id":251,"name":"ShaqtusHD(She/Her)","steam_id":76561199138286233,"connected_time":328000000000,"state":"active","ping":54},{"user_id":254,"name":"mostly ham","steam_id":76561199479937232,"connected_time":40000000000,"state":"active","ping":69},{"user_id":231,"name":"guac","steam_id":76561198025481672,"connected_time":1071000000000,"state":"active","ping":52},{"user_id":232,"name":"pluto","steam_id":76561198354990729,"connected_time":1070000000000,"state":"active","ping":68},{"user_id":245,"name":"A Future US Army Soldier","steam_id":76561198008263869,"connected_time":563000000000,"state":"active","ping":47},{"user_id":234,"name":"b4rry","steam_id":76561198365887154,"connected_time":1062000000000,"state":"active","ping":52},{"user_id":211,"name":"Two-Teste Tommy","steam_id":76561198064308936,"connected_time":2201000000000,"state":"active","ping":60},{"user_id":244,"name":"Beep Berokee Beux Bille","steam_id":76561198362044261,"connected_time":599000000000,"state":"active","ping":57},{"user_id":252,"name":"Pan Wizard","steam_id":76561198031939694,"connected_time":323000000000,"state":"active","ping":60},{"user_id":201,"name":"Xbox_Pro:RELOADED","steam_id":76561198176126519,"connected_time":2742000000000,"state":"active","ping":46},{"user_id":156,"name":"The Undead Knight","steam_id":76561198010654500,"connected_time":6209000000000,"state":"active","ping":78}]},{"server_id":14,"name":"Uncletopia | New York City | 2 | All Maps","name_short":"nyc-2","host":"nyc-1.us.uncletopia.com","port":27025,"enabled":true,"region":"us-east","cc":"us","latitude":40.73061,"longitude":-73.93524,"reserved":0,"last_update":"0001-01-01T00:00:00Z","name_a2s":"Uncletopia | New York City | 2 | All Maps","protocol":17,"map":"koth_lakeside_final","folder":"tf","game":"Team Fortress","app_id":440,"player_count":1,"max_players":24,"Bots":0,"server_type":"Dedicated","server_os":"Linux","password":true,"vac":true,"version":"7961495","steam_id":85568392924469994,"keywords":["cp","nocrits","nodmgspread","uncletopia"],"game_id":440,"stv_port":27026,"stv_name":"Uncletopia | New York City | 2 | All Maps | STV","players":[{"user_id":35,"name":"Jacknerik","steam_id":76561198041365662,"connected_time":106000000000,"state":"active","ping":32}]},{"server_id":15,"name":"Uncletopia | New York City | 3 | Stopwatch","name_short":"nyc-3","host":"nyc-1.us.uncletopia.com","port":27035,"enabled":true,"region":"us-east","cc":"us","latitude":40.73061,"longitude":-73.93524,"reserved":0,"last_update":"0001-01-01T00:00:00Z","name_a2s":"Uncletopia | New York City | 3 | Stopwatch","protocol":17,"map":"workshop/pl_vigil_rc10.ugc1266210012","folder":"tf","game":"Team Fortress","app_id":440,"player_count":23,"max_players":24,"Bots":0,"server_type":"Dedicated","server_os":"Linux","password":true,"vac":true,"version":"7961495","steam_id":85568392924742820,"keywords":["nocrits","nodmgspread","payload","uncletopia"],"game_id":440,"stv_port":27036,"stv_name":"Uncletopia | New York City | 3 | Stopwatch | STV","players":[{"user_id":5,"name":"ECCO","steam_id":76561198002821513,"connected_time":1968000000000,"state":"active","ping":64},{"user_id":6,"name":"The Majority Shareholder of Cum","steam_id":76561198040397154,"connected_time":1949000000000,"state":"active","ping":155},{"user_id":7,"name":"awwawa","steam_id":76561198048139966,"connected_time":1938000000000,"state":"active","ping":79},{"user_id":8,"name":"oxy","steam_id":76561198089770351,"connected_time":1935000000000,"state":"active","ping":72},{"user_id":18,"name":"yohan","steam_id":76561198002218330,"connected_time":1258000000000,"state":"active","ping":109},{"user_id":47,"name":"harold of rock salt kingdom","steam_id":76561199016285746,"connected_time":271000000000,"state":"active","ping":99},{"user_id":25,"name":"Bubby","steam_id":76561199163019490,"connected_time":1111000000000,"state":"active","ping":53},{"user_id":52,"name":"MuiGor","steam_id":76561199258222822,"connected_time":19000000000,"state":"active","ping":62},{"user_id":38,"name":"GoodleShoes/ttv","steam_id":76561198030993521,"connected_time":661000000000,"state":"active","ping":65},{"user_id":48,"name":"Master Of Whales","steam_id":76561198349104889,"connected_time":224000000000,"state":"active","ping":107},{"user_id":50,"name":"Slope115117","steam_id":76561199028794627,"connected_time":195000000000,"state":"active","ping":133},{"user_id":49,"name":"cumgoblin","steam_id":76561198113270138,"connected_time":219000000000,"state":"active","ping":79},{"user_id":21,"name":"Molly","steam_id":76561198327905969,"connected_time":1142000000000,"state":"active","ping":105},{"user_id":22,"name":"üíùMidnightüíù","steam_id":76561198112806540,"connected_time":1139000000000,"state":"active","ping":67},{"user_id":23,"name":"TayTay","steam_id":76561198115819111,"connected_time":1137000000000,"state":"active","ping":77},{"user_id":29,"name":"vinny6","steam_id":76561198386735728,"connected_time":945000000000,"state":"active","ping":51},{"user_id":31,"name":"KysonJack","steam_id":76561198024092248,"connected_time":806000000000,"state":"active","ping":106},{"user_id":44,"name":"the bone zone","steam_id":76561198022141048,"connected_time":471000000000,"state":"active","ping":60},{"user_id":40,"name":"Berb","steam_id":76561198193911899,"connected_time":650000000000,"state":"active","ping":81},{"user_id":45,"name":"Mista Boombastic","steam_id":76561197973121212,"connected_time":451000000000,"state":"active","ping":67},{"user_id":51,"name":"flare","steam_id":76561198048623485,"connected_time":192000000000,"state":"active","ping":47},{"user_id":39,"name":"club going up","steam_id":76561198141700569,"connected_time":653000000000,"state":"active","ping":64},{"user_id":42,"name":"beats (across the sea)","steam_id":76561199245717718,"connected_time":580000000000,"state":"active","ping":60}]},{"server_id":16,"name":"Uncletopia | New York City | 4 | Community","name_short":"nyc-4","host":"nyc-1.us.uncletopia.com","port":27045,"enabled":true,"region":"us-east","cc":"us","latitude":40.73061,"longitude":-73.93524,"reserved":0,"last_update":"0001-01-01T00:00:00Z","name_a2s":"Uncletopia | New York City | 4 | Community","protocol":17,"map":"workshop/koth_ashville_final.ugc2130459942","folder":"tf","game":"Team Fortress","app_id":440,"player_count":0,"max_players":24,"Bots":0,"server_type":"Dedicated","server_os":"Linux","password":true,"vac":true,"version":"7961495","steam_id":85568392924742821,"keywords":["cp","nocrits","nodmgspread","uncletopia"],"game_id":440,"stv_port":27046,"stv_name":"Uncletopia | New York City | 4 | Community | STV","players":null},{"server_id":142,"name":"Uncletopia | S√£o Paulo | 1 | All Maps","name_short":"sao-1","host":"sao-1.br.uncletopia.com","port":27015,"enabled":true,"region":"sa","cc":"br","latitude":-23.533773,"longitude":-46.62529,"reserved":0,"last_update":"0001-01-01T00:00:00Z","name_a2s":"Uncletopia | S√£o Paulo | 1 | All Maps","protocol":17,"map":"koth_lakeside_final","folder":"tf","game":"Team Fortress","app_id":440,"player_count":3,"max_players":24,"Bots":0,"server_type":"Dedicated","server_os":"Linux","password":true,"vac":true,"version":"7961495","steam_id":85568392924469996,"keywords":["cp","nocrits","nodmgspread","uncletopia"],"game_id":440,"stv_port":27016,"stv_name":"Uncletopia | S√£o Paulo | 1 | All Maps | STV","players":[{"user_id":4,"name":"Mikael_01","steam_id":76561199080253129,"connected_time":769000000000,"state":"active","ping":37},{"user_id":5,"name":"lord loboxtgamer","steam_id":76561198878084116,"connected_time":690000000000,"state":"active","ping":43},{"user_id":6,"name":"Spy","steam_id":76561199170079739,"connected_time":349000000000,"state":"active","ping":54}]},{"server_id":143,"name":"Uncletopia | S√£o Paulo | 2 | Community","name_short":"sao-2","host":"sao-2.br.uncletopia.com","port":27015,"enabled":true,"region":"sa","cc":"br","latitude":-23.533773,"longitude":-46.62529,"reserved":0,"last_update":"0001-01-01T00:00:00Z","name_a2s":"Uncletopia | S√£o Paulo | 2 | Community","protocol":17,"map":"workshop/cp_mannbase_rc2a.ugc1900737467","folder":"tf","game":"Team Fortress","app_id":440,"player_count":0,"max_players":24,"Bots":0,"server_type":"Dedicated","server_os":"Linux","password":true,"vac":true,"version":"7961495","steam_id":85568392924485349,"keywords":["cp","nocrits","nodmgspread","uncletopia"],"game_id":440,"stv_port":27016,"stv_name":"Uncletopia | S√£o Paulo | 2 | Community | STV","players":null},{"server_id":7,"name":"Uncletopia | Seattle | 1 | All Maps","name_short":"sea-1","host":"sea-1.us.uncletopia.com","port":27015,"enabled":true,"region":"us-west","cc":"us","latitude":47.608013,"longitude":-122.33517,"reserved":0,"last_update":"0001-01-01T00:00:00Z","name_a2s":"Uncletopia | Seattle | 1 | All Maps","protocol":17,"map":"pl_barnblitz","folder":"tf","game":"Team Fortress","app_id":440,"player_count":24,"max_players":24,"Bots":0,"server_type":"Dedicated","server_os":"Linux","password":true,"vac":true,"version":"7961495","steam_id":85568392924469997,"keywords":["nocrits","nodmgspread","payload","uncletopia"],"game_id":440,"stv_port":27016,"stv_name":"Uncletopia | Seattle | 1 | All Maps | STV","players":[{"user_id":240,"name":"Nom Skirrett","steam_id":76561198014600788,"connected_time":1391000000000,"state":"active","ping":62},{"user_id":265,"name":"Darkgigglemonster","steam_id":76561198870649125,"connected_time":8000000000,"state":"spawning","ping":75},{"user_id":220,"name":"Banana Milk","steam_id":76561198005156257,"connected_time":2549000000000,"state":"active","ping":177},{"user_id":263,"name":"big ol' buford","steam_id":76561198290675957,"connected_time":169000000000,"state":"active","ping":89},{"user_id":234,"name":"Eraser cat","steam_id":76561199045570463,"connected_time":1952000000000,"state":"active","ping":42},{"user_id":194,"name":"Dextersbrain","steam_id":76561198011831579,"connected_time":4548000000000,"state":"active","ping":57},{"user_id":258,"name":"Dr. Juvenal","steam_id":76561198114553453,"connected_time":740000000000,"state":"active","ping":58},{"user_id":247,"name":"pudge","steam_id":76561198372513219,"connected_time":1269000000000,"state":"active","ping":55},{"user_id":262,"name":"RyInc","steam_id":76561198874261643,"connected_time":250000000000,"state":"active","ping":93},{"user_id":253,"name":"Aglovail","steam_id":76561198276988844,"connected_time":1009000000000,"state":"active","ping":57},{"user_id":260,"name":"Vincent Van Bro","steam_id":76561197966919802,"connected_time":381000000000,"state":"active","ping":45},{"user_id":259,"name":"[Bandit]","steam_id":76561197986919852,"connected_time":552000000000,"state":"active","ping":49},{"user_id":243,"name":"4_2_5","steam_id":76561198309010627,"connected_time":1382000000000,"state":"active","ping":75},{"user_id":246,"name":"bath","steam_id":76561197969993352,"connected_time":1306000000000,"state":"active","ping":105},{"user_id":237,"name":"reiidaya","steam_id":76561198325306660,"connected_time":1761000000000,"state":"active","ping":53},{"user_id":232,"name":"Morse","steam_id":76561198039944542,"connected_time":2075000000000,"state":"active","ping":47},{"user_id":215,"name":"Elfy","steam_id":76561199166448617,"connected_time":3128000000000,"state":"active","ping":40},{"user_id":261,"name":"dont call me that","steam_id":76561198268254154,"connected_time":307000000000,"state":"active","ping":134},{"user_id":210,"name":"Melly","steam_id":76561198045867175,"connected_time":3346000000000,"state":"active","ping":57},{"user_id":254,"name":"mzjosef","steam_id":76561197985742638,"connected_time":915000000000,"state":"active","ping":129},{"user_id":249,"name":"The Population of Sweden","steam_id":76561198202201644,"connected_time":1234000000000,"state":"active","ping":37},{"user_id":217,"name":"Furry Femboy Hooters (CEO)","steam_id":76561198097745857,"connected_time":3012000000000,"state":"active","ping":49},{"user_id":250,"name":"firefly77","steam_id":76561199155478745,"connected_time":1221000000000,"state":"active","ping":120},{"user_id":264,"name":"RainboomCrash","steam_id":76561198065612273,"connected_time":166000000000,"state":"active","ping":55}]},{"server_id":119,"name":"Uncletopia | Seattle | 2 | All Maps","name_short":"sea-2","host":"sea-1.us.uncletopia.com","port":27025,"enabled":true,"region":"us-west","cc":"us","latitude":47.608013,"longitude":-122.33517,"reserved":0,"last_update":"0001-01-01T00:00:00Z","name_a2s":"Uncletopia | Seattle | 2 | All Maps","protocol":17,"map":"koth_lakeside_final","folder":"tf","game":"Team Fortress","app_id":440,"player_count":0,"max_players":24,"Bots":0,"server_type":"Dedicated","server_os":"Linux","password":true,"vac":true,"version":"7961495","steam_id":85568392924469998,"keywords":["cp","nocrits","nodmgspread","uncletopia"],"game_id":440,"stv_port":27026,"stv_name":"Uncletopia | Seattle | 2 | All Maps | STV","players":null},{"server_id":406,"name":"Uncletopia | Seattle | 3 | Stopwatch","name_short":"sea-3","host":"sea-1.us.uncletopia.com","port":27035,"enabled":true,"region":"us-west","cc":"us","latitude":47.608013,"longitude":-122.33517,"reserved":0,"last_update":"0001-01-01T00:00:00Z","name_a2s":"Uncletopia | Seattle | 3 | Stopwatch","protocol":17,"map":"workshop/cp_process_f12.ugc2302948105","folder":"tf","game":"Team Fortress","app_id":440,"player_count":0,"max_players":24,"Bots":0,"server_type":"Dedicated","server_os":"Linux","password":true,"vac":true,"version":"7961495","steam_id":85568392924515217,"keywords":["cp","nocrits","nodmgspread","uncletopia"],"game_id":440,"stv_port":27036,"stv_name":"Uncletopia | Seattle | 3 | Stopwatch | STV","players":null},{"server_id":17,"name":"Uncletopia | San Francisco | 1 | All Maps","name_short":"sfo-1","host":"sfo-1.us.uncletopia.com","port":27015,"enabled":true,"region":"us-west","cc":"us","latitude":37.77397,"longitude":-122.4313,"reserved":0,"last_update":"0001-01-01T00:00:00Z","name_a2s":"Uncletopia | San Francisco | 1 | All Maps","protocol":17,"map":"koth_highpass","folder":"tf","game":"Team Fortress","app_id":440,"player_count":0,"max_players":24,"Bots":0,"server_type":"Dedicated","server_os":"Linux","password":true,"vac":true,"version":"7961495","steam_id":85568392924469999,"keywords":["cp","nocrits","nodmgspread","uncletopia"],"game_id":440,"stv_port":27016,"stv_name":"Uncletopia | San Francisco | 1 | All Maps | STV","players":null},{"server_id":18,"name":"Uncletopia | San Francisco | 2 | All Maps","name_short":"sfo-2","host":"sfo-1.us.uncletopia.com","port":27025,"enabled":true,"region":"us-west","cc":"us","latitude":37.77397,"longitude":-122.4313,"reserved":0,"last_update":"0001-01-01T00:00:00Z","name_a2s":"Uncletopia | San Francisco | 2 | All Maps","protocol":17,"map":"pl_snowycoast","folder":"tf","game":"Team Fortress","app_id":440,"player_count":0,"max_players":24,"Bots":0,"server_type":"Dedicated","server_os":"Linux","password":true,"vac":true,"version":"7961495","steam_id":85568392924470000,"keywords":["nocrits","nodmgspread","payload","uncletopia"],"game_id":440,"stv_port":27026,"stv_name":"Uncletopia | San Francisco | 2 | All Maps | STV","players":null},{"server_id":19,"name":"Uncletopia | San Francisco | 3 | Stopwatch","name_short":"sfo-3","host":"sfo-1.us.uncletopia.com","port":27035,"enabled":true,"region":"us-west","cc":"us","latitude":37.77397,"longitude":-122.4313,"reserved":0,"last_update":"0001-01-01T00:00:00Z","name_a2s":"Uncletopia | San Francisco | 3 | Stopwatch","protocol":17,"map":"workshop/koth_product_final.ugc454272353","folder":"tf","game":"Team Fortress","app_id":440,"player_count":0,"max_players":24,"Bots":0,"server_type":"Dedicated","server_os":"Linux","password":true,"vac":true,"version":"7961495","steam_id":85568392924742824,"keywords":["cp","nocrits","nodmgspread","uncletopia"],"game_id":440,"stv_port":27036,"stv_name":"Uncletopia | San Francisco | 3 | Stopwatch | STV","players":null},{"server_id":20,"name":"Uncletopia | San Francisco | 4 | Community","name_short":"sfo-4","host":"sfo-1.us.uncletopia.com","port":27045,"enabled":true,"region":"us-west","cc":"us","latitude":37.77397,"longitude":-122.4313,"reserved":0,"last_update":"0001-01-01T00:00:00Z","name_a2s":"Uncletopia | San Francisco | 4 | Community","protocol":17,"map":"workshop/pl_cactuscanyon_redux_final2.ugc2579644293","folder":"tf","game":"Team Fortress","app_id":440,"player_count":0,"max_players":24,"Bots":0,"server_type":"Dedicated","server_os":"Linux","password":true,"vac":true,"version":"7961495","steam_id":85568392924742826,"keywords":["nocrits","nodmgspread","payload","uncletopia"],"game_id":440,"stv_port":27046,"stv_name":"Uncletopia | San Francisco | 4 | Community | STV","players":null},{"server_id":141,"name":"Uncletopia | Sydney | 1 | All Maps","name_short":"syd-1","host":"syd-1.au.uncletopia.com","port":27015,"enabled":true,"region":"au","cc":"au","latitude":-33.865143,"longitude":151.2099,"reserved":0,"last_update":"0001-01-01T00:00:00Z","name_a2s":"Uncletopia | Sydney | 1 | All Maps","protocol":17,"map":"koth_highpass","folder":"tf","game":"Team Fortress","app_id":440,"player_count":0,"max_players":24,"Bots":0,"server_type":"Dedicated","server_os":"Linux","password":true,"vac":true,"version":"7961495","steam_id":85568392924470001,"keywords":["cp","nocrits","nodmgspread","uncletopia"],"game_id":440,"stv_port":27016,"stv_name":"Uncletopia | Sydney | 1 | All Maps | STV","players":null},{"server_id":123,"name":"Uncletopia | Sydney | 2 | All Maps","name_short":"syd-2","host":"syd-1.au.uncletopia.com","port":27025,"enabled":true,"region":"au","cc":"au","latitude":-33.865143,"longitude":151.2099,"reserved":0,"last_update":"0001-01-01T00:00:00Z","name_a2s":"Uncletopia | Sydney | 2 | All Maps","protocol":17,"map":"pl_barnblitz","folder":"tf","game":"Team Fortress","app_id":440,"player_count":0,"max_players":24,"Bots":0,"server_type":"Dedicated","server_os":"Linux","password":true,"vac":true,"version":"7961495","steam_id":85568392924470002,"keywords":["nocrits","nodmgspread","payload","uncletopia"],"game_id":440,"stv_port":27026,"stv_name":"Uncletopia | Sydney | 2 | All Maps | STV","players":null},{"server_id":395,"name":"Uncletopia | Sydney | 3 | All Maps","name_short":"syd-3","host":"syd-1.au.uncletopia.com","port":27035,"enabled":true,"region":"au","cc":"au","latitude":-33.865143,"longitude":151.2099,"reserved":0,"last_update":"0001-01-01T00:00:00Z","name_a2s":"Uncletopia | Sydney | 3 | All Maps","protocol":17,"map":"cp_metalworks","folder":"tf","game":"Team Fortress","app_id":440,"player_count":0,"max_players":24,"Bots":0,"server_type":"Dedicated","server_os":"Linux","password":true,"vac":true,"version":"7961495","steam_id":85568392925194467,"keywords":["cp","nocrits","nodmgspread","uncletopia"],"game_id":440,"stv_port":27036,"stv_name":"Uncletopia | Sydney | 3 | All Maps | STV","players":null},{"server_id":396,"name":"Uncletopia | Sydney | 4 | All Maps","name_short":"syd-4","host":"syd-1.au.uncletopia.com","port":27045,"enabled":true,"region":"au","cc":"au","latitude":-33.865143,"longitude":151.2099,"reserved":0,"last_update":"0001-01-01T00:00:00Z","name_a2s":"Uncletopia | Sydney | 4 | All Maps","protocol":17,"map":"koth_cascade","folder":"tf","game":"Team Fortress","app_id":440,"player_count":0,"max_players":24,"Bots":0,"server_type":"Dedicated","server_os":"Linux","password":true,"vac":true,"version":"7961495","steam_id":85568392925397958,"keywords":["cp","nocrits","nodmgspread","uncletopia"],"game_id":440,"stv_port":27046,"stv_name":"Uncletopia | Sydney | 4 | All Maps | STV","players":null},{"server_id":58,"name":"Uncletopia | Sydney | 5 | Stopwatch","name_short":"syd-5","host":"syd-1.au.uncletopia.com","port":27055,"enabled":true,"region":"au","cc":"au","latitude":-33.865143,"longitude":151.2099,"reserved":0,"last_update":"0001-01-01T00:00:00Z","name_a2s":"Uncletopia | Sydney | 5 | Stopwatch","protocol":17,"map":"pl_swiftwater_final1","folder":"tf","game":"Team Fortress","app_id":440,"player_count":0,"max_players":24,"Bots":0,"server_type":"Dedicated","server_os":"Linux","password":true,"vac":true,"version":"7961495","steam_id":85568392925397959,"keywords":["nocrits","nodmgspread","payload","uncletopia"],"game_id":440,"stv_port":27056,"stv_name":"Uncletopia | Sydney | 5 | Stopwatch | STV","players":null},{"server_id":59,"name":"Uncletopia | Sydney | 6 | Community","name_short":"syd-6","host":"syd-1.au.uncletopia.com","port":27065,"enabled":true,"region":"au","cc":"au","latitude":-33.865143,"longitude":151.2099,"reserved":0,"last_update":"0001-01-01T00:00:00Z","name_a2s":"Uncletopia | Sydney | 6 | Community","protocol":17,"map":"workshop/koth_trenchfoot_ab1.ugc731436616","folder":"tf","game":"Team Fortress","app_id":440,"player_count":0,"max_players":24,"Bots":0,"server_type":"Dedicated","server_os":"Linux","password":true,"vac":true,"version":"7961495","steam_id":85568392925397960,"keywords":["cp","nocrits","nodmgspread","uncletopia"],"game_id":440,"stv_port":27066,"stv_name":"Uncletopia | Sydney | 6 | Community | STV","players":null},{"server_id":49,"name":"Uncletopia | Warsaw | 1 | One Thousand Uncles","name_short":"waw-1","host":"waw-1.pl.uncletopia.com","port":27015,"enabled":true,"region":"eu","cc":"pl","latitude":52.2297,"longitude":21.017532,"reserved":0,"last_update":"0001-01-01T00:00:00Z","name_a2s":"Uncletopia | Warsaw | 1 | One Thousand Uncles","protocol":17,"map":"pl_snowycoast","folder":"tf","game":"Team Fortress","app_id":440,"player_count":0,"max_players":32,"Bots":0,"server_type":"Dedicated","server_os":"Linux","password":true,"vac":true,"version":"7961495","steam_id":85568392925397850,"keywords":["alltalk","danepve","increased_maxplayers","norespawntime","payload","uncletopia"],"game_id":440,"stv_port":0,"stv_name":"","players":null},{"server_id":50,"name":"Uncletopia | Warsaw | 2 | One Thousand Uncles","name_short":"waw-2","host":"waw-1.pl.uncletopia.com","port":27025,"enabled":true,"region":"eu","cc":"pl","latitude":52.2297,"longitude":21.017532,"reserved":0,"last_update":"0001-01-01T00:00:00Z","name_a2s":"Uncletopia | Warsaw | 2 | One Thousand Uncles","protocol":17,"map":"pl_thundermountain","folder":"tf","game":"Team Fortress","app_id":440,"player_count":19,"max_players":32,"Bots":16,"server_type":"Dedicated","server_os":"Linux","password":true,"vac":true,"version":"7961495","steam_id":85568392925397851,"keywords":["alltalk","bots","danepve","increased_maxplayers","norespawntime","payload","uncletopia"],"game_id":440,"stv_port":0,"stv_name":"","players":[{"user_id":284,"name":"astrid","steam_id":76561198122663977,"connected_time":7269000000000,"state":"active","ping":88},{"user_id":293,"name":"Benzo Fury","steam_id":76561198025259336,"connected_time":1045000000000,"state":"active","ping":74},{"user_id":294,"name":"Meat Dragon","steam_id":76561198120319256,"connected_time":772000000000,"state":"active","ping":163}]},{"server_id":51,"name":"Uncletopia | Warsaw | 3 | All Maps","name_short":"waw-3","host":"waw-1.pl.uncletopia.com","port":27035,"enabled":true,"region":"eu","cc":"pl","latitude":52.2297,"longitude":21.017532,"reserved":0,"last_update":"0001-01-01T00:00:00Z","name_a2s":"Uncletopia | Warsaw | 3 | All Maps","protocol":17,"map":"cp_sunshine","folder":"tf","game":"Team Fortress","app_id":440,"player_count":0,"max_players":24,"Bots":0,"server_type":"Dedicated","server_os":"Linux","password":true,"vac":true,"version":"7961495","steam_id":85568392925397852,"keywords":["cp","nocrits","nodmgspread","uncletopia"],"game_id":440,"stv_port":27036,"stv_name":"Uncletopia | Warsaw | 3 | All Maps | STV","players":null},{"server_id":52,"name":"Uncletopia | Warsaw | 4 | All Maps","name_short":"waw-4","host":"waw-1.pl.uncletopia.com","port":27045,"enabled":true,"region":"eu","cc":"pl","latitude":52.2297,"longitude":21.017532,"reserved":0,"last_update":"0001-01-01T00:00:00Z","name_a2s":"Uncletopia | Warsaw | 4 | All Maps","protocol":17,"map":"koth_cascade","folder":"tf","game":"Team Fortress","app_id":440,"player_count":0,"max_players":24,"Bots":0,"server_type":"Dedicated","server_os":"Linux","password":true,"vac":true,"version":"7961495","steam_id":85568392925397853,"keywords":["cp","nocrits","nodmgspread","uncletopia"],"game_id":440,"stv_port":27046,"stv_name":"Uncletopia | Warsaw | 4 | All Maps | STV","players":null},{"server_id":53,"name":"Uncletopia | Warsaw | 5 | Stopwatch","name_short":"waw-5","host":"waw-1.pl.uncletopia.com","port":27055,"enabled":true,"region":"eu","cc":"pl","latitude":52.2297,"longitude":21.017532,"reserved":0,"last_update":"0001-01-01T00:00:00Z","name_a2s":"Uncletopia | Warsaw | 5 | Stopwatch","protocol":17,"map":"koth_highpass","folder":"tf","game":"Team Fortress","app_id":440,"player_count":0,"max_players":24,"Bots":0,"server_type":"Dedicated","server_os":"Linux","password":true,"vac":true,"version":"7961495","steam_id":85568392925397854,"keywords":["cp","nocrits","nodmgspread","uncletopia"],"game_id":440,"stv_port":27056,"stv_name":"Uncletopia | Warsaw | 5 | Stopwatch | STV","players":null},{"server_id":54,"name":"Uncletopia | Warsaw | 6 | Community","name_short":"waw-6","host":"waw-1.pl.uncletopia.com","port":27065,"enabled":true,"region":"eu","cc":"pl","latitude":52.2297,"longitude":21.017532,"reserved":0,"last_update":"0001-01-01T00:00:00Z","name_a2s":"Uncletopia | Warsaw | 6 | Community","protocol":17,"map":"workshop/rd_asteroid_redux_b1.ugc2154902912","folder":"tf","game":"Team Fortress","app_id":440,"player_count":0,"max_players":24,"Bots":0,"server_type":"Dedicated","server_os":"Linux","password":true,"vac":true,"version":"7961495","steam_id":85568392925397856,"keywords":["beta","nocrits","nodmgspread","rd","uncletopia"],"game_id":440,"stv_port":27066,"stv_name":"Uncletopia | Warsaw | 6 | Community | STV","players":null}]}