{"status":true,"message":"","result":[{"server_id":2,"name":"Uncletopia | Chicago | 1 | All Maps","name_short":"chi-1","host":"chi-1.us.uncletopia.com","port":27015,"enabled":true,"region":"us-central","cc":"us","latitude":41.881832,"longitude":-87.62318,"reserved":0,"last_update":"0001-01-01T00:00:00Z","name_a2s":"Uncletopia | Chicago | 1 | All Maps","protocol":17,"map":"pl_goldrush","folder":"tf","game":"Team Fortress","app_id":440,"player_count":23,"max_players":24,"Bots":0,"server_type":"Dedicated","server_os":"Linux","password":true,"vac":true,"version":"7932396","steam_id":85568392924469984,"keywords":["nocrits","nodmgspread","payload","uncletopia"],"game_id":440,"stv_port":27016,"stv_name":"Uncletopia | Chicago | 1 | All Maps | STV","players":[{"user_id":512,"name":"cotton candy peon","steam_id":76561198058998371,"connected_time":319000000000,"state":"active","ping":62},{"user_id":519,"name":"abcdefghijklmnopqrstuvwxyz","steam_id":76561198175741741,"connected_time":57000000000,"state":"spawning","ping":73},{"user_id":501,"name":"blabman","steam_id":76561198426531445,"connected_time":694000000000,"state":"active","ping":120},{"user_id":508,"name":"Doctor Emerald(real)","steam_id":76561199123003872,"connected_time":399000000000,"state":"active","ping":94},{"user_id":468,"name":"David De Bergerac","steam_id":76561198010306294,"connected_time":2744000000000,"state":"active","ping":87},{"user_id":454,"name":"Snoogs","steam_id":76561198444880931,"connected_time":4075000000000,"state":"active","ping":79},{"user_id":513,"name":"EforEstrogen","steam_id":76561198086787295,"connected_time":316000000000,"state":"active","ping":100},{"user_id":474,"name":"touhou2010@gmail.com","steam_id":76561198045844070,"connected_time":2694000000000,"state":"active","ping":82},{"user_id":471,"name":"what is completely unfappable?","steam_id":76561198032259680,"connected_time":2715000000000,"state":"active","ping":76},{"user_id":509,"name":"dunk","steam_id":76561198132476501,"connected_time":393000000000,"state":"active","ping":51},{"user_id":463,"name":"Mixomin","steam_id":76561198295061570,"connected_time":3241000000000,"state":"active","ping":44},{"user_id":510,"name":"Rafl","steam_id":76561198055222756,"connected_time":389000000000,"state":"active","ping":68},{"user_id":470,"name":"Herdez Hot Salsa","steam_id":76561197991740906,"connected_time":2736000000000,"state":"active","ping":69},{"user_id":472,"name":"BreakfastTacos","steam_id":76561198847620442,"connected_time":2714000000000,"state":"active","ping":111},{"user_id":514,"name":"GreekGoat_Coffee","steam_id":76561198129331088,"connected_time":304000000000,"state":"active","ping":54},{"user_id":515,"name":"Oddball","steam_id":76561198040440984,"connected_time":293000000000,"state":"active","ping":68},{"user_id":496,"name":"hashmap","steam_id":76561198043794014,"connected_time":963000000000,"state":"active","ping":50},{"user_id":481,"name":"·ìÄ‚Ä∏·ìÇ","steam_id":76561198046055673,"connected_time":2529000000000,"state":"active","ping":75},{"user_id":507,"name":"pp","steam_id":76561198396247454,"connected_time":474000000000,"state":"active","ping":68},{"user_id":516,"name":"DarkHero","steam_id":76561198197125710,"connected_time":264000000000,"state":"active","ping":90},{"user_id":520,"name":"One Shot and A Miss","steam_id":76561198124269698,"connected_time":26000000000,"state":"active","ping":62},{"user_id":518,"name":"Snoots!","steam_id":76561198006301420,"connected_time":138000000000,"state":"active","ping":83},{"user_id":499,"name":"rouze","steam_id":76561198129875171,"connected_time":843000000000,"state":"active","ping":77}]},{"server_id":106,"name":"Uncletopia | Chicago | 2 | All Maps","name_short":"chi-2","host":"chi-1.us.uncletopia.com","port":27025,"enabled":true,"region":"us-central","cc":"us","latitude":41.881832,"longitude":-87.62318,"reserved":0,"last_update":"0001-01-01T00:00:00Z","name_a2s":"Uncletopia | Chicago | 2 | All Maps","protocol":17,"map":"pl_frontier_final","folder":"tf","game":"Team Fortress","app_id":440,"player_count":24,"max_players":24,"Bots":0,"server_type":"Dedicated","server_os":"Linux","password":true,"vac":true,"version":"7932396","steam_id":85568392924469985,"keywords":["nocrits","nodmgspread","payload","uncletopia"],"game_id":440,"stv_port":27026,"stv_name":"Uncletopia | Chicago | 2 | All Maps | STV","players":[{"user_id":827,"name":"Pasta","steam_id":76561198358320222,"connected_time":1657000000000,"state":"active","ping":79},{"user_id":773,"name":"Whorse","steam_id":76561198114141445,"connected_time":5228000000000,"state":"active","ping":70},{"user_id":843,"name":"swam","steam_id":76561198412916626,"connected_time":580000000000,"state":"active","ping":75},{"user_id":833,"name":"gromit","steam_id":76561198037746805,"connected_time":1132000000000,"state":"active","ping":74},{"user_id":775,"name":"‚ùÑAdmiral Pete‚ùÑ The Penguin","steam_id":76561198452656581,"connected_time":5220000000000,"state":"active","ping":70},{"user_id":849,"name":"girthmilk","steam_id":76561198054799782,"connected_time":320000000000,"state":"active","ping":82},{"user_id":845,"name":"Space Lizard","steam_id":76561198056798193,"connected_time":538000000000,"state":"active","ping":70},{"user_id":796,"name":"Hero8171","steam_id":76561199239824271,"connected_time":3635000000000,"state":"active","ping":59},{"user_id":848,"name":"kite","steam_id":76561198346516392,"connected_time":396000000000,"state":"active","ping":73},{"user_id":834,"name":"pop7585","steam_id":76561198149021193,"connected_time":1124000000000,"state":"active","ping":75},{"user_id":781,"name":"Colin102004","steam_id":76561198202384334,"connected_time":5178000000000,"state":"active","ping":56},{"user_id":826,"name":"Tots","steam_id":76561198027485007,"connected_time":1984000000000,"state":"active","ping":61},{"user_id":846,"name":"Pindog","steam_id":76561197961597161,"connected_time":534000000000,"state":"active","ping":109},{"user_id":822,"name":"Dave5744","steam_id":76561198117207566,"connected_time":2218000000000,"state":"active","ping":59},{"user_id":800,"name":"Baka!‚ë®‚ë®‚ë®‚ë®","steam_id":76561198152948254,"connected_time":3589000000000,"state":"active","ping":68},{"user_id":801,"name":"cactus eater","steam_id":76561199107499844,"connected_time":3539000000000,"state":"active","ping":114},{"user_id":839,"name":"GuyGoom","steam_id":76561198254522178,"connected_time":1044000000000,"state":"active","ping":55},{"user_id":842,"name":"Overlord","steam_id":76561198004425258,"connected_time":742000000000,"state":"active","ping":73},{"user_id":838,"name":"cfs._","steam_id":76561198052978969,"connected_time":1083000000000,"state":"active","ping":70},{"user_id":836,"name":"flaccid","steam_id":76561198299241777,"connected_time":1111000000000,"state":"active","ping":93},{"user_id":840,"name":"wheat","steam_id":76561197971158435,"connected_time":937000000000,"state":"active","ping":58},{"user_id":812,"name":"Dog","steam_id":76561198450992953,"connected_time":3185000000000,"state":"active","ping":116},{"user_id":806,"name":"Viokik","steam_id":76561198408846602,"connected_time":3510000000000,"state":"active","ping":69},{"user_id":847,"name":"Howell at the Moon","steam_id":76561198060827426,"connected_time":488000000000,"state":"active","ping":73}]},{"server_id":402,"name":"Uncletopia | Chicago | 3 | All Maps","name_short":"chi-3","host":"chi-1.us.uncletopia.com","port":27035,"enabled":true,"region":"us-central","cc":"us","latitude":41.881832,"longitude":-87.62318,"reserved":0,"last_update":"0001-01-01T00:00:00Z","name_a2s":"Uncletopia | Chicago | 3 | All Maps","protocol":17,"map":"pl_goldrush","folder":"tf","game":"Team Fortress","app_id":440,"player_count":23,"max_players":24,"Bots":0,"server_type":"Dedicated","server_os":"Linux","password":true,"vac":true,"version":"7932396","steam_id":85568392924515191,"keywords":["nocrits","nodmgspread","payload","uncletopia"],"game_id":440,"stv_port":27036,"stv_name":"Uncletopia | Chicago | 3 | All Maps | STV","players":[{"user_id":285,"name":"Sunbrah","steam_id":76561198057506946,"connected_time":2218000000000,"state":"active","ping":69},{"user_id":317,"name":"Ground Control to Majortom","steam_id":76561198065589126,"connected_time":805000000000,"state":"active","ping":89},{"user_id":272,"name":"Dr. Dick","steam_id":76561198138011922,"connected_time":3950000000000,"state":"active","ping":73},{"user_id":321,"name":"Drilly22","steam_id":76561198068838338,"connected_time":548000000000,"state":"active","ping":90},{"user_id":309,"name":"Scheduled Program","steam_id":76561198196911453,"connected_time":1333000000000,"state":"active","ping":49},{"user_id":292,"name":"Anor","steam_id":76561198356139775,"connected_time":1959000000000,"state":"active","ping":73},{"user_id":288,"name":"MaDeuce","steam_id":76561198110732835,"connected_time":2081000000000,"state":"active","ping":125},{"user_id":316,"name":"Lord TriM","steam_id":76561198048332533,"connected_time":847000000000,"state":"active","ping":61},{"user_id":319,"name":"MaxPropaganda","steam_id":76561198860163436,"connected_time":664000000000,"state":"active","ping":59},{"user_id":283,"name":"Jesse","steam_id":76561198157305426,"connected_time":2840000000000,"state":"active","ping":62},{"user_id":290,"name":"DOMO_MR_ROBOTO","steam_id":76561198077108345,"connected_time":2065000000000,"state":"active","ping":96},{"user_id":312,"name":"k3nny11","steam_id":76561198182533757,"connected_time":1047000000000,"state":"active","ping":64},{"user_id":293,"name":"Floor chicken nugget","steam_id":76561198840484105,"connected_time":1932000000000,"state":"active","ping":80},{"user_id":187,"name":"notdoxed","steam_id":76561197992591404,"connected_time":10841000000000,"state":"active","ping":48},{"user_id":297,"name":"god's drunkest driver","steam_id":76561198069407799,"connected_time":1850000000000,"state":"active","ping":71},{"user_id":311,"name":"Smiles","steam_id":76561198107197973,"connected_time":1064000000000,"state":"active","ping":58},{"user_id":296,"name":"the whale (2022)","steam_id":76561198095313463,"connected_time":1882000000000,"state":"active","ping":60},{"user_id":306,"name":"Jobe Bryant","steam_id":76561198044844522,"connected_time":1507000000000,"state":"active","ping":66},{"user_id":308,"name":"glankinator","steam_id":76561198354077256,"connected_time":1369000000000,"state":"active","ping":45},{"user_id":320,"name":"chaffy","steam_id":76561198021754567,"connected_time":636000000000,"state":"active","ping":51},{"user_id":310,"name":"TOASTER IN A RAIN COAT","steam_id":76561199090392905,"connected_time":1266000000000,"state":"active","ping":57},{"user_id":313,"name":"Kirbothebrony","steam_id":76561198971911330,"connected_time":1043000000000,"state":"active","ping":93},{"user_id":282,"name":"Walt","steam_id":76561198964107245,"connected_time":2964000000000,"state":"active","ping":94}]},{"server_id":403,"name":"Uncletopia | Chicago | 4 | All Maps","name_short":"chi-4","host":"chi-1.us.uncletopia.com","port":27045,"enabled":true,"region":"us-central","cc":"us","latitude":41.881832,"longitude":-87.62318,"reserved":0,"last_update":"0001-01-01T00:00:00Z","name_a2s":"Uncletopia | Chicago | 4 | All Maps","protocol":17,"map":"cp_sunshine","folder":"tf","game":"Team Fortress","app_id":440,"player_count":24,"max_players":24,"Bots":0,"server_type":"Dedicated","server_os":"Linux","password":true,"vac":true,"version":"7932396","steam_id":85568392924515193,"keywords":["cp","nocrits","nodmgspread","uncletopia"],"game_id":440,"stv_port":27046,"stv_name":"Uncletopia | Chicago | 4 | All Maps | STV","players":[{"user_id":505,"name":"bkiller","steam_id":76561198029265697,"connected_time":554000000000,"state":"active","ping":74},{"user_id":506,"name":"frick off law enforcement","steam_id":76561198255022731,"connected_time":533000000000,"state":"active","ping":84},{"user_id":516,"name":"Lalo","steam_id":76561199226347725,"connected_time":136000000000,"state":"active","ping":177},{"user_id":448,"name":"The Notorious P.U.E.R.","steam_id":76561198046715542,"connected_time":2725000000000,"state":"active","ping":69},{"user_id":507,"name":"St. Michael","steam_id":76561198037611052,"connected_time":492000000000,"state":"active","ping":66},{"user_id":508,"name":"CFGU || RAWRWAFL","steam_id":76561198032118386,"connected_time":471000000000,"state":"active","ping":89},{"user_id":464,"name":"ATL1 | cola","steam_id":76561198374390458,"connected_time":1722000000000,"state":"active","ping":60},{"user_id":480,"name":"evilstuntman","steam_id":76561198056911537,"connected_time":1311000000000,"state":"active","ping":44},{"user_id":502,"name":"Dot.","steam_id":76561198149463984,"connected_time":802000000000,"state":"active","ping":43},{"user_id":432,"name":"LINE 177 TOMORROW","steam_id":76561198068190834,"connected_time":3300000000000,"state":"active","ping":114},{"user_id":446,"name":"Epha","steam_id":76561198079379951,"connected_time":2866000000000,"state":"active","ping":69},{"user_id":461,"name":"ATL 1 | Save your wifi","steam_id":76561198286147372,"connected_time":1885000000000,"state":"active","ping":66},{"user_id":440,"name":"Doofenshmirtz Evil Inc.","steam_id":76561198439793697,"connected_time":3071000000000,"state":"active","ping":83},{"user_id":509,"name":"Tweek Tweak","steam_id":76561198445739792,"connected_time":416000000000,"state":"active","ping":78},{"user_id":510,"name":"IMM0RTAL","steam_id":76561198013747901,"connected_time":413000000000,"state":"active","ping":73},{"user_id":511,"name":"FineWine","steam_id":76561199122190694,"connected_time":409000000000,"state":"active","ping":105},{"user_id":512,"name":"[S]Mr. X [No Monitor]","steam_id":76561197963746035,"connected_time":406000000000,"state":"active","ping":115},{"user_id":466,"name":"minecraft","steam_id":76561198104345201,"connected_time":1713000000000,"state":"active","ping":74},{"user_id":427,"name":"Cyclops_672","steam_id":76561198080169497,"connected_time":3820000000000,"state":"active","ping":60},{"user_id":504,"name":"mxgic","steam_id":76561198354656195,"connected_time":769000000000,"state":"active","ping":121},{"user_id":513,"name":"IZISOO","steam_id":76561198970380577,"connected_time":399000000000,"state":"active","ping":56},{"user_id":514,"name":"Tarnation Bob","steam_id":76561198107382571,"connected_time":371000000000,"state":"active","ping":124},{"user_id":515,"name":"Farseer Ulwithy","steam_id":76561197965179245,"connected_time":362000000000,"state":"active","ping":88},{"user_id":483,"name":"Hindmost","steam_id":76561199081837220,"connected_time":1251000000000,"state":"active","ping":84}]},{"server_id":36,"name":"Uncletopia | Chicago | 5 | All Maps","name_short":"chi-5","host":"chi-2.us.uncletopia.com","port":27015,"enabled":true,"region":"us-central","cc":"us","latitude":41.881832,"longitude":-87.62318,"reserved":0,"last_update":"0001-01-01T00:00:00Z","name_a2s":"Uncletopia | Chicago | 5 | All Maps","protocol":17,"map":"pl_upward","folder":"tf","game":"Team Fortress","app_id":440,"player_count":24,"max_players":24,"Bots":0,"server_type":"Dedicated","server_os":"Linux","password":true,"vac":true,"version":"7932396","steam_id":85568392924866362,"keywords":["nocrits","nodmgspread","payload","uncletopia"],"game_id":440,"stv_port":27016,"stv_name":"Uncletopia | Chicago | 5 | All Maps | STV","players":[{"user_id":749,"name":"Sqilluy","steam_id":76561198130993466,"connected_time":3218000000000,"state":"active","ping":68},{"user_id":771,"name":"CHIEF_JUSTICE_FUCKASS","steam_id":76561199261675844,"connected_time":2142000000000,"state":"active","ping":98},{"user_id":757,"name":"Uwu Micster","steam_id":76561198843890616,"connected_time":2432000000000,"state":"active","ping":84},{"user_id":779,"name":"Mori","steam_id":76561198118205495,"connected_time":950000000000,"state":"active","ping":58},{"user_id":755,"name":"The strongest ‚ë® ball","steam_id":76561198126760743,"connected_time":2741000000000,"state":"active","ping":75},{"user_id":780,"name":"6t26j","steam_id":76561198278282836,"connected_time":938000000000,"state":"active","ping":49},{"user_id":794,"name":"guywholikesSOUP","steam_id":76561198006670369,"connected_time":47000000000,"state":"active","ping":60},{"user_id":782,"name":"*","steam_id":76561198173047169,"connected_time":912000000000,"state":"active","ping":60},{"user_id":789,"name":"Griggs","steam_id":76561198800478056,"connected_time":216000000000,"state":"active","ping":92},{"user_id":734,"name":"swan","steam_id":76561198012569200,"connected_time":4380000000000,"state":"active","ping":68},{"user_id":765,"name":"IanFishooks","steam_id":76561199403427527,"connected_time":2359000000000,"state":"active","ping":72},{"user_id":787,"name":"ultralisk52","steam_id":76561198051666604,"connected_time":793000000000,"state":"active","ping":62},{"user_id":710,"name":"eWVra2Vy","steam_id":76561198453565942,"connected_time":6052000000000,"state":"active","ping":109},{"user_id":747,"name":"Ace Chromatica","steam_id":76561198042211131,"connected_time":3684000000000,"state":"active","ping":56},{"user_id":784,"name":"ApertureCity","steam_id":76561198004153607,"connected_time":875000000000,"state":"active","ping":88},{"user_id":752,"name":"Speedy","steam_id":76561198080761661,"connected_time":3139000000000,"state":"active","ping":81},{"user_id":785,"name":"ChozoChorizo","steam_id":76561198272609196,"connected_time":873000000000,"state":"active","ping":68},{"user_id":786,"name":"Mangoue","steam_id":76561198844686784,"connected_time":871000000000,"state":"active","ping":66},{"user_id":758,"name":"(Past Tense)","steam_id":76561197996279335,"connected_time":2415000000000,"state":"active","ping":50},{"user_id":764,"name":"Hezxp","steam_id":76561198312931111,"connected_time":2364000000000,"state":"active","ping":77},{"user_id":790,"name":"gnoll filth","steam_id":76561198066123607,"connected_time":209000000000,"state":"active","ping":46},{"user_id":792,"name":"helen keller","steam_id":76561197979870540,"connected_time":173000000000,"state":"active","ping":54},{"user_id":744,"name":"tyg","steam_id":76561198056246867,"connected_time":4107000000000,"state":"active","ping":73},{"user_id":774,"name":"Len","steam_id":76561198830451722,"connected_time":1612000000000,"state":"active","ping":107}]},{"server_id":37,"name":"Uncletopia | Chicago | 6 | All Maps","name_short":"chi-6","host":"chi-2.us.uncletopia.com","port":27025,"enabled":true,"region":"us-central","cc":"us","latitude":41.881832,"longitude":-87.62318,"reserved":0,"last_update":"0001-01-01T00:00:00Z","name_a2s":"Uncletopia | Chicago | 6 | All Maps","protocol":17,"map":"koth_viaduct","folder":"tf","game":"Team Fortress","app_id":440,"player_count":21,"max_players":24,"Bots":0,"server_type":"Dedicated","server_os":"Linux","password":true,"vac":true,"version":"7932396","steam_id":85568392924866363,"keywords":["cp","nocrits","nodmgspread","uncletopia"],"game_id":440,"stv_port":27026,"stv_name":"Uncletopia | Chicago | 6 | All Maps | STV","players":[{"user_id":272,"name":"gasterstanley","steam_id":76561199062453153,"connected_time":311000000000,"state":"active","ping":139},{"user_id":273,"name":"The_RainbowTrout","steam_id":76561199309554436,"connected_time":279000000000,"state":"active","ping":94},{"user_id":231,"name":"Irritated Duck","steam_id":76561198247792076,"connected_time":3032000000000,"state":"active","ping":133},{"user_id":210,"name":"Fumohuxi Viriphyto","steam_id":76561198369395636,"connected_time":4146000000000,"state":"active","ping":90},{"user_id":211,"name":"Amoxicilina","steam_id":76561198168486429,"connected_time":4109000000000,"state":"active","ping":121},{"user_id":250,"name":"Mammott","steam_id":76561199201099781,"connected_time":1718000000000,"state":"active","ping":75},{"user_id":178,"name":"SiltyStar85","steam_id":76561198309175923,"connected_time":7237000000000,"state":"active","ping":86},{"user_id":265,"name":"CollDragon","steam_id":76561198067534450,"connected_time":1337000000000,"state":"active","ping":68},{"user_id":278,"name":"Acto","steam_id":76561198043025164,"connected_time":97000000000,"state":"active","ping":110},{"user_id":215,"name":"sergeant Adderall","steam_id":76561199010296481,"connected_time":3781000000000,"state":"active","ping":91},{"user_id":262,"name":"Szotski_house11","steam_id":76561199217545978,"connected_time":1366000000000,"state":"active","ping":92},{"user_id":255,"name":"Player","steam_id":76561199482290132,"connected_time":1445000000000,"state":"active","ping":65},{"user_id":275,"name":"T ú·¥á F·¥è·¥è ü.","steam_id":76561198047167199,"connected_time":202000000000,"state":"active","ping":90},{"user_id":276,"name":"Stoney Goblin","steam_id":76561198141215376,"connected_time":155000000000,"state":"active","ping":77},{"user_id":277,"name":"DMoney$.","steam_id":76561198093829623,"connected_time":138000000000,"state":"active","ping":80},{"user_id":257,"name":"StompOnYourFace!!!!","steam_id":76561198065581117,"connected_time":1410000000000,"state":"active","ping":73},{"user_id":270,"name":"generic name","steam_id":76561198123127665,"connected_time":882000000000,"state":"active","ping":74},{"user_id":279,"name":"WaveSmash","steam_id":76561198208785485,"connected_time":23000000000,"state":"active","ping":101},{"user_id":241,"name":"NUt","steam_id":76561198031007966,"connected_time":2644000000000,"state":"active","ping":75},{"user_id":242,"name":"banan team fortes","steam_id":76561199073621650,"connected_time":2589000000000,"state":"active","ping":108},{"user_id":243,"name":"clavin_","steam_id":76561198046398447,"connected_time":2587000000000,"state":"active","ping":47}]},{"server_id":38,"name":"Uncletopia | Chicago | 7 | Stopwatch Beta","name_short":"chi-7","host":"chi-2.us.uncletopia.com","port":27035,"enabled":true,"region":"us-central","cc":"us","latitude":41.881832,"longitude":-87.62318,"reserved":0,"last_update":"0001-01-01T00:00:00Z","name_a2s":"Uncletopia | Chicago | 7 | Stopwatch Beta","protocol":17,"map":"pl_borneo","folder":"tf","game":"Team Fortress","app_id":440,"player_count":2,"max_players":24,"Bots":0,"server_type":"Dedicated","server_os":"Linux","password":true,"vac":true,"version":"7932396","steam_id":85568392924866364,"keywords":["nocrits","nodmgspread","payload","uncletopia"],"game_id":440,"stv_port":27036,"stv_name":"Uncletopia | Chicago | 7 | Stopwatch Beta | STV","players":[{"user_id":14,"name":"Engineer Gaming","steam_id":76561198840761529,"connected_time":29000000000,"state":"active","ping":80},{"user_id":15,"name":"bobletoob","steam_id":76561199184464900,"connected_time":20000000000,"state":"active","ping":153}]},{"server_id":39,"name":"Uncletopia | Chicago | 8 | Community","name_short":"chi-8","host":"chi-2.us.uncletopia.com","port":27045,"enabled":true,"region":"us-central","cc":"us","latitude":41.881832,"longitude":-87.62318,"reserved":0,"last_update":"0001-01-01T00:00:00Z","name_a2s":"Uncletopia | Chicago | 8 | Community","protocol":17,"map":"workshop/koth_product_final.ugc454272353","folder":"tf","game":"Team Fortress","app_id":440,"player_count":22,"max_players":24,"Bots":0,"server_type":"Dedicated","server_os":"Linux","password":true,"vac":true,"version":"7932396","steam_id":85568392924866365,"keywords":["cp","nocrits","nodmgspread","uncletopia"],"game_id":440,"stv_port":27046,"stv_name":"Uncletopia | Chicago | 8 | Community | STV","players":[{"user_id":315,"name":"eryn üó∫","steam_id":76561198004433070,"connected_time":520000000000,"state":"active","ping":76},{"user_id":321,"name":"the pest","steam_id":76561198826298849,"connected_time":234000000000,"state":"active","ping":90},{"user_id":292,"name":"DAS MUTTERRECHT","steam_id":76561198075608405,"connected_time":2986000000000,"state":"active","ping":90},{"user_id":305,"name":"Crabo Stabbo","steam_id":76561198061227228,"connected_time":1633000000000,"state":"active","ping":56},{"user_id":316,"name":"Mossy","steam_id":76561198156401277,"connected_time":445000000000,"state":"active","ping":73},{"user_id":317,"name":"üÖúüÖîüÖîüÖöüÖ¢üÖ£üÖî\ufffd\ufffd\ufffd","steam_id":76561197999748343,"connected_time":365000000000,"state":"active","ping":60},{"user_id":288,"name":"irritable vowel syndrome","steam_id":76561198117033273,"connected_time":3196000000000,"state":"active","ping":141},{"user_id":318,"name":"goopgrabber","steam_id":76561199029951083,"connected_time":301000000000,"state":"active","ping":93},{"user_id":260,"name":"kat","steam_id":76561198099191938,"connected_time":5528000000000,"state":"active","ping":57},{"user_id":326,"name":"aunt pat","steam_id":76561198001488041,"connected_time":23000000000,"state":"spawning","ping":189},{"user_id":304,"name":"Byeah#788","steam_id":76561198268750379,"connected_time":1809000000000,"state":"active","ping":103},{"user_id":293,"name":"entityfromohio","steam_id":76561198031675881,"connected_time":2890000000000,"state":"active","ping":45},{"user_id":319,"name":"Savaqa","steam_id":76561198158016688,"connected_time":295000000000,"state":"active","ping":104},{"user_id":298,"name":"Little bridge goblin","steam_id":76561198272021214,"connected_time":2356000000000,"state":"active","ping":103},{"user_id":299,"name":"Bedwardism","steam_id":76561198071916189,"connected_time":2266000000000,"state":"active","ping":82},{"user_id":297,"name":"toastman","steam_id":76561198207073088,"connected_time":2634000000000,"state":"active","ping":74},{"user_id":323,"name":"Spuunster","steam_id":76561199070008096,"connected_time":89000000000,"state":"active","ping":95},{"user_id":243,"name":"5mech","steam_id":76561198979167520,"connected_time":6918000000000,"state":"active","ping":57},{"user_id":324,"name":"bobby wasabi","steam_id":76561198380018244,"connected_time":34000000000,"state":"active","ping":100},{"user_id":325,"name":"Ask Nicely For Heals","steam_id":76561198138478907,"connected_time":26000000000,"state":"active","ping":90},{"user_id":283,"name":"EvilsConscience","steam_id":76561198073451760,"connected_time":4142000000000,"state":"active","ping":59},{"user_id":282,"name":"Butters495","steam_id":76561197998689042,"connected_time":4228000000000,"state":"active","ping":82}]},{"server_id":8,"name":"Uncletopia | Dallas | 1 | All Maps","name_short":"dal-1","host":"dal-1.us.uncletopia.com","port":27015,"enabled":true,"region":"us-central","cc":"us","latitude":32.779167,"longitude":-96.80889,"reserved":0,"last_update":"0001-01-01T00:00:00Z","name_a2s":"Uncletopia | Dallas | 1 | All Maps","protocol":17,"map":"cp_dustbowl","folder":"tf","game":"Team Fortress","app_id":440,"player_count":24,"max_players":24,"Bots":0,"server_type":"Dedicated","server_os":"Linux","password":true,"vac":true,"version":"7932396","steam_id":85568392924469986,"keywords":["cp","nocrits","nodmgspread","uncletopia"],"game_id":440,"stv_port":27016,"stv_name":"Uncletopia | Dallas | 1 | All Maps | STV","players":[{"user_id":858,"name":"4","steam_id":76561198145784505,"connected_time":1056000000000,"state":"active","ping":74},{"user_id":843,"name":"littlesack","steam_id":76561197960270526,"connected_time":2052000000000,"state":"active","ping":82},{"user_id":844,"name":"TF2C | fac -AA-","steam_id":76561198009818412,"connected_time":2043000000000,"state":"active","ping":55},{"user_id":845,"name":"Ace_Steele23","steam_id":76561198086867678,"connected_time":2014000000000,"state":"active","ping":68},{"user_id":836,"name":"SGT Disoriented","steam_id":76561198058177958,"connected_time":3094000000000,"state":"active","ping":63},{"user_id":864,"name":"DragonHunter994","steam_id":76561199076203907,"connected_time":718000000000,"state":"active","ping":69},{"user_id":855,"name":"GrumpyMonk","steam_id":76561199197506631,"connected_time":1082000000000,"state":"active","ping":85},{"user_id":854,"name":"mel","steam_id":76561198019820977,"connected_time":1086000000000,"state":"active","ping":48},{"user_id":846,"name":"Bird","steam_id":76561198231624620,"connected_time":1939000000000,"state":"active","ping":64},{"user_id":865,"name":"Whoplops","steam_id":76561197977188933,"connected_time":123000000000,"state":"active","ping":93},{"user_id":838,"name":"Remy the rat","steam_id":76561198080519558,"connected_time":2456000000000,"state":"active","ping":61},{"user_id":772,"name":"Acidasaur","steam_id":76561198424179969,"connected_time":6926000000000,"state":"active","ping":79},{"user_id":822,"name":"Tommy Provolone","steam_id":76561198170062377,"connected_time":4028000000000,"state":"active","ping":66},{"user_id":848,"name":"penzfan","steam_id":76561198230422640,"connected_time":1882000000000,"state":"active","ping":71},{"user_id":851,"name":"PROtagonist","steam_id":76561198120631837,"connected_time":1526000000000,"state":"active","ping":85},{"user_id":863,"name":"andre","steam_id":76561198071201544,"connected_time":807000000000,"state":"active","ping":100},{"user_id":860,"name":"Ism√¢'√Æl","steam_id":76561198067436825,"connected_time":874000000000,"state":"active","ping":67},{"user_id":783,"name":"Fightin Cow","steam_id":76561198080941486,"connected_time":6171000000000,"state":"active","ping":58},{"user_id":856,"name":"errant","steam_id":76561197961758410,"connected_time":1070000000000,"state":"active","ping":42},{"user_id":769,"name":"LJBLJB‚Ñ¢","steam_id":76561198166782022,"connected_time":7130000000000,"state":"active","ping":72},{"user_id":771,"name":"Saltail","steam_id":76561198063053039,"connected_time":6942000000000,"state":"active","ping":99},{"user_id":857,"name":"ark","steam_id":76561198041066271,"connected_time":1065000000000,"state":"active","ping":84},{"user_id":823,"name":"Sophi","steam_id":76561198958125792,"connected_time":3976000000000,"state":"active","ping":117},{"user_id":862,"name":"ronny","steam_id":76561197994180230,"connected_time":849000000000,"state":"active","ping":65}]},{"server_id":108,"name":"Uncletopia | Dallas | 2 | All Maps","name_short":"dal-2","host":"dal-1.us.uncletopia.com","port":27025,"enabled":true,"region":"us-central","cc":"us","latitude":32.779167,"longitude":-96.80889,"reserved":0,"last_update":"0001-01-01T00:00:00Z","name_a2s":"Uncletopia | Dallas | 2 | All Maps","protocol":17,"map":"pl_borneo","folder":"tf","game":"Team Fortress","app_id":440,"player_count":24,"max_players":24,"Bots":0,"server_type":"Dedicated","server_os":"Linux","password":true,"vac":true,"version":"7932396","steam_id":85568392924469988,"keywords":["nocrits","nodmgspread","payload","uncletopia"],"game_id":440,"stv_port":27026,"stv_name":"Uncletopia | Dallas | 2 | All Maps | STV","players":[{"user_id":460,"name":"phon","steam_id":76561198140659236,"connected_time":1349000000000,"state":"active","ping":70},{"user_id":465,"name":"Tan_Rat","steam_id":76561198313629344,"connected_time":1094000000000,"state":"active","ping":69},{"user_id":457,"name":"Antifa Supersoldier","steam_id":76561198141816516,"connected_time":1604000000000,"state":"active","ping":43},{"user_id":472,"name":"Vorpas Jabwak","steam_id":76561198112186064,"connected_time":240000000000,"state":"active","ping":76},{"user_id":421,"name":"Hayd3nQ","steam_id":76561198124849736,"connected_time":4271000000000,"state":"active","ping":111},{"user_id":383,"name":"Fredfredfood","steam_id":76561198072824802,"connected_time":6589000000000,"state":"active","ping":79},{"user_id":469,"name":"Phosu","steam_id":76561198180162801,"connected_time":391000000000,"state":"active","ping":66},{"user_id":451,"name":"medic enthusiast","steam_id":76561198323031964,"connected_time":1929000000000,"state":"active","ping":76},{"user_id":478,"name":"SunSet :^)","steam_id":76561198067598194,"connected_time":62000000000,"state":"active","ping":87},{"user_id":473,"name":"Yummy Kabobz","steam_id":76561198067661705,"connected_time":239000000000,"state":"active","ping":81},{"user_id":471,"name":"damiankiller1243","steam_id":76561198868885090,"connected_time":266000000000,"state":"active","ping":69},{"user_id":462,"name":"porz","steam_id":76561198195711453,"connected_time":1283000000000,"state":"active","ping":45},{"user_id":475,"name":"Clown","steam_id":76561198272253695,"connected_time":169000000000,"state":"active","ping":99},{"user_id":474,"name":"Tokiyomi","steam_id":76561198153449091,"connected_time":213000000000,"state":"active","ping":87},{"user_id":476,"name":"CrackpotHamster","steam_id":76561198058410220,"connected_time":82000000000,"state":"active","ping":79},{"user_id":442,"name":"Xeno808","steam_id":76561198103758081,"connected_time":2770000000000,"state":"active","ping":37},{"user_id":459,"name":"Edwon","steam_id":76561198319902846,"connected_time":1583000000000,"state":"active","ping":82},{"user_id":479,"name":"pls no","steam_id":76561198328618417,"connected_time":57000000000,"state":"active","ping":80},{"user_id":480,"name":"cereaI","steam_id":76561198066929519,"connected_time":50000000000,"state":"active","ping":78},{"user_id":416,"name":"hihohe","steam_id":76561197987823936,"connected_time":4395000000000,"state":"active","ping":60},{"user_id":443,"name":"Doggo_Overlord","steam_id":76561198265468015,"connected_time":2533000000000,"state":"active","ping":77},{"user_id":466,"name":"Chhaam","steam_id":76561198058508132,"connected_time":915000000000,"state":"active","ping":71},{"user_id":477,"name":"Pancakes","steam_id":76561198097983190,"connected_time":82000000000,"state":"active","ping":52},{"user_id":456,"name":"Shwal","steam_id":76561198138840448,"connected_time":1657000000000,"state":"active","ping":85}]},{"server_id":5,"name":"Uncletopia | Frankfurt | 1 | All Maps","name_short":"frk-1","host":"frk-1.de.uncletopia.com","port":27015,"enabled":true,"region":"eu","cc":"de","latitude":50.110924,"longitude":8.682127,"reserved":0,"last_update":"0001-01-01T00:00:00Z","name_a2s":"Uncletopia | Frankfurt | 1 | All Maps","protocol":17,"map":"koth_viaduct","folder":"tf","game":"Team Fortress","app_id":440,"player_count":0,"max_players":24,"Bots":0,"server_type":"Dedicated","server_os":"Linux","password":true,"vac":true,"version":"7932396","steam_id":85568392924469989,"keywords":["cp","nocrits","nodmgspread","uncletopia"],"game_id":440,"stv_port":27016,"stv_name":"Uncletopia | Frankfurt | 1 | All Maps | STV","players":null},{"server_id":110,"name":"Uncletopia | Frankfurt | 2 | All Maps","name_short":"frk-2","host":"frk-1.de.uncletopia.com","port":27025,"enabled":true,"region":"eu","cc":"de","latitude":50.110924,"longitude":8.682127,"reserved":0,"last_update":"0001-01-01T00:00:00Z","name_a2s":"Uncletopia | Frankfurt | 2 | All Maps","protocol":17,"map":"pl_frontier_final","folder":"tf","game":"Team Fortress","app_id":440,"player_count":0,"max_players":24,"Bots":0,"server_type":"Dedicated","server_os":"Linux","password":true,"vac":true,"version":"7932396","steam_id":85568392924469990,"keywords":["nocrits","nodmgspread","payload","uncletopia"],"game_id":440,"stv_port":27026,"stv_name":"Uncletopia | Frankfurt | 2 | All Maps | STV","players":null},{"server_id":308,"name":"Uncletopia | Frankfurt | 3 | All Maps","name_short":"frk-3","host":"frk-1.de.uncletopia.com","port":27035,"enabled":true,"region":"eu","cc":"de","latitude":50.110924,"longitude":8.682127,"reserved":0,"last_update":"0001-01-01T00:00:00Z","name_a2s":"Uncletopia | Frankfurt | 3 | All Maps","protocol":17,"map":"pl_frontier_final","folder":"tf","game":"Team Fortress","app_id":440,"player_count":0,"max_players":24,"Bots":0,"server_type":"Dedicated","server_os":"Linux","password":true,"vac":true,"version":"7932396","steam_id":85568392924504274,"keywords":["nocrits","nodmgspread","payload","uncletopia"],"game_id":440,"stv_port":27036,"stv_name":"Uncletopia | Frankfurt | 3 | All Maps | STV","players":null},{"server_id":309,"name":"Uncletopia | Frankfurt | 4 | All Maps","name_short":"frk-4","host":"frk-1.de.uncletopia.com","port":27045,"enabled":true,"region":"eu","cc":"de","latitude":50.110924,"longitude":8.682127,"reserved":0,"last_update":"0001-01-01T00:00:00Z","name_a2s":"Uncletopia | Frankfurt | 4 | All Maps","protocol":17,"map":"cp_process_final","folder":"tf","game":"Team Fortress","app_id":440,"player_count":0,"max_players":24,"Bots":0,"server_type":"Dedicated","server_os":"Linux","password":true,"vac":true,"version":"7932396","steam_id":85568392924504275,"keywords":["cp","nocrits","nodmgspread","uncletopia"],"game_id":440,"stv_port":27046,"stv_name":"Uncletopia | Frankfurt | 4 | All Maps | STV","players":null},{"server_id":310,"name":"Uncletopia | Frankfurt | 5 | All Maps","name_short":"frk-5","host":"frk-1.de.uncletopia.com","port":27055,"enabled":true,"region":"eu","cc":"de","latitude":50.110924,"longitude":8.682127,"reserved":0,"last_update":"0001-01-01T00:00:00Z","name_a2s":"Uncletopia | Frankfurt | 5 | All Maps","protocol":17,"map":"pl_badwater","folder":"tf","game":"Team Fortress","app_id":440,"player_count":0,"max_players":24,"Bots":0,"server_type":"Dedicated","server_os":"Linux","password":true,"vac":true,"version":"7932396","steam_id":85568392924504277,"keywords":["nocrits","nodmgspread","payload","uncletopia"],"game_id":440,"stv_port":27056,"stv_name":"Uncletopia | Frankfurt | 5 | All Maps | STV","players":null},{"server_id":311,"name":"Uncletopia | Frankfurt | 6 | All Maps","name_short":"frk-6","host":"frk-1.de.uncletopia.com","port":27065,"enabled":true,"region":"eu","cc":"de","latitude":50.110924,"longitude":8.682127,"reserved":0,"last_update":"0001-01-01T00:00:00Z","name_a2s":"Uncletopia | Frankfurt | 6 | All Maps","protocol":17,"map":"koth_viaduct","folder":"tf","game":"Team Fortress","app_id":440,"player_count":0,"max_players":24,"Bots":0,"server_type":"Dedicated","server_os":"Linux","password":true,"vac":true,"version":"7932396","steam_id":85568392924504278,"keywords":["cp","nocrits","nodmgspread","uncletopia"],"game_id":440,"stv_port":27066,"stv_name":"Uncletopia | Frankfurt | 6 | All Maps | STV","players":null},{"server_id":23,"name":"Uncletopia | Frankfurt | 7 | Stopwatch Beta","name_short":"frk-7","host":"frk-1.de.uncletopia.com","port":27075,"enabled":true,"region":"eu","cc":"de","latitude":50.110924,"longitude":8.682127,"reserved":0,"last_update":"0001-01-01T00:00:00Z","name_a2s":"Uncletopia | Frankfurt | 7 | Stopwatch Beta","protocol":17,"map":"pl_snowycoast","folder":"tf","game":"Team Fortress","app_id":440,"player_count":0,"max_players":24,"Bots":0,"server_type":"Dedicated","server_os":"Linux","password":true,"vac":true,"version":"7932396","steam_id":85568392924742827,"keywords":["nocrits","nodmgspread","payload","uncletopia"],"game_id":440,"stv_port":27076,"stv_name":"Uncletopia | Frankfurt | 7 | Stopwatch Beta | STV","players":null},{"server_id":24,"name":"Uncletopia | Frankfurt | 8 | Community","name_short":"frk-8","host":"frk-1.de.uncletopia.com","port":27085,"enabled":true,"region":"eu","cc":"de","latitude":50.110924,"longitude":8.682127,"reserved":0,"last_update":"0001-01-01T00:00:00Z","name_a2s":"Uncletopia | Frankfurt | 8 | Community","protocol":17,"map":"workshop/cp_alloy_rc3.ugc592805587","folder":"tf","game":"Team Fortress","app_id":440,"player_count":0,"max_players":24,"Bots":0,"server_type":"Dedicated","server_os":"Linux","password":true,"vac":true,"version":"7932396","steam_id":85568392924742828,"keywords":["cp","nocrits","nodmgspread","uncletopia"],"game_id":440,"stv_port":27086,"stv_name":"Uncletopia | Frankfurt | 8 | Community | STV","players":null},{"server_id":202,"name":"Uncletopia | Hong Kong | 1 | All Maps","name_short":"hgk-1","host":"hgk-1.hk.uncletopia.com","port":27015,"enabled":true,"region":"asia","cc":"hk","latitude":22.302711,"longitude":114.177216,"reserved":0,"last_update":"0001-01-01T00:00:00Z","name_a2s":"Uncletopia | Hong Kong | 1 | All Maps","protocol":17,"map":"koth_viaduct","folder":"tf","game":"Team Fortress","app_id":440,"player_count":0,"max_players":24,"Bots":0,"server_type":"Dedicated","server_os":"Linux","password":true,"vac":true,"version":"7932396","steam_id":85568392924494504,"keywords":["cp","nocrits","nodmgspread","uncletopia"],"game_id":440,"stv_port":27016,"stv_name":"Uncletopia | Hong Kong | 1 | All Maps | STV","players":null},{"server_id":1,"name":"Uncletopia | Los Angeles | 1 | All Maps","name_short":"lax-1","host":"lax-1.us.uncletopia.com","port":27015,"enabled":true,"region":"us-west","cc":"us","latitude":33.94279,"longitude":-118.41004,"reserved":0,"last_update":"0001-01-01T00:00:00Z","name_a2s":"Uncletopia | Los Angeles | 1 | All Maps","protocol":17,"map":"pl_badwater","folder":"tf","game":"Team Fortress","app_id":440,"player_count":24,"max_players":24,"Bots":0,"server_type":"Dedicated","server_os":"Linux","password":true,"vac":true,"version":"7932396","steam_id":85568392924469991,"keywords":["nocrits","nodmgspread","payload","uncletopia"],"game_id":440,"stv_port":27016,"stv_name":"Uncletopia | Los Angeles | 1 | All Maps | STV","players":[{"user_id":383,"name":"June","steam_id":76561198141803658,"connected_time":2385000000000,"state":"active","ping":42},{"user_id":415,"name":"twofour","steam_id":76561197995200743,"connected_time":67000000000,"state":"spawning","ping":33},{"user_id":372,"name":"kaede","steam_id":76561198345528370,"connected_time":2895000000000,"state":"active","ping":54},{"user_id":405,"name":"Ronnie Pickering!","steam_id":76561198041842118,"connected_time":747000000000,"state":"active","ping":58},{"user_id":377,"name":"Camohno","steam_id":76561198283519918,"connected_time":2518000000000,"state":"active","ping":72},{"user_id":382,"name":"Scrux","steam_id":76561198129763115,"connected_time":2422000000000,"state":"active","ping":47},{"user_id":399,"name":"[ G R * T T Y ]","steam_id":76561198048986218,"connected_time":1434000000000,"state":"active","ping":66},{"user_id":390,"name":"ExplosiveGamer21","steam_id":76561198132370955,"connected_time":1892000000000,"state":"active","ping":70},{"user_id":393,"name":"Gay Sex Connoiseur","steam_id":76561199400200597,"connected_time":1743000000000,"state":"active","ping":55},{"user_id":406,"name":"elephant thumb","steam_id":76561198118859752,"connected_time":713000000000,"state":"active","ping":44},{"user_id":412,"name":"soup bowl","steam_id":76561198126134338,"connected_time":580000000000,"state":"active","ping":45},{"user_id":414,"name":"ŒõLIVŒ£","steam_id":76561198117342640,"connected_time":243000000000,"state":"active","ping":65},{"user_id":411,"name":"Sarbanes-Oxley","steam_id":76561197975898479,"connected_time":613000000000,"state":"active","ping":83},{"user_id":407,"name":"Pistol Person","steam_id":76561199090298292,"connected_time":703000000000,"state":"active","ping":68},{"user_id":408,"name":"Master Cannoli","steam_id":76561198272327518,"connected_time":701000000000,"state":"active","ping":75},{"user_id":409,"name":"Lazybullet","steam_id":76561199223794405,"connected_time":685000000000,"state":"active","ping":59},{"user_id":402,"name":"mentos14","steam_id":76561198097993629,"connected_time":974000000000,"state":"active","ping":56},{"user_id":413,"name":"Frosted Lighted Ornament","steam_id":76561197971250619,"connected_time":514000000000,"state":"active","ping":50},{"user_id":364,"name":"SolarusD","steam_id":76561198029279861,"connected_time":3771000000000,"state":"active","ping":55},{"user_id":400,"name":"RainbowFireBomb","steam_id":76561198170151545,"connected_time":1381000000000,"state":"active","ping":45},{"user_id":395,"name":"Breedable Catboy.","steam_id":76561199035402139,"connected_time":1667000000000,"state":"active","ping":81},{"user_id":396,"name":"lili","steam_id":76561199391478575,"connected_time":1665000000000,"state":"active","ping":86},{"user_id":416,"name":"Keamy","steam_id":76561199471434875,"connected_time":30000000000,"state":"active","ping":60},{"user_id":354,"name":"Acedia","steam_id":76561199011373463,"connected_time":4342000000000,"state":"active","ping":50}]},{"server_id":112,"name":"Uncletopia | Los Angeles | 2 | All Maps","name_short":"lax-2","host":"lax-1.us.uncletopia.com","port":27025,"enabled":true,"region":"us-west","cc":"us","latitude":33.94279,"longitude":-118.41004,"reserved":0,"last_update":"0001-01-01T00:00:00Z","name_a2s":"Uncletopia | Los Angeles | 2 | All Maps","protocol":17,"map":"pl_badwater","folder":"tf","game":"Team Fortress","app_id":440,"player_count":23,"max_players":24,"Bots":0,"server_type":"Dedicated","server_os":"Linux","password":true,"vac":true,"version":"7932396","steam_id":85568392924469992,"keywords":["nocrits","nodmgspread","payload","uncletopia"],"game_id":440,"stv_port":27026,"stv_name":"Uncletopia | Los Angeles | 2 | All Maps | STV","players":[{"user_id":543,"name":"Frank Accardi","steam_id":76561198017275707,"connected_time":2521000000000,"state":"active","ping":66},{"user_id":578,"name":"ball scratcher","steam_id":76561198133963493,"connected_time":472000000000,"state":"active","ping":60},{"user_id":581,"name":"lemonjack","steam_id":76561198277380277,"connected_time":184000000000,"state":"active","ping":59},{"user_id":568,"name":"Verdi","steam_id":76561198103940870,"connected_time":1543000000000,"state":"active","ping":53},{"user_id":518,"name":"flo rida","steam_id":76561198226169704,"connected_time":5008000000000,"state":"active","ping":58},{"user_id":546,"name":"Schnitz","steam_id":76561198265484253,"connected_time":2410000000000,"state":"active","ping":56},{"user_id":584,"name":"Yoshi the Destoyer","steam_id":76561198102272728,"connected_time":13000000000,"state":"spawning","ping":46},{"user_id":566,"name":"fish LFT 6s :^)","steam_id":76561198054070811,"connected_time":1770000000000,"state":"active","ping":46},{"user_id":548,"name":"DylanM345","steam_id":76561198174666786,"connected_time":2290000000000,"state":"active","ping":61},{"user_id":567,"name":"selvhat","steam_id":76561198114225509,"connected_time":1557000000000,"state":"active","ping":54},{"user_id":560,"name":"klopse","steam_id":76561198314981454,"connected_time":1946000000000,"state":"active","ping":89},{"user_id":553,"name":"The Grabbler (The Babbler)","steam_id":76561198145921847,"connected_time":2189000000000,"state":"active","ping":75},{"user_id":533,"name":"Gerbias","steam_id":76561198001002427,"connected_time":2951000000000,"state":"active","ping":68},{"user_id":576,"name":"Scorpianswag","steam_id":76561198260651036,"connected_time":566000000000,"state":"active","ping":30},{"user_id":552,"name":"The Baggler (The Faggler)","steam_id":76561198061335030,"connected_time":2198000000000,"state":"active","ping":76},{"user_id":580,"name":"Zaiah","steam_id":76561198377588247,"connected_time":283000000000,"state":"active","ping":81},{"user_id":529,"name":"Nothing Vulgar","steam_id":76561198055002150,"connected_time":3905000000000,"state":"active","ping":68},{"user_id":579,"name":"GreenApples","steam_id":76561198120559543,"connected_time":336000000000,"state":"active","ping":60},{"user_id":583,"name":"Jonatello","steam_id":76561198045699189,"connected_time":102000000000,"state":"active","ping":79},{"user_id":572,"name":"the fool","steam_id":76561198133933158,"connected_time":1068000000000,"state":"active","ping":56},{"user_id":562,"name":"dolph","steam_id":76561198341304816,"connected_time":1897000000000,"state":"active","ping":121},{"user_id":532,"name":"whydo1234","steam_id":76561198952627278,"connected_time":3231000000000,"state":"active","ping":67},{"user_id":564,"name":"nori_420","steam_id":76561199117134203,"connected_time":1867000000000,"state":"active","ping":60}]},{"server_id":324,"name":"Uncletopia | Los Angeles | 3 | All Maps","name_short":"lax-3","host":"lax-1.us.uncletopia.com","port":27035,"enabled":true,"region":"us-west","cc":"us","latitude":33.94279,"longitude":-118.41004,"reserved":0,"last_update":"0001-01-01T00:00:00Z","name_a2s":"Uncletopia | Los Angeles | 3 | All Maps","protocol":17,"map":"pl_pier","folder":"tf","game":"Team Fortress","app_id":440,"player_count":24,"max_players":24,"Bots":0,"server_type":"Dedicated","server_os":"Linux","password":true,"vac":true,"version":"7932396","steam_id":85568392924510198,"keywords":["nocrits","nodmgspread","payload","uncletopia"],"game_id":440,"stv_port":27036,"stv_name":"Uncletopia | Los Angeles | 3 | All Maps | STV","players":[{"user_id":240,"name":"Lucas","steam_id":76561198399704604,"connected_time":408000000000,"state":"active","ping":62},{"user_id":230,"name":"[chef] iron","steam_id":76561197970888616,"connected_time":1050000000000,"state":"active","ping":86},{"user_id":222,"name":"HeHedron","steam_id":76561199199667164,"connected_time":1602000000000,"state":"active","ping":67},{"user_id":237,"name":"An00bis","steam_id":76561198044084508,"connected_time":814000000000,"state":"active","ping":48},{"user_id":209,"name":"Paulitikz","steam_id":76561198123549082,"connected_time":2530000000000,"state":"active","ping":63},{"user_id":202,"name":"Urist McDwarf","steam_id":76561198164004939,"connected_time":2924000000000,"state":"active","ping":75},{"user_id":121,"name":"Sprit ‚ô•","steam_id":76561198268780781,"connected_time":9955000000000,"state":"active","ping":94},{"user_id":231,"name":"HeroOfTime","steam_id":76561199096218001,"connected_time":1046000000000,"state":"active","ping":51},{"user_id":168,"name":"Pyrotek‚Å¥","steam_id":76561198072747672,"connected_time":5491000000000,"state":"active","ping":37},{"user_id":178,"name":"1 Great Wooden Dad","steam_id":76561198377126974,"connected_time":4811000000000,"state":"active","ping":118},{"user_id":218,"name":"Pilgrim","steam_id":76561198089822383,"connected_time":1831000000000,"state":"active","ping":62},{"user_id":219,"name":"The Super Mario Bros. Movie","steam_id":76561198871692156,"connected_time":1799000000000,"state":"active","ping":96},{"user_id":238,"name":"Drapph","steam_id":76561199384213314,"connected_time":774000000000,"state":"active","ping":114},{"user_id":234,"name":"personman","steam_id":76561199006548708,"connected_time":913000000000,"state":"active","ping":58},{"user_id":235,"name":"JawnyMac","steam_id":76561198179529599,"connected_time":911000000000,"state":"active","ping":62},{"user_id":205,"name":"super-oofio64","steam_id":76561198954052123,"connected_time":2703000000000,"state":"active","ping":81},{"user_id":213,"name":"bottom pride burger","steam_id":76561198322247602,"connected_time":2445000000000,"state":"active","ping":57},{"user_id":215,"name":"Ralph Kramden (Slim Charles)","steam_id":76561197981687895,"connected_time":2085000000000,"state":"active","ping":57},{"user_id":227,"name":"One Guy","steam_id":76561198120421485,"connected_time":1270000000000,"state":"active","ping":81},{"user_id":239,"name":"Flare Dance","steam_id":76561198260443137,"connected_time":698000000000,"state":"active","ping":66},{"user_id":118,"name":"Goldensliv","steam_id":76561198161673891,"connected_time":10189000000000,"state":"active","ping":37},{"user_id":224,"name":"Wyvern","steam_id":76561198392331213,"connected_time":1562000000000,"state":"active","ping":87},{"user_id":177,"name":"BallBreaker","steam_id":76561198237263498,"connected_time":4996000000000,"state":"active","ping":113},{"user_id":193,"name":"Your Favorite Fearless Hero","steam_id":76561199127590316,"connected_time":3903000000000,"state":"active","ping":61}]},{"server_id":25,"name":"Uncletopia | Los Angeles | 4 | Stopwatch Beta","name_short":"lax-4","host":"lax-1.us.uncletopia.com","port":27045,"enabled":true,"region":"us-west","cc":"us","latitude":33.94279,"longitude":-118.41004,"reserved":0,"last_update":"0001-01-01T00:00:00Z","name_a2s":"Uncletopia | Los Angeles | 4 | Stopwatch Beta","protocol":17,"map":"workshop/koth_clearcut_b15.ugc2107050255","folder":"tf","game":"Team Fortress","app_id":440,"player_count":0,"max_players":24,"Bots":0,"server_type":"Dedicated","server_os":"Linux","password":true,"vac":true,"version":"7932396","steam_id":85568392924510199,"keywords":["cp","nocrits","nodmgspread","uncletopia"],"game_id":440,"stv_port":27046,"stv_name":"Uncletopia | Los Angeles | 4 | Stopwatch Beta | STV","players":null},{"server_id":11,"name":"Uncletopia | London | 1 | All Maps","name_short":"lon-1","host":"lon-1.uk.uncletopia.com","port":27015,"enabled":true,"region":"eu","cc":"gb","latitude":51.509865,"longitude":-0.118092,"reserved":0,"last_update":"0001-01-01T00:00:00Z","name_a2s":"Uncletopia | London | 1 | All Maps","protocol":17,"map":"cp_snakewater_final1","folder":"tf","game":"Team Fortress","app_id":440,"player_count":0,"max_players":24,"Bots":0,"server_type":"Dedicated","server_os":"Linux","password":true,"vac":true,"version":"7932396","steam_id":85568392924367362,"keywords":["cp","nocrits","nodmgspread","uncletopia"],"game_id":440,"stv_port":27016,"stv_name":"Uncletopia | London | 1 | All Maps | STV","players":null},{"server_id":114,"name":"Uncletopia | London | 2 | All Maps","name_short":"lon-2","host":"lon-1.uk.uncletopia.com","port":27025,"enabled":true,"region":"eu","cc":"gb","latitude":51.509865,"longitude":-0.118092,"reserved":0,"last_update":"0001-01-01T00:00:00Z","name_a2s":"Uncletopia | London | 2 | All Maps","protocol":17,"map":"pl_snowycoast","folder":"tf","game":"Team Fortress","app_id":440,"player_count":0,"max_players":24,"Bots":0,"server_type":"Dedicated","server_os":"Linux","password":true,"vac":true,"version":"7932396","steam_id":85568392924470941,"keywords":["nocrits","nodmgspread","payload","uncletopia"],"game_id":440,"stv_port":27026,"stv_name":"Uncletopia | London | 2 | All Maps | STV","players":null},{"server_id":320,"name":"Uncletopia | London | 3 | All Maps","name_short":"lon-3","host":"lon-1.uk.uncletopia.com","port":27035,"enabled":true,"region":"eu","cc":"gb","latitude":51.509865,"longitude":-0.118092,"reserved":0,"last_update":"0001-01-01T00:00:00Z","name_a2s":"Uncletopia | London | 3 | All Maps","protocol":17,"map":"koth_highpass","folder":"tf","game":"Team Fortress","app_id":440,"player_count":0,"max_players":24,"Bots":0,"server_type":"Dedicated","server_os":"Linux","password":true,"vac":true,"version":"7932396","steam_id":85568392924510192,"keywords":["cp","nocrits","nodmgspread","uncletopia"],"game_id":440,"stv_port":27036,"stv_name":"Uncletopia | London | 3 | All Maps | STV","players":null},{"server_id":321,"name":"Uncletopia | London | 4 | All Maps","name_short":"lon-4","host":"lon-1.uk.uncletopia.com","port":27045,"enabled":true,"region":"eu","cc":"gb","latitude":51.509865,"longitude":-0.118092,"reserved":0,"last_update":"0001-01-01T00:00:00Z","name_a2s":"Uncletopia | London | 4 | All Maps","protocol":17,"map":"koth_lakeside_final","folder":"tf","game":"Team Fortress","app_id":440,"player_count":0,"max_players":24,"Bots":0,"server_type":"Dedicated","server_os":"Linux","password":true,"vac":true,"version":"7932396","steam_id":85568392924510193,"keywords":["cp","nocrits","nodmgspread","uncletopia"],"game_id":440,"stv_port":27046,"stv_name":"Uncletopia | London | 4 | All Maps | STV","players":null},{"server_id":21,"name":"Uncletopia | London | 5 | All Maps","name_short":"lon-5","host":"lon-1.uk.uncletopia.com","port":27055,"enabled":true,"region":"eu","cc":"gb","latitude":51.509865,"longitude":-0.118092,"reserved":0,"last_update":"0001-01-01T00:00:00Z","name_a2s":"Uncletopia | London | 5 | All Maps","protocol":17,"map":"koth_lakeside_final","folder":"tf","game":"Team Fortress","app_id":440,"player_count":0,"max_players":24,"Bots":0,"server_type":"Dedicated","server_os":"Linux","password":true,"vac":true,"version":"7932396","steam_id":85568392924742829,"keywords":["cp","nocrits","nodmgspread","uncletopia"],"game_id":440,"stv_port":27056,"stv_name":"Uncletopia | London | 5 | All Maps | STV","players":null},{"server_id":22,"name":"Uncletopia | London | 6 | All Maps","name_short":"lon-6","host":"lon-1.uk.uncletopia.com","port":27065,"enabled":true,"region":"eu","cc":"gb","latitude":51.509865,"longitude":-0.118092,"reserved":0,"last_update":"0001-01-01T00:00:00Z","name_a2s":"Uncletopia | London | 6 | All Maps","protocol":17,"map":"pl_pier","folder":"tf","game":"Team Fortress","app_id":440,"player_count":20,"max_players":24,"Bots":0,"server_type":"Dedicated","server_os":"Linux","password":true,"vac":true,"version":"7932396","steam_id":85568392924742830,"keywords":["nocrits","nodmgspread","payload","uncletopia"],"game_id":440,"stv_port":27066,"stv_name":"Uncletopia | London | 6 | All Maps | STV","players":[{"user_id":473,"name":"Mega Saturn","steam_id":76561198024750500,"connected_time":228000000000,"state":"active","ping":86},{"user_id":470,"name":"Iatots","steam_id":76561198074349620,"connected_time":674000000000,"state":"active","ping":54},{"user_id":466,"name":"FoxyTheFish","steam_id":76561199074190919,"connected_time":1013000000000,"state":"active","ping":85},{"user_id":461,"name":"Step back","steam_id":76561198063855616,"connected_time":1734000000000,"state":"active","ping":75},{"user_id":430,"name":"Othmix","steam_id":76561198144291048,"connected_time":4706000000000,"state":"active","ping":76},{"user_id":467,"name":"SWMG | Ëù∂È≠îÂ•≥","steam_id":76561198046763539,"connected_time":895000000000,"state":"active","ping":101},{"user_id":408,"name":"in the house like carpet","steam_id":76561199480942903,"connected_time":6904000000000,"state":"active","ping":82},{"user_id":463,"name":"Doktor Drip","steam_id":76561198843329045,"connected_time":1229000000000,"state":"active","ping":104},{"user_id":462,"name":"M√©bh √ìg MacT√≠re","steam_id":76561198346399624,"connected_time":1682000000000,"state":"active","ping":88},{"user_id":442,"name":"Decaying Chpok","steam_id":76561198112855332,"connected_time":3796000000000,"state":"active","ping":172},{"user_id":464,"name":"üÉî Katarina","steam_id":76561198065652251,"connected_time":1111000000000,"state":"active","ping":52},{"user_id":443,"name":"sofa king","steam_id":76561198175456289,"connected_time":3788000000000,"state":"active","ping":117},{"user_id":468,"name":"snowycaost","steam_id":76561198346638308,"connected_time":801000000000,"state":"active","ping":59},{"user_id":477,"name":"RiSlava","steam_id":76561198084071930,"connected_time":42000000000,"state":"active","ping":86},{"user_id":476,"name":"SUPANG!","steam_id":76561198041471565,"connected_time":92000000000,"state":"active","ping":47},{"user_id":474,"name":"Myh","steam_id":76561198152265316,"connected_time":210000000000,"state":"active","ping":47},{"user_id":432,"name":"Cypher","steam_id":76561198069268528,"connected_time":4496000000000,"state":"active","ping":74},{"user_id":478,"name":"Stupid_Cake","steam_id":76561198079566684,"connected_time":36000000000,"state":"active","ping":150},{"user_id":440,"name":"Jnet","steam_id":76561198001282720,"connected_time":4286000000000,"state":"active","ping":82},{"user_id":428,"name":"Glitch","steam_id":76561198081895538,"connected_time":4978000000000,"state":"active","ping":55}]},{"server_id":40,"name":"Uncletopia | London | 7 | No Payload","name_short":"lon-7","host":"lon-1.uk.uncletopia.com","port":27075,"enabled":true,"region":"eu","cc":"gb","latitude":51.509865,"longitude":-0.118092,"reserved":0,"last_update":"0001-01-01T00:00:00Z","name_a2s":"Uncletopia | London | 7 | No Payload","protocol":17,"map":"koth_nucleus","folder":"tf","game":"Team Fortress","app_id":440,"player_count":0,"max_players":24,"Bots":0,"server_type":"Dedicated","server_os":"Linux","password":true,"vac":true,"version":"7932396","steam_id":85568392924964314,"keywords":["cp","nocrits","nodmgspread","uncletopia"],"game_id":440,"stv_port":27076,"stv_name":"Uncletopia | London | 7 | No Payload | STV","players":null},{"server_id":41,"name":"Uncletopia | London | 8 | Community","name_short":"lon-8","host":"lon-1.uk.uncletopia.com","port":27085,"enabled":true,"region":"eu","cc":"gb","latitude":51.509865,"longitude":-0.118092,"reserved":0,"last_update":"0001-01-01T00:00:00Z","name_a2s":"Uncletopia | London | 8 | Community","protocol":17,"map":"workshop/cp_glassworks_rc6a.ugc454118349","folder":"tf","game":"Team Fortress","app_id":440,"player_count":0,"max_players":24,"Bots":0,"server_type":"Dedicated","server_os":"Linux","password":true,"vac":true,"version":"7932396","steam_id":85568392924964315,"keywords":["cp","nocrits","nodmgspread","uncletopia"],"game_id":440,"stv_port":27086,"stv_name":"Uncletopia | London | 8 | Community | STV","players":null},{"server_id":300,"name":"Uncletopia | Montr√©al | 1 | All Maps","name_short":"mtl-1","host":"mtl-1.ca.uncletopia.com","port":27015,"enabled":true,"region":"us-east","cc":"ca","latitude":45.50889,"longitude":-73.56167,"reserved":0,"last_update":"0001-01-01T00:00:00Z","name_a2s":"Uncletopia | Montr√©al | 1 | All Maps","protocol":17,"map":"cp_altitude","folder":"tf","game":"Team Fortress","app_id":440,"player_count":0,"max_players":24,"Bots":0,"server_type":"Dedicated","server_os":"Linux","password":true,"vac":true,"version":"7932396","steam_id":85568392924500087,"keywords":["cp","nocrits","nodmgspread","uncletopia"],"game_id":440,"stv_port":27016,"stv_name":"Uncletopia | Montr√©al | 1 | All Maps | STV","players":null},{"server_id":301,"name":"Uncletopia | Montr√©al | 2 | All Maps","name_short":"mtl-2","host":"mtl-1.ca.uncletopia.com","port":27025,"enabled":true,"region":"us-east","cc":"ca","latitude":45.50889,"longitude":-73.56167,"reserved":0,"last_update":"0001-01-01T00:00:00Z","name_a2s":"Uncletopia | Montr√©al | 2 | All Maps","protocol":17,"map":"koth_king","folder":"tf","game":"Team Fortress","app_id":440,"player_count":7,"max_players":24,"Bots":0,"server_type":"Dedicated","server_os":"Linux","password":true,"vac":true,"version":"7932396","steam_id":85568392924500088,"keywords":["cp","nocrits","nodmgspread","uncletopia"],"game_id":440,"stv_port":27026,"stv_name":"Uncletopia | Montr√©al | 2 | All Maps | STV","players":[{"user_id":265,"name":"DIDYMOS Class NHP","steam_id":76561198088986010,"connected_time":975000000000,"state":"active","ping":115},{"user_id":264,"name":"Apocalypse Rail","steam_id":76561198045754085,"connected_time":996000000000,"state":"active","ping":65},{"user_id":236,"name":"Tutorial","steam_id":76561198103496593,"connected_time":3113000000000,"state":"active","ping":75},{"user_id":248,"name":"Calypso","steam_id":76561199015827567,"connected_time":2263000000000,"state":"active","ping":60},{"user_id":243,"name":"teafy","steam_id":76561198406252824,"connected_time":2751000000000,"state":"active","ping":120},{"user_id":268,"name":"NOBODY","steam_id":76561198094578887,"connected_time":926000000000,"state":"active","ping":37},{"user_id":269,"name":"Setzso","steam_id":76561198056339525,"connected_time":917000000000,"state":"active","ping":89}]},{"server_id":302,"name":"Uncletopia | Montr√©al | 3 | All Maps","name_short":"mtl-3","host":"mtl-1.ca.uncletopia.com","port":27035,"enabled":true,"region":"us-east","cc":"ca","latitude":45.50889,"longitude":-73.56167,"reserved":0,"last_update":"0001-01-01T00:00:00Z","name_a2s":"Uncletopia | Montr√©al | 3 | All Maps","protocol":17,"map":"pl_upward","folder":"tf","game":"Team Fortress","app_id":440,"player_count":0,"max_players":24,"Bots":0,"server_type":"Dedicated","server_os":"Linux","password":true,"vac":true,"version":"7932396","steam_id":85568392924500089,"keywords":["nocrits","nodmgspread","payload","uncletopia"],"game_id":440,"stv_port":27036,"stv_name":"Uncletopia | Montr√©al | 3 | All Maps | STV","players":null},{"server_id":303,"name":"Uncletopia | Montr√©al | 4 | No Payload","name_short":"mtl-4","host":"mtl-1.ca.uncletopia.com","port":27045,"enabled":true,"region":"us-east","cc":"ca","latitude":45.50889,"longitude":-73.56167,"reserved":0,"last_update":"0001-01-01T00:00:00Z","name_a2s":"Uncletopia | Montr√©al | 4 | No Payload","protocol":17,"map":"koth_king","folder":"tf","game":"Team Fortress","app_id":440,"player_count":0,"max_players":24,"Bots":0,"server_type":"Dedicated","server_os":"Linux","password":true,"vac":true,"version":"7932396","steam_id":85568392924500090,"keywords":["cp","nocrits","nodmgspread","uncletopia"],"game_id":440,"stv_port":27046,"stv_name":"Uncletopia | Montr√©al | 4 | No Payload | STV","players":null},{"server_id":13,"name":"Uncletopia | New York City | 1 | All Maps","name_short":"nyc-1","host":"nyc-1.us.uncletopia.com","port":27015,"enabled":true,"region":"us-east","cc":"us","latitude":40.73061,"longitude":-73.93524,"reserved":0,"last_update":"0001-01-01T00:00:00Z","name_a2s":"Uncletopia | New York City | 1 | All Maps","protocol":17,"map":"pl_upward","folder":"tf","game":"Team Fortress","app_id":440,"player_count":24,"max_players":24,"Bots":0,"server_type":"Dedicated","server_os":"Linux","password":true,"vac":true,"version":"7932396","steam_id":85568392924469993,"keywords":["nocrits","nodmgspread","payload","uncletopia"],"game_id":440,"stv_port":27016,"stv_name":"Uncletopia | New York City | 1 | All Maps | STV","players":[{"user_id":587,"name":"jiim jaam","steam_id":76561198069814977,"connected_time":1170000000000,"state":"active","ping":59},{"user_id":556,"name":"Gentoo Linux Gaming","steam_id":76561197999657118,"connected_time":3443000000000,"state":"active","ping":68},{"user_id":597,"name":"CherriKat","steam_id":76561198821297512,"connected_time":465000000000,"state":"active","ping":109},{"user_id":552,"name":"Frajer","steam_id":76561198059129680,"connected_time":4674000000000,"state":"active","ping":70},{"user_id":609,"name":"KFC‚ò≠","steam_id":76561199206815320,"connected_time":104000000000,"state":"active","ping":103},{"user_id":598,"name":"Jork","steam_id":76561198121415366,"connected_time":445000000000,"state":"active","ping":71},{"user_id":558,"name":"Kickpuncher","steam_id":76561198121528357,"connected_time":3401000000000,"state":"active","ping":58},{"user_id":601,"name":"ansmew","steam_id":76561198075200670,"connected_time":377000000000,"state":"active","ping":60},{"user_id":599,"name":"Oopsie Daisy ‚ùã","steam_id":76561198042144492,"connected_time":403000000000,"state":"active","ping":75},{"user_id":603,"name":"Dr. Spacebar","steam_id":76561198072231481,"connected_time":295000000000,"state":"active","ping":73},{"user_id":581,"name":"tsbro40","steam_id":76561199455605580,"connected_time":1569000000000,"state":"active","ping":106},{"user_id":602,"name":"Your Local NPR Station","steam_id":76561198143830279,"connected_time":361000000000,"state":"active","ping":59},{"user_id":600,"name":"necrolavigne","steam_id":76561198013004951,"connected_time":402000000000,"state":"active","ping":72},{"user_id":610,"name":"Pixel","steam_id":76561198129243055,"connected_time":94000000000,"state":"active","ping":49},{"user_id":611,"name":"//MPinkStahli //_^","steam_id":76561198014421477,"connected_time":84000000000,"state":"active","ping":37},{"user_id":605,"name":"nickname 123","steam_id":76561198080234033,"connected_time":236000000000,"state":"active","ping":74},{"user_id":589,"name":"Poi","steam_id":76561198176914898,"connected_time":942000000000,"state":"active","ping":88},{"user_id":613,"name":"Digresser","steam_id":76561198016426367,"connected_time":15000000000,"state":"spawning","ping":43},{"user_id":612,"name":"Jeff Probst","steam_id":76561199215811448,"connected_time":82000000000,"state":"active","ping":133},{"user_id":606,"name":"BMPD","steam_id":76561198044464835,"connected_time":212000000000,"state":"active","ping":60},{"user_id":594,"name":"Shystie","steam_id":76561198025371440,"connected_time":706000000000,"state":"active","ping":100},{"user_id":562,"name":"chiswola","steam_id":76561198046920142,"connected_time":3155000000000,"state":"active","ping":94},{"user_id":607,"name":"Ginger","steam_id":76561198074381106,"connected_time":209000000000,"state":"active","ping":61},{"user_id":565,"name":"First Name Agent","steam_id":76561199431280503,"connected_time":2884000000000,"state":"active","ping":67}]},{"server_id":14,"name":"Uncletopia | New York City | 2 | All Maps","name_short":"nyc-2","host":"nyc-1.us.uncletopia.com","port":27025,"enabled":true,"region":"us-east","cc":"us","latitude":40.73061,"longitude":-73.93524,"reserved":0,"last_update":"0001-01-01T00:00:00Z","name_a2s":"Uncletopia | New York City | 2 | All Maps","protocol":17,"map":"cp_snakewater_final1","folder":"tf","game":"Team Fortress","app_id":440,"player_count":23,"max_players":24,"Bots":0,"server_type":"Dedicated","server_os":"Linux","password":true,"vac":true,"version":"7932396","steam_id":85568392924469994,"keywords":["cp","nocrits","nodmgspread","uncletopia"],"game_id":440,"stv_port":27026,"stv_name":"Uncletopia | New York City | 2 | All Maps | STV","players":[{"user_id":381,"name":"tommy","steam_id":76561198185185694,"connected_time":1106000000000,"state":"active","ping":103},{"user_id":382,"name":"Thequirka","steam_id":76561198968058652,"connected_time":1092000000000,"state":"active","ping":116},{"user_id":352,"name":"Mr. Morton, CEO of Caber Corp\ufffd\ufffd","steam_id":76561198092130334,"connected_time":3529000000000,"state":"active","ping":79},{"user_id":383,"name":"Pizza","steam_id":76561198118748364,"connected_time":1066000000000,"state":"active","ping":75},{"user_id":384,"name":"Makina","steam_id":76561198057475567,"connected_time":1059000000000,"state":"active","ping":92},{"user_id":385,"name":"Thaenrge","steam_id":76561198027234280,"connected_time":1015000000000,"state":"active","ping":104},{"user_id":401,"name":"mannie_915","steam_id":76561198310496336,"connected_time":621000000000,"state":"active","ping":72},{"user_id":337,"name":"Virtual Zorua","steam_id":76561198196180302,"connected_time":4847000000000,"state":"active","ping":61},{"user_id":387,"name":"kree","steam_id":76561197979960008,"connected_time":947000000000,"state":"active","ping":44},{"user_id":388,"name":"scrapheap","steam_id":76561198202407087,"connected_time":941000000000,"state":"active","ping":92},{"user_id":405,"name":"Randumb","steam_id":76561199083286636,"connected_time":361000000000,"state":"active","ping":67},{"user_id":390,"name":"Warts","steam_id":76561198134660218,"connected_time":910000000000,"state":"active","ping":81},{"user_id":349,"name":"echo","steam_id":76561199411724732,"connected_time":4166000000000,"state":"active","ping":36},{"user_id":407,"name":"mytoyo2k2","steam_id":76561199486326945,"connected_time":270000000000,"state":"active","ping":73},{"user_id":408,"name":"The Sinister Potion","steam_id":76561198131280715,"connected_time":254000000000,"state":"active","ping":60},{"user_id":394,"name":"checkswing","steam_id":76561198999816132,"connected_time":772000000000,"state":"active","ping":89},{"user_id":404,"name":"Noodles","steam_id":76561198066284271,"connected_time":464000000000,"state":"active","ping":70},{"user_id":410,"name":"Plinko","steam_id":76561197968530638,"connected_time":177000000000,"state":"active","ping":59},{"user_id":409,"name":"honor in defeat","steam_id":76561198013735714,"connected_time":234000000000,"state":"active","ping":68},{"user_id":398,"name":"Crayon15k","steam_id":76561199095492569,"connected_time":670000000000,"state":"active","ping":58},{"user_id":399,"name":"GardenOfStone","steam_id":76561199069870534,"connected_time":658000000000,"state":"active","ping":105},{"user_id":411,"name":"lemon from team fortress 2","steam_id":76561199025265182,"connected_time":157000000000,"state":"active","ping":59},{"user_id":412,"name":"Swege","steam_id":76561198047941849,"connected_time":101000000000,"state":"active","ping":72}]},{"server_id":15,"name":"Uncletopia | New York City | 3 | Stopwatch Beta","name_short":"nyc-3","host":"nyc-1.us.uncletopia.com","port":27035,"enabled":true,"region":"us-east","cc":"us","latitude":40.73061,"longitude":-73.93524,"reserved":0,"last_update":"0001-01-01T00:00:00Z","name_a2s":"Uncletopia | New York City | 3 | Stopwatch Beta","protocol":17,"map":"koth_lakeside_final","folder":"tf","game":"Team Fortress","app_id":440,"player_count":0,"max_players":24,"Bots":0,"server_type":"Dedicated","server_os":"Linux","password":true,"vac":true,"version":"7932396","steam_id":85568392924742820,"keywords":["cp","nocrits","nodmgspread","uncletopia"],"game_id":440,"stv_port":27036,"stv_name":"Uncletopia | New York City | 3 | Stopwatch Beta | STV","players":null},{"server_id":16,"name":"Uncletopia | New York City | 4 | Community","name_short":"nyc-4","host":"nyc-1.us.uncletopia.com","port":27045,"enabled":true,"region":"us-east","cc":"us","latitude":40.73061,"longitude":-73.93524,"reserved":0,"last_update":"0001-01-01T00:00:00Z","name_a2s":"Uncletopia | New York City | 4 | Community","protocol":17,"map":"workshop/pl_eruption_b9a.ugc2807898013","folder":"tf","game":"Team Fortress","app_id":440,"player_count":24,"max_players":24,"Bots":0,"server_type":"Dedicated","server_os":"Linux","password":true,"vac":true,"version":"7932396","steam_id":85568392924742821,"keywords":["nocrits","nodmgspread","payload","uncletopia"],"game_id":440,"stv_port":27046,"stv_name":"Uncletopia | New York City | 4 | Community | STV","players":[{"user_id":656,"name":"Juvice","steam_id":76561198843371502,"connected_time":4377000000000,"state":"active","ping":43},{"user_id":627,"name":"Dwarfo","steam_id":76561198119220289,"connected_time":6473000000000,"state":"active","ping":78},{"user_id":699,"name":"Architect","steam_id":76561198015242016,"connected_time":898000000000,"state":"active","ping":60},{"user_id":680,"name":"Nobody","steam_id":76561198085808754,"connected_time":2135000000000,"state":"active","ping":90},{"user_id":689,"name":"Dog Goggles","steam_id":76561197995233692,"connected_time":1886000000000,"state":"active","ping":69},{"user_id":700,"name":"Security Chief Boper","steam_id":76561198218558897,"connected_time":728000000000,"state":"active","ping":131},{"user_id":681,"name":"Nortel Network Telephone T7316","steam_id":76561198399261089,"connected_time":2130000000000,"state":"active","ping":105},{"user_id":706,"name":"Sqiddwr","steam_id":76561197998071622,"connected_time":121000000000,"state":"active","ping":91},{"user_id":682,"name":"General.Grievous","steam_id":76561199181139234,"connected_time":2122000000000,"state":"active","ping":88},{"user_id":701,"name":"larguu","steam_id":76561197994336210,"connected_time":613000000000,"state":"active","ping":45},{"user_id":698,"name":"the krut","steam_id":76561198084300505,"connected_time":906000000000,"state":"active","ping":56},{"user_id":686,"name":"G.bo","steam_id":76561198085176270,"connected_time":1929000000000,"state":"active","ping":133},{"user_id":703,"name":"Funny Name","steam_id":76561198250215874,"connected_time":544000000000,"state":"active","ping":60},{"user_id":660,"name":"Mi1stOG","steam_id":76561198158796326,"connected_time":3984000000000,"state":"active","ping":55},{"user_id":694,"name":"Peter Muskrat (racist)","steam_id":76561198857749738,"connected_time":1099000000000,"state":"active","ping":85},{"user_id":687,"name":"wise","steam_id":76561198030066204,"connected_time":1926000000000,"state":"active","ping":40},{"user_id":692,"name":"Swifgz","steam_id":76561198162875756,"connected_time":1468000000000,"state":"active","ping":45},{"user_id":696,"name":"Jaximumpower","steam_id":76561198000761618,"connected_time":966000000000,"state":"active","ping":98},{"user_id":678,"name":"Marshy","steam_id":76561198421784454,"connected_time":2174000000000,"state":"active","ping":127},{"user_id":704,"name":"XxAngel3ReaperxX","steam_id":76561198874183456,"connected_time":514000000000,"state":"active","ping":134},{"user_id":684,"name":"„Éê„Çø„Éº","steam_id":76561198307596120,"connected_time":2118000000000,"state":"active","ping":60},{"user_id":669,"name":"Gram Tokers Count Doinkula","steam_id":76561198112811565,"connected_time":3274000000000,"state":"active","ping":57},{"user_id":624,"name":"Two-Teste Tommy","steam_id":76561198064308936,"connected_time":7274000000000,"state":"active","ping":60},{"user_id":693,"name":"Zelith","steam_id":76561198234980480,"connected_time":1453000000000,"state":"active","ping":60}]},{"server_id":142,"name":"Uncletopia | S√£o Paulo | 1 | All Maps","name_short":"sao-1","host":"sao-1.br.uncletopia.com","port":27015,"enabled":true,"region":"sa","cc":"br","latitude":-23.533773,"longitude":-46.62529,"reserved":0,"last_update":"0001-01-01T00:00:00Z","name_a2s":"Uncletopia | S√£o Paulo | 1 | All Maps","protocol":17,"map":"pl_barnblitz","folder":"tf","game":"Team Fortress","app_id":440,"player_count":0,"max_players":24,"Bots":0,"server_type":"Dedicated","server_os":"Linux","password":true,"vac":true,"version":"7932396","steam_id":85568392924469996,"keywords":["nocrits","nodmgspread","payload","uncletopia"],"game_id":440,"stv_port":27016,"stv_name":"Uncletopia | S√£o Paulo | 1 | All Maps | STV","players":null},{"server_id":143,"name":"Uncletopia | S√£o Paulo | 2 | All Maps","name_short":"sao-2","host":"sao-2.br.uncletopia.com","port":27015,"enabled":true,"region":"sa","cc":"br","latitude":-23.533773,"longitude":-46.62529,"reserved":0,"last_update":"0001-01-01T00:00:00Z","name_a2s":"Uncletopia | S√£o Paulo | 2 | All Maps","protocol":17,"map":"koth_cascade","folder":"tf","game":"Team Fortress","app_id":440,"player_count":0,"max_players":24,"Bots":0,"server_type":"Dedicated","server_os":"Linux","password":true,"vac":true,"version":"7932396","steam_id":85568392924485349,"keywords":["cp","nocrits","nodmgspread","uncletopia"],"game_id":440,"stv_port":27016,"stv_name":"Uncletopia | S√£o Paulo | 2 | All Maps | STV","players":null},{"server_id":7,"name":"Uncletopia | Seattle | 1 | All Maps","name_short":"sea-1","host":"sea-1.us.uncletopia.com","port":27015,"enabled":true,"region":"us-west","cc":"us","latitude":47.608013,"longitude":-122.33517,"reserved":0,"last_update":"0001-01-01T00:00:00Z","name_a2s":"Uncletopia | Seattle | 1 | All Maps","protocol":17,"map":"cp_coldfront","folder":"tf","game":"Team Fortress","app_id":440,"player_count":24,"max_players":24,"Bots":0,"server_type":"Dedicated","server_os":"Linux","password":true,"vac":true,"version":"7932396","steam_id":85568392924469997,"keywords":["cp","nocrits","nodmgspread","uncletopia"],"game_id":440,"stv_port":27016,"stv_name":"Uncletopia | Seattle | 1 | All Maps | STV","players":[{"user_id":422,"name":"cat gets the fleas","steam_id":76561198048754056,"connected_time":5826000000000,"state":"active","ping":60},{"user_id":484,"name":"The King of Piss World","steam_id":76561198082806956,"connected_time":833000000000,"state":"active","ping":145},{"user_id":426,"name":"Ayayayayayahuasca","steam_id":76561199002906056,"connected_time":5567000000000,"state":"active","ping":50},{"user_id":485,"name":"SeriousBread","steam_id":76561198043901577,"connected_time":824000000000,"state":"active","ping":54},{"user_id":496,"name":"Slothy","steam_id":76561198967069349,"connected_time":168000000000,"state":"active","ping":57},{"user_id":453,"name":"Mr Mcguffin","steam_id":76561199059310006,"connected_time":3024000000000,"state":"active","ping":147},{"user_id":488,"name":"sockman","steam_id":76561198108408235,"connected_time":788000000000,"state":"active","ping":88},{"user_id":491,"name":"Banned Worthless Specimen","steam_id":76561198117206414,"connected_time":415000000000,"state":"active","ping":105},{"user_id":481,"name":"H0UZM@$T3R!!!!1","steam_id":76561198044297170,"connected_time":838000000000,"state":"active","ping":70},{"user_id":478,"name":"Daz","steam_id":76561198041431938,"connected_time":1468000000000,"state":"active","ping":49},{"user_id":479,"name":"im mr ____hed look at me","steam_id":76561198051751133,"connected_time":1387000000000,"state":"active","ping":60},{"user_id":498,"name":"resting neutral face","steam_id":76561197999259502,"connected_time":9000000000,"state":"spawning","ping":58},{"user_id":476,"name":"Liliana","steam_id":76561199467245974,"connected_time":1916000000000,"state":"active","ping":66},{"user_id":483,"name":"Saddam","steam_id":76561197985725267,"connected_time":834000000000,"state":"active","ping":58},{"user_id":384,"name":"rat gets the cheese","steam_id":76561198031234032,"connected_time":8920000000000,"state":"active","ping":96},{"user_id":463,"name":"Frigus","steam_id":76561198408533295,"connected_time":2574000000000,"state":"active","ping":68},{"user_id":361,"name":"Ôº£Ôº®Ôº°Ôº≠Ôº∞Ôº©ÔºØÔºÆ","steam_id":76561198883157736,"connected_time":11280000000000,"state":"active","ping":71},{"user_id":410,"name":"Cheezbeargur","steam_id":76561198164702899,"connected_time":6489000000000,"state":"active","ping":71},{"user_id":494,"name":"NEBULA","steam_id":76561198086878595,"connected_time":403000000000,"state":"active","ping":71},{"user_id":487,"name":"Lone_Explorer","steam_id":76561198081972715,"connected_time":791000000000,"state":"active","ping":61},{"user_id":495,"name":"rorywashere /·ê† - Àï -„Éû ‚≥ä","steam_id":76561198065825165,"connected_time":288000000000,"state":"active","ping":112},{"user_id":467,"name":"oil","steam_id":76561198099980149,"connected_time":2407000000000,"state":"active","ping":83},{"user_id":434,"name":"HoarseBard","steam_id":76561198059393099,"connected_time":5114000000000,"state":"active","ping":70},{"user_id":474,"name":"skittle ducks jr.","steam_id":76561198309823950,"connected_time":1964000000000,"state":"active","ping":43}]},{"server_id":119,"name":"Uncletopia | Seattle | 2 | All Maps","name_short":"sea-2","host":"sea-1.us.uncletopia.com","port":27025,"enabled":true,"region":"us-west","cc":"us","latitude":47.608013,"longitude":-122.33517,"reserved":0,"last_update":"0001-01-01T00:00:00Z","name_a2s":"Uncletopia | Seattle | 2 | All Maps","protocol":17,"map":"pl_swiftwater_final1","folder":"tf","game":"Team Fortress","app_id":440,"player_count":24,"max_players":24,"Bots":0,"server_type":"Dedicated","server_os":"Linux","password":true,"vac":true,"version":"7932396","steam_id":85568392924469998,"keywords":["nocrits","nodmgspread","payload","uncletopia"],"game_id":440,"stv_port":27026,"stv_name":"Uncletopia | Seattle | 2 | All Maps | STV","players":[{"user_id":828,"name":"supcupman","steam_id":76561198051513866,"connected_time":273000000000,"state":"active","ping":79},{"user_id":813,"name":"Pronounced30","steam_id":76561198070127606,"connected_time":935000000000,"state":"active","ping":137},{"user_id":796,"name":"super smash2josh","steam_id":76561198140864125,"connected_time":1607000000000,"state":"active","ping":67},{"user_id":762,"name":"AspenIsPoplar","steam_id":76561198346382060,"connected_time":4290000000000,"state":"active","ping":66},{"user_id":829,"name":"Harley [Ramiel]","steam_id":76561198079510840,"connected_time":229000000000,"state":"active","ping":43},{"user_id":820,"name":"ars110","steam_id":76561198030492435,"connected_time":696000000000,"state":"active","ping":68},{"user_id":803,"name":"Fungi valengine","steam_id":76561199134580478,"connected_time":1187000000000,"state":"active","ping":88},{"user_id":823,"name":"volta","steam_id":76561199214283884,"connected_time":495000000000,"state":"active","ping":142},{"user_id":826,"name":"jon pickle water","steam_id":76561199036212135,"connected_time":382000000000,"state":"active","ping":65},{"user_id":773,"name":"‚ù§ Ashley ‚ù§","steam_id":76561198056428303,"connected_time":3470000000000,"state":"active","ping":75},{"user_id":809,"name":"gay hole","steam_id":76561198070293074,"connected_time":1025000000000,"state":"active","ping":130},{"user_id":792,"name":"mjr","steam_id":76561198148301033,"connected_time":1711000000000,"state":"active","ping":95},{"user_id":781,"name":"self sufficient kitten","steam_id":76561197960592612,"connected_time":2754000000000,"state":"active","ping":52},{"user_id":827,"name":"exephur","steam_id":76561198135763234,"connected_time":294000000000,"state":"active","ping":66},{"user_id":819,"name":"Why am I the only person who","steam_id":76561198139634916,"connected_time":707000000000,"state":"active","ping":42},{"user_id":774,"name":"Zee‚úû","steam_id":76561198274550638,"connected_time":3328000000000,"state":"active","ping":119},{"user_id":831,"name":"Hjonk","steam_id":76561199232167915,"connected_time":28000000000,"state":"active","ping":107},{"user_id":811,"name":"npc energy","steam_id":76561198035342207,"connected_time":1016000000000,"state":"active","ping":93},{"user_id":812,"name":"Gunslinger Rafa","steam_id":76561198070140106,"connected_time":1012000000000,"state":"active","ping":46},{"user_id":800,"name":"011sra","steam_id":76561199489542125,"connected_time":1283000000000,"state":"active","ping":56},{"user_id":816,"name":"hosewater","steam_id":76561198023383126,"connected_time":827000000000,"state":"active","ping":55},{"user_id":817,"name":"clooblert","steam_id":76561199199697406,"connected_time":728000000000,"state":"active","ping":56},{"user_id":821,"name":"Lorberry","steam_id":76561198023706058,"connected_time":683000000000,"state":"active","ping":86},{"user_id":795,"name":"Samvich","steam_id":76561198263319227,"connected_time":1662000000000,"state":"active","ping":58}]},{"server_id":406,"name":"Uncletopia | Seattle | 3 | Stopwatch Beta","name_short":"sea-3","host":"sea-1.us.uncletopia.com","port":27035,"enabled":true,"region":"us-west","cc":"us","latitude":47.608013,"longitude":-122.33517,"reserved":0,"last_update":"0001-01-01T00:00:00Z","name_a2s":"Uncletopia | Seattle | 3 | Stopwatch Beta","protocol":17,"map":"workshop/koth_clearcut_b15.ugc2107050255","folder":"tf","game":"Team Fortress","app_id":440,"player_count":0,"max_players":24,"Bots":0,"server_type":"Dedicated","server_os":"Linux","password":true,"vac":true,"version":"7932396","steam_id":85568392924515217,"keywords":["cp","nocrits","nodmgspread","uncletopia"],"game_id":440,"stv_port":27036,"stv_name":"Uncletopia | Seattle | 3 | Stopwatch Beta | STV","players":null},{"server_id":17,"name":"Uncletopia | San Francisco | 1 | All Maps","name_short":"sfo-1","host":"sfo-1.us.uncletopia.com","port":27015,"enabled":true,"region":"us-west","cc":"us","latitude":37.77397,"longitude":-122.4313,"reserved":0,"last_update":"0001-01-01T00:00:00Z","name_a2s":"Uncletopia | San Francisco | 1 | All Maps","protocol":17,"map":"pl_frontier_final","folder":"tf","game":"Team Fortress","app_id":440,"player_count":24,"max_players":24,"Bots":0,"server_type":"Dedicated","server_os":"Linux","password":true,"vac":true,"version":"7932396","steam_id":85568392924469999,"keywords":["nocrits","nodmgspread","payload","uncletopia"],"game_id":440,"stv_port":27016,"stv_name":"Uncletopia | San Francisco | 1 | All Maps | STV","players":[{"user_id":199,"name":"[Industrial] A_HUMBLEBUMBLED","steam_id":76561198064771878,"connected_time":112000000000,"state":"active","ping":47},{"user_id":165,"name":"Sleempreem","steam_id":76561198131987251,"connected_time":1424000000000,"state":"active","ping":48},{"user_id":196,"name":"Dragon New Warm Mountain","steam_id":76561198055626638,"connected_time":272000000000,"state":"active","ping":144},{"user_id":166,"name":"deej","steam_id":76561198127030699,"connected_time":1367000000000,"state":"active","ping":45},{"user_id":170,"name":"SpeedyGongo","steam_id":76561198842946737,"connected_time":1313000000000,"state":"active","ping":86},{"user_id":168,"name":"papi Chulo","steam_id":76561198126274984,"connected_time":1337000000000,"state":"active","ping":84},{"user_id":200,"name":"everyrockstar!","steam_id":76561198272094975,"connected_time":88000000000,"state":"active","ping":84},{"user_id":171,"name":"Quagsire Acquired","steam_id":76561198417169465,"connected_time":1273000000000,"state":"active","ping":103},{"user_id":198,"name":"pwadvisor1","steam_id":76561199230039839,"connected_time":251000000000,"state":"active","ping":69},{"user_id":197,"name":"Crazy Hungarian","steam_id":76561198025498172,"connected_time":268000000000,"state":"active","ping":63},{"user_id":174,"name":"the hype man","steam_id":76561199052875314,"connected_time":1222000000000,"state":"active","ping":70},{"user_id":201,"name":"atk","steam_id":76561198022653448,"connected_time":72000000000,"state":"active","ping":345},{"user_id":193,"name":"Rabblerouser","steam_id":76561198127930963,"connected_time":524000000000,"state":"active","ping":76},{"user_id":202,"name":"Fluffy","steam_id":76561198213561811,"connected_time":62000000000,"state":"active","ping":42},{"user_id":177,"name":"?","steam_id":76561198209880837,"connected_time":1163000000000,"state":"active","ping":60},{"user_id":178,"name":"DocDankDandy","steam_id":76561197999440195,"connected_time":1160000000000,"state":"active","ping":50},{"user_id":179,"name":"Nani","steam_id":76561198010230727,"connected_time":1130000000000,"state":"active","ping":58},{"user_id":180,"name":"ShmixyTheBishop","steam_id":76561199281919953,"connected_time":1127000000000,"state":"active","ping":136},{"user_id":190,"name":"JACK BRUNO","steam_id":76561198027957690,"connected_time":665000000000,"state":"active","ping":58},{"user_id":203,"name":"YASAI JUICE","steam_id":76561198131971992,"connected_time":55000000000,"state":"active","ping":89},{"user_id":127,"name":"2Fort Cactus","steam_id":76561199273395913,"connected_time":4022000000000,"state":"active","ping":80},{"user_id":183,"name":"what da dog doin","steam_id":76561198090573639,"connected_time":1102000000000,"state":"active","ping":57},{"user_id":192,"name":"SAP","steam_id":76561198005186905,"connected_time":571000000000,"state":"active","ping":76},{"user_id":195,"name":"gamer_devourer","steam_id":76561198973306314,"connected_time":474000000000,"state":"active","ping":55}]},{"server_id":18,"name":"Uncletopia | San Francisco | 2 | All Maps","name_short":"sfo-2","host":"sfo-1.us.uncletopia.com","port":27025,"enabled":true,"region":"us-west","cc":"us","latitude":37.77397,"longitude":-122.4313,"reserved":0,"last_update":"0001-01-01T00:00:00Z","name_a2s":"Uncletopia | San Francisco | 2 | All Maps","protocol":17,"map":"pl_badwater","folder":"tf","game":"Team Fortress","app_id":440,"player_count":24,"max_players":24,"Bots":0,"server_type":"Dedicated","server_os":"Linux","password":true,"vac":true,"version":"7932396","steam_id":85568392924470000,"keywords":["nocrits","nodmgspread","payload","uncletopia"],"game_id":440,"stv_port":27026,"stv_name":"Uncletopia | San Francisco | 2 | All Maps | STV","players":[{"user_id":49,"name":"a cat plushie","steam_id":76561198080046542,"connected_time":9832000000000,"state":"active","ping":62},{"user_id":50,"name":"ilun","steam_id":76561198042913843,"connected_time":9732000000000,"state":"active","ping":76},{"user_id":128,"name":"copperhead","steam_id":76561199054982784,"connected_time":3602000000000,"state":"active","ping":132},{"user_id":168,"name":"NaeNaeChungusBozo","steam_id":76561199446407203,"connected_time":353000000000,"state":"active","ping":189},{"user_id":169,"name":"Taffy","steam_id":76561198276612538,"connected_time":303000000000,"state":"active","ping":48},{"user_id":135,"name":"TinCanDim","steam_id":76561198184039682,"connected_time":2394000000000,"state":"active","ping":72},{"user_id":170,"name":"zinnk","steam_id":76561198092081825,"connected_time":298000000000,"state":"active","ping":43},{"user_id":136,"name":"desdodo","steam_id":76561198137862492,"connected_time":2381000000000,"state":"active","ping":84},{"user_id":173,"name":"Sugary","steam_id":76561198088267265,"connected_time":208000000000,"state":"active","ping":70},{"user_id":164,"name":"Nova Academy of Salmon Action","steam_id":76561198021842526,"connected_time":672000000000,"state":"active","ping":59},{"user_id":165,"name":"Tofu","steam_id":76561198083778611,"connected_time":644000000000,"state":"active","ping":50},{"user_id":171,"name":"Melon","steam_id":76561199202306398,"connected_time":270000000000,"state":"active","ping":65},{"user_id":157,"name":"himbomccree","steam_id":76561198373330850,"connected_time":965000000000,"state":"active","ping":55},{"user_id":132,"name":"ForAPessimistImPrettyOptimistic","steam_id":76561198170128009,"connected_time":3068000000000,"state":"active","ping":50},{"user_id":166,"name":"CloraPhoas","steam_id":76561199162750715,"connected_time":643000000000,"state":"active","ping":103},{"user_id":156,"name":"Truffles","steam_id":76561198095868800,"connected_time":1477000000000,"state":"active","ping":122},{"user_id":154,"name":"Aeront","steam_id":76561198072032723,"connected_time":1586000000000,"state":"active","ping":131},{"user_id":146,"name":"Senshi Okami","steam_id":76561198389475603,"connected_time":2123000000000,"state":"active","ping":70},{"user_id":149,"name":"Grand","steam_id":76561198290143399,"connected_time":1944000000000,"state":"active","ping":75},{"user_id":174,"name":"Charles Barley","steam_id":76561198397072609,"connected_time":195000000000,"state":"active","ping":84},{"user_id":77,"name":"riSygneD","steam_id":76561198331618687,"connected_time":8129000000000,"state":"active","ping":45},{"user_id":175,"name":"sunny","steam_id":76561198069380992,"connected_time":52000000000,"state":"spawning","ping":87},{"user_id":125,"name":"SanitysEdge","steam_id":76561198130732813,"connected_time":3777000000000,"state":"active","ping":50},{"user_id":131,"name":"culture shock","steam_id":76561198212421513,"connected_time":3330000000000,"state":"active","ping":53}]},{"server_id":19,"name":"Uncletopia | San Francisco | 3 | Stopwatch Beta","name_short":"sfo-3","host":"sfo-1.us.uncletopia.com","port":27035,"enabled":true,"region":"us-west","cc":"us","latitude":37.77397,"longitude":-122.4313,"reserved":0,"last_update":"0001-01-01T00:00:00Z","name_a2s":"Uncletopia | San Francisco | 3 | Stopwatch Beta","protocol":17,"map":"workshop/pl_badwater_pro_v12.ugc2142942074","folder":"tf","game":"Team Fortress","app_id":440,"player_count":0,"max_players":24,"Bots":0,"server_type":"Dedicated","server_os":"Linux","password":true,"vac":true,"version":"7932396","steam_id":85568392924742824,"keywords":["nocrits","nodmgspread","payload","uncletopia"],"game_id":440,"stv_port":27036,"stv_name":"Uncletopia | San Francisco | 3 | Stopwatch Beta | STV","players":null},{"server_id":20,"name":"Uncletopia | San Francisco | 4 | Community","name_short":"sfo-4","host":"sfo-1.us.uncletopia.com","port":27045,"enabled":true,"region":"us-west","cc":"us","latitude":37.77397,"longitude":-122.4313,"reserved":0,"last_update":"0001-01-01T00:00:00Z","name_a2s":"Uncletopia | San Francisco | 4 | Community","protocol":17,"map":"workshop/koth_trenchfoot_b1a.ugc731436616","folder":"tf","game":"Team Fortress","app_id":440,"player_count":0,"max_players":24,"Bots":0,"server_type":"Dedicated","server_os":"Linux","password":true,"vac":true,"version":"7932396","steam_id":85568392924742826,"keywords":["cp","nocrits","nodmgspread","uncletopia"],"game_id":440,"stv_port":27046,"stv_name":"Uncletopia | San Francisco | 4 | Community | STV","players":null},{"server_id":141,"name":"Uncletopia | Sydney | 1 | All Maps","name_short":"syd-1","host":"syd-1.au.uncletopia.com","port":27015,"enabled":true,"region":"au","cc":"au","latitude":-33.865143,"longitude":151.2099,"reserved":0,"last_update":"0001-01-01T00:00:00Z","name_a2s":"Uncletopia | Sydney | 1 | All Maps","protocol":17,"map":"koth_lakeside_final","folder":"tf","game":"Team Fortress","app_id":440,"player_count":0,"max_players":24,"Bots":0,"server_type":"Dedicated","server_os":"Linux","password":true,"vac":true,"version":"7932396","steam_id":85568392924470001,"keywords":["cp","nocrits","nodmgspread","uncletopia"],"game_id":440,"stv_port":27016,"stv_name":"Uncletopia | Sydney | 1 | All Maps | STV","players":null},{"server_id":123,"name":"Uncletopia | Sydney | 2 | All Maps","name_short":"syd-2","host":"syd-1.au.uncletopia.com","port":27025,"enabled":true,"region":"au","cc":"au","latitude":-33.865143,"longitude":151.2099,"reserved":0,"last_update":"0001-01-01T00:00:00Z","name_a2s":"Uncletopia | Sydney | 2 | All Maps","protocol":17,"map":"cp_snakewater_final1","folder":"tf","game":"Team Fortress","app_id":440,"player_count":0,"max_players":24,"Bots":0,"server_type":"Dedicated","server_os":"Linux","password":true,"vac":true,"version":"7932396","steam_id":85568392924470002,"keywords":["cp","nocrits","nodmgspread","uncletopia"],"game_id":440,"stv_port":27026,"stv_name":"Uncletopia | Sydney | 2 | All Maps | STV","players":null},{"server_id":395,"name":"Uncletopia | Sydney | 3 | All Maps","name_short":"syd-3","host":"syd-1.au.uncletopia.com","port":27035,"enabled":true,"region":"au","cc":"au","latitude":-33.865143,"longitude":151.2099,"reserved":0,"last_update":"0001-01-01T00:00:00Z","name_a2s":"Uncletopia | Sydney | 3 | All Maps","protocol":17,"map":"pl_frontier_final","folder":"tf","game":"Team Fortress","app_id":440,"player_count":0,"max_players":24,"Bots":0,"server_type":"Dedicated","server_os":"Linux","password":true,"vac":true,"version":"7932396","steam_id":85568392925194467,"keywords":["nocrits","nodmgspread","payload","uncletopia"],"game_id":440,"stv_port":27036,"stv_name":"Uncletopia | Sydney | 3 | All Maps | STV","players":null},{"server_id":396,"name":"Uncletopia | Sydney | 4 | All Maps","name_short":"syd-4","host":"syd-1.au.uncletopia.com","port":27045,"enabled":true,"region":"au","cc":"au","latitude":-33.865143,"longitude":151.2099,"reserved":0,"last_update":"0001-01-01T00:00:00Z","name_a2s":"Uncletopia | Sydney | 4 | All Maps","protocol":17,"map":"pl_frontier_final","folder":"tf","game":"Team Fortress","app_id":440,"player_count":0,"max_players":24,"Bots":0,"server_type":"Dedicated","server_os":"Linux","password":true,"vac":true,"version":"7932396","steam_id":85568392925397958,"keywords":["nocrits","nodmgspread","payload","uncletopia"],"game_id":440,"stv_port":27046,"stv_name":"Uncletopia | Sydney | 4 | All Maps | STV","players":null},{"server_id":58,"name":"Uncletopia | Sydney | 5 | Stopwatch Beta","name_short":"syd-5","host":"syd-1.au.uncletopia.com","port":27055,"enabled":true,"region":"au","cc":"au","latitude":-33.865143,"longitude":151.2099,"reserved":0,"last_update":"0001-01-01T00:00:00Z","name_a2s":"Uncletopia | Sydney | 5 | Stopwatch Beta","protocol":17,"map":"pl_borneo","folder":"tf","game":"Team Fortress","app_id":440,"player_count":0,"max_players":24,"Bots":0,"server_type":"Dedicated","server_os":"Linux","password":true,"vac":true,"version":"7932396","steam_id":85568392925397959,"keywords":["nocrits","nodmgspread","payload","uncletopia"],"game_id":440,"stv_port":27056,"stv_name":"Uncletopia | Sydney | 5 | Stopwatch Beta | STV","players":null},{"server_id":59,"name":"Uncletopia | Sydney | 6 | Community","name_short":"syd-6","host":"syd-1.au.uncletopia.com","port":27065,"enabled":true,"region":"au","cc":"au","latitude":-33.865143,"longitude":151.2099,"reserved":0,"last_update":"0001-01-01T00:00:00Z","name_a2s":"Uncletopia | Sydney | 6 | Community","protocol":17,"map":"workshop/pl_highwood_b13.ugc1769496557","folder":"tf","game":"Team Fortress","app_id":440,"player_count":0,"max_players":24,"Bots":0,"server_type":"Dedicated","server_os":"Linux","password":true,"vac":true,"version":"7932396","steam_id":85568392925397960,"keywords":["nocrits","nodmgspread","payload","uncletopia"],"game_id":440,"stv_port":27066,"stv_name":"Uncletopia | Sydney | 6 | Community | STV","players":null},{"server_id":49,"name":"Uncletopia | Warsaw | 1 | All Maps","name_short":"waw-1","host":"waw-1.pl.uncletopia.com","port":27015,"enabled":true,"region":"eu","cc":"pl","latitude":52.2297,"longitude":21.017532,"reserved":0,"last_update":"0001-01-01T00:00:00Z","name_a2s":"","protocol":0,"map":"","folder":"","game":"","app_id":0,"player_count":0,"max_players":0,"Bots":0,"server_type":"","server_os":"","password":false,"vac":false,"version":"","steam_id":0,"keywords":null,"game_id":0,"stv_port":0,"stv_name":"","players":null},{"server_id":50,"name":"Uncletopia | Warsaw | 2 | All Maps","name_short":"waw-2","host":"waw-1.pl.uncletopia.com","port":27025,"enabled":true,"region":"eu","cc":"pl","latitude":52.2297,"longitude":21.017532,"reserved":0,"last_update":"0001-01-01T00:00:00Z","name_a2s":"Uncletopia | Warsaw | 2 | All Maps","protocol":17,"map":"koth_lakeside_final","folder":"tf","game":"Team Fortress","app_id":440,"player_count":0,"max_players":24,"Bots":0,"server_type":"Dedicated","server_os":"Linux","password":true,"vac":true,"version":"7932396","steam_id":85568392925397851,"keywords":["cp","nocrits","nodmgspread","uncletopia"],"game_id":440,"stv_port":27026,"stv_name":"Uncletopia | Warsaw | 2 | All Maps | STV","players":null},{"server_id":51,"name":"Uncletopia | Warsaw | 3 | All Maps","name_short":"waw-3","host":"waw-1.pl.uncletopia.com","port":27035,"enabled":true,"region":"eu","cc":"pl","latitude":52.2297,"longitude":21.017532,"reserved":0,"last_update":"0001-01-01T00:00:00Z","name_a2s":"Uncletopia | Warsaw | 3 | All Maps","protocol":17,"map":"koth_cascade","folder":"tf","game":"Team Fortress","app_id":440,"player_count":0,"max_players":24,"Bots":0,"server_type":"Dedicated","server_os":"Linux","password":true,"vac":true,"version":"7932396","steam_id":85568392925397852,"keywords":["cp","nocrits","nodmgspread","uncletopia"],"game_id":440,"stv_port":27036,"stv_name":"Uncletopia | Warsaw | 3 | All Maps | STV","players":null},{"server_id":52,"name":"Uncletopia | Warsaw | 4 | All Maps","name_short":"waw-4","host":"waw-1.pl.uncletopia.com","port":27045,"enabled":true,"region":"eu","cc":"pl","latitude":52.2297,"longitude":21.017532,"reserved":0,"last_update":"0001-01-01T00:00:00Z","name_a2s":"Uncletopia | Warsaw | 4 | All Maps","protocol":17,"map":"pl_barnblitz","folder":"tf","game":"Team Fortress","app_id":440,"player_count":0,"max_players":24,"Bots":0,"server_type":"Dedicated","server_os":"Linux","password":true,"vac":true,"version":"7932396","steam_id":85568392925397853,"keywords":["nocrits","nodmgspread","payload","uncletopia"],"game_id":440,"stv_port":27046,"stv_name":"Uncletopia | Warsaw | 4 | All Maps | STV","players":null},{"server_id":53,"name":"Uncletopia | Warsaw | 5 | Stopwatch Beta","name_short":"waw-5","host":"waw-1.pl.uncletopia.com","port":27055,"enabled":true,"region":"eu","cc":"pl","latitude":52.2297,"longitude":21.017532,"reserved":0,"last_update":"0001-01-01T00:00:00Z","name_a2s":"Uncletopia | Warsaw | 5 | Stopwatch Beta","protocol":17,"map":"workshop/pl_vigil_rc9.ugc1266210012","folder":"tf","game":"Team Fortress","app_id":440,"player_count":0,"max_players":24,"Bots":0,"server_type":"Dedicated","server_os":"Linux","password":true,"vac":true,"version":"7932396","steam_id":85568392925397854,"keywords":["nocrits","nodmgspread","payload","uncletopia"],"game_id":440,"stv_port":27056,"stv_name":"Uncletopia | Warsaw | 5 | Stopwatch Beta | STV","players":null},{"server_id":54,"name":"Uncletopia | Warsaw | 6 | Community","name_short":"waw-6","host":"waw-1.pl.uncletopia.com","port":27065,"enabled":true,"region":"eu","cc":"pl","latitude":52.2297,"longitude":21.017532,"reserved":0,"last_update":"0001-01-01T00:00:00Z","name_a2s":"Uncletopia | Warsaw | 6 | Community","protocol":17,"map":"workshop/cp_fulgur_rc2a.ugc2068252300","folder":"tf","game":"Team Fortress","app_id":440,"player_count":0,"max_players":24,"Bots":0,"server_type":"Dedicated","server_os":"Linux","password":true,"vac":true,"version":"7932396","steam_id":85568392925397856,"keywords":["cp","nocrits","nodmgspread","uncletopia"],"game_id":440,"stv_port":27066,"stv_name":"Uncletopia | Warsaw | 6 | Community | STV","players":null}]}