{"status":true,"message":"","result":[{"server_id":9,"name":"Uncletopia | Atlanta | 1 | All Maps","name_short":"atl-1","host":"atl-1.us.uncletopia.com","port":27015,"enabled":true,"region":"us-east","cc":"us","latitude":33.753746,"longitude":-84.38633,"reserved":0,"last_update":"0001-01-01T00:00:00Z","name_a2s":"Uncletopia | Atlanta | 1 | All Maps","protocol":17,"map":"koth_viaduct","folder":"tf","game":"Team Fortress","app_id":440,"player_count":0,"max_players":24,"Bots":0,"server_type":"Dedicated","server_os":"Linux","password":true,"vac":true,"version":"7882260","steam_id":85568392924469982,"keywords":["cp","nocrits","nodmgspread","uncletopia"],"game_id":440,"stv_port":27016,"stv_name":"Uncletopia | Atlanta | 1 | All Maps | STV","players":null},{"server_id":104,"name":"Uncletopia | Atlanta | 2 | All Maps","name_short":"atl-2","host":"atl-1.us.uncletopia.com","port":27025,"enabled":true,"region":"us-east","cc":"us","latitude":33.753746,"longitude":-84.38633,"reserved":0,"last_update":"0001-01-01T00:00:00Z","name_a2s":"Uncletopia | Atlanta | 2 | All Maps","protocol":17,"map":"cp_process_final","folder":"tf","game":"Team Fortress","app_id":440,"player_count":0,"max_players":24,"Bots":0,"server_type":"Dedicated","server_os":"Linux","password":true,"vac":true,"version":"7882260","steam_id":85568392924469983,"keywords":["cp","nocrits","nodmgspread","uncletopia"],"game_id":440,"stv_port":27026,"stv_name":"Uncletopia | Atlanta | 2 | All Maps | STV","players":null},{"server_id":400,"name":"Uncletopia | Atlanta | 3 | Community","name_short":"atl-3","host":"atl-1.us.uncletopia.com","port":27035,"enabled":true,"region":"us-east","cc":"us","latitude":33.753746,"longitude":-84.38633,"reserved":0,"last_update":"0001-01-01T00:00:00Z","name_a2s":"Uncletopia | Atlanta | 3 | Community","protocol":17,"map":"cp_sunshine","folder":"tf","game":"Team Fortress","app_id":440,"player_count":0,"max_players":24,"Bots":0,"server_type":"Dedicated","server_os":"Linux","password":true,"vac":true,"version":"7882260","steam_id":85568392924515187,"keywords":["cp","nocrits","nodmgspread","uncletopia"],"game_id":440,"stv_port":27036,"stv_name":"Uncletopia | Atlanta | 3 | Community | STV","players":null},{"server_id":401,"name":"Uncletopia | Atlanta | 4 | No Payload","name_short":"atl-4","host":"atl-1.us.uncletopia.com","port":27045,"enabled":true,"region":"us-east","cc":"us","latitude":33.753746,"longitude":-84.38633,"reserved":0,"last_update":"0001-01-01T00:00:00Z","name_a2s":"","protocol":0,"map":"","folder":"","game":"","app_id":0,"player_count":0,"max_players":0,"Bots":0,"server_type":"","server_os":"","password":false,"vac":false,"version":"","steam_id":0,"keywords":null,"game_id":0,"stv_port":0,"stv_name":"","players":null},{"server_id":2,"name":"Uncletopia | Chicago | 1 | All Maps","name_short":"chi-1","host":"chi-1.us.uncletopia.com","port":27015,"enabled":true,"region":"us-central","cc":"us","latitude":41.881832,"longitude":-87.62318,"reserved":0,"last_update":"0001-01-01T00:00:00Z","name_a2s":"Uncletopia | Chicago | 1 | All Maps","protocol":17,"map":"cp_dustbowl","folder":"tf","game":"Team Fortress","app_id":440,"player_count":21,"max_players":24,"Bots":0,"server_type":"Dedicated","server_os":"Linux","password":true,"vac":true,"version":"7882260","steam_id":85568392924469984,"keywords":["cp","nocrits","nodmgspread","uncletopia"],"game_id":440,"stv_port":27016,"stv_name":"Uncletopia | Chicago | 1 | All Maps | STV","players":[{"user_id":21,"name":"YOU ARE NOT A FURRY","steam_id":76561198994634058,"connected_time":2105000000000,"state":"active","ping":75},{"user_id":22,"name":"Drewey","steam_id":76561199258609863,"connected_time":2098000000000,"state":"active","ping":59},{"user_id":51,"name":"Kiss Master","steam_id":76561198289572271,"connected_time":93000000000,"state":"active","ping":71},{"user_id":24,"name":"Mightocondra","steam_id":76561198250559058,"connected_time":1627000000000,"state":"active","ping":84},{"user_id":26,"name":"minly","steam_id":76561199078991134,"connected_time":1318000000000,"state":"active","ping":64},{"user_id":33,"name":"failinq","steam_id":76561198204691943,"connected_time":670000000000,"state":"active","ping":75},{"user_id":29,"name":"TheGaming13","steam_id":76561199239498966,"connected_time":1187000000000,"state":"active","ping":85},{"user_id":31,"name":"FANCY koala","steam_id":76561198200898575,"connected_time":826000000000,"state":"active","ping":81},{"user_id":34,"name":"3ggsalad3","steam_id":76561199386969191,"connected_time":549000000000,"state":"active","ping":46},{"user_id":35,"name":"EATING CHEESE AT 3AM?!?!","steam_id":76561199082500834,"connected_time":495000000000,"state":"active","ping":187},{"user_id":36,"name":"Chronos","steam_id":76561198126625623,"connected_time":487000000000,"state":"active","ping":60},{"user_id":37,"name":"Txhiggins","steam_id":76561198117531009,"connected_time":474000000000,"state":"active","ping":72},{"user_id":49,"name":"Mr.noob","steam_id":76561199200442395,"connected_time":131000000000,"state":"active","ping":173},{"user_id":39,"name":"RaCoom","steam_id":76561198325125932,"connected_time":427000000000,"state":"active","ping":88},{"user_id":47,"name":"Ashman0116","steam_id":76561198367986558,"connected_time":205000000000,"state":"active","ping":93},{"user_id":41,"name":"Jarvis from Avengers","steam_id":76561198164035863,"connected_time":390000000000,"state":"active","ping":51},{"user_id":43,"name":"swan","steam_id":76561198012569200,"connected_time":366000000000,"state":"active","ping":72},{"user_id":46,"name":"marshmallowdragon999","steam_id":76561199129773712,"connected_time":247000000000,"state":"active","ping":72},{"user_id":48,"name":"Mookie Burns","steam_id":76561199202153909,"connected_time":187000000000,"state":"active","ping":75},{"user_id":50,"name":"Nutz On Yo Chin","steam_id":76561197962978554,"connected_time":128000000000,"state":"active","ping":64},{"user_id":52,"name":"swatal","steam_id":76561198109904821,"connected_time":58000000000,"state":"active","ping":64}]},{"server_id":106,"name":"Uncletopia | Chicago | 2 | All Maps","name_short":"chi-2","host":"chi-1.us.uncletopia.com","port":27025,"enabled":true,"region":"us-central","cc":"us","latitude":41.881832,"longitude":-87.62318,"reserved":0,"last_update":"0001-01-01T00:00:00Z","name_a2s":"Uncletopia | Chicago | 2 | All Maps","protocol":17,"map":"pl_badwater","folder":"tf","game":"Team Fortress","app_id":440,"player_count":0,"max_players":24,"Bots":0,"server_type":"Dedicated","server_os":"Linux","password":true,"vac":true,"version":"7882260","steam_id":85568392924469985,"keywords":["nocrits","nodmgspread","payload","uncletopia"],"game_id":440,"stv_port":27026,"stv_name":"Uncletopia | Chicago | 2 | All Maps | STV","players":null},{"server_id":402,"name":"Uncletopia | Chicago | 3 | All Maps","name_short":"chi-3","host":"chi-1.us.uncletopia.com","port":27035,"enabled":true,"region":"us-central","cc":"us","latitude":41.881832,"longitude":-87.62318,"reserved":0,"last_update":"0001-01-01T00:00:00Z","name_a2s":"Uncletopia | Chicago | 3 | All Maps","protocol":17,"map":"pl_barnblitz","folder":"tf","game":"Team Fortress","app_id":440,"player_count":24,"max_players":24,"Bots":0,"server_type":"Dedicated","server_os":"Linux","password":true,"vac":true,"version":"7882260","steam_id":85568392924515191,"keywords":["nocrits","nodmgspread","payload","uncletopia"],"game_id":440,"stv_port":27036,"stv_name":"Uncletopia | Chicago | 3 | All Maps | STV","players":[{"user_id":73,"name":"Koi","steam_id":76561198064411172,"connected_time":2992000000000,"state":"active","ping":60},{"user_id":72,"name":"hipster_doofus","steam_id":76561197970902697,"connected_time":3012000000000,"state":"active","ping":150},{"user_id":112,"name":"Not Slavoj Žižek","steam_id":76561198004619616,"connected_time":311000000000,"state":"active","ping":104},{"user_id":89,"name":"A Swarm of Moths","steam_id":76561198144564679,"connected_time":1941000000000,"state":"active","ping":47},{"user_id":67,"name":"Satirinm","steam_id":76561198068956102,"connected_time":3647000000000,"state":"active","ping":137},{"user_id":101,"name":"•SoraNyaa•","steam_id":76561198308439576,"connected_time":1336000000000,"state":"active","ping":70},{"user_id":115,"name":"spider_murphy","steam_id":76561198079057101,"connected_time":222000000000,"state":"active","ping":70},{"user_id":80,"name":"and i'm javert!","steam_id":76561198117033273,"connected_time":2402000000000,"state":"active","ping":140},{"user_id":46,"name":"lord bullingdon","steam_id":76561198102681457,"connected_time":5097000000000,"state":"active","ping":70},{"user_id":107,"name":"Broadsword","steam_id":76561198011160411,"connected_time":788000000000,"state":"active","ping":87},{"user_id":79,"name":"monosodium glutamate","steam_id":76561198198787713,"connected_time":2463000000000,"state":"active","ping":69},{"user_id":70,"name":"Your Local Queer Librarian","steam_id":76561198013077080,"connected_time":3175000000000,"state":"active","ping":60},{"user_id":81,"name":"STENDO_CLIP","steam_id":76561198059570167,"connected_time":2366000000000,"state":"active","ping":120},{"user_id":113,"name":"Rended_","steam_id":76561199067091873,"connected_time":262000000000,"state":"active","ping":88},{"user_id":116,"name":"thatonebyte","steam_id":76561198186091279,"connected_time":218000000000,"state":"active","ping":98},{"user_id":77,"name":"Metna","steam_id":76561198092381079,"connected_time":2847000000000,"state":"active","ping":60},{"user_id":90,"name":"Kurayami","steam_id":76561198089630547,"connected_time":1876000000000,"state":"active","ping":71},{"user_id":83,"name":"Bongo Bill","steam_id":76561198028004398,"connected_time":2357000000000,"state":"active","ping":63},{"user_id":111,"name":"carrot cake","steam_id":76561198055174915,"connected_time":470000000000,"state":"active","ping":67},{"user_id":97,"name":"tacofever","steam_id":76561198010966507,"connected_time":1550000000000,"state":"active","ping":102},{"user_id":41,"name":"Gridlock Enjoyer","steam_id":76561198048049027,"connected_time":5628000000000,"state":"active","ping":56},{"user_id":104,"name":"esmeralda del páramo","steam_id":76561198274491536,"connected_time":1248000000000,"state":"active","ping":161},{"user_id":117,"name":"Sovereign","steam_id":76561198018841787,"connected_time":189000000000,"state":"active","ping":90},{"user_id":109,"name":"επιλέγω","steam_id":76561198076639682,"connected_time":672000000000,"state":"active","ping":68}]},{"server_id":403,"name":"Uncletopia | Chicago | 4 | All Maps","name_short":"chi-4","host":"chi-1.us.uncletopia.com","port":27045,"enabled":true,"region":"us-central","cc":"us","latitude":41.881832,"longitude":-87.62318,"reserved":0,"last_update":"0001-01-01T00:00:00Z","name_a2s":"Uncletopia | Chicago | 4 | All Maps","protocol":17,"map":"koth_cascade","folder":"tf","game":"Team Fortress","app_id":440,"player_count":0,"max_players":24,"Bots":0,"server_type":"Dedicated","server_os":"Linux","password":true,"vac":true,"version":"7882260","steam_id":85568392924515193,"keywords":["cp","nocrits","nodmgspread","uncletopia"],"game_id":440,"stv_port":27046,"stv_name":"Uncletopia | Chicago | 4 | All Maps | STV","players":null},{"server_id":36,"name":"Uncletopia | Chicago | 5 | All Maps","name_short":"chi-5","host":"chi-2.us.uncletopia.com","port":27015,"enabled":true,"region":"us-central","cc":"us","latitude":41.881832,"longitude":-87.62318,"reserved":0,"last_update":"0001-01-01T00:00:00Z","name_a2s":"Uncletopia | Chicago | 5 | All Maps","protocol":17,"map":"pl_badwater","folder":"tf","game":"Team Fortress","app_id":440,"player_count":0,"max_players":24,"Bots":0,"server_type":"Dedicated","server_os":"Linux","password":true,"vac":true,"version":"7882260","steam_id":85568392924866362,"keywords":["nocrits","nodmgspread","payload","uncletopia"],"game_id":440,"stv_port":27016,"stv_name":"Uncletopia | Chicago | 5 | All Maps | STV","players":null},{"server_id":37,"name":"Uncletopia | Chicago | 6 | All Maps","name_short":"chi-6","host":"chi-2.us.uncletopia.com","port":27025,"enabled":true,"region":"us-central","cc":"us","latitude":41.881832,"longitude":-87.62318,"reserved":0,"last_update":"0001-01-01T00:00:00Z","name_a2s":"Uncletopia | Chicago | 6 | All Maps","protocol":17,"map":"koth_cascade","folder":"tf","game":"Team Fortress","app_id":440,"player_count":0,"max_players":24,"Bots":0,"server_type":"Dedicated","server_os":"Linux","password":true,"vac":true,"version":"7882260","steam_id":85568392924866363,"keywords":["cp","nocrits","nodmgspread","uncletopia"],"game_id":440,"stv_port":27026,"stv_name":"Uncletopia | Chicago | 6 | All Maps | STV","players":null},{"server_id":38,"name":"Uncletopia | Chicago | 7 | Stopwatch Beta","name_short":"chi-7","host":"chi-2.us.uncletopia.com","port":27035,"enabled":true,"region":"us-central","cc":"us","latitude":41.881832,"longitude":-87.62318,"reserved":0,"last_update":"0001-01-01T00:00:00Z","name_a2s":"Uncletopia | Chicago | 7 | Stopwatch Beta","protocol":17,"map":"pl_borneo","folder":"tf","game":"Team Fortress","app_id":440,"player_count":0,"max_players":24,"Bots":0,"server_type":"Dedicated","server_os":"Linux","password":true,"vac":true,"version":"7882260","steam_id":85568392924866364,"keywords":["nocrits","nodmgspread","payload","uncletopia"],"game_id":440,"stv_port":27036,"stv_name":"Uncletopia | Chicago | 7 | Stopwatch Beta | STV","players":null},{"server_id":39,"name":"Uncletopia | Chicago | 8 | Community","name_short":"chi-8","host":"chi-2.us.uncletopia.com","port":27045,"enabled":true,"region":"us-central","cc":"us","latitude":41.881832,"longitude":-87.62318,"reserved":0,"last_update":"0001-01-01T00:00:00Z","name_a2s":"Uncletopia | Chicago | 8 | Community","protocol":17,"map":"cp_snakewater_final1","folder":"tf","game":"Team Fortress","app_id":440,"player_count":0,"max_players":24,"Bots":0,"server_type":"Dedicated","server_os":"Linux","password":true,"vac":true,"version":"7882260","steam_id":85568392924866365,"keywords":["cp","nocrits","nodmgspread","uncletopia"],"game_id":440,"stv_port":27046,"stv_name":"Uncletopia | Chicago | 8 | Community | STV","players":null},{"server_id":8,"name":"Uncletopia | Dallas | 1 | All Maps","name_short":"dal-1","host":"dal-1.us.uncletopia.com","port":27015,"enabled":true,"region":"us-central","cc":"us","latitude":32.779167,"longitude":-96.80889,"reserved":0,"last_update":"0001-01-01T00:00:00Z","name_a2s":"Uncletopia | Dallas | 1 | All Maps","protocol":17,"map":"pl_pier","folder":"tf","game":"Team Fortress","app_id":440,"player_count":3,"max_players":24,"Bots":0,"server_type":"Dedicated","server_os":"Linux","password":true,"vac":true,"version":"7882260","steam_id":85568392924469986,"keywords":["nocrits","nodmgspread","payload","uncletopia"],"game_id":440,"stv_port":27016,"stv_name":"Uncletopia | Dallas | 1 | All Maps | STV","players":[{"user_id":5,"name":"Yords","steam_id":76561198027925729,"connected_time":2019000000000,"state":"active","ping":40},{"user_id":7,"name":"Pong","steam_id":76561198006340067,"connected_time":218000000000,"state":"active","ping":44},{"user_id":8,"name":"Profound Remorse","steam_id":76561197993075304,"connected_time":125000000000,"state":"active","ping":74}]},{"server_id":108,"name":"Uncletopia | Dallas | 2 | All Maps","name_short":"dal-2","host":"dal-1.us.uncletopia.com","port":27025,"enabled":true,"region":"us-central","cc":"us","latitude":32.779167,"longitude":-96.80889,"reserved":0,"last_update":"0001-01-01T00:00:00Z","name_a2s":"Uncletopia | Dallas | 2 | All Maps","protocol":17,"map":"pl_barnblitz","folder":"tf","game":"Team Fortress","app_id":440,"player_count":0,"max_players":24,"Bots":0,"server_type":"Dedicated","server_os":"Linux","password":true,"vac":true,"version":"7882260","steam_id":85568392924469988,"keywords":["nocrits","nodmgspread","payload","uncletopia"],"game_id":440,"stv_port":27026,"stv_name":"Uncletopia | Dallas | 2 | All Maps | STV","players":null},{"server_id":5,"name":"Uncletopia | Frankfurt | 1 | All Maps","name_short":"frk-1","host":"frk-1.de.uncletopia.com","port":27015,"enabled":true,"region":"eu","cc":"de","latitude":50.110924,"longitude":8.682127,"reserved":0,"last_update":"0001-01-01T00:00:00Z","name_a2s":"Uncletopia | Frankfurt | 1 | All Maps","protocol":17,"map":"pl_swiftwater_final1","folder":"tf","game":"Team Fortress","app_id":440,"player_count":24,"max_players":24,"Bots":0,"server_type":"Dedicated","server_os":"Linux","password":true,"vac":true,"version":"7882260","steam_id":85568392924469989,"keywords":["nocrits","nodmgspread","payload","uncletopia"],"game_id":440,"stv_port":27016,"stv_name":"Uncletopia | Frankfurt | 1 | All Maps | STV","players":[{"user_id":279,"name":"Little Satan","steam_id":76561198083614760,"connected_time":1081000000000,"state":"active","ping":71},{"user_id":295,"name":"youmme95","steam_id":76561198049802823,"connected_time":159000000000,"state":"active","ping":78},{"user_id":236,"name":"Ketich","steam_id":76561198021772703,"connected_time":3636000000000,"state":"active","ping":71},{"user_id":262,"name":"Accident","steam_id":76561198115160396,"connected_time":2811000000000,"state":"active","ping":71},{"user_id":288,"name":"PerskuleBenener","steam_id":76561198156899375,"connected_time":274000000000,"state":"active","ping":80},{"user_id":274,"name":"The Nutcracker of Tf2","steam_id":76561199391107813,"connected_time":1521000000000,"state":"active","ping":70},{"user_id":291,"name":"John Darksoul","steam_id":76561198110470565,"connected_time":240000000000,"state":"active","ping":103},{"user_id":293,"name":"Egor Pomidor","steam_id":76561199175688390,"connected_time":207000000000,"state":"active","ping":76},{"user_id":268,"name":"finbar","steam_id":76561198056812396,"connected_time":2230000000000,"state":"active","ping":66},{"user_id":283,"name":"T'n'T","steam_id":76561198007270832,"connected_time":1016000000000,"state":"active","ping":46},{"user_id":277,"name":"DanteVeliki","steam_id":76561198159403183,"connected_time":1268000000000,"state":"active","ping":80},{"user_id":294,"name":"One-Face","steam_id":76561197999384826,"connected_time":170000000000,"state":"active","ping":57},{"user_id":289,"name":"PAN","steam_id":76561198118671779,"connected_time":252000000000,"state":"active","ping":65},{"user_id":273,"name":"ÃNVS DRÃNVS","steam_id":76561198138733015,"connected_time":1626000000000,"state":"active","ping":108},{"user_id":266,"name":"I let my sentry shoot","steam_id":76561198112535604,"connected_time":2556000000000,"state":"active","ping":72},{"user_id":281,"name":"Old Beavis","steam_id":76561198065951617,"connected_time":1059000000000,"state":"active","ping":71},{"user_id":296,"name":"Stuid","steam_id":76561199427506542,"connected_time":159000000000,"state":"active","ping":76},{"user_id":280,"name":"Regretful medic main","steam_id":76561198388750592,"connected_time":1076000000000,"state":"active","ping":59},{"user_id":257,"name":"Glenn Quagmire","steam_id":76561199348527880,"connected_time":3008000000000,"state":"active","ping":93},{"user_id":285,"name":"Nekontrolovatelná střela","steam_id":76561198056810212,"connected_time":1001000000000,"state":"active","ping":68},{"user_id":260,"name":"AndyLemon216","steam_id":76561199378837339,"connected_time":2998000000000,"state":"active","ping":91},{"user_id":286,"name":"Paavo","steam_id":76561198038707190,"connected_time":995000000000,"state":"active","ping":81},{"user_id":272,"name":"run baby run","steam_id":76561198091895569,"connected_time":1673000000000,"state":"active","ping":171},{"user_id":290,"name":"Charged","steam_id":76561199127215130,"connected_time":251000000000,"state":"active","ping":91}]},{"server_id":110,"name":"Uncletopia | Frankfurt | 2 | All Maps","name_short":"frk-2","host":"frk-1.de.uncletopia.com","port":27025,"enabled":true,"region":"eu","cc":"de","latitude":50.110924,"longitude":8.682127,"reserved":0,"last_update":"0001-01-01T00:00:00Z","name_a2s":"Uncletopia | Frankfurt | 2 | All Maps","protocol":17,"map":"koth_viaduct","folder":"tf","game":"Team Fortress","app_id":440,"player_count":0,"max_players":24,"Bots":0,"server_type":"Dedicated","server_os":"Linux","password":true,"vac":true,"version":"7882260","steam_id":85568392924469990,"keywords":["cp","nocrits","nodmgspread","uncletopia"],"game_id":440,"stv_port":27026,"stv_name":"Uncletopia | Frankfurt | 2 | All Maps | STV","players":null},{"server_id":308,"name":"Uncletopia | Frankfurt | 3 | All Maps","name_short":"frk-3","host":"frk-1.de.uncletopia.com","port":27035,"enabled":true,"region":"eu","cc":"de","latitude":50.110924,"longitude":8.682127,"reserved":0,"last_update":"0001-01-01T00:00:00Z","name_a2s":"Uncletopia | Frankfurt | 3 | All Maps","protocol":17,"map":"cp_sunshine","folder":"tf","game":"Team Fortress","app_id":440,"player_count":0,"max_players":24,"Bots":0,"server_type":"Dedicated","server_os":"Linux","password":true,"vac":true,"version":"7882260","steam_id":85568392924504274,"keywords":["cp","nocrits","nodmgspread","uncletopia"],"game_id":440,"stv_port":27036,"stv_name":"Uncletopia | Frankfurt | 3 | All Maps | STV","players":null},{"server_id":309,"name":"Uncletopia | Frankfurt | 4 | All Maps","name_short":"frk-4","host":"frk-1.de.uncletopia.com","port":27045,"enabled":true,"region":"eu","cc":"de","latitude":50.110924,"longitude":8.682127,"reserved":0,"last_update":"0001-01-01T00:00:00Z","name_a2s":"Uncletopia | Frankfurt | 4 | All Maps","protocol":17,"map":"koth_lakeside_final","folder":"tf","game":"Team Fortress","app_id":440,"player_count":0,"max_players":24,"Bots":0,"server_type":"Dedicated","server_os":"Linux","password":true,"vac":true,"version":"7882260","steam_id":85568392924504275,"keywords":["cp","nocrits","nodmgspread","uncletopia"],"game_id":440,"stv_port":27046,"stv_name":"Uncletopia | Frankfurt | 4 | All Maps | STV","players":null},{"server_id":310,"name":"Uncletopia | Frankfurt | 5 | All Maps","name_short":"frk-5","host":"frk-1.de.uncletopia.com","port":27055,"enabled":true,"region":"eu","cc":"de","latitude":50.110924,"longitude":8.682127,"reserved":0,"last_update":"0001-01-01T00:00:00Z","name_a2s":"Uncletopia | Frankfurt | 5 | All Maps","protocol":17,"map":"pl_borneo","folder":"tf","game":"Team Fortress","app_id":440,"player_count":0,"max_players":24,"Bots":0,"server_type":"Dedicated","server_os":"Linux","password":true,"vac":true,"version":"7882260","steam_id":85568392924504277,"keywords":["nocrits","nodmgspread","payload","uncletopia"],"game_id":440,"stv_port":27056,"stv_name":"Uncletopia | Frankfurt | 5 | All Maps | STV","players":null},{"server_id":311,"name":"Uncletopia | Frankfurt | 6 | All Maps","name_short":"frk-6","host":"frk-1.de.uncletopia.com","port":27065,"enabled":true,"region":"eu","cc":"de","latitude":50.110924,"longitude":8.682127,"reserved":0,"last_update":"0001-01-01T00:00:00Z","name_a2s":"Uncletopia | Frankfurt | 6 | All Maps","protocol":17,"map":"pl_borneo","folder":"tf","game":"Team Fortress","app_id":440,"player_count":0,"max_players":24,"Bots":0,"server_type":"Dedicated","server_os":"Linux","password":true,"vac":true,"version":"7882260","steam_id":85568392924504278,"keywords":["nocrits","nodmgspread","payload","uncletopia"],"game_id":440,"stv_port":27066,"stv_name":"Uncletopia | Frankfurt | 6 | All Maps | STV","players":null},{"server_id":23,"name":"Uncletopia | Frankfurt | 7 | Stopwatch Beta","name_short":"frk-7","host":"frk-1.de.uncletopia.com","port":27075,"enabled":true,"region":"eu","cc":"de","latitude":50.110924,"longitude":8.682127,"reserved":0,"last_update":"0001-01-01T00:00:00Z","name_a2s":"Uncletopia | Frankfurt | 7 | Stopwatch Beta","protocol":17,"map":"workshop/pl_summercoast_rc8e.ugc1761528829","folder":"tf","game":"Team Fortress","app_id":440,"player_count":0,"max_players":24,"Bots":0,"server_type":"Dedicated","server_os":"Linux","password":true,"vac":true,"version":"7882260","steam_id":85568392924742827,"keywords":["nocrits","nodmgspread","payload","uncletopia"],"game_id":440,"stv_port":27076,"stv_name":"Uncletopia | Frankfurt | 7 | Stopwatch Beta | STV","players":null},{"server_id":24,"name":"Uncletopia | Frankfurt | 8 | Community","name_short":"frk-8","host":"frk-1.de.uncletopia.com","port":27085,"enabled":true,"region":"eu","cc":"de","latitude":50.110924,"longitude":8.682127,"reserved":0,"last_update":"0001-01-01T00:00:00Z","name_a2s":"Uncletopia | Frankfurt | 8 | Community","protocol":17,"map":"workshop/cp_croissant_final.ugc458840209","folder":"tf","game":"Team Fortress","app_id":440,"player_count":0,"max_players":24,"Bots":0,"server_type":"Dedicated","server_os":"Linux","password":true,"vac":true,"version":"7882260","steam_id":85568392924742828,"keywords":["cp","nocrits","nodmgspread","uncletopia"],"game_id":440,"stv_port":27086,"stv_name":"Uncletopia | Frankfurt | 8 | Community | STV","players":null},{"server_id":202,"name":"Uncletopia | Hong Kong | 1 | All Maps","name_short":"hgk-1","host":"hgk-1.hk.uncletopia.com","port":27015,"enabled":true,"region":"asia","cc":"hk","latitude":22.302711,"longitude":114.177216,"reserved":0,"last_update":"0001-01-01T00:00:00Z","name_a2s":"Uncletopia | Hong Kong | 1 | All Maps","protocol":17,"map":"cp_dustbowl","folder":"tf","game":"Team Fortress","app_id":440,"player_count":23,"max_players":24,"Bots":0,"server_type":"Dedicated","server_os":"Linux","password":true,"vac":true,"version":"7882260","steam_id":85568392924494504,"keywords":["cp","nocrits","nodmgspread","uncletopia"],"game_id":440,"stv_port":27016,"stv_name":"Uncletopia | Hong Kong | 1 | All Maps | STV","players":[{"user_id":362,"name":"Othopeus","steam_id":76561198283534382,"connected_time":2616000000000,"state":"active","ping":69},{"user_id":389,"name":"u/Plencers2","steam_id":76561198311052198,"connected_time":1118000000000,"state":"active","ping":87},{"user_id":388,"name":"m 1 k o","steam_id":76561198337154745,"connected_time":1758000000000,"state":"active","ping":80},{"user_id":402,"name":"RP birdzz","steam_id":76561198318077734,"connected_time":239000000000,"state":"active","ping":65},{"user_id":395,"name":"Cheesey","steam_id":76561198975684137,"connected_time":636000000000,"state":"active","ping":103},{"user_id":313,"name":"JDSFE","steam_id":76561198975490851,"connected_time":6141000000000,"state":"active","ping":107},{"user_id":401,"name":"the","steam_id":76561198129661272,"connected_time":412000000000,"state":"active","ping":127},{"user_id":399,"name":"Crazywayne","steam_id":76561198056504010,"connected_time":449000000000,"state":"active","ping":77},{"user_id":306,"name":"instant karma","steam_id":76561198027307933,"connected_time":6951000000000,"state":"active","ping":55},{"user_id":350,"name":"bodacious bogey","steam_id":76561198055553140,"connected_time":3881000000000,"state":"active","ping":78},{"user_id":297,"name":"ArcticDolphin","steam_id":76561198203626319,"connected_time":7891000000000,"state":"active","ping":154},{"user_id":390,"name":"Xoro","steam_id":76561198332104915,"connected_time":1099000000000,"state":"active","ping":121},{"user_id":391,"name":"@RealWattson22542","steam_id":76561198239125304,"connected_time":958000000000,"state":"active","ping":94},{"user_id":361,"name":"CEO of Cope","steam_id":76561198867766385,"connected_time":2630000000000,"state":"active","ping":119},{"user_id":341,"name":"Stupid B","steam_id":76561198131423270,"connected_time":4429000000000,"state":"active","ping":122},{"user_id":387,"name":"Pillboi","steam_id":76561198011172886,"connected_time":1926000000000,"state":"active","ping":43},{"user_id":363,"name":"+","steam_id":76561198121311286,"connected_time":2585000000000,"state":"active","ping":174},{"user_id":325,"name":"Stan","steam_id":76561198065671595,"connected_time":5624000000000,"state":"active","ping":43},{"user_id":343,"name":"Lelouch","steam_id":76561198828840546,"connected_time":4376000000000,"state":"active","ping":80},{"user_id":358,"name":"sierra","steam_id":76561197969873415,"connected_time":3314000000000,"state":"active","ping":104},{"user_id":118,"name":"母の肉団子@hao123.com","steam_id":76561198069561896,"connected_time":20509000000000,"state":"active","ping":46},{"user_id":312,"name":"Noyour","steam_id":76561198323259830,"connected_time":6303000000000,"state":"active","ping":120},{"user_id":261,"name":"Milf (The fan O'Milk)","steam_id":76561198213031155,"connected_time":10368000000000,"state":"active","ping":103}]},{"server_id":1,"name":"Uncletopia | Los Angeles | 1 | All Maps","name_short":"lax-1","host":"lax-1.us.uncletopia.com","port":27015,"enabled":true,"region":"us-west","cc":"us","latitude":33.94279,"longitude":-118.41004,"reserved":0,"last_update":"0001-01-01T00:00:00Z","name_a2s":"Uncletopia | Los Angeles | 1 | All Maps","protocol":17,"map":"koth_lakeside_final","folder":"tf","game":"Team Fortress","app_id":440,"player_count":0,"max_players":24,"Bots":0,"server_type":"Dedicated","server_os":"Linux","password":true,"vac":true,"version":"7882260","steam_id":85568392924469991,"keywords":["cp","nocrits","nodmgspread","uncletopia"],"game_id":440,"stv_port":27016,"stv_name":"Uncletopia | Los Angeles | 1 | All Maps | STV","players":null},{"server_id":112,"name":"Uncletopia | Los Angeles | 2 | All Maps","name_short":"lax-2","host":"lax-1.us.uncletopia.com","port":27025,"enabled":true,"region":"us-west","cc":"us","latitude":33.94279,"longitude":-118.41004,"reserved":0,"last_update":"0001-01-01T00:00:00Z","name_a2s":"Uncletopia | Los Angeles | 2 | All Maps","protocol":17,"map":"cp_snakewater_final1","folder":"tf","game":"Team Fortress","app_id":440,"player_count":17,"max_players":24,"Bots":0,"server_type":"Dedicated","server_os":"Linux","password":true,"vac":true,"version":"7882260","steam_id":85568392924469992,"keywords":["cp","nocrits","nodmgspread","uncletopia"],"game_id":440,"stv_port":27026,"stv_name":"Uncletopia | Los Angeles | 2 | All Maps | STV","players":[{"user_id":595,"name":"Maroon","steam_id":76561199443953868,"connected_time":2136000000000,"state":"active","ping":59},{"user_id":619,"name":"connie kins","steam_id":76561198074701151,"connected_time":416000000000,"state":"active","ping":44},{"user_id":618,"name":"Professor Chromosomes","steam_id":76561198042020662,"connected_time":486000000000,"state":"active","ping":159},{"user_id":621,"name":"Noob-a-tron","steam_id":76561197970555113,"connected_time":28000000000,"state":"active","ping":87},{"user_id":599,"name":"FlipFlower293","steam_id":76561199082103717,"connected_time":2038000000000,"state":"active","ping":132},{"user_id":533,"name":"Ecksbox","steam_id":76561198352502577,"connected_time":7123000000000,"state":"active","ping":51},{"user_id":600,"name":"Kirurame","steam_id":76561198385003393,"connected_time":1917000000000,"state":"active","ping":110},{"user_id":584,"name":"Rhutebeer","steam_id":76561198018302761,"connected_time":3362000000000,"state":"active","ping":100},{"user_id":589,"name":"nnobi","steam_id":76561198878729277,"connected_time":3084000000000,"state":"active","ping":104},{"user_id":602,"name":"Echidnah","steam_id":76561198059859341,"connected_time":1844000000000,"state":"active","ping":106},{"user_id":502,"name":"Tyiuer","steam_id":76561198059741489,"connected_time":9987000000000,"state":"active","ping":58},{"user_id":567,"name":"JOE_SPECWARRIOR","steam_id":76561198008564250,"connected_time":4735000000000,"state":"active","ping":44},{"user_id":603,"name":"LX-24","steam_id":76561198016168993,"connected_time":1796000000000,"state":"active","ping":80},{"user_id":614,"name":"ThisBeMe","steam_id":76561199282571894,"connected_time":795000000000,"state":"active","ping":57},{"user_id":608,"name":"mumbo jumbo","steam_id":76561198206922028,"connected_time":1104000000000,"state":"active","ping":48},{"user_id":575,"name":"cacaspy","steam_id":76561198140946476,"connected_time":4341000000000,"state":"active","ping":121},{"user_id":612,"name":"SAD MOSCOVIA","steam_id":76561198101081520,"connected_time":853000000000,"state":"active","ping":86}]},{"server_id":324,"name":"Uncletopia | Los Angeles | 3 | All Maps","name_short":"lax-3","host":"lax-1.us.uncletopia.com","port":27035,"enabled":true,"region":"us-west","cc":"us","latitude":33.94279,"longitude":-118.41004,"reserved":0,"last_update":"0001-01-01T00:00:00Z","name_a2s":"Uncletopia | Los Angeles | 3 | All Maps","protocol":17,"map":"plr_hightower","folder":"tf","game":"Team Fortress","app_id":440,"player_count":0,"max_players":24,"Bots":0,"server_type":"Dedicated","server_os":"Linux","password":true,"vac":true,"version":"7882260","steam_id":85568392924510198,"keywords":["nocrits","nodmgspread","payload","uncletopia"],"game_id":440,"stv_port":27036,"stv_name":"Uncletopia | Los Angeles | 3 | All Maps | STV","players":null},{"server_id":25,"name":"Uncletopia | Los Angeles | 4 | Stopwatch Beta","name_short":"lax-4","host":"lax-1.us.uncletopia.com","port":27045,"enabled":true,"region":"us-west","cc":"us","latitude":33.94279,"longitude":-118.41004,"reserved":0,"last_update":"0001-01-01T00:00:00Z","name_a2s":"Uncletopia | Los Angeles | 4 | Stopwatch Beta","protocol":17,"map":"koth_lakeside_final","folder":"tf","game":"Team Fortress","app_id":440,"player_count":0,"max_players":24,"Bots":0,"server_type":"Dedicated","server_os":"Linux","password":true,"vac":true,"version":"7882260","steam_id":85568392924510199,"keywords":["cp","nocrits","nodmgspread","uncletopia"],"game_id":440,"stv_port":27046,"stv_name":"Uncletopia | Los Angeles | 4 | Stopwatch Beta | STV","players":null},{"server_id":11,"name":"Uncletopia | London | 1 | All Maps","name_short":"lon-1","host":"lon-1.uk.uncletopia.com","port":27015,"enabled":true,"region":"eu","cc":"gb","latitude":51.509865,"longitude":-0.118092,"reserved":0,"last_update":"0001-01-01T00:00:00Z","name_a2s":"Uncletopia | London | 1 | All Maps","protocol":17,"map":"pl_badwater","folder":"tf","game":"Team Fortress","app_id":440,"player_count":24,"max_players":24,"Bots":0,"server_type":"Dedicated","server_os":"Linux","password":true,"vac":true,"version":"7882260","steam_id":85568392924367362,"keywords":["nocrits","nodmgspread","payload","uncletopia"],"game_id":440,"stv_port":27016,"stv_name":"Uncletopia | London | 1 | All Maps | STV","players":[{"user_id":60,"name":"suleli","steam_id":76561199006199283,"connected_time":543000000000,"state":"active","ping":90},{"user_id":62,"name":"Queen Dashie","steam_id":76561198097584870,"connected_time":467000000000,"state":"active","ping":118},{"user_id":15,"name":"Kamikrazy","steam_id":76561198044254918,"connected_time":3814000000000,"state":"active","ping":64},{"user_id":28,"name":"Dor_atar","steam_id":76561198973980542,"connected_time":2071000000000,"state":"active","ping":83},{"user_id":22,"name":"Texas Red","steam_id":76561199069782779,"connected_time":2627000000000,"state":"active","ping":111},{"user_id":19,"name":"DJ Professor Test","steam_id":76561198194620386,"connected_time":3089000000000,"state":"active","ping":156},{"user_id":54,"name":"Saul Goodman","steam_id":76561199164987448,"connected_time":711000000000,"state":"active","ping":100},{"user_id":63,"name":"lvl. 50 honkler","steam_id":76561198061688660,"connected_time":467000000000,"state":"active","ping":113},{"user_id":34,"name":"Я НОРМАЛЬНЫЙ","steam_id":76561198354708713,"connected_time":1677000000000,"state":"active","ping":91},{"user_id":61,"name":"Jonathan","steam_id":76561198087988880,"connected_time":500000000000,"state":"active","ping":58},{"user_id":36,"name":"e9","steam_id":76561198890193313,"connected_time":1596000000000,"state":"active","ping":58},{"user_id":53,"name":"jimmy bob","steam_id":76561198319583692,"connected_time":745000000000,"state":"active","ping":63},{"user_id":41,"name":"Reichskanzlerl✙","steam_id":76561199010757888,"connected_time":1200000000000,"state":"active","ping":72},{"user_id":42,"name":"sub class?","steam_id":76561199184873889,"connected_time":1146000000000,"state":"active","ping":68},{"user_id":43,"name":"vadim_kotler","steam_id":76561199016634369,"connected_time":1033000000000,"state":"active","ping":107},{"user_id":44,"name":"Eggcracker","steam_id":76561199274850641,"connected_time":959000000000,"state":"active","ping":84},{"user_id":45,"name":"lugiagaurdien","steam_id":76561198894274440,"connected_time":936000000000,"state":"active","ping":72},{"user_id":46,"name":"Undertaker","steam_id":76561198364121077,"connected_time":925000000000,"state":"active","ping":99},{"user_id":47,"name":"Quack","steam_id":76561198048712219,"connected_time":915000000000,"state":"active","ping":70},{"user_id":48,"name":"funkliner","steam_id":76561198436902492,"connected_time":859000000000,"state":"active","ping":109},{"user_id":64,"name":"Rex Z'Beq","steam_id":76561199300590000,"connected_time":439000000000,"state":"active","ping":82},{"user_id":58,"name":"Marl Karx","steam_id":76561198396797516,"connected_time":658000000000,"state":"active","ping":64},{"user_id":59,"name":"zebulon","steam_id":76561198384683504,"connected_time":653000000000,"state":"active","ping":56}]},{"server_id":114,"name":"Uncletopia | London | 2 | All Maps","name_short":"lon-2","host":"lon-1.uk.uncletopia.com","port":27025,"enabled":true,"region":"eu","cc":"gb","latitude":51.509865,"longitude":-0.118092,"reserved":0,"last_update":"0001-01-01T00:00:00Z","name_a2s":"Uncletopia | London | 2 | All Maps","protocol":17,"map":"pl_swiftwater_final1","folder":"tf","game":"Team Fortress","app_id":440,"player_count":24,"max_players":24,"Bots":0,"server_type":"Dedicated","server_os":"Linux","password":true,"vac":true,"version":"7882260","steam_id":85568392924470941,"keywords":["nocrits","nodmgspread","payload","uncletopia"],"game_id":440,"stv_port":27026,"stv_name":"Uncletopia | London | 2 | All Maps | STV","players":[{"user_id":388,"name":"silicon based life form","steam_id":76561199127121346,"connected_time":320000000000,"state":"active","ping":57},{"user_id":394,"name":"I'M CLINICALLY INSANE","steam_id":76561198208349835,"connected_time":50000000000,"state":"active","ping":70},{"user_id":387,"name":"Sandvich","steam_id":76561199079493666,"connected_time":344000000000,"state":"active","ping":98},{"user_id":356,"name":"Ruvix","steam_id":76561198239689346,"connected_time":2712000000000,"state":"active","ping":65},{"user_id":373,"name":"medic get on tank!!!","steam_id":76561198798428909,"connected_time":1428000000000,"state":"active","ping":93},{"user_id":370,"name":"Dakeyras","steam_id":76561198057069564,"connected_time":1631000000000,"state":"active","ping":101},{"user_id":346,"name":"David \"Crash\" Murphy","steam_id":76561198292845505,"connected_time":3207000000000,"state":"active","ping":92},{"user_id":340,"name":"I no longer have a headache!","steam_id":76561198243275046,"connected_time":3553000000000,"state":"active","ping":54},{"user_id":389,"name":"Haha?","steam_id":76561198056882245,"connected_time":287000000000,"state":"active","ping":38},{"user_id":391,"name":"\u003c blank \u003e","steam_id":76561198059375315,"connected_time":262000000000,"state":"active","ping":74},{"user_id":371,"name":"wolffy","steam_id":76561198083145076,"connected_time":1626000000000,"state":"active","ping":54},{"user_id":378,"name":"Grim","steam_id":76561198141464555,"connected_time":1271000000000,"state":"active","ping":79},{"user_id":380,"name":"sassy the sasquatch #SAVETF2","steam_id":76561198844060342,"connected_time":923000000000,"state":"active","ping":42},{"user_id":392,"name":"Ezekiel","steam_id":76561199024034022,"connected_time":256000000000,"state":"active","ping":84},{"user_id":375,"name":"MILKY","steam_id":76561199261620682,"connected_time":1333000000000,"state":"spawning","ping":155},{"user_id":344,"name":"Gio'sMonkey","steam_id":76561198892432223,"connected_time":3385000000000,"state":"active","ping":76},{"user_id":382,"name":"Hedge Knight","steam_id":76561198989449047,"connected_time":894000000000,"state":"active","ping":147},{"user_id":384,"name":"JOHN GAMING (#1 gunspy)","steam_id":76561199085822219,"connected_time":723000000000,"state":"active","ping":83},{"user_id":379,"name":"Twój Stary","steam_id":76561198204521956,"connected_time":1254000000000,"state":"active","ping":77},{"user_id":381,"name":"Milk","steam_id":76561198125876588,"connected_time":918000000000,"state":"active","ping":45},{"user_id":377,"name":"walluu","steam_id":76561198121830870,"connected_time":1328000000000,"state":"active","ping":81},{"user_id":386,"name":"goofster","steam_id":76561199052275857,"connected_time":615000000000,"state":"active","ping":115},{"user_id":367,"name":"the scringly dingly","steam_id":76561198192179174,"connected_time":1777000000000,"state":"active","ping":129},{"user_id":366,"name":"bowchika wowa #SlavaUkraine","steam_id":76561198159564550,"connected_time":1852000000000,"state":"active","ping":80}]},{"server_id":320,"name":"Uncletopia | London | 3 | All Maps","name_short":"lon-3","host":"lon-1.uk.uncletopia.com","port":27035,"enabled":true,"region":"eu","cc":"gb","latitude":51.509865,"longitude":-0.118092,"reserved":0,"last_update":"0001-01-01T00:00:00Z","name_a2s":"Uncletopia | London | 3 | All Maps","protocol":17,"map":"cp_snakewater_final1","folder":"tf","game":"Team Fortress","app_id":440,"player_count":23,"max_players":24,"Bots":0,"server_type":"Dedicated","server_os":"Linux","password":true,"vac":true,"version":"7882260","steam_id":85568392924510192,"keywords":["cp","nocrits","nodmgspread","uncletopia"],"game_id":440,"stv_port":27036,"stv_name":"Uncletopia | London | 3 | All Maps | STV","players":[{"user_id":104,"name":"K4ne","steam_id":76561198362544562,"connected_time":839000000000,"state":"active","ping":66},{"user_id":105,"name":"123","steam_id":76561198839084456,"connected_time":788000000000,"state":"active","ping":90},{"user_id":91,"name":"hourglass","steam_id":76561198166613799,"connected_time":2315000000000,"state":"active","ping":85},{"user_id":107,"name":"обед","steam_id":76561199107155446,"connected_time":710000000000,"state":"active","ping":129},{"user_id":106,"name":"EGirl | Klarra","steam_id":76561198077745407,"connected_time":785000000000,"state":"active","ping":75},{"user_id":109,"name":"Sex Man TF2","steam_id":76561198798657045,"connected_time":633000000000,"state":"active","ping":71},{"user_id":113,"name":"Average Piss Enthusiast","steam_id":76561198057472680,"connected_time":548000000000,"state":"active","ping":77},{"user_id":111,"name":"Heliumblade","steam_id":76561198041834536,"connected_time":595000000000,"state":"active","ping":68},{"user_id":122,"name":"SoupER","steam_id":76561198063056668,"connected_time":391000000000,"state":"active","ping":49},{"user_id":93,"name":"wibe","steam_id":76561198002519060,"connected_time":2012000000000,"state":"active","ping":89},{"user_id":114,"name":"Cursed.","steam_id":76561198381491880,"connected_time":547000000000,"state":"active","ping":102},{"user_id":116,"name":"MrFish #SAVETF2","steam_id":76561199060805463,"connected_time":485000000000,"state":"active","ping":70},{"user_id":117,"name":"Avedist","steam_id":76561198037236130,"connected_time":473000000000,"state":"active","ping":86},{"user_id":118,"name":"Bill","steam_id":76561198293112566,"connected_time":468000000000,"state":"active","ping":98},{"user_id":119,"name":"crashfault","steam_id":76561197994450944,"connected_time":458000000000,"state":"active","ping":85},{"user_id":120,"name":"Koli","steam_id":76561197992428783,"connected_time":456000000000,"state":"active","ping":59},{"user_id":101,"name":"Koi-Koi","steam_id":76561198045527771,"connected_time":1457000000000,"state":"active","ping":58},{"user_id":42,"name":"Jirro","steam_id":76561198193581143,"connected_time":4936000000000,"state":"active","ping":81},{"user_id":99,"name":"Pruff","steam_id":76561198377084417,"connected_time":1651000000000,"state":"active","ping":74},{"user_id":44,"name":"Kapitan Polska","steam_id":76561197968069413,"connected_time":4932000000000,"state":"active","ping":84},{"user_id":64,"name":"hmscole09","steam_id":76561198811362788,"connected_time":3997000000000,"state":"active","ping":57},{"user_id":123,"name":"Akiyo","steam_id":76561198016649655,"connected_time":261000000000,"state":"active","ping":100},{"user_id":83,"name":"night.s","steam_id":76561198326287823,"connected_time":2634000000000,"state":"active","ping":71}]},{"server_id":321,"name":"Uncletopia | London | 4 | All Maps","name_short":"lon-4","host":"lon-1.uk.uncletopia.com","port":27045,"enabled":true,"region":"eu","cc":"gb","latitude":51.509865,"longitude":-0.118092,"reserved":0,"last_update":"0001-01-01T00:00:00Z","name_a2s":"Uncletopia | London | 4 | All Maps","protocol":17,"map":"pl_upward","folder":"tf","game":"Team Fortress","app_id":440,"player_count":0,"max_players":24,"Bots":0,"server_type":"Dedicated","server_os":"Linux","password":true,"vac":true,"version":"7882260","steam_id":85568392924510193,"keywords":["nocrits","nodmgspread","payload","uncletopia"],"game_id":440,"stv_port":27046,"stv_name":"Uncletopia | London | 4 | All Maps | STV","players":null},{"server_id":21,"name":"Uncletopia | London | 5 | All Maps","name_short":"lon-5","host":"lon-1.uk.uncletopia.com","port":27055,"enabled":true,"region":"eu","cc":"gb","latitude":51.509865,"longitude":-0.118092,"reserved":0,"last_update":"0001-01-01T00:00:00Z","name_a2s":"Uncletopia | London | 5 | All Maps","protocol":17,"map":"cp_dustbowl","folder":"tf","game":"Team Fortress","app_id":440,"player_count":24,"max_players":24,"Bots":0,"server_type":"Dedicated","server_os":"Linux","password":true,"vac":true,"version":"7882260","steam_id":85568392924742829,"keywords":["cp","nocrits","nodmgspread","uncletopia"],"game_id":440,"stv_port":27056,"stv_name":"Uncletopia | London | 5 | All Maps | STV","players":[{"user_id":233,"name":"Sunrise","steam_id":76561199402697160,"connected_time":1958000000000,"state":"active","ping":106},{"user_id":255,"name":"daffy","steam_id":76561198029244741,"connected_time":199000000000,"state":"active","ping":78},{"user_id":245,"name":"cof","steam_id":76561199128417805,"connected_time":1040000000000,"state":"active","ping":61},{"user_id":244,"name":"KirachanWillow73@aol.com","steam_id":76561198858189317,"connected_time":1219000000000,"state":"active","ping":90},{"user_id":231,"name":"gaming","steam_id":76561199199456092,"connected_time":2113000000000,"state":"active","ping":137},{"user_id":246,"name":"LFGGGGGG","steam_id":76561199062586342,"connected_time":1030000000000,"state":"active","ping":65},{"user_id":247,"name":"LasagneMan","steam_id":76561198971904377,"connected_time":1005000000000,"state":"active","ping":62},{"user_id":193,"name":"The.Real.Genesis","steam_id":76561198999652040,"connected_time":4054000000000,"state":"active","ping":48},{"user_id":254,"name":"Kiha","steam_id":76561198031408608,"connected_time":541000000000,"state":"active","ping":65},{"user_id":248,"name":"Apollo","steam_id":76561198061602369,"connected_time":973000000000,"state":"active","ping":46},{"user_id":256,"name":"BORGETENNISCLUB","steam_id":76561198049343723,"connected_time":171000000000,"state":"active","ping":47},{"user_id":221,"name":"Orion","steam_id":76561198000418837,"connected_time":2990000000000,"state":"active","ping":159},{"user_id":258,"name":"Finn","steam_id":76561198112456809,"connected_time":89000000000,"state":"active","ping":64},{"user_id":201,"name":"KeTlEr","steam_id":76561198100957443,"connected_time":3770000000000,"state":"active","ping":77},{"user_id":259,"name":"Belgorodec","steam_id":76561199383879505,"connected_time":62000000000,"state":"active","ping":98},{"user_id":257,"name":"Perämiehenä","steam_id":76561197968945306,"connected_time":152000000000,"state":"active","ping":71},{"user_id":260,"name":"hbi*venomcrosshairs","steam_id":76561197996468677,"connected_time":37000000000,"state":"active","ping":62},{"user_id":261,"name":"sin","steam_id":76561198193416785,"connected_time":29000000000,"state":"spawning","ping":45},{"user_id":252,"name":"rude","steam_id":76561198954907732,"connected_time":900000000000,"state":"active","ping":73},{"user_id":208,"name":"kwasny","steam_id":76561199033981024,"connected_time":3631000000000,"state":"active","ping":59},{"user_id":209,"name":"Marky","steam_id":76561199474556920,"connected_time":3590000000000,"state":"active","ping":123},{"user_id":262,"name":"dog","steam_id":76561198063919822,"connected_time":12000000000,"state":"active","ping":107},{"user_id":223,"name":"disc0rd","steam_id":76561197985965776,"connected_time":2977000000000,"state":"active","ping":64},{"user_id":224,"name":"1 toke 4 mars bars","steam_id":76561198056460000,"connected_time":2923000000000,"state":"active","ping":50}]},{"server_id":22,"name":"Uncletopia | London | 6 | All Maps","name_short":"lon-6","host":"lon-1.uk.uncletopia.com","port":27065,"enabled":true,"region":"eu","cc":"gb","latitude":51.509865,"longitude":-0.118092,"reserved":0,"last_update":"0001-01-01T00:00:00Z","name_a2s":"Uncletopia | London | 6 | All Maps","protocol":17,"map":"pl_badwater","folder":"tf","game":"Team Fortress","app_id":440,"player_count":24,"max_players":24,"Bots":0,"server_type":"Dedicated","server_os":"Linux","password":true,"vac":true,"version":"7882260","steam_id":85568392924742830,"keywords":["nocrits","nodmgspread","payload","uncletopia"],"game_id":440,"stv_port":27066,"stv_name":"Uncletopia | London | 6 | All Maps | STV","players":[{"user_id":252,"name":"Charmedelf","steam_id":76561197993611881,"connected_time":1435000000000,"state":"active","ping":50},{"user_id":262,"name":"Wuffington","steam_id":76561198033762881,"connected_time":764000000000,"state":"active","ping":45},{"user_id":259,"name":"negrus maximus","steam_id":76561198170085597,"connected_time":1052000000000,"state":"active","ping":70},{"user_id":260,"name":"Locked in the bathroom","steam_id":76561198206394503,"connected_time":867000000000,"state":"active","ping":146},{"user_id":266,"name":"Anzu","steam_id":76561198043953503,"connected_time":390000000000,"state":"active","ping":87},{"user_id":263,"name":"axl#pizdaaim","steam_id":76561198991661832,"connected_time":717000000000,"state":"active","ping":91},{"user_id":204,"name":"Miles","steam_id":76561198084891833,"connected_time":3990000000000,"state":"active","ping":31},{"user_id":240,"name":"richard emanuel","steam_id":76561198048530109,"connected_time":2125000000000,"state":"active","ping":71},{"user_id":249,"name":"I drink 3D printer ink","steam_id":76561198056434693,"connected_time":1543000000000,"state":"active","ping":60},{"user_id":255,"name":"Thadortin","steam_id":76561197995153638,"connected_time":1261000000000,"state":"active","ping":53},{"user_id":267,"name":"Ivan","steam_id":76561199003103529,"connected_time":301000000000,"state":"active","ping":110},{"user_id":264,"name":"scrumpie","steam_id":76561198998117538,"connected_time":689000000000,"state":"active","ping":152},{"user_id":268,"name":"NonoMan","steam_id":76561199108216979,"connected_time":261000000000,"state":"active","ping":79},{"user_id":269,"name":"Wardruna96","steam_id":76561199057083828,"connected_time":259000000000,"state":"active","ping":90},{"user_id":237,"name":"James","steam_id":76561198138558005,"connected_time":2214000000000,"state":"active","ping":51},{"user_id":239,"name":"pepper","steam_id":76561198059782462,"connected_time":2174000000000,"state":"active","ping":60},{"user_id":229,"name":"Dolcelatte","steam_id":76561198038501770,"connected_time":2444000000000,"state":"active","ping":71},{"user_id":235,"name":"r06u3","steam_id":76561198254099253,"connected_time":2359000000000,"state":"active","ping":173},{"user_id":270,"name":"gaz","steam_id":76561198843714742,"connected_time":214000000000,"state":"active","ping":88},{"user_id":227,"name":"Cheesy Weenie","steam_id":76561198332060606,"connected_time":2782000000000,"state":"active","ping":85},{"user_id":241,"name":"OwObigbro","steam_id":76561199029465491,"connected_time":2117000000000,"state":"active","ping":171},{"user_id":244,"name":"smile","steam_id":76561198365841841,"connected_time":1858000000000,"state":"active","ping":71},{"user_id":258,"name":"nutlube","steam_id":76561198128831131,"connected_time":1171000000000,"state":"active","ping":57},{"user_id":271,"name":"holykyckling","steam_id":76561198040661615,"connected_time":209000000000,"state":"active","ping":89}]},{"server_id":40,"name":"Uncletopia | London | 7 | No Payload","name_short":"lon-7","host":"lon-1.uk.uncletopia.com","port":27075,"enabled":true,"region":"eu","cc":"gb","latitude":51.509865,"longitude":-0.118092,"reserved":0,"last_update":"0001-01-01T00:00:00Z","name_a2s":"Uncletopia | London | 7 | No Payload","protocol":17,"map":"cp_process_final","folder":"tf","game":"Team Fortress","app_id":440,"player_count":24,"max_players":24,"Bots":0,"server_type":"Dedicated","server_os":"Linux","password":true,"vac":true,"version":"7882260","steam_id":85568392924964314,"keywords":["cp","nocrits","nodmgspread","uncletopia"],"game_id":440,"stv_port":27076,"stv_name":"Uncletopia | London | 7 | No Payload | STV","players":[{"user_id":185,"name":"lemon pasta","steam_id":76561198233429440,"connected_time":529000000000,"state":"active","ping":69},{"user_id":138,"name":"Fat Pigeon","steam_id":76561198817940142,"connected_time":3183000000000,"state":"active","ping":45},{"user_id":167,"name":"Tesla","steam_id":76561198378649144,"connected_time":1944000000000,"state":"active","ping":68},{"user_id":189,"name":"Frosty","steam_id":76561199055987798,"connected_time":238000000000,"state":"active","ping":67},{"user_id":106,"name":"Garoiop","steam_id":76561198082326459,"connected_time":5783000000000,"state":"active","ping":34},{"user_id":184,"name":"EridaniTheKitsune","steam_id":76561199483545229,"connected_time":546000000000,"state":"active","ping":56},{"user_id":146,"name":"The tiniest boy","steam_id":76561198044165189,"connected_time":2654000000000,"state":"active","ping":75},{"user_id":187,"name":"coolman420","steam_id":76561199365454283,"connected_time":412000000000,"state":"active","ping":94},{"user_id":188,"name":"WolfmanCZ","steam_id":76561199157141414,"connected_time":266000000000,"state":"active","ping":75},{"user_id":175,"name":"GipsySorcerer","steam_id":76561198170020311,"connected_time":1169000000000,"state":"active","ping":80},{"user_id":178,"name":"Jollywolly","steam_id":76561198347427918,"connected_time":756000000000,"state":"active","ping":55},{"user_id":161,"name":"Flare","steam_id":76561198039098320,"connected_time":2351000000000,"state":"active","ping":47},{"user_id":190,"name":"Rin-Nakaret","steam_id":76561197971051188,"connected_time":173000000000,"state":"active","ping":58},{"user_id":179,"name":"mmm","steam_id":76561198231764164,"connected_time":752000000000,"state":"active","ping":61},{"user_id":172,"name":"Wattoz","steam_id":76561198127779511,"connected_time":1454000000000,"state":"active","ping":60},{"user_id":197,"name":"Sybille Sirky","steam_id":76561198082407725,"connected_time":87000000000,"state":"active","ping":47},{"user_id":192,"name":"KnugenIV","steam_id":76561198127091993,"connected_time":153000000000,"state":"active","ping":57},{"user_id":137,"name":"Providence","steam_id":76561198003920270,"connected_time":3263000000000,"state":"active","ping":70},{"user_id":193,"name":"Locker-Room Enjoyer","steam_id":76561199122613225,"connected_time":150000000000,"state":"active","ping":85},{"user_id":195,"name":"ultra lox","steam_id":76561199427318825,"connected_time":129000000000,"state":"active","ping":171},{"user_id":158,"name":"Edmost","steam_id":76561198090748165,"connected_time":2467000000000,"state":"active","ping":72},{"user_id":170,"name":"mt","steam_id":76561197961319303,"connected_time":1886000000000,"state":"active","ping":60},{"user_id":180,"name":"☞LaZe☜","steam_id":76561198202191400,"connected_time":747000000000,"state":"active","ping":53},{"user_id":196,"name":"Chromega","steam_id":76561199075307750,"connected_time":123000000000,"state":"active","ping":72}]},{"server_id":41,"name":"Uncletopia | London | 8 | Community","name_short":"lon-8","host":"lon-1.uk.uncletopia.com","port":27085,"enabled":true,"region":"eu","cc":"gb","latitude":51.509865,"longitude":-0.118092,"reserved":0,"last_update":"0001-01-01T00:00:00Z","name_a2s":"Uncletopia | London | 8 | Community","protocol":17,"map":"pl_swiftwater_final1","folder":"tf","game":"Team Fortress","app_id":440,"player_count":0,"max_players":24,"Bots":0,"server_type":"Dedicated","server_os":"Linux","password":true,"vac":true,"version":"7882260","steam_id":85568392924964315,"keywords":["nocrits","nodmgspread","payload","uncletopia"],"game_id":440,"stv_port":27086,"stv_name":"Uncletopia | London | 8 | Community | STV","players":null},{"server_id":300,"name":"Uncletopia | Montréal | 1 | All Maps","name_short":"mtl-1","host":"mtl-1.ca.uncletopia.com","port":27015,"enabled":true,"region":"us-east","cc":"ca","latitude":45.50889,"longitude":-73.56167,"reserved":0,"last_update":"0001-01-01T00:00:00Z","name_a2s":"Uncletopia | Montréal | 1 | All Maps","protocol":17,"map":"pl_snowycoast","folder":"tf","game":"Team Fortress","app_id":440,"player_count":0,"max_players":24,"Bots":0,"server_type":"Dedicated","server_os":"Linux","password":true,"vac":true,"version":"7882260","steam_id":85568392924500087,"keywords":["nocrits","nodmgspread","payload","uncletopia"],"game_id":440,"stv_port":27016,"stv_name":"Uncletopia | Montréal | 1 | All Maps | STV","players":null},{"server_id":301,"name":"Uncletopia | Montréal | 2 | All Maps","name_short":"mtl-2","host":"mtl-1.ca.uncletopia.com","port":27025,"enabled":true,"region":"us-east","cc":"ca","latitude":45.50889,"longitude":-73.56167,"reserved":0,"last_update":"0001-01-01T00:00:00Z","name_a2s":"Uncletopia | Montréal | 2 | All Maps","protocol":17,"map":"cp_sunshine","folder":"tf","game":"Team Fortress","app_id":440,"player_count":0,"max_players":24,"Bots":0,"server_type":"Dedicated","server_os":"Linux","password":true,"vac":true,"version":"7882260","steam_id":85568392924500088,"keywords":["cp","nocrits","nodmgspread","uncletopia"],"game_id":440,"stv_port":27026,"stv_name":"Uncletopia | Montréal | 2 | All Maps | STV","players":null},{"server_id":302,"name":"Uncletopia | Montréal | 3 | All Maps","name_short":"mtl-3","host":"mtl-1.ca.uncletopia.com","port":27035,"enabled":true,"region":"us-east","cc":"ca","latitude":45.50889,"longitude":-73.56167,"reserved":0,"last_update":"0001-01-01T00:00:00Z","name_a2s":"Uncletopia | Montréal | 3 | All Maps","protocol":17,"map":"pl_borneo","folder":"tf","game":"Team Fortress","app_id":440,"player_count":0,"max_players":24,"Bots":0,"server_type":"Dedicated","server_os":"Linux","password":true,"vac":true,"version":"7882260","steam_id":85568392924500089,"keywords":["nocrits","nodmgspread","payload","uncletopia"],"game_id":440,"stv_port":27036,"stv_name":"Uncletopia | Montréal | 3 | All Maps | STV","players":null},{"server_id":303,"name":"Uncletopia | Montréal | 4 | No Payload","name_short":"mtl-4","host":"mtl-1.ca.uncletopia.com","port":27045,"enabled":true,"region":"us-east","cc":"ca","latitude":45.50889,"longitude":-73.56167,"reserved":0,"last_update":"0001-01-01T00:00:00Z","name_a2s":"Uncletopia | Montréal | 4 | No Payload","protocol":17,"map":"cp_altitude","folder":"tf","game":"Team Fortress","app_id":440,"player_count":0,"max_players":24,"Bots":0,"server_type":"Dedicated","server_os":"Linux","password":true,"vac":true,"version":"7882260","steam_id":85568392924500090,"keywords":["cp","nocrits","nodmgspread","uncletopia"],"game_id":440,"stv_port":27046,"stv_name":"Uncletopia | Montréal | 4 | No Payload | STV","players":null},{"server_id":13,"name":"Uncletopia | New York City | 1 | All Maps","name_short":"nyc-1","host":"nyc-1.us.uncletopia.com","port":27015,"enabled":true,"region":"us-east","cc":"us","latitude":40.73061,"longitude":-73.93524,"reserved":0,"last_update":"0001-01-01T00:00:00Z","name_a2s":"Uncletopia | New York City | 1 | All Maps","protocol":17,"map":"pl_badwater","folder":"tf","game":"Team Fortress","app_id":440,"player_count":2,"max_players":24,"Bots":0,"server_type":"Dedicated","server_os":"Linux","password":true,"vac":true,"version":"7882260","steam_id":85568392924469993,"keywords":["nocrits","nodmgspread","payload","uncletopia"],"game_id":440,"stv_port":27016,"stv_name":"Uncletopia | New York City | 1 | All Maps | STV","players":[{"user_id":12,"name":"cool safe name","steam_id":76561198237827742,"connected_time":45000000000,"state":"active","ping":35},{"user_id":11,"name":"Baron von Whoopsie","steam_id":76561197996691013,"connected_time":657000000000,"state":"active","ping":64}]},{"server_id":14,"name":"Uncletopia | New York City | 2 | All Maps","name_short":"nyc-2","host":"nyc-1.us.uncletopia.com","port":27025,"enabled":true,"region":"us-east","cc":"us","latitude":40.73061,"longitude":-73.93524,"reserved":0,"last_update":"0001-01-01T00:00:00Z","name_a2s":"Uncletopia | New York City | 2 | All Maps","protocol":17,"map":"pl_pier","folder":"tf","game":"Team Fortress","app_id":440,"player_count":0,"max_players":24,"Bots":0,"server_type":"Dedicated","server_os":"Linux","password":true,"vac":true,"version":"7882260","steam_id":85568392924469994,"keywords":["nocrits","nodmgspread","payload","uncletopia"],"game_id":440,"stv_port":27026,"stv_name":"Uncletopia | New York City | 2 | All Maps | STV","players":null},{"server_id":15,"name":"Uncletopia | New York City | 3 | Stopwatch Beta","name_short":"nyc-3","host":"nyc-1.us.uncletopia.com","port":27035,"enabled":true,"region":"us-east","cc":"us","latitude":40.73061,"longitude":-73.93524,"reserved":0,"last_update":"0001-01-01T00:00:00Z","name_a2s":"Uncletopia | New York City | 3 | Stopwatch Beta","protocol":17,"map":"koth_lakeside_final","folder":"tf","game":"Team Fortress","app_id":440,"player_count":0,"max_players":24,"Bots":0,"server_type":"Dedicated","server_os":"Linux","password":true,"vac":true,"version":"7882260","steam_id":85568392924742820,"keywords":["cp","nocrits","nodmgspread","uncletopia"],"game_id":440,"stv_port":27036,"stv_name":"Uncletopia | New York City | 3 | Stopwatch Beta | STV","players":null},{"server_id":16,"name":"Uncletopia | New York City | 4 | Community","name_short":"nyc-4","host":"nyc-1.us.uncletopia.com","port":27045,"enabled":true,"region":"us-east","cc":"us","latitude":40.73061,"longitude":-73.93524,"reserved":0,"last_update":"0001-01-01T00:00:00Z","name_a2s":"Uncletopia | New York City | 4 | Community","protocol":17,"map":"workshop/koth_ramjam_rc1.ugc459778887","folder":"tf","game":"Team Fortress","app_id":440,"player_count":0,"max_players":24,"Bots":0,"server_type":"Dedicated","server_os":"Linux","password":true,"vac":true,"version":"7882260","steam_id":85568392924742821,"keywords":["cp","nocrits","nodmgspread","uncletopia"],"game_id":440,"stv_port":27046,"stv_name":"Uncletopia | New York City | 4 | Community | STV","players":null},{"server_id":142,"name":"Uncletopia | São Paulo | 1 | All Maps","name_short":"sao-1","host":"sao-1.br.uncletopia.com","port":27015,"enabled":true,"region":"sa","cc":"br","latitude":-23.533773,"longitude":-46.62529,"reserved":0,"last_update":"0001-01-01T00:00:00Z","name_a2s":"Uncletopia | São Paulo | 1 | All Maps","protocol":17,"map":"cp_process_final","folder":"tf","game":"Team Fortress","app_id":440,"player_count":0,"max_players":24,"Bots":0,"server_type":"Dedicated","server_os":"Linux","password":true,"vac":true,"version":"7882260","steam_id":85568392924469996,"keywords":["cp","nocrits","nodmgspread","uncletopia"],"game_id":440,"stv_port":27016,"stv_name":"Uncletopia | São Paulo | 1 | All Maps | STV","players":null},{"server_id":143,"name":"Uncletopia | São Paulo | 2 | All Maps","name_short":"sao-2","host":"sao-2.br.uncletopia.com","port":27015,"enabled":true,"region":"sa","cc":"br","latitude":-23.533773,"longitude":-46.62529,"reserved":0,"last_update":"0001-01-01T00:00:00Z","name_a2s":"Uncletopia | São Paulo | 2 | All Maps","protocol":17,"map":"cp_altitude","folder":"tf","game":"Team Fortress","app_id":440,"player_count":0,"max_players":24,"Bots":0,"server_type":"Dedicated","server_os":"Linux","password":true,"vac":true,"version":"7882260","steam_id":85568392924485349,"keywords":["cp","nocrits","nodmgspread","uncletopia"],"game_id":440,"stv_port":27016,"stv_name":"Uncletopia | São Paulo | 2 | All Maps | STV","players":null},{"server_id":7,"name":"Uncletopia | Seattle | 1 | All Maps","name_short":"sea-1","host":"sea-1.us.uncletopia.com","port":27015,"enabled":true,"region":"us-west","cc":"us","latitude":47.608013,"longitude":-122.33517,"reserved":0,"last_update":"0001-01-01T00:00:00Z","name_a2s":"Uncletopia | Seattle | 1 | All Maps","protocol":17,"map":"pl_snowycoast","folder":"tf","game":"Team Fortress","app_id":440,"player_count":21,"max_players":24,"Bots":0,"server_type":"Dedicated","server_os":"Linux","password":true,"vac":true,"version":"7882260","steam_id":85568392924469997,"keywords":["nocrits","nodmgspread","payload","uncletopia"],"game_id":440,"stv_port":27016,"stv_name":"Uncletopia | Seattle | 1 | All Maps | STV","players":[{"user_id":1048,"name":"River Rat","steam_id":76561198116383976,"connected_time":8387000000000,"state":"active","ping":68},{"user_id":1100,"name":"Xx_Monty2k_xX","steam_id":76561198346070981,"connected_time":3726000000000,"state":"active","ping":102},{"user_id":1136,"name":"Tyler\u0026Fingers","steam_id":76561198085154485,"connected_time":302000000000,"state":"active","ping":134},{"user_id":1137,"name":"rock n roll mcdonalds","steam_id":76561198332704108,"connected_time":287000000000,"state":"active","ping":105},{"user_id":1099,"name":"lycoris","steam_id":76561199113965768,"connected_time":3848000000000,"state":"active","ping":133},{"user_id":1125,"name":"Zetta","steam_id":76561198045710113,"connected_time":1309000000000,"state":"active","ping":99},{"user_id":1132,"name":"Yoyo","steam_id":76561199122577289,"connected_time":622000000000,"state":"active","ping":118},{"user_id":1106,"name":"Anna 💛 ","steam_id":76561198009198502,"connected_time":3205000000000,"state":"active","ping":121},{"user_id":1115,"name":"MrChaosOK","steam_id":76561197976353083,"connected_time":2548000000000,"state":"active","ping":78},{"user_id":1127,"name":"Viokik","steam_id":76561198408846602,"connected_time":1092000000000,"state":"active","ping":112},{"user_id":1126,"name":"fear","steam_id":76561198063170079,"connected_time":1157000000000,"state":"active","ping":118},{"user_id":1107,"name":"Testiclitz Penischmidt","steam_id":76561198050582941,"connected_time":3199000000000,"state":"active","ping":105},{"user_id":1134,"name":"Solo Hunter Bruce","steam_id":76561198075536519,"connected_time":593000000000,"state":"active","ping":59},{"user_id":1030,"name":"Soda","steam_id":76561198219209367,"connected_time":10144000000000,"state":"active","ping":57},{"user_id":1135,"name":"Mungo","steam_id":76561198169447702,"connected_time":534000000000,"state":"active","ping":72},{"user_id":1047,"name":":o:","steam_id":76561198206752128,"connected_time":8804000000000,"state":"active","ping":149},{"user_id":1120,"name":"ursa","steam_id":76561198025394298,"connected_time":1610000000000,"state":"active","ping":105},{"user_id":1138,"name":"dust | she/it","steam_id":76561198045218909,"connected_time":252000000000,"state":"active","ping":44},{"user_id":1112,"name":"brea?","steam_id":76561198025130409,"connected_time":2917000000000,"state":"active","ping":106},{"user_id":864,"name":"Level 99 Mudcrab","steam_id":76561198077452771,"connected_time":23666000000000,"state":"active","ping":52},{"user_id":1129,"name":"Minerva Amadon","steam_id":76561198138543341,"connected_time":957000000000,"state":"active","ping":93}]},{"server_id":119,"name":"Uncletopia | Seattle | 2 | All Maps","name_short":"sea-2","host":"sea-1.us.uncletopia.com","port":27025,"enabled":true,"region":"us-west","cc":"us","latitude":47.608013,"longitude":-122.33517,"reserved":0,"last_update":"0001-01-01T00:00:00Z","name_a2s":"Uncletopia | Seattle | 2 | All Maps","protocol":17,"map":"koth_viaduct","folder":"tf","game":"Team Fortress","app_id":440,"player_count":14,"max_players":24,"Bots":0,"server_type":"Dedicated","server_os":"Linux","password":true,"vac":true,"version":"7882260","steam_id":85568392924469998,"keywords":["cp","nocrits","nodmgspread","uncletopia"],"game_id":440,"stv_port":27026,"stv_name":"Uncletopia | Seattle | 2 | All Maps | STV","players":[{"user_id":799,"name":"Samuel.Rodrigues2012","steam_id":76561198247620392,"connected_time":4866000000000,"state":"active","ping":111},{"user_id":800,"name":"Gonotic gnelf","steam_id":76561199135847219,"connected_time":4695000000000,"state":"active","ping":84},{"user_id":818,"name":"Winter the Witchie","steam_id":76561198151971178,"connected_time":3817000000000,"state":"active","ping":99},{"user_id":844,"name":"LeRoy42","steam_id":76561198035591428,"connected_time":737000000000,"state":"active","ping":116},{"user_id":849,"name":"\u003e:3","steam_id":76561198068586634,"connected_time":376000000000,"state":"active","ping":95},{"user_id":832,"name":"Rain","steam_id":76561198065612273,"connected_time":1817000000000,"state":"active","ping":45},{"user_id":784,"name":"caninable","steam_id":76561198124240407,"connected_time":6842000000000,"state":"active","ping":54},{"user_id":828,"name":"NAHBUTLIKE???","steam_id":76561199471794973,"connected_time":2522000000000,"state":"active","ping":77},{"user_id":767,"name":"bobbymcbobington","steam_id":76561199089411172,"connected_time":7846000000000,"state":"active","ping":164},{"user_id":850,"name":"Unamused Kobayashi Enjoyer","steam_id":76561198024002274,"connected_time":326000000000,"state":"active","ping":125},{"user_id":839,"name":"Luigi Jackson","steam_id":76561198267877246,"connected_time":821000000000,"state":"active","ping":115},{"user_id":816,"name":"toilet thief","steam_id":76561198057486874,"connected_time":3934000000000,"state":"active","ping":70},{"user_id":831,"name":"WhippedHook","steam_id":76561198069581138,"connected_time":1950000000000,"state":"active","ping":115},{"user_id":847,"name":"alexiotron","steam_id":76561199082573729,"connected_time":647000000000,"state":"active","ping":122}]},{"server_id":406,"name":"Uncletopia | Seattle | 3 | Stopwatch Beta","name_short":"sea-3","host":"sea-1.us.uncletopia.com","port":27035,"enabled":true,"region":"us-west","cc":"us","latitude":47.608013,"longitude":-122.33517,"reserved":0,"last_update":"0001-01-01T00:00:00Z","name_a2s":"Uncletopia | Seattle | 3 | Stopwatch Beta","protocol":17,"map":"workshop/koth_ramjam_rc1.ugc459778887","folder":"tf","game":"Team Fortress","app_id":440,"player_count":0,"max_players":24,"Bots":0,"server_type":"Dedicated","server_os":"Linux","password":true,"vac":true,"version":"7882260","steam_id":85568392924515217,"keywords":["cp","nocrits","nodmgspread","uncletopia"],"game_id":440,"stv_port":27036,"stv_name":"Uncletopia | Seattle | 3 | Stopwatch Beta | STV","players":null},{"server_id":17,"name":"Uncletopia | San Francisco | 1 | All Maps","name_short":"sfo-1","host":"sfo-1.us.uncletopia.com","port":27015,"enabled":true,"region":"us-west","cc":"us","latitude":37.77397,"longitude":-122.4313,"reserved":0,"last_update":"0001-01-01T00:00:00Z","name_a2s":"Uncletopia | San Francisco | 1 | All Maps","protocol":17,"map":"cp_process_final","folder":"tf","game":"Team Fortress","app_id":440,"player_count":0,"max_players":24,"Bots":0,"server_type":"Dedicated","server_os":"Linux","password":true,"vac":true,"version":"7757534","steam_id":85568392924469999,"keywords":["cp","nocrits","nodmgspread","uncletopia"],"game_id":440,"stv_port":27016,"stv_name":"Uncletopia | San Francisco | 1 | All Maps | STV","players":null},{"server_id":18,"name":"Uncletopia | San Francisco | 2 | All Maps","name_short":"sfo-2","host":"sfo-1.us.uncletopia.com","port":27025,"enabled":true,"region":"us-west","cc":"us","latitude":37.77397,"longitude":-122.4313,"reserved":0,"last_update":"0001-01-01T00:00:00Z","name_a2s":"Uncletopia | San Francisco | 2 | All Maps","protocol":17,"map":"koth_highpass","folder":"tf","game":"Team Fortress","app_id":440,"player_count":0,"max_players":24,"Bots":0,"server_type":"Dedicated","server_os":"Linux","password":true,"vac":true,"version":"7757534","steam_id":85568392924470000,"keywords":["cp","nocrits","nodmgspread","uncletopia"],"game_id":440,"stv_port":27026,"stv_name":"Uncletopia | San Francisco | 2 | All Maps | STV","players":null},{"server_id":19,"name":"Uncletopia | San Francisco | 3 | Stopwatch Beta","name_short":"sfo-3","host":"sfo-1.us.uncletopia.com","port":27035,"enabled":true,"region":"us-west","cc":"us","latitude":37.77397,"longitude":-122.4313,"reserved":0,"last_update":"0001-01-01T00:00:00Z","name_a2s":"Uncletopia | San Francisco | 3 | Stopwatch Beta","protocol":17,"map":"koth_lakeside_final","folder":"tf","game":"Team Fortress","app_id":440,"player_count":0,"max_players":24,"Bots":0,"server_type":"Dedicated","server_os":"Linux","password":true,"vac":true,"version":"7757534","steam_id":85568392924742824,"keywords":["cp","nocrits","nodmgspread","uncletopia"],"game_id":440,"stv_port":27036,"stv_name":"Uncletopia | San Francisco | 3 | Stopwatch Beta | STV","players":null},{"server_id":20,"name":"Uncletopia | San Francisco | 4 | Community","name_short":"sfo-4","host":"sfo-1.us.uncletopia.com","port":27045,"enabled":true,"region":"us-west","cc":"us","latitude":37.77397,"longitude":-122.4313,"reserved":0,"last_update":"0001-01-01T00:00:00Z","name_a2s":"Uncletopia | San Francisco | 4 | Community","protocol":17,"map":"cp_altitude","folder":"tf","game":"Team Fortress","app_id":440,"player_count":0,"max_players":24,"Bots":0,"server_type":"Dedicated","server_os":"Linux","password":true,"vac":true,"version":"7757534","steam_id":85568392924742826,"keywords":["cp","nocrits","nodmgspread","uncletopia"],"game_id":440,"stv_port":27046,"stv_name":"Uncletopia | San Francisco | 4 | Community | STV","players":null},{"server_id":141,"name":"Uncletopia | Sydney | 1 | All Maps","name_short":"syd-1","host":"syd-1.au.uncletopia.com","port":27015,"enabled":true,"region":"au","cc":"au","latitude":-33.865143,"longitude":151.2099,"reserved":0,"last_update":"0001-01-01T00:00:00Z","name_a2s":"Uncletopia | Sydney | 1 | All Maps","protocol":17,"map":"pl_barnblitz","folder":"tf","game":"Team Fortress","app_id":440,"player_count":0,"max_players":24,"Bots":0,"server_type":"Dedicated","server_os":"Linux","password":true,"vac":true,"version":"7882260","steam_id":85568392924470001,"keywords":["nocrits","nodmgspread","payload","uncletopia"],"game_id":440,"stv_port":27016,"stv_name":"Uncletopia | Sydney | 1 | All Maps | STV","players":null},{"server_id":123,"name":"Uncletopia | Sydney | 2 | All Maps","name_short":"syd-2","host":"syd-1.au.uncletopia.com","port":27025,"enabled":true,"region":"au","cc":"au","latitude":-33.865143,"longitude":151.2099,"reserved":0,"last_update":"0001-01-01T00:00:00Z","name_a2s":"Uncletopia | Sydney | 2 | All Maps","protocol":17,"map":"pl_barnblitz","folder":"tf","game":"Team Fortress","app_id":440,"player_count":23,"max_players":24,"Bots":0,"server_type":"Dedicated","server_os":"Linux","password":true,"vac":true,"version":"7882260","steam_id":85568392924470002,"keywords":["nocrits","nodmgspread","payload","uncletopia"],"game_id":440,"stv_port":27026,"stv_name":"Uncletopia | Sydney | 2 | All Maps | STV","players":[{"user_id":631,"name":"tom :D","steam_id":76561198073393715,"connected_time":946000000000,"state":"active","ping":115},{"user_id":596,"name":"little raw meat boy","steam_id":76561199248254676,"connected_time":4805000000000,"state":"active","ping":59},{"user_id":627,"name":"Louis","steam_id":76561198013395847,"connected_time":1746000000000,"state":"active","ping":53},{"user_id":575,"name":"Gnat","steam_id":76561198109747863,"connected_time":7468000000000,"state":"active","ping":98},{"user_id":638,"name":"Grantymunk","steam_id":76561198051439179,"connected_time":116000000000,"state":"active","ping":73},{"user_id":434,"name":"Apteryx","steam_id":76561197976460834,"connected_time":16388000000000,"state":"active","ping":64},{"user_id":435,"name":"Corrupt","steam_id":76561198008567328,"connected_time":16350000000000,"state":"active","ping":66},{"user_id":566,"name":"voxii","steam_id":76561198099698281,"connected_time":7560000000000,"state":"active","ping":66},{"user_id":639,"name":"sending my Gerrards","steam_id":76561198301282416,"connected_time":115000000000,"state":"active","ping":57},{"user_id":640,"name":"[TÐK] KeRpaL","steam_id":76561197974427061,"connected_time":84000000000,"state":"active","ping":60},{"user_id":636,"name":"biff","steam_id":76561198069603865,"connected_time":382000000000,"state":"active","ping":53},{"user_id":637,"name":"toblue","steam_id":76561198189137465,"connected_time":203000000000,"state":"active","ping":83},{"user_id":620,"name":"I'm craving tinned peaches","steam_id":76561198069941287,"connected_time":2326000000000,"state":"active","ping":89},{"user_id":590,"name":"Fyre Rose","steam_id":76561198000527551,"connected_time":6020000000000,"state":"active","ping":67},{"user_id":629,"name":"soupy","steam_id":76561198073734936,"connected_time":1726000000000,"state":"active","ping":90},{"user_id":632,"name":"pseudidon","steam_id":76561199081848498,"connected_time":750000000000,"state":"active","ping":54},{"user_id":607,"name":"Captain Canadia","steam_id":76561198167967735,"connected_time":3359000000000,"state":"active","ping":49},{"user_id":622,"name":"GunMan","steam_id":76561199394159452,"connected_time":2307000000000,"state":"active","ping":62},{"user_id":608,"name":"LightningBlock","steam_id":76561198289997742,"connected_time":3086000000000,"state":"active","ping":31},{"user_id":628,"name":"Pug","steam_id":76561198136794372,"connected_time":1745000000000,"state":"active","ping":54},{"user_id":624,"name":"Kremmen","steam_id":76561198051368641,"connected_time":2288000000000,"state":"active","ping":71},{"user_id":633,"name":"Weak","steam_id":76561198161322716,"connected_time":545000000000,"state":"active","ping":64},{"user_id":635,"name":"Pompadouraus","steam_id":76561198327530525,"connected_time":515000000000,"state":"active","ping":75}]},{"server_id":395,"name":"Uncletopia | Sydney | 3 | All Maps","name_short":"syd-3","host":"syd-1.au.uncletopia.com","port":27035,"enabled":true,"region":"au","cc":"au","latitude":-33.865143,"longitude":151.2099,"reserved":0,"last_update":"0001-01-01T00:00:00Z","name_a2s":"Uncletopia | Sydney | 3 | All Maps","protocol":17,"map":"cp_altitude","folder":"tf","game":"Team Fortress","app_id":440,"player_count":0,"max_players":24,"Bots":0,"server_type":"Dedicated","server_os":"Linux","password":true,"vac":true,"version":"7882260","steam_id":85568392925194467,"keywords":["cp","nocrits","nodmgspread","uncletopia"],"game_id":440,"stv_port":27036,"stv_name":"Uncletopia | Sydney | 3 | All Maps | STV","players":null},{"server_id":396,"name":"Uncletopia | Sydney | 4 | All Maps","name_short":"syd-4","host":"syd-1.au.uncletopia.com","port":27045,"enabled":true,"region":"au","cc":"au","latitude":-33.865143,"longitude":151.2099,"reserved":0,"last_update":"0001-01-01T00:00:00Z","name_a2s":"Uncletopia | Sydney | 4 | All Maps","protocol":17,"map":"koth_viaduct","folder":"tf","game":"Team Fortress","app_id":440,"player_count":0,"max_players":24,"Bots":0,"server_type":"Dedicated","server_os":"Linux","password":true,"vac":true,"version":"7882260","steam_id":85568392925397958,"keywords":["cp","nocrits","nodmgspread","uncletopia"],"game_id":440,"stv_port":27046,"stv_name":"Uncletopia | Sydney | 4 | All Maps | STV","players":null},{"server_id":58,"name":"Uncletopia | Sydney | 5 | Stopwatch Beta","name_short":"syd-5","host":"syd-1.au.uncletopia.com","port":27055,"enabled":true,"region":"au","cc":"au","latitude":-33.865143,"longitude":151.2099,"reserved":0,"last_update":"0001-01-01T00:00:00Z","name_a2s":"Uncletopia | Sydney | 5 | Stopwatch Beta","protocol":17,"map":"cp_snakewater_final1","folder":"tf","game":"Team Fortress","app_id":440,"player_count":0,"max_players":24,"Bots":0,"server_type":"Dedicated","server_os":"Linux","password":true,"vac":true,"version":"7882260","steam_id":85568392925397959,"keywords":["cp","nocrits","nodmgspread","uncletopia"],"game_id":440,"stv_port":27056,"stv_name":"Uncletopia | Sydney | 5 | Stopwatch Beta | STV","players":null},{"server_id":59,"name":"Uncletopia | Sydney | 6 | Community","name_short":"syd-6","host":"syd-1.au.uncletopia.com","port":27065,"enabled":true,"region":"au","cc":"au","latitude":-33.865143,"longitude":151.2099,"reserved":0,"last_update":"0001-01-01T00:00:00Z","name_a2s":"Uncletopia | Sydney | 6 | Community","protocol":17,"map":"workshop/koth_product_final.ugc454272353","folder":"tf","game":"Team Fortress","app_id":440,"player_count":0,"max_players":24,"Bots":0,"server_type":"Dedicated","server_os":"Linux","password":true,"vac":true,"version":"7882260","steam_id":85568392925397960,"keywords":["cp","nocrits","nodmgspread","uncletopia"],"game_id":440,"stv_port":27066,"stv_name":"Uncletopia | Sydney | 6 | Community | STV","players":null},{"server_id":49,"name":"Uncletopia | Warsaw | 1 | All Maps","name_short":"waw-1","host":"waw-1.pl.uncletopia.com","port":27015,"enabled":true,"region":"eu","cc":"pl","latitude":52.2297,"longitude":21.017532,"reserved":0,"last_update":"0001-01-01T00:00:00Z","name_a2s":"","protocol":0,"map":"","folder":"","game":"","app_id":0,"player_count":0,"max_players":0,"Bots":0,"server_type":"","server_os":"","password":false,"vac":false,"version":"","steam_id":0,"keywords":null,"game_id":0,"stv_port":0,"stv_name":"","players":null},{"server_id":50,"name":"Uncletopia | Warsaw | 2 | All Maps","name_short":"waw-2","host":"waw-1.pl.uncletopia.com","port":27025,"enabled":true,"region":"eu","cc":"pl","latitude":52.2297,"longitude":21.017532,"reserved":0,"last_update":"0001-01-01T00:00:00Z","name_a2s":"Uncletopia | Warsaw | 2 | All Maps","protocol":17,"map":"koth_highpass","folder":"tf","game":"Team Fortress","app_id":440,"player_count":0,"max_players":24,"Bots":0,"server_type":"Dedicated","server_os":"Linux","password":true,"vac":true,"version":"7882260","steam_id":85568392925397851,"keywords":["cp","nocrits","nodmgspread","uncletopia"],"game_id":440,"stv_port":27026,"stv_name":"Uncletopia | Warsaw | 2 | All Maps | STV","players":null},{"server_id":51,"name":"Uncletopia | Warsaw | 3 | All Maps","name_short":"waw-3","host":"waw-1.pl.uncletopia.com","port":27035,"enabled":true,"region":"eu","cc":"pl","latitude":52.2297,"longitude":21.017532,"reserved":0,"last_update":"0001-01-01T00:00:00Z","name_a2s":"Uncletopia | Warsaw | 3 | All Maps","protocol":17,"map":"koth_viaduct","folder":"tf","game":"Team Fortress","app_id":440,"player_count":0,"max_players":24,"Bots":0,"server_type":"Dedicated","server_os":"Linux","password":true,"vac":true,"version":"7882260","steam_id":85568392925397852,"keywords":["cp","nocrits","nodmgspread","uncletopia"],"game_id":440,"stv_port":27036,"stv_name":"Uncletopia | Warsaw | 3 | All Maps | STV","players":null},{"server_id":52,"name":"Uncletopia | Warsaw | 4 | All Maps","name_short":"waw-4","host":"waw-1.pl.uncletopia.com","port":27045,"enabled":true,"region":"eu","cc":"pl","latitude":52.2297,"longitude":21.017532,"reserved":0,"last_update":"0001-01-01T00:00:00Z","name_a2s":"Uncletopia | Warsaw | 4 | All Maps","protocol":17,"map":"koth_highpass","folder":"tf","game":"Team Fortress","app_id":440,"player_count":2,"max_players":24,"Bots":0,"server_type":"Dedicated","server_os":"Linux","password":true,"vac":true,"version":"7882260","steam_id":85568392925397853,"keywords":["cp","nocrits","nodmgspread","uncletopia"],"game_id":440,"stv_port":27046,"stv_name":"Uncletopia | Warsaw | 4 | All Maps | STV","players":[{"user_id":4,"name":"Обсидиан","steam_id":76561198410978891,"connected_time":687000000000,"state":"active","ping":119},{"user_id":5,"name":"Jackie Chan","steam_id":76561199378865926,"connected_time":660000000000,"state":"active","ping":103}]},{"server_id":53,"name":"Uncletopia | Warsaw | 5 | Stopwatch Beta","name_short":"waw-5","host":"waw-1.pl.uncletopia.com","port":27055,"enabled":true,"region":"eu","cc":"pl","latitude":52.2297,"longitude":21.017532,"reserved":0,"last_update":"0001-01-01T00:00:00Z","name_a2s":"Uncletopia | Warsaw | 5 | Stopwatch Beta","protocol":17,"map":"cp_gullywash_final1","folder":"tf","game":"Team Fortress","app_id":440,"player_count":0,"max_players":24,"Bots":0,"server_type":"Dedicated","server_os":"Linux","password":true,"vac":true,"version":"7882260","steam_id":85568392925397854,"keywords":["cp","nocrits","nodmgspread","uncletopia"],"game_id":440,"stv_port":27056,"stv_name":"Uncletopia | Warsaw | 5 | Stopwatch Beta | STV","players":null},{"server_id":54,"name":"Uncletopia | Warsaw | 6 | Community","name_short":"waw-6","host":"waw-1.pl.uncletopia.com","port":27065,"enabled":true,"region":"eu","cc":"pl","latitude":52.2297,"longitude":21.017532,"reserved":0,"last_update":"0001-01-01T00:00:00Z","name_a2s":"Uncletopia | Warsaw | 6 | Community","protocol":17,"map":"koth_viaduct","folder":"tf","game":"Team Fortress","app_id":440,"player_count":0,"max_players":24,"Bots":0,"server_type":"Dedicated","server_os":"Linux","password":true,"vac":true,"version":"7882260","steam_id":85568392925397856,"keywords":["cp","nocrits","nodmgspread","uncletopia"],"game_id":440,"stv_port":27066,"stv_name":"Uncletopia | Warsaw | 6 | Community | STV","players":null}]}