{"status":true,"message":"","result":[{"server_id":9,"name":"Uncletopia | Atlanta | 1 | All Maps","name_short":"atl-1","host":"atl-1.us.uncletopia.com","port":27015,"enabled":true,"region":"us-east","cc":"us","latitude":33.753746,"longitude":-84.38633,"reserved":0,"last_update":"0001-01-01T00:00:00Z","name_a2s":"Uncletopia | Atlanta | 1 | All Maps","protocol":17,"map":"koth_viaduct","folder":"tf","game":"Team Fortress","app_id":440,"player_count":0,"max_players":24,"Bots":0,"server_type":"Dedicated","server_os":"Linux","password":true,"vac":true,"version":"7742253","steam_id":85568392924469982,"keywords":["cp","nocrits","nodmgspread","uncletopia"],"game_id":440,"stv_port":27016,"stv_name":"Uncletopia | Atlanta | 1 | All Maps | STV","players":null},{"server_id":400,"name":"Uncletopia | Atlanta | 3 | Stopwatch Beta","name_short":"atl-3","host":"atl-1.us.uncletopia.com","port":27035,"enabled":true,"region":"us-east","cc":"us","latitude":33.753746,"longitude":-84.38633,"reserved":0,"last_update":"0001-01-01T00:00:00Z","name_a2s":"Uncletopia | Atlanta | 3 | Stopwatch Beta","protocol":17,"map":"pl_pier","folder":"tf","game":"Team Fortress","app_id":440,"player_count":0,"max_players":24,"Bots":0,"server_type":"Dedicated","server_os":"Linux","password":true,"vac":true,"version":"7742253","steam_id":85568392924515187,"keywords":["nocrits","nodmgspread","payload","uncletopia"],"game_id":440,"stv_port":27036,"stv_name":"Uncletopia | Atlanta | 3 | Stopwatch Beta | STV","players":null},{"server_id":401,"name":"Uncletopia | Atlanta | 4 | No Payload","name_short":"atl-4","host":"atl-1.us.uncletopia.com","port":27045,"enabled":true,"region":"us-east","cc":"us","latitude":33.753746,"longitude":-84.38633,"reserved":0,"last_update":"0001-01-01T00:00:00Z","name_a2s":"Uncletopia | Atlanta | 4 | No Payload","protocol":17,"map":"pl_pier","folder":"tf","game":"Team Fortress","app_id":440,"player_count":0,"max_players":24,"Bots":0,"server_type":"Dedicated","server_os":"Linux","password":true,"vac":true,"version":"7723704","steam_id":85568392924515188,"keywords":["nocrits","nodmgspread","payload","uncletopia"],"game_id":440,"stv_port":27046,"stv_name":"Uncletopia | Atlanta | 4 | No Payload | STV","players":null},{"server_id":2,"name":"Uncletopia | Chicago | 1 | All Maps","name_short":"chi-1","host":"chi-1.us.uncletopia.com","port":27015,"enabled":true,"region":"us-central","cc":"us","latitude":41.881832,"longitude":-87.62318,"reserved":0,"last_update":"0001-01-01T00:00:00Z","name_a2s":"Uncletopia | Chicago | 1 | All Maps","protocol":17,"map":"pl_snowycoast","folder":"tf","game":"Team Fortress","app_id":440,"player_count":24,"max_players":24,"Bots":0,"server_type":"Dedicated","server_os":"Linux","password":true,"vac":true,"version":"7742253","steam_id":85568392924469984,"keywords":["nocrits","nodmgspread","payload","uncletopia"],"game_id":440,"stv_port":27016,"stv_name":"Uncletopia | Chicago | 1 | All Maps | STV","players":[{"user_id":84,"name":"Smig","steam_id":76561198408846602,"connected_time":1811000000000,"state":"active","ping":61},{"user_id":85,"name":"Reckless Klondike","steam_id":76561198060904416,"connected_time":1759000000000,"state":"active","ping":70},{"user_id":5,"name":"Milk","steam_id":76561198004362373,"connected_time":6685000000000,"state":"active","ping":63},{"user_id":6,"name":"Eden","steam_id":76561198075587475,"connected_time":6679000000000,"state":"active","ping":47},{"user_id":89,"name":"dan","steam_id":76561197984998426,"connected_time":1321000000000,"state":"active","ping":90},{"user_id":79,"name":"Batman Grant Williams","steam_id":76561198115458307,"connected_time":2278000000000,"state":"active","ping":105},{"user_id":90,"name":"dingus","steam_id":76561198190077399,"connected_time":1209000000000,"state":"active","ping":60},{"user_id":87,"name":"RelatableiLLness","steam_id":76561198441669772,"connected_time":1537000000000,"state":"active","ping":86},{"user_id":80,"name":"AlaNo","steam_id":76561198133099582,"connected_time":2252000000000,"state":"active","ping":106},{"user_id":91,"name":"Floorbo","steam_id":76561198271965324,"connected_time":1208000000000,"state":"active","ping":80},{"user_id":98,"name":"nnobi","steam_id":76561198878729277,"connected_time":201000000000,"state":"active","ping":81},{"user_id":54,"name":"catface","steam_id":76561198096347625,"connected_time":3850000000000,"state":"active","ping":90},{"user_id":58,"name":"Sad Sapling","steam_id":76561198075612150,"connected_time":3639000000000,"state":"active","ping":109},{"user_id":94,"name":"cum whitens teeth like colgate","steam_id":76561198986534519,"connected_time":365000000000,"state":"active","ping":92},{"user_id":25,"name":"Elena Manetta","steam_id":76561197998344054,"connected_time":6044000000000,"state":"active","ping":54},{"user_id":99,"name":"Red","steam_id":76561197998285162,"connected_time":200000000000,"state":"active","ping":84},{"user_id":88,"name":"srv","steam_id":76561198026589960,"connected_time":1537000000000,"state":"active","ping":46},{"user_id":59,"name":"Zorlovo","steam_id":76561198006443283,"connected_time":3634000000000,"state":"active","ping":106},{"user_id":72,"name":"jumbo shrimp","steam_id":76561199085931379,"connected_time":2776000000000,"state":"active","ping":72},{"user_id":66,"name":"catface brother","steam_id":76561198068265379,"connected_time":3153000000000,"state":"active","ping":98},{"user_id":100,"name":"u/unhinged_person","steam_id":76561198085839920,"connected_time":198000000000,"state":"active","ping":91},{"user_id":64,"name":"Seele","steam_id":76561198067833803,"connected_time":3317000000000,"state":"active","ping":64},{"user_id":76,"name":"‚ù§Graphite Muncher‚ù§","steam_id":76561199200969139,"connected_time":2453000000000,"state":"active","ping":76},{"user_id":97,"name":"mechiimi ‚òÖ","steam_id":76561198321627268,"connected_time":356000000000,"state":"active","ping":139}]},{"server_id":106,"name":"Uncletopia | Chicago | 2 | All Maps","name_short":"chi-2","host":"chi-1.us.uncletopia.com","port":27025,"enabled":true,"region":"us-central","cc":"us","latitude":41.881832,"longitude":-87.62318,"reserved":0,"last_update":"0001-01-01T00:00:00Z","name_a2s":"Uncletopia | Chicago | 2 | All Maps","protocol":17,"map":"pl_badwater","folder":"tf","game":"Team Fortress","app_id":440,"player_count":0,"max_players":24,"Bots":0,"server_type":"Dedicated","server_os":"Linux","password":true,"vac":true,"version":"7742253","steam_id":85568392924469985,"keywords":["nocrits","nodmgspread","payload","uncletopia"],"game_id":440,"stv_port":27026,"stv_name":"Uncletopia | Chicago | 2 | All Maps | STV","players":null},{"server_id":402,"name":"Uncletopia | Chicago | 3 | All Maps","name_short":"chi-3","host":"chi-1.us.uncletopia.com","port":27035,"enabled":true,"region":"us-central","cc":"us","latitude":41.881832,"longitude":-87.62318,"reserved":0,"last_update":"0001-01-01T00:00:00Z","name_a2s":"Uncletopia | Chicago | 3 | All Maps","protocol":17,"map":"koth_viaduct","folder":"tf","game":"Team Fortress","app_id":440,"player_count":0,"max_players":24,"Bots":0,"server_type":"Dedicated","server_os":"Linux","password":true,"vac":true,"version":"7742253","steam_id":85568392924515191,"keywords":["cp","nocrits","nodmgspread","uncletopia"],"game_id":440,"stv_port":27036,"stv_name":"Uncletopia | Chicago | 3 | All Maps | STV","players":null},{"server_id":403,"name":"Uncletopia | Chicago | 4 | All Maps","name_short":"chi-4","host":"chi-1.us.uncletopia.com","port":27045,"enabled":true,"region":"us-central","cc":"us","latitude":41.881832,"longitude":-87.62318,"reserved":0,"last_update":"0001-01-01T00:00:00Z","name_a2s":"Uncletopia | Chicago | 4 | All Maps","protocol":17,"map":"koth_lakeside_final","folder":"tf","game":"Team Fortress","app_id":440,"player_count":0,"max_players":24,"Bots":0,"server_type":"Dedicated","server_os":"Linux","password":true,"vac":true,"version":"7742253","steam_id":85568392924515193,"keywords":["cp","nocrits","nodmgspread","uncletopia"],"game_id":440,"stv_port":27046,"stv_name":"Uncletopia | Chicago | 4 | All Maps | STV","players":null},{"server_id":36,"name":"Uncletopia | Chicago | 5 | All Maps","name_short":"chi-5","host":"chi-2.us.uncletopia.com","port":27015,"enabled":true,"region":"us-central","cc":"us","latitude":41.881832,"longitude":-87.62318,"reserved":0,"last_update":"0001-01-01T00:00:00Z","name_a2s":"Uncletopia | Chicago | 5 | All Maps","protocol":17,"map":"pl_upward","folder":"tf","game":"Team Fortress","app_id":440,"player_count":2,"max_players":24,"Bots":0,"server_type":"Dedicated","server_os":"Linux","password":true,"vac":true,"version":"7742253","steam_id":85568392924866362,"keywords":["nocrits","nodmgspread","payload","uncletopia"],"game_id":440,"stv_port":27016,"stv_name":"Uncletopia | Chicago | 5 | All Maps | STV","players":[{"user_id":4,"name":"zehuelaracer","steam_id":76561199455364456,"connected_time":942000000000,"state":"active","ping":155},{"user_id":5,"name":"Archimedes???","steam_id":76561199390879401,"connected_time":928000000000,"state":"active","ping":148}]},{"server_id":37,"name":"Uncletopia | Chicago | 6 | All Maps","name_short":"chi-6","host":"chi-2.us.uncletopia.com","port":27025,"enabled":true,"region":"us-central","cc":"us","latitude":41.881832,"longitude":-87.62318,"reserved":0,"last_update":"0001-01-01T00:00:00Z","name_a2s":"Uncletopia | Chicago | 6 | All Maps","protocol":17,"map":"pl_badwater","folder":"tf","game":"Team Fortress","app_id":440,"player_count":0,"max_players":24,"Bots":0,"server_type":"Dedicated","server_os":"Linux","password":true,"vac":true,"version":"7742253","steam_id":85568392924866363,"keywords":["nocrits","nodmgspread","payload","uncletopia"],"game_id":440,"stv_port":27026,"stv_name":"Uncletopia | Chicago | 6 | All Maps | STV","players":null},{"server_id":38,"name":"Uncletopia | Chicago | 7 | Stopwatch Beta","name_short":"chi-7","host":"chi-2.us.uncletopia.com","port":27035,"enabled":true,"region":"us-central","cc":"us","latitude":41.881832,"longitude":-87.62318,"reserved":0,"last_update":"0001-01-01T00:00:00Z","name_a2s":"Uncletopia | Chicago | 7 | Stopwatch Beta","protocol":17,"map":"workshop/koth_ashville_final.ugc2130459942","folder":"tf","game":"Team Fortress","app_id":440,"player_count":0,"max_players":24,"Bots":0,"server_type":"Dedicated","server_os":"Linux","password":true,"vac":true,"version":"7742253","steam_id":85568392924866364,"keywords":["cp","nocrits","nodmgspread","uncletopia"],"game_id":440,"stv_port":27036,"stv_name":"Uncletopia | Chicago | 7 | Stopwatch Beta | STV","players":null},{"server_id":39,"name":"Uncletopia | Chicago | 8 | Community","name_short":"chi-8","host":"chi-2.us.uncletopia.com","port":27045,"enabled":true,"region":"us-central","cc":"us","latitude":41.881832,"longitude":-87.62318,"reserved":0,"last_update":"0001-01-01T00:00:00Z","name_a2s":"Uncletopia | Chicago | 8 | Community","protocol":17,"map":"koth_lakeside_final","folder":"tf","game":"Team Fortress","app_id":440,"player_count":0,"max_players":24,"Bots":0,"server_type":"Dedicated","server_os":"Linux","password":true,"vac":true,"version":"7742253","steam_id":85568392924866365,"keywords":["cp","nocrits","nodmgspread","uncletopia"],"game_id":440,"stv_port":27046,"stv_name":"Uncletopia | Chicago | 8 | Community | STV","players":null},{"server_id":8,"name":"Uncletopia | Dallas | 1 | All Maps","name_short":"dal-1","host":"dal-1.us.uncletopia.com","port":27015,"enabled":true,"region":"us-central","cc":"us","latitude":32.779167,"longitude":-96.80889,"reserved":0,"last_update":"0001-01-01T00:00:00Z","name_a2s":"Uncletopia | Dallas | 1 | All Maps","protocol":17,"map":"cp_mountainlab","folder":"tf","game":"Team Fortress","app_id":440,"player_count":0,"max_players":24,"Bots":0,"server_type":"Dedicated","server_os":"Linux","password":true,"vac":true,"version":"7742253","steam_id":85568392924469986,"keywords":["cp","nocrits","nodmgspread","uncletopia"],"game_id":440,"stv_port":27016,"stv_name":"Uncletopia | Dallas | 1 | All Maps | STV","players":null},{"server_id":108,"name":"Uncletopia | Dallas | 2 | All Maps","name_short":"dal-2","host":"dal-1.us.uncletopia.com","port":27025,"enabled":true,"region":"us-central","cc":"us","latitude":32.779167,"longitude":-96.80889,"reserved":0,"last_update":"0001-01-01T00:00:00Z","name_a2s":"Uncletopia | Dallas | 2 | All Maps","protocol":17,"map":"cp_process_final","folder":"tf","game":"Team Fortress","app_id":440,"player_count":0,"max_players":24,"Bots":0,"server_type":"Dedicated","server_os":"Linux","password":true,"vac":true,"version":"7742253","steam_id":85568392924469988,"keywords":["cp","nocrits","nodmgspread","uncletopia"],"game_id":440,"stv_port":27026,"stv_name":"Uncletopia | Dallas | 2 | All Maps | STV","players":null},{"server_id":5,"name":"Uncletopia | Frankfurt | 1 | All Maps","name_short":"frk-1","host":"frk-1.de.uncletopia.com","port":27015,"enabled":true,"region":"eu","cc":"de","latitude":50.110924,"longitude":8.682127,"reserved":0,"last_update":"0001-01-01T00:00:00Z","name_a2s":"Uncletopia | Frankfurt | 1 | All Maps","protocol":17,"map":"cp_snakewater_final1","folder":"tf","game":"Team Fortress","app_id":440,"player_count":24,"max_players":24,"Bots":0,"server_type":"Dedicated","server_os":"Linux","password":true,"vac":true,"version":"7742253","steam_id":85568392924469989,"keywords":["cp","nocrits","nodmgspread","uncletopia"],"game_id":440,"stv_port":27016,"stv_name":"Uncletopia | Frankfurt | 1 | All Maps | STV","players":[{"user_id":217,"name":"eggslut","steam_id":76561198010752241,"connected_time":967000000000,"state":"active","ping":69},{"user_id":218,"name":"FryFish","steam_id":76561198064183241,"connected_time":943000000000,"state":"active","ping":61},{"user_id":177,"name":"VEH-DEH-VEH","steam_id":76561198010978989,"connected_time":3920000000000,"state":"active","ping":64},{"user_id":200,"name":"Tam","steam_id":76561199039394252,"connected_time":2317000000000,"state":"active","ping":141},{"user_id":211,"name":"UCC bock","steam_id":76561198971554341,"connected_time":1377000000000,"state":"active","ping":65},{"user_id":178,"name":"Major Tom","steam_id":76561198117525443,"connected_time":3917000000000,"state":"active","ping":70},{"user_id":230,"name":"Nagi","steam_id":76561199429044952,"connected_time":251000000000,"state":"active","ping":174},{"user_id":223,"name":":)","steam_id":76561198977420882,"connected_time":789000000000,"state":"active","ping":53},{"user_id":216,"name":"Zero (Orbital Gear Mastermind)","steam_id":76561198017416816,"connected_time":971000000000,"state":"active","ping":60},{"user_id":231,"name":"Ythern","steam_id":76561198051877486,"connected_time":159000000000,"state":"active","ping":57},{"user_id":225,"name":"makema","steam_id":76561198066919135,"connected_time":717000000000,"state":"active","ping":72},{"user_id":215,"name":"it's raining outside, so i can'","steam_id":76561198066251000,"connected_time":1002000000000,"state":"active","ping":43},{"user_id":233,"name":"drwin.","steam_id":76561199044922641,"connected_time":134000000000,"state":"active","ping":71},{"user_id":226,"name":"DoctorTopLeL","steam_id":76561198088533595,"connected_time":424000000000,"state":"active","ping":105},{"user_id":221,"name":"xyyzek","steam_id":76561199043030645,"connected_time":891000000000,"state":"active","ping":87},{"user_id":224,"name":"Origin Maker","steam_id":76561198826169187,"connected_time":748000000000,"state":"active","ping":81},{"user_id":160,"name":"buAHAHHAHAHAHA","steam_id":76561198864329072,"connected_time":5716000000000,"state":"active","ping":89},{"user_id":106,"name":"Ground control","steam_id":76561198093290934,"connected_time":9509000000000,"state":"active","ping":59},{"user_id":174,"name":"Ducky[WADZ]üê§","steam_id":76561198060341245,"connected_time":4431000000000,"state":"active","ping":49},{"user_id":222,"name":"ChrisBast","steam_id":76561198257444693,"connected_time":874000000000,"state":"active","ping":65},{"user_id":208,"name":"Cenni","steam_id":76561198236644024,"connected_time":2016000000000,"state":"active","ping":60},{"user_id":214,"name":"I-I","steam_id":76561198267969436,"connected_time":1056000000000,"state":"active","ping":60},{"user_id":232,"name":"PLUTO","steam_id":76561198312436128,"connected_time":146000000000,"state":"active","ping":130},{"user_id":229,"name":"Sn0wie","steam_id":76561198119641489,"connected_time":413000000000,"state":"active","ping":96}]},{"server_id":110,"name":"Uncletopia | Frankfurt | 2 | All Maps","name_short":"frk-2","host":"frk-1.de.uncletopia.com","port":27025,"enabled":true,"region":"eu","cc":"de","latitude":50.110924,"longitude":8.682127,"reserved":0,"last_update":"0001-01-01T00:00:00Z","name_a2s":"Uncletopia | Frankfurt | 2 | All Maps","protocol":17,"map":"pl_snowycoast","folder":"tf","game":"Team Fortress","app_id":440,"player_count":24,"max_players":24,"Bots":0,"server_type":"Dedicated","server_os":"Linux","password":true,"vac":true,"version":"7742253","steam_id":85568392924469990,"keywords":["nocrits","nodmgspread","payload","uncletopia"],"game_id":440,"stv_port":27026,"stv_name":"Uncletopia | Frankfurt | 2 | All Maps | STV","players":[{"user_id":196,"name":"Sniffz_2","steam_id":76561199433459491,"connected_time":533000000000,"state":"active","ping":67},{"user_id":112,"name":"[Insert Oneshot refrence here]","steam_id":76561198951206047,"connected_time":5423000000000,"state":"active","ping":82},{"user_id":197,"name":"F","steam_id":76561199149462792,"connected_time":524000000000,"state":"active","ping":58},{"user_id":199,"name":"Joe","steam_id":76561198368758532,"connected_time":246000000000,"state":"active","ping":96},{"user_id":160,"name":"Destinys","steam_id":76561198056132894,"connected_time":3175000000000,"state":"active","ping":45},{"user_id":168,"name":"Vertebrate","steam_id":76561198147205843,"connected_time":2670000000000,"state":"active","ping":82},{"user_id":180,"name":"big hoops","steam_id":76561198004703799,"connected_time":1502000000000,"state":"active","ping":45},{"user_id":194,"name":"wow","steam_id":76561199020903774,"connected_time":596000000000,"state":"active","ping":58},{"user_id":185,"name":"Fat Pigeon","steam_id":76561198817940142,"connected_time":1341000000000,"state":"active","ping":49},{"user_id":181,"name":"kornetov.vitalya","steam_id":76561199286034833,"connected_time":1493000000000,"state":"active","ping":82},{"user_id":182,"name":"Romultra","steam_id":76561198354105082,"connected_time":1489000000000,"state":"active","ping":54},{"user_id":183,"name":"2004 Kanye","steam_id":76561198189000841,"connected_time":1477000000000,"state":"active","ping":90},{"user_id":200,"name":"puck","steam_id":76561198121260981,"connected_time":192000000000,"state":"active","ping":61},{"user_id":191,"name":"scantron","steam_id":76561199103959197,"connected_time":898000000000,"state":"active","ping":93},{"user_id":178,"name":"lulu","steam_id":76561199147764133,"connected_time":1560000000000,"state":"active","ping":67},{"user_id":149,"name":"√Ñ√§rik ‚ô£","steam_id":76561198131871737,"connected_time":3715000000000,"state":"active","ping":58},{"user_id":195,"name":"CHEESE DRINKIN LARD GARGLING CR","steam_id":76561198105978107,"connected_time":583000000000,"state":"active","ping":84},{"user_id":201,"name":"night.s","steam_id":76561198326287823,"connected_time":42000000000,"state":"active","ping":75},{"user_id":152,"name":"concussion gaming","steam_id":76561198425494530,"connected_time":3640000000000,"state":"active","ping":108},{"user_id":189,"name":"Spotmonkey","steam_id":76561198003994092,"connected_time":1208000000000,"state":"active","ping":64},{"user_id":198,"name":"Shlyk","steam_id":76561198333387103,"connected_time":360000000000,"state":"active","ping":94},{"user_id":132,"name":"player","steam_id":76561198054474684,"connected_time":4861000000000,"state":"active","ping":80},{"user_id":190,"name":"Menty","steam_id":76561198036748212,"connected_time":1020000000000,"state":"active","ping":45},{"user_id":193,"name":"PabloGamerPro5000","steam_id":76561198358173553,"connected_time":810000000000,"state":"active","ping":80}]},{"server_id":308,"name":"Uncletopia | Frankfurt | 3 | All Maps","name_short":"frk-3","host":"frk-1.de.uncletopia.com","port":27035,"enabled":true,"region":"eu","cc":"de","latitude":50.110924,"longitude":8.682127,"reserved":0,"last_update":"0001-01-01T00:00:00Z","name_a2s":"Uncletopia | Frankfurt | 3 | All Maps","protocol":17,"map":"pl_frontier_final","folder":"tf","game":"Team Fortress","app_id":440,"player_count":1,"max_players":24,"Bots":0,"server_type":"Dedicated","server_os":"Linux","password":true,"vac":true,"version":"7742253","steam_id":85568392924504274,"keywords":["nocrits","nodmgspread","payload","uncletopia"],"game_id":440,"stv_port":27036,"stv_name":"Uncletopia | Frankfurt | 3 | All Maps | STV","players":[{"user_id":14,"name":"Goliath","steam_id":76561198088583638,"connected_time":22000000000,"state":"spawning","ping":60}]},{"server_id":309,"name":"Uncletopia | Frankfurt | 4 | All Maps","name_short":"frk-4","host":"frk-1.de.uncletopia.com","port":27045,"enabled":true,"region":"eu","cc":"de","latitude":50.110924,"longitude":8.682127,"reserved":0,"last_update":"0001-01-01T00:00:00Z","name_a2s":"Uncletopia | Frankfurt | 4 | All Maps","protocol":17,"map":"cp_sunshine","folder":"tf","game":"Team Fortress","app_id":440,"player_count":12,"max_players":24,"Bots":0,"server_type":"Dedicated","server_os":"Linux","password":true,"vac":true,"version":"7742253","steam_id":85568392924504275,"keywords":["cp","nocrits","nodmgspread","uncletopia"],"game_id":440,"stv_port":27046,"stv_name":"Uncletopia | Frankfurt | 4 | All Maps | STV","players":[{"user_id":4,"name":"Corrupted","steam_id":76561198066165991,"connected_time":554000000000,"state":"active","ping":57},{"user_id":5,"name":"MSPaintbrush","steam_id":76561198119987705,"connected_time":552000000000,"state":"active","ping":51},{"user_id":10,"name":"nigilist","steam_id":76561198388456046,"connected_time":528000000000,"state":"active","ping":173},{"user_id":7,"name":"tealoverr.190","steam_id":76561199028497703,"connected_time":551000000000,"state":"active","ping":104},{"user_id":9,"name":"Herobrine","steam_id":76561198155262213,"connected_time":543000000000,"state":"active","ping":147},{"user_id":11,"name":"tree__dude","steam_id":76561198975762241,"connected_time":524000000000,"state":"active","ping":106},{"user_id":16,"name":"Van","steam_id":76561199177668753,"connected_time":231000000000,"state":"active","ping":51},{"user_id":13,"name":"Eeshie","steam_id":76561198054816169,"connected_time":427000000000,"state":"active","ping":81},{"user_id":14,"name":"Bubbaklubba.FB","steam_id":76561198317559307,"connected_time":370000000000,"state":"active","ping":73},{"user_id":15,"name":"≈†FO","steam_id":76561198132104112,"connected_time":267000000000,"state":"active","ping":63},{"user_id":17,"name":"tori_spring","steam_id":76561199375975842,"connected_time":124000000000,"state":"active","ping":59},{"user_id":18,"name":"tekt","steam_id":76561198044554387,"connected_time":16000000000,"state":"active","ping":116}]},{"server_id":310,"name":"Uncletopia | Frankfurt | 5 | All Maps","name_short":"frk-5","host":"frk-1.de.uncletopia.com","port":27055,"enabled":true,"region":"eu","cc":"de","latitude":50.110924,"longitude":8.682127,"reserved":0,"last_update":"0001-01-01T00:00:00Z","name_a2s":"Uncletopia | Frankfurt | 5 | All Maps","protocol":17,"map":"pl_barnblitz","folder":"tf","game":"Team Fortress","app_id":440,"player_count":24,"max_players":24,"Bots":0,"server_type":"Dedicated","server_os":"Linux","password":true,"vac":true,"version":"7742253","steam_id":85568392924504277,"keywords":["nocrits","nodmgspread","payload","uncletopia"],"game_id":440,"stv_port":27056,"stv_name":"Uncletopia | Frankfurt | 5 | All Maps | STV","players":[{"user_id":88,"name":"(wm) Das Fleisch","steam_id":76561198001250715,"connected_time":3816000000000,"state":"active","ping":50},{"user_id":5,"name":"MomoInTheBox","steam_id":76561197994150695,"connected_time":8271000000000,"state":"active","ping":75},{"user_id":128,"name":"Piss_boy","steam_id":76561198082406639,"connected_time":564000000000,"state":"active","ping":83},{"user_id":111,"name":"—Ç—É–∫–∫—É –∏—Ä–º–∞","steam_id":76561197998715016,"connected_time":2419000000000,"state":"active","ping":57},{"user_id":105,"name":"mt","steam_id":76561197961319303,"connected_time":2650000000000,"state":"active","ping":47},{"user_id":117,"name":"jt7","steam_id":76561198073655162,"connected_time":1755000000000,"state":"active","ping":62},{"user_id":122,"name":"LOBZIK","steam_id":76561198114830120,"connected_time":1521000000000,"state":"active","ping":76},{"user_id":136,"name":"obscurum","steam_id":76561198099827790,"connected_time":440000000000,"state":"active","ping":59},{"user_id":131,"name":"Wololo","steam_id":76561197972235375,"connected_time":499000000000,"state":"active","ping":55},{"user_id":127,"name":"Joe Byron","steam_id":76561198044465070,"connected_time":586000000000,"state":"active","ping":91},{"user_id":101,"name":"Miton","steam_id":76561197970323209,"connected_time":2883000000000,"state":"active","ping":75},{"user_id":124,"name":"htraB","steam_id":76561198043122677,"connected_time":1152000000000,"state":"active","ping":60},{"user_id":98,"name":"Techm32","steam_id":76561198317134994,"connected_time":2999000000000,"state":"active","ping":60},{"user_id":72,"name":"makarov","steam_id":76561198363892870,"connected_time":4336000000000,"state":"active","ping":64},{"user_id":132,"name":"sape","steam_id":76561198089322416,"connected_time":491000000000,"state":"active","ping":98},{"user_id":133,"name":"Guy with squares as username","steam_id":76561198269524918,"connected_time":483000000000,"state":"active","ping":59},{"user_id":114,"name":"hungry little man","steam_id":76561199229110612,"connected_time":2011000000000,"state":"active","ping":80},{"user_id":112,"name":"Pabs :D","steam_id":76561198000016962,"connected_time":2416000000000,"state":"active","ping":60},{"user_id":123,"name":"gagalak","steam_id":76561198089979108,"connected_time":1510000000000,"state":"active","ping":95},{"user_id":107,"name":"the joy of recycling","steam_id":76561198138509827,"connected_time":2637000000000,"state":"active","ping":89},{"user_id":134,"name":"KazooBard","steam_id":76561198273124726,"connected_time":465000000000,"state":"active","ping":64},{"user_id":102,"name":"Shynii","steam_id":76561198194682105,"connected_time":2837000000000,"state":"active","ping":62},{"user_id":129,"name":"Old Beavis","steam_id":76561198065951617,"connected_time":562000000000,"state":"active","ping":74},{"user_id":135,"name":"Mr. Hunts","steam_id":76561197981910397,"connected_time":451000000000,"state":"active","ping":75}]},{"server_id":311,"name":"Uncletopia | Frankfurt | 6 | All Maps","name_short":"frk-6","host":"frk-1.de.uncletopia.com","port":27065,"enabled":true,"region":"eu","cc":"de","latitude":50.110924,"longitude":8.682127,"reserved":0,"last_update":"0001-01-01T00:00:00Z","name_a2s":"Uncletopia | Frankfurt | 6 | All Maps","protocol":17,"map":"koth_viaduct","folder":"tf","game":"Team Fortress","app_id":440,"player_count":0,"max_players":24,"Bots":0,"server_type":"Dedicated","server_os":"Linux","password":true,"vac":true,"version":"7742253","steam_id":85568392924504278,"keywords":["cp","nocrits","nodmgspread","uncletopia"],"game_id":440,"stv_port":27066,"stv_name":"Uncletopia | Frankfurt | 6 | All Maps | STV","players":null},{"server_id":23,"name":"Uncletopia | Frankfurt | 7 | Stopwatch Beta","name_short":"frk-7","host":"frk-1.de.uncletopia.com","port":27075,"enabled":true,"region":"eu","cc":"de","latitude":50.110924,"longitude":8.682127,"reserved":0,"last_update":"0001-01-01T00:00:00Z","name_a2s":"Uncletopia | Frankfurt | 7 | Stopwatch Beta","protocol":17,"map":"pl_badwater","folder":"tf","game":"Team Fortress","app_id":440,"player_count":1,"max_players":24,"Bots":0,"server_type":"Dedicated","server_os":"Linux","password":true,"vac":true,"version":"7742253","steam_id":85568392924742827,"keywords":["nocrits","nodmgspread","payload","uncletopia"],"game_id":440,"stv_port":27076,"stv_name":"Uncletopia | Frankfurt | 7 | Stopwatch Beta | STV","players":[{"user_id":9,"name":"Hegyi tah√≥ F2P","steam_id":76561199219150356,"connected_time":55000000000,"state":"spawning","ping":3146}]},{"server_id":24,"name":"Uncletopia | Frankfurt | 8 | Community","name_short":"frk-8","host":"frk-1.de.uncletopia.com","port":27085,"enabled":true,"region":"eu","cc":"de","latitude":50.110924,"longitude":8.682127,"reserved":0,"last_update":"0001-01-01T00:00:00Z","name_a2s":"Uncletopia | Frankfurt | 8 | Community","protocol":17,"map":"koth_cascade","folder":"tf","game":"Team Fortress","app_id":440,"player_count":0,"max_players":24,"Bots":0,"server_type":"Dedicated","server_os":"Linux","password":true,"vac":true,"version":"7742253","steam_id":85568392924742828,"keywords":["cp","nocrits","nodmgspread","uncletopia"],"game_id":440,"stv_port":27086,"stv_name":"Uncletopia | Frankfurt | 8 | Community | STV","players":null},{"server_id":202,"name":"Uncletopia | Hong Kong | 1 | All Maps","name_short":"hgk-1","host":"hgk-1.hk.uncletopia.com","port":27015,"enabled":true,"region":"asia","cc":"hk","latitude":22.302711,"longitude":114.177216,"reserved":0,"last_update":"0001-01-01T00:00:00Z","name_a2s":"Uncletopia | Hong Kong | 1 | All Maps","protocol":17,"map":"pl_snowycoast","folder":"tf","game":"Team Fortress","app_id":440,"player_count":22,"max_players":24,"Bots":0,"server_type":"Dedicated","server_os":"Linux","password":true,"vac":true,"version":"7742253","steam_id":85568392924494504,"keywords":["nocrits","nodmgspread","payload","uncletopia"],"game_id":440,"stv_port":27016,"stv_name":"Uncletopia | Hong Kong | 1 | All Maps | STV","players":[{"user_id":565,"name":"bocchi the oppai","steam_id":76561198008307645,"connected_time":168000000000,"state":"active","ping":127},{"user_id":521,"name":"ellz","steam_id":76561199216074568,"connected_time":1404000000000,"state":"active","ping":124},{"user_id":469,"name":"aisha","steam_id":76561198132172320,"connected_time":3586000000000,"state":"active","ping":77},{"user_id":460,"name":"Shades on Goggles","steam_id":76561198406067629,"connected_time":4917000000000,"state":"active","ping":57},{"user_id":523,"name":"jiyaoo","steam_id":76561198192388718,"connected_time":1249000000000,"state":"active","ping":45},{"user_id":564,"name":"the weez","steam_id":76561198405393811,"connected_time":219000000000,"state":"active","ping":99},{"user_id":488,"name":"wait of the world","steam_id":76561198819895048,"connected_time":2597000000000,"state":"active","ping":38},{"user_id":529,"name":"MigBac","steam_id":76561199063505872,"connected_time":967000000000,"state":"active","ping":129},{"user_id":517,"name":"Kham","steam_id":76561198952916232,"connected_time":1553000000000,"state":"active","ping":92},{"user_id":547,"name":"mayo","steam_id":76561198857766306,"connected_time":495000000000,"state":"active","ping":61},{"user_id":561,"name":"sett.","steam_id":76561199010718657,"connected_time":339000000000,"state":"active","ping":79},{"user_id":502,"name":"SoggyMuffins","steam_id":76561199298434024,"connected_time":2045000000000,"state":"active","ping":110},{"user_id":526,"name":"bugart","steam_id":76561198194907566,"connected_time":1137000000000,"state":"active","ping":57},{"user_id":527,"name":"fantajee","steam_id":76561199135173894,"connected_time":1109000000000,"state":"active","ping":86},{"user_id":566,"name":"Hughbloo","steam_id":76561199246172912,"connected_time":102000000000,"state":"active","ping":155},{"user_id":531,"name":"jeff","steam_id":76561198327306842,"connected_time":943000000000,"state":"active","ping":77},{"user_id":537,"name":"DitherWither","steam_id":76561199084787342,"connected_time":770000000000,"state":"active","ping":150},{"user_id":533,"name":"mister beast","steam_id":76561198346128694,"connected_time":937000000000,"state":"active","ping":53},{"user_id":562,"name":"Jagdpanzer IV","steam_id":76561198342772558,"connected_time":316000000000,"state":"active","ping":130},{"user_id":542,"name":"PJHpeek","steam_id":76561198274438558,"connected_time":594000000000,"state":"active","ping":86},{"user_id":555,"name":";-;","steam_id":76561199237432540,"connected_time":412000000000,"state":"active","ping":79},{"user_id":550,"name":"ÊØç„ÅÆËÇâÂõ£Â≠ê","steam_id":76561198069561896,"connected_time":452000000000,"state":"active","ping":31}]},{"server_id":1,"name":"Uncletopia | Los Angeles | 1 | All Maps","name_short":"lax-1","host":"lax-1.us.uncletopia.com","port":27015,"enabled":true,"region":"us-west","cc":"us","latitude":33.94279,"longitude":-118.41004,"reserved":0,"last_update":"0001-01-01T00:00:00Z","name_a2s":"Uncletopia | Los Angeles | 1 | All Maps","protocol":17,"map":"koth_viaduct","folder":"tf","game":"Team Fortress","app_id":440,"player_count":0,"max_players":24,"Bots":0,"server_type":"Dedicated","server_os":"Linux","password":true,"vac":true,"version":"7742253","steam_id":85568392924469991,"keywords":["cp","nocrits","nodmgspread","uncletopia"],"game_id":440,"stv_port":27016,"stv_name":"Uncletopia | Los Angeles | 1 | All Maps | STV","players":null},{"server_id":112,"name":"Uncletopia | Los Angeles | 2 | All Maps","name_short":"lax-2","host":"lax-1.us.uncletopia.com","port":27025,"enabled":true,"region":"us-west","cc":"us","latitude":33.94279,"longitude":-118.41004,"reserved":0,"last_update":"0001-01-01T00:00:00Z","name_a2s":"Uncletopia | Los Angeles | 2 | All Maps","protocol":17,"map":"koth_lakeside_final","folder":"tf","game":"Team Fortress","app_id":440,"player_count":0,"max_players":24,"Bots":0,"server_type":"Dedicated","server_os":"Linux","password":true,"vac":true,"version":"7742253","steam_id":85568392924469992,"keywords":["cp","nocrits","nodmgspread","uncletopia"],"game_id":440,"stv_port":27026,"stv_name":"Uncletopia | Los Angeles | 2 | All Maps | STV","players":null},{"server_id":324,"name":"Uncletopia | Los Angeles | 3 | All Maps","name_short":"lax-3","host":"lax-1.us.uncletopia.com","port":27035,"enabled":true,"region":"us-west","cc":"us","latitude":33.94279,"longitude":-118.41004,"reserved":0,"last_update":"0001-01-01T00:00:00Z","name_a2s":"Uncletopia | Los Angeles | 3 | All Maps","protocol":17,"map":"pl_snowycoast","folder":"tf","game":"Team Fortress","app_id":440,"player_count":0,"max_players":24,"Bots":0,"server_type":"Dedicated","server_os":"Linux","password":true,"vac":true,"version":"7742253","steam_id":85568392924510198,"keywords":["nocrits","nodmgspread","payload","uncletopia"],"game_id":440,"stv_port":27036,"stv_name":"Uncletopia | Los Angeles | 3 | All Maps | STV","players":null},{"server_id":25,"name":"Uncletopia | Los Angeles | 4 | Stopwatch Beta","name_short":"lax-4","host":"lax-1.us.uncletopia.com","port":27045,"enabled":true,"region":"us-west","cc":"us","latitude":33.94279,"longitude":-118.41004,"reserved":0,"last_update":"0001-01-01T00:00:00Z","name_a2s":"Uncletopia | Los Angeles | 4 | Stopwatch Beta","protocol":17,"map":"koth_highpass","folder":"tf","game":"Team Fortress","app_id":440,"player_count":0,"max_players":24,"Bots":0,"server_type":"Dedicated","server_os":"Linux","password":true,"vac":true,"version":"7742253","steam_id":85568392924510199,"keywords":["cp","nocrits","nodmgspread","uncletopia"],"game_id":440,"stv_port":27046,"stv_name":"Uncletopia | Los Angeles | 4 | Stopwatch Beta | STV","players":null},{"server_id":11,"name":"Uncletopia | London | 1 | All Maps","name_short":"lon-1","host":"lon-1.uk.uncletopia.com","port":27015,"enabled":true,"region":"eu","cc":"gb","latitude":51.509865,"longitude":-0.118092,"reserved":0,"last_update":"0001-01-01T00:00:00Z","name_a2s":"Uncletopia | London | 1 | All Maps","protocol":17,"map":"pl_barnblitz","folder":"tf","game":"Team Fortress","app_id":440,"player_count":24,"max_players":24,"Bots":0,"server_type":"Dedicated","server_os":"Linux","password":true,"vac":true,"version":"7742253","steam_id":85568392924367362,"keywords":["nocrits","nodmgspread","payload","uncletopia"],"game_id":440,"stv_port":27016,"stv_name":"Uncletopia | London | 1 | All Maps | STV","players":[{"user_id":330,"name":"Cookies","steam_id":76561198255106757,"connected_time":2338000000000,"state":"active","ping":44},{"user_id":347,"name":"G6 sherlock","steam_id":76561198802967796,"connected_time":406000000000,"state":"active","ping":117},{"user_id":332,"name":"Thisisforyou!","steam_id":76561198052113055,"connected_time":1774000000000,"state":"active","ping":114},{"user_id":339,"name":"Spring","steam_id":76561198156521360,"connected_time":668000000000,"state":"active","ping":61},{"user_id":340,"name":"fandango","steam_id":76561198135249335,"connected_time":666000000000,"state":"active","ping":29},{"user_id":296,"name":"breadlikeme.","steam_id":76561198133532980,"connected_time":5125000000000,"state":"active","ping":45},{"user_id":341,"name":"sniff","steam_id":76561198259668029,"connected_time":662000000000,"state":"active","ping":45},{"user_id":327,"name":"wolfgang","steam_id":76561199111818670,"connected_time":2717000000000,"state":"active","ping":95},{"user_id":234,"name":"uzbek supa solja","steam_id":76561198010662796,"connected_time":9122000000000,"state":"active","ping":46},{"user_id":328,"name":"SuperBob103","steam_id":76561199175360012,"connected_time":2501000000000,"state":"active","ping":49},{"user_id":283,"name":"Frazzles","steam_id":76561199228009586,"connected_time":6008000000000,"state":"active","ping":40},{"user_id":290,"name":"immigration control","steam_id":76561198015876799,"connected_time":5305000000000,"state":"active","ping":63},{"user_id":304,"name":"the indomitable human spirit","steam_id":76561198718760200,"connected_time":4122000000000,"state":"active","ping":46},{"user_id":348,"name":"axl","steam_id":76561198991661832,"connected_time":355000000000,"state":"active","ping":85},{"user_id":336,"name":"Soph","steam_id":76561198131688853,"connected_time":1604000000000,"state":"active","ping":49},{"user_id":298,"name":"bosnia bomber","steam_id":76561198084799925,"connected_time":4995000000000,"state":"active","ping":74},{"user_id":323,"name":"Hkitchen","steam_id":76561198194779526,"connected_time":3268000000000,"state":"active","ping":43},{"user_id":343,"name":"MF DOOM FAN","steam_id":76561198799092327,"connected_time":644000000000,"state":"active","ping":49},{"user_id":344,"name":"pstric","steam_id":76561198044046592,"connected_time":641000000000,"state":"active","ping":105},{"user_id":305,"name":"Chad IV","steam_id":76561198107767058,"connected_time":4120000000000,"state":"active","ping":89},{"user_id":346,"name":"Bits\u0026Peices","steam_id":76561199225453607,"connected_time":610000000000,"state":"active","ping":75},{"user_id":342,"name":"Lalo Salamanca","steam_id":76561199116882319,"connected_time":657000000000,"state":"active","ping":39},{"user_id":335,"name":"MEDiUM","steam_id":76561198112328561,"connected_time":1731000000000,"state":"active","ping":78},{"user_id":338,"name":"Bumblebee","steam_id":76561198033551105,"connected_time":844000000000,"state":"active","ping":63}]},{"server_id":114,"name":"Uncletopia | London | 2 | All Maps","name_short":"lon-2","host":"lon-1.uk.uncletopia.com","port":27025,"enabled":true,"region":"eu","cc":"gb","latitude":51.509865,"longitude":-0.118092,"reserved":0,"last_update":"0001-01-01T00:00:00Z","name_a2s":"Uncletopia | London | 2 | All Maps","protocol":17,"map":"pl_pier","folder":"tf","game":"Team Fortress","app_id":440,"player_count":24,"max_players":24,"Bots":0,"server_type":"Dedicated","server_os":"Linux","password":true,"vac":true,"version":"7742253","steam_id":85568392924470941,"keywords":["nocrits","nodmgspread","payload","uncletopia"],"game_id":440,"stv_port":27026,"stv_name":"Uncletopia | London | 2 | All Maps | STV","players":[{"user_id":103,"name":"„ÉÜ„Ç§„É´„Çπ","steam_id":76561198022403271,"connected_time":591000000000,"state":"active","ping":45},{"user_id":97,"name":"Monke","steam_id":76561198066994468,"connected_time":1081000000000,"state":"active","ping":81},{"user_id":18,"name":"soap lore","steam_id":76561198058879767,"connected_time":4125000000000,"state":"active","ping":45},{"user_id":52,"name":"Flare","steam_id":76561198039098320,"connected_time":2619000000000,"state":"active","ping":45},{"user_id":83,"name":"zaleek69","steam_id":76561198058877595,"connected_time":1694000000000,"state":"active","ping":68},{"user_id":26,"name":"Babwin","steam_id":76561197985860528,"connected_time":3603000000000,"state":"active","ping":65},{"user_id":84,"name":"E","steam_id":76561198166340115,"connected_time":1692000000000,"state":"active","ping":47},{"user_id":98,"name":"Vinhal Keller","steam_id":76561198145589528,"connected_time":1076000000000,"state":"active","ping":61},{"user_id":63,"name":"Dr. Funkenstein","steam_id":76561197977816210,"connected_time":2127000000000,"state":"active","ping":46},{"user_id":104,"name":"rat performance","steam_id":76561198065854668,"connected_time":432000000000,"state":"active","ping":43},{"user_id":82,"name":"Pitmin_","steam_id":76561198005342133,"connected_time":1730000000000,"state":"active","ping":45},{"user_id":57,"name":"the babylonian sniper","steam_id":76561198314919758,"connected_time":2500000000000,"state":"active","ping":57},{"user_id":34,"name":"AwterSix","steam_id":76561198042561678,"connected_time":3330000000000,"state":"active","ping":56},{"user_id":101,"name":"0_Dan","steam_id":76561199006567387,"connected_time":657000000000,"state":"active","ping":49},{"user_id":59,"name":"Jonathan","steam_id":76561198087988880,"connected_time":2216000000000,"state":"active","ping":57},{"user_id":61,"name":"–ì–¥–µ –º–æ—Ä–µ?","steam_id":76561197979625544,"connected_time":2165000000000,"state":"active","ping":88},{"user_id":105,"name":"UNDORA","steam_id":76561198852456692,"connected_time":108000000000,"state":"active","ping":89},{"user_id":38,"name":"Bob","steam_id":76561198218200489,"connected_time":3306000000000,"state":"active","ping":48},{"user_id":100,"name":"Videogamer","steam_id":76561198106012909,"connected_time":835000000000,"state":"active","ping":75},{"user_id":99,"name":"Haiva","steam_id":76561198139999282,"connected_time":908000000000,"state":"active","ping":82},{"user_id":41,"name":"tom","steam_id":76561198202442602,"connected_time":3272000000000,"state":"active","ping":92},{"user_id":56,"name":"Marc","steam_id":76561198869851742,"connected_time":2510000000000,"state":"active","ping":81},{"user_id":81,"name":"GEP Gun","steam_id":76561197981821003,"connected_time":1782000000000,"state":"active","ping":54},{"user_id":95,"name":"Rosehip","steam_id":76561198860690846,"connected_time":1353000000000,"state":"active","ping":96}]},{"server_id":320,"name":"Uncletopia | London | 3 | All Maps","name_short":"lon-3","host":"lon-1.uk.uncletopia.com","port":27035,"enabled":true,"region":"eu","cc":"gb","latitude":51.509865,"longitude":-0.118092,"reserved":0,"last_update":"0001-01-01T00:00:00Z","name_a2s":"Uncletopia | London | 3 | All Maps","protocol":17,"map":"cp_powerhouse","folder":"tf","game":"Team Fortress","app_id":440,"player_count":24,"max_players":24,"Bots":0,"server_type":"Dedicated","server_os":"Linux","password":true,"vac":true,"version":"7742253","steam_id":85568392924510192,"keywords":["cp","nocrits","nodmgspread","uncletopia"],"game_id":440,"stv_port":27036,"stv_name":"Uncletopia | London | 3 | All Maps | STV","players":[{"user_id":244,"name":"tralalaOuiOui","steam_id":76561197963471507,"connected_time":275000000000,"state":"active","ping":45},{"user_id":241,"name":"wise ukrainian shaman","steam_id":76561198989398023,"connected_time":411000000000,"state":"active","ping":109},{"user_id":211,"name":"KingVoker","steam_id":76561198039602539,"connected_time":1295000000000,"state":"active","ping":80},{"user_id":242,"name":"Nuuskis","steam_id":76561198084042012,"connected_time":394000000000,"state":"active","ping":88},{"user_id":233,"name":"Fasj.","steam_id":76561198049975379,"connected_time":990000000000,"state":"active","ping":54},{"user_id":237,"name":"Yessirskiii","steam_id":76561198179324075,"connected_time":654000000000,"state":"active","ping":62},{"user_id":239,"name":"McMaggot","steam_id":76561199097750260,"connected_time":453000000000,"state":"active","ping":124},{"user_id":230,"name":"Laughable Gaff","steam_id":76561199099665252,"connected_time":1031000000000,"state":"active","ping":94},{"user_id":216,"name":"grig_83","steam_id":76561198963325441,"connected_time":1208000000000,"state":"active","ping":112},{"user_id":129,"name":"p3","steam_id":76561198883707314,"connected_time":7860000000000,"state":"active","ping":100},{"user_id":246,"name":"FreshlyMilked","steam_id":76561198070396745,"connected_time":262000000000,"state":"active","ping":194},{"user_id":145,"name":"sv_MrGibbs","steam_id":76561198114071972,"connected_time":6923000000000,"state":"active","ping":45},{"user_id":219,"name":"Doktor Insane","steam_id":76561198334042273,"connected_time":1177000000000,"state":"active","ping":79},{"user_id":243,"name":"void_star","steam_id":76561198035696014,"connected_time":345000000000,"state":"active","ping":135},{"user_id":227,"name":"Maya #transrights","steam_id":76561198290614621,"connected_time":1094000000000,"state":"active","ping":50},{"user_id":223,"name":"Yaire","steam_id":76561198017343510,"connected_time":1170000000000,"state":"active","ping":58},{"user_id":240,"name":"Feelin' Supersonic","steam_id":76561198005738407,"connected_time":450000000000,"state":"active","ping":82},{"user_id":231,"name":"squo -pivzavod-","steam_id":76561198324357479,"connected_time":1027000000000,"state":"active","ping":78},{"user_id":178,"name":"Cazulas","steam_id":76561198027460283,"connected_time":4098000000000,"state":"active","ping":478},{"user_id":247,"name":"InsectKing","steam_id":76561199013519071,"connected_time":147000000000,"state":"active","ping":40},{"user_id":232,"name":"Stop The Violence","steam_id":76561198044876779,"connected_time":1023000000000,"state":"active","ping":70},{"user_id":245,"name":"BabyYodaIsMySoda","steam_id":76561198321846861,"connected_time":270000000000,"state":"active","ping":67},{"user_id":149,"name":"Rez","steam_id":76561198410598772,"connected_time":6379000000000,"state":"active","ping":45},{"user_id":235,"name":"gogu","steam_id":76561198271945503,"connected_time":956000000000,"state":"active","ping":67}]},{"server_id":321,"name":"Uncletopia | London | 4 | All Maps","name_short":"lon-4","host":"lon-1.uk.uncletopia.com","port":27045,"enabled":true,"region":"eu","cc":"gb","latitude":51.509865,"longitude":-0.118092,"reserved":0,"last_update":"0001-01-01T00:00:00Z","name_a2s":"Uncletopia | London | 4 | All Maps","protocol":17,"map":"pl_borneo","folder":"tf","game":"Team Fortress","app_id":440,"player_count":24,"max_players":24,"Bots":0,"server_type":"Dedicated","server_os":"Linux","password":true,"vac":true,"version":"7742253","steam_id":85568392924510193,"keywords":["nocrits","nodmgspread","payload","uncletopia"],"game_id":440,"stv_port":27046,"stv_name":"Uncletopia | London | 4 | All Maps | STV","players":[{"user_id":53,"name":"Landsknecht","steam_id":76561199293036742,"connected_time":156000000000,"state":"active","ping":60},{"user_id":7,"name":"StarTube","steam_id":76561199122946418,"connected_time":2158000000000,"state":"active","ping":38},{"user_id":19,"name":"Kahvi","steam_id":76561198723244199,"connected_time":1629000000000,"state":"active","ping":75},{"user_id":54,"name":"muppi","steam_id":76561198067765324,"connected_time":137000000000,"state":"active","ping":61},{"user_id":11,"name":"robbob","steam_id":76561198137375391,"connected_time":1916000000000,"state":"active","ping":84},{"user_id":41,"name":"owl","steam_id":76561198229230864,"connected_time":1051000000000,"state":"active","ping":90},{"user_id":55,"name":"Jimortal","steam_id":76561198342426856,"connected_time":109000000000,"state":"active","ping":51},{"user_id":45,"name":"Krof enjoyer","steam_id":76561199101777637,"connected_time":721000000000,"state":"active","ping":79},{"user_id":44,"name":"JoJo","steam_id":76561198296920548,"connected_time":875000000000,"state":"active","ping":92},{"user_id":16,"name":"lark","steam_id":76561198091724522,"connected_time":1717000000000,"state":"active","ping":50},{"user_id":17,"name":"Saken","steam_id":76561198049075295,"connected_time":1717000000000,"state":"active","ping":60},{"user_id":18,"name":"cropping","steam_id":76561198026586456,"connected_time":1695000000000,"state":"active","ping":64},{"user_id":51,"name":"Bruschetta","steam_id":76561198251927162,"connected_time":382000000000,"state":"active","ping":67},{"user_id":52,"name":"alltron64 #SaveTF2","steam_id":76561198854531716,"connected_time":353000000000,"state":"active","ping":83},{"user_id":46,"name":"loonies in the hall","steam_id":76561198216544293,"connected_time":720000000000,"state":"active","ping":76},{"user_id":28,"name":"galad.game","steam_id":76561198336324159,"connected_time":1421000000000,"state":"active","ping":58},{"user_id":56,"name":"hipster_doofus","steam_id":76561197970902697,"connected_time":71000000000,"state":"active","ping":48},{"user_id":30,"name":"Tank","steam_id":76561199059174576,"connected_time":1377000000000,"state":"active","ping":176},{"user_id":43,"name":"Crimea a bridge","steam_id":76561198030898371,"connected_time":920000000000,"state":"active","ping":83},{"user_id":32,"name":"john fortress","steam_id":76561198202668788,"connected_time":1362000000000,"state":"active","ping":66},{"user_id":33,"name":"I behead toddlers for sport","steam_id":76561198388750592,"connected_time":1341000000000,"state":"active","ping":72},{"user_id":34,"name":"Dakeyras","steam_id":76561198057069564,"connected_time":1323000000000,"state":"active","ping":103},{"user_id":57,"name":"Yassine","steam_id":76561198140565712,"connected_time":63000000000,"state":"active","ping":49},{"user_id":36,"name":"Outlaw Mal ‚òÖ","steam_id":76561198262337669,"connected_time":1304000000000,"state":"active","ping":80}]},{"server_id":21,"name":"Uncletopia | London | 5 | All Maps","name_short":"lon-5","host":"lon-1.uk.uncletopia.com","port":27055,"enabled":true,"region":"eu","cc":"gb","latitude":51.509865,"longitude":-0.118092,"reserved":0,"last_update":"0001-01-01T00:00:00Z","name_a2s":"Uncletopia | London | 5 | All Maps","protocol":17,"map":"pl_frontier_final","folder":"tf","game":"Team Fortress","app_id":440,"player_count":1,"max_players":24,"Bots":0,"server_type":"Dedicated","server_os":"Linux","password":true,"vac":true,"version":"7742253","steam_id":85568392924742829,"keywords":["nocrits","nodmgspread","payload","uncletopia"],"game_id":440,"stv_port":27056,"stv_name":"Uncletopia | London | 5 | All Maps | STV","players":[{"user_id":3,"name":"Sudo","steam_id":76561199132119172,"connected_time":230000000000,"state":"spawning","ping":85}]},{"server_id":22,"name":"Uncletopia | London | 6 | All Maps","name_short":"lon-6","host":"lon-1.uk.uncletopia.com","port":27065,"enabled":true,"region":"eu","cc":"gb","latitude":51.509865,"longitude":-0.118092,"reserved":0,"last_update":"0001-01-01T00:00:00Z","name_a2s":"Uncletopia | London | 6 | All Maps","protocol":17,"map":"cp_process_final","folder":"tf","game":"Team Fortress","app_id":440,"player_count":0,"max_players":24,"Bots":0,"server_type":"Dedicated","server_os":"Linux","password":true,"vac":true,"version":"7742253","steam_id":85568392924742830,"keywords":["cp","nocrits","nodmgspread","uncletopia"],"game_id":440,"stv_port":27066,"stv_name":"Uncletopia | London | 6 | All Maps | STV","players":null},{"server_id":40,"name":"Uncletopia | London | 7 | No Payload","name_short":"lon-7","host":"lon-1.uk.uncletopia.com","port":27075,"enabled":true,"region":"eu","cc":"gb","latitude":51.509865,"longitude":-0.118092,"reserved":0,"last_update":"0001-01-01T00:00:00Z","name_a2s":"Uncletopia | London | 7 | No Payload","protocol":17,"map":"koth_viaduct","folder":"tf","game":"Team Fortress","app_id":440,"player_count":0,"max_players":24,"Bots":0,"server_type":"Dedicated","server_os":"Linux","password":true,"vac":true,"version":"7742253","steam_id":85568392924964314,"keywords":["cp","nocrits","nodmgspread","uncletopia"],"game_id":440,"stv_port":27076,"stv_name":"Uncletopia | London | 7 | No Payload | STV","players":null},{"server_id":41,"name":"Uncletopia | London | 8 | Community","name_short":"lon-8","host":"lon-1.uk.uncletopia.com","port":27085,"enabled":true,"region":"eu","cc":"gb","latitude":51.509865,"longitude":-0.118092,"reserved":0,"last_update":"0001-01-01T00:00:00Z","name_a2s":"Uncletopia | London | 8 | Community","protocol":17,"map":"cp_altitude","folder":"tf","game":"Team Fortress","app_id":440,"player_count":0,"max_players":24,"Bots":0,"server_type":"Dedicated","server_os":"Linux","password":true,"vac":true,"version":"7742253","steam_id":85568392924964315,"keywords":["cp","nocrits","nodmgspread","uncletopia"],"game_id":440,"stv_port":27086,"stv_name":"Uncletopia | London | 8 | Community | STV","players":null},{"server_id":300,"name":"Uncletopia | Montr√©al | 1 | All Maps","name_short":"mtl-1","host":"mtl-1.ca.uncletopia.com","port":27015,"enabled":true,"region":"us-east","cc":"ca","latitude":45.50889,"longitude":-73.56167,"reserved":0,"last_update":"0001-01-01T00:00:00Z","name_a2s":"Uncletopia | Montr√©al | 1 | All Maps","protocol":17,"map":"cp_snakewater_final1","folder":"tf","game":"Team Fortress","app_id":440,"player_count":0,"max_players":24,"Bots":0,"server_type":"Dedicated","server_os":"Linux","password":true,"vac":true,"version":"7742253","steam_id":85568392924500087,"keywords":["cp","nocrits","nodmgspread","uncletopia"],"game_id":440,"stv_port":27016,"stv_name":"Uncletopia | Montr√©al | 1 | All Maps | STV","players":null},{"server_id":301,"name":"Uncletopia | Montr√©al | 2 | All Maps","name_short":"mtl-2","host":"mtl-1.ca.uncletopia.com","port":27025,"enabled":true,"region":"us-east","cc":"ca","latitude":45.50889,"longitude":-73.56167,"reserved":0,"last_update":"0001-01-01T00:00:00Z","name_a2s":"Uncletopia | Montr√©al | 2 | All Maps","protocol":17,"map":"koth_highpass","folder":"tf","game":"Team Fortress","app_id":440,"player_count":0,"max_players":24,"Bots":0,"server_type":"Dedicated","server_os":"Linux","password":true,"vac":true,"version":"7742253","steam_id":85568392924500088,"keywords":["cp","nocrits","nodmgspread","uncletopia"],"game_id":440,"stv_port":27026,"stv_name":"Uncletopia | Montr√©al | 2 | All Maps | STV","players":null},{"server_id":302,"name":"Uncletopia | Montr√©al | 3 | All Maps","name_short":"mtl-3","host":"mtl-1.ca.uncletopia.com","port":27035,"enabled":true,"region":"us-east","cc":"ca","latitude":45.50889,"longitude":-73.56167,"reserved":0,"last_update":"0001-01-01T00:00:00Z","name_a2s":"Uncletopia | Montr√©al | 3 | All Maps","protocol":17,"map":"cp_mountainlab","folder":"tf","game":"Team Fortress","app_id":440,"player_count":0,"max_players":24,"Bots":0,"server_type":"Dedicated","server_os":"Linux","password":true,"vac":true,"version":"7742253","steam_id":85568392924500089,"keywords":["cp","nocrits","nodmgspread","uncletopia"],"game_id":440,"stv_port":27036,"stv_name":"Uncletopia | Montr√©al | 3 | All Maps | STV","players":null},{"server_id":303,"name":"Uncletopia | Montr√©al | 4 | No Payload","name_short":"mtl-4","host":"mtl-1.ca.uncletopia.com","port":27045,"enabled":true,"region":"us-east","cc":"ca","latitude":45.50889,"longitude":-73.56167,"reserved":0,"last_update":"0001-01-01T00:00:00Z","name_a2s":"Uncletopia | Montr√©al | 4 | No Payload","protocol":17,"map":"cp_snakewater_final1","folder":"tf","game":"Team Fortress","app_id":440,"player_count":0,"max_players":24,"Bots":0,"server_type":"Dedicated","server_os":"Linux","password":true,"vac":true,"version":"7742253","steam_id":85568392924500090,"keywords":["cp","nocrits","nodmgspread","uncletopia"],"game_id":440,"stv_port":27046,"stv_name":"Uncletopia | Montr√©al | 4 | No Payload | STV","players":null},{"server_id":13,"name":"Uncletopia | New York City | 1 | All Maps","name_short":"nyc-1","host":"nyc-1.us.uncletopia.com","port":27015,"enabled":true,"region":"us-east","cc":"us","latitude":40.73061,"longitude":-73.93524,"reserved":0,"last_update":"0001-01-01T00:00:00Z","name_a2s":"Uncletopia | New York City | 1 | All Maps","protocol":17,"map":"pl_frontier_final","folder":"tf","game":"Team Fortress","app_id":440,"player_count":0,"max_players":24,"Bots":0,"server_type":"Dedicated","server_os":"Linux","password":true,"vac":true,"version":"7742253","steam_id":85568392924469993,"keywords":["nocrits","nodmgspread","payload","uncletopia"],"game_id":440,"stv_port":27016,"stv_name":"Uncletopia | New York City | 1 | All Maps | STV","players":null},{"server_id":14,"name":"Uncletopia | New York City | 2 | All Maps","name_short":"nyc-2","host":"nyc-1.us.uncletopia.com","port":27025,"enabled":true,"region":"us-east","cc":"us","latitude":40.73061,"longitude":-73.93524,"reserved":0,"last_update":"0001-01-01T00:00:00Z","name_a2s":"Uncletopia | New York City | 2 | All Maps","protocol":17,"map":"cp_altitude","folder":"tf","game":"Team Fortress","app_id":440,"player_count":0,"max_players":24,"Bots":0,"server_type":"Dedicated","server_os":"Linux","password":true,"vac":true,"version":"7742253","steam_id":85568392924469994,"keywords":["cp","nocrits","nodmgspread","uncletopia"],"game_id":440,"stv_port":27026,"stv_name":"Uncletopia | New York City | 2 | All Maps | STV","players":null},{"server_id":15,"name":"Uncletopia | New York City | 3 | Stopwatch Beta","name_short":"nyc-3","host":"nyc-1.us.uncletopia.com","port":27035,"enabled":true,"region":"us-east","cc":"us","latitude":40.73061,"longitude":-73.93524,"reserved":0,"last_update":"0001-01-01T00:00:00Z","name_a2s":"Uncletopia | New York City | 3 | Stopwatch Beta","protocol":17,"map":"pl_pier","folder":"tf","game":"Team Fortress","app_id":440,"player_count":0,"max_players":24,"Bots":0,"server_type":"Dedicated","server_os":"Linux","password":true,"vac":true,"version":"7742253","steam_id":85568392924742820,"keywords":["nocrits","nodmgspread","payload","uncletopia"],"game_id":440,"stv_port":27036,"stv_name":"Uncletopia | New York City | 3 | Stopwatch Beta | STV","players":null},{"server_id":16,"name":"Uncletopia | New York City | 4 | Community","name_short":"nyc-4","host":"nyc-1.us.uncletopia.com","port":27045,"enabled":true,"region":"us-east","cc":"us","latitude":40.73061,"longitude":-73.93524,"reserved":0,"last_update":"0001-01-01T00:00:00Z","name_a2s":"Uncletopia | New York City | 4 | Community","protocol":17,"map":"koth_viaduct","folder":"tf","game":"Team Fortress","app_id":440,"player_count":0,"max_players":24,"Bots":0,"server_type":"Dedicated","server_os":"Linux","password":true,"vac":true,"version":"7742253","steam_id":85568392924742821,"keywords":["cp","nocrits","nodmgspread","uncletopia"],"game_id":440,"stv_port":27046,"stv_name":"Uncletopia | New York City | 4 | Community | STV","players":null},{"server_id":142,"name":"Uncletopia | S√£o Paulo | 1 | All Maps","name_short":"sao-1","host":"sao-1.br.uncletopia.com","port":27015,"enabled":true,"region":"sa","cc":"br","latitude":-23.533773,"longitude":-46.62529,"reserved":0,"last_update":"0001-01-01T00:00:00Z","name_a2s":"Uncletopia | S√£o Paulo | 1 | All Maps","protocol":17,"map":"koth_viaduct","folder":"tf","game":"Team Fortress","app_id":440,"player_count":0,"max_players":24,"Bots":0,"server_type":"Dedicated","server_os":"Linux","password":true,"vac":true,"version":"7742253","steam_id":85568392924469996,"keywords":["cp","nocrits","nodmgspread","uncletopia"],"game_id":440,"stv_port":27016,"stv_name":"Uncletopia | S√£o Paulo | 1 | All Maps | STV","players":null},{"server_id":143,"name":"Uncletopia | S√£o Paulo | 2 | All Maps","name_short":"sao-2","host":"sao-2.br.uncletopia.com","port":27015,"enabled":true,"region":"sa","cc":"br","latitude":-23.533773,"longitude":-46.62529,"reserved":0,"last_update":"0001-01-01T00:00:00Z","name_a2s":"Uncletopia | S√£o Paulo | 2 | All Maps","protocol":17,"map":"koth_viaduct","folder":"tf","game":"Team Fortress","app_id":440,"player_count":0,"max_players":24,"Bots":0,"server_type":"Dedicated","server_os":"Linux","password":true,"vac":true,"version":"7742253","steam_id":85568392924485349,"keywords":["cp","nocrits","nodmgspread","uncletopia"],"game_id":440,"stv_port":27016,"stv_name":"Uncletopia | S√£o Paulo | 2 | All Maps | STV","players":null},{"server_id":7,"name":"Uncletopia | Seattle | 1 | All Maps","name_short":"sea-1","host":"sea-1.us.uncletopia.com","port":27015,"enabled":true,"region":"us-west","cc":"us","latitude":47.608013,"longitude":-122.33517,"reserved":0,"last_update":"0001-01-01T00:00:00Z","name_a2s":"Uncletopia | Seattle | 1 | All Maps","protocol":17,"map":"koth_harvest_final","folder":"tf","game":"Team Fortress","app_id":440,"player_count":0,"max_players":24,"Bots":0,"server_type":"Dedicated","server_os":"Linux","password":true,"vac":true,"version":"7742253","steam_id":85568392924469997,"keywords":["cp","nocrits","nodmgspread","uncletopia"],"game_id":440,"stv_port":27016,"stv_name":"Uncletopia | Seattle | 1 | All Maps | STV","players":null},{"server_id":119,"name":"Uncletopia | Seattle | 2 | All Maps","name_short":"sea-2","host":"sea-1.us.uncletopia.com","port":27025,"enabled":true,"region":"us-west","cc":"us","latitude":47.608013,"longitude":-122.33517,"reserved":0,"last_update":"0001-01-01T00:00:00Z","name_a2s":"Uncletopia | Seattle | 2 | All Maps","protocol":17,"map":"koth_cascade","folder":"tf","game":"Team Fortress","app_id":440,"player_count":0,"max_players":24,"Bots":0,"server_type":"Dedicated","server_os":"Linux","password":true,"vac":true,"version":"7742253","steam_id":85568392924469998,"keywords":["cp","nocrits","nodmgspread","uncletopia"],"game_id":440,"stv_port":27026,"stv_name":"Uncletopia | Seattle | 2 | All Maps | STV","players":null},{"server_id":406,"name":"Uncletopia | Seattle | 3 | Stopwatch Beta","name_short":"sea-3","host":"sea-1.us.uncletopia.com","port":27035,"enabled":true,"region":"us-west","cc":"us","latitude":47.608013,"longitude":-122.33517,"reserved":0,"last_update":"0001-01-01T00:00:00Z","name_a2s":"Uncletopia | Seattle | 3 | Stopwatch Beta","protocol":17,"map":"koth_highpass","folder":"tf","game":"Team Fortress","app_id":440,"player_count":0,"max_players":24,"Bots":0,"server_type":"Dedicated","server_os":"Linux","password":true,"vac":true,"version":"7742253","steam_id":85568392924515217,"keywords":["cp","nocrits","nodmgspread","uncletopia"],"game_id":440,"stv_port":27036,"stv_name":"Uncletopia | Seattle | 3 | Stopwatch Beta | STV","players":null},{"server_id":17,"name":"Uncletopia | San Francisco | 1 | All Maps","name_short":"sfo-1","host":"sfo-1.us.uncletopia.com","port":27015,"enabled":true,"region":"us-west","cc":"us","latitude":37.77397,"longitude":-122.4313,"reserved":0,"last_update":"0001-01-01T00:00:00Z","name_a2s":"Uncletopia | San Francisco | 1 | All Maps","protocol":17,"map":"pl_frontier_final","folder":"tf","game":"Team Fortress","app_id":440,"player_count":0,"max_players":24,"Bots":0,"server_type":"Dedicated","server_os":"Linux","password":true,"vac":true,"version":"7742253","steam_id":85568392924469999,"keywords":["nocrits","nodmgspread","payload","uncletopia"],"game_id":440,"stv_port":27016,"stv_name":"Uncletopia | San Francisco | 1 | All Maps | STV","players":null},{"server_id":18,"name":"Uncletopia | San Francisco | 2 | All Maps","name_short":"sfo-2","host":"sfo-1.us.uncletopia.com","port":27025,"enabled":true,"region":"us-west","cc":"us","latitude":37.77397,"longitude":-122.4313,"reserved":0,"last_update":"0001-01-01T00:00:00Z","name_a2s":"Uncletopia | San Francisco | 2 | All Maps","protocol":17,"map":"pl_borneo","folder":"tf","game":"Team Fortress","app_id":440,"player_count":12,"max_players":24,"Bots":0,"server_type":"Dedicated","server_os":"Linux","password":true,"vac":true,"version":"7742253","steam_id":85568392924470000,"keywords":["nocrits","nodmgspread","payload","uncletopia"],"game_id":440,"stv_port":27026,"stv_name":"Uncletopia | San Francisco | 2 | All Maps | STV","players":[{"user_id":296,"name":"Isopentyl Ethanoate","steam_id":76561198116389072,"connected_time":786000000000,"state":"active","ping":73},{"user_id":277,"name":"Captain Buggy","steam_id":76561198024444448,"connected_time":2224000000000,"state":"active","ping":49},{"user_id":292,"name":"Aperture Laboratories","steam_id":76561198072281743,"connected_time":982000000000,"state":"active","ping":91},{"user_id":299,"name":"ghost","steam_id":76561198196869867,"connected_time":224000000000,"state":"active","ping":215},{"user_id":291,"name":"Zigresho","steam_id":76561198063001589,"connected_time":1061000000000,"state":"active","ping":67},{"user_id":300,"name":"Crab12","steam_id":76561198398818373,"connected_time":111000000000,"state":"active","ping":105},{"user_id":297,"name":"YekkuUwU","steam_id":76561199349215012,"connected_time":640000000000,"state":"active","ping":217},{"user_id":281,"name":"alice's adventures in pyroland","steam_id":76561198325306660,"connected_time":1860000000000,"state":"active","ping":67},{"user_id":266,"name":"meow","steam_id":76561198298140571,"connected_time":3205000000000,"state":"active","ping":48},{"user_id":211,"name":"Soap Man","steam_id":76561198000490235,"connected_time":8631000000000,"state":"active","ping":79},{"user_id":212,"name":"sox","steam_id":76561198058474525,"connected_time":8626000000000,"state":"active","ping":87},{"user_id":248,"name":"crumbles","steam_id":76561198168707036,"connected_time":5305000000000,"state":"active","ping":47}]},{"server_id":19,"name":"Uncletopia | San Francisco | 3 | Stopwatch Beta","name_short":"sfo-3","host":"sfo-1.us.uncletopia.com","port":27035,"enabled":true,"region":"us-west","cc":"us","latitude":37.77397,"longitude":-122.4313,"reserved":0,"last_update":"0001-01-01T00:00:00Z","name_a2s":"Uncletopia | San Francisco | 3 | Stopwatch Beta","protocol":17,"map":"cp_granary","folder":"tf","game":"Team Fortress","app_id":440,"player_count":0,"max_players":24,"Bots":0,"server_type":"Dedicated","server_os":"Linux","password":true,"vac":true,"version":"7742253","steam_id":85568392924742824,"keywords":["cp","nocrits","nodmgspread","uncletopia"],"game_id":440,"stv_port":27036,"stv_name":"Uncletopia | San Francisco | 3 | Stopwatch Beta | STV","players":null},{"server_id":20,"name":"Uncletopia | San Francisco | 4 | Community","name_short":"sfo-4","host":"sfo-1.us.uncletopia.com","port":27045,"enabled":true,"region":"us-west","cc":"us","latitude":37.77397,"longitude":-122.4313,"reserved":0,"last_update":"0001-01-01T00:00:00Z","name_a2s":"Uncletopia | San Francisco | 4 | Community","protocol":17,"map":"workshop/cp_villa_b19.ugc2113052569","folder":"tf","game":"Team Fortress","app_id":440,"player_count":0,"max_players":24,"Bots":0,"server_type":"Dedicated","server_os":"Linux","password":true,"vac":true,"version":"7742253","steam_id":85568392924742826,"keywords":["cp","nocrits","nodmgspread","uncletopia"],"game_id":440,"stv_port":27046,"stv_name":"Uncletopia | San Francisco | 4 | Community | STV","players":null},{"server_id":141,"name":"Uncletopia | Sydney | 1 | All Maps","name_short":"syd-1","host":"syd-1.au.uncletopia.com","port":27015,"enabled":true,"region":"au","cc":"au","latitude":-33.865143,"longitude":151.2099,"reserved":0,"last_update":"0001-01-01T00:00:00Z","name_a2s":"Uncletopia | Sydney | 1 | All Maps","protocol":17,"map":"pl_pier","folder":"tf","game":"Team Fortress","app_id":440,"player_count":20,"max_players":24,"Bots":0,"server_type":"Dedicated","server_os":"Linux","password":true,"vac":true,"version":"7742253","steam_id":85568392924470001,"keywords":["nocrits","nodmgspread","payload","uncletopia"],"game_id":440,"stv_port":27016,"stv_name":"Uncletopia | Sydney | 1 | All Maps | STV","players":[{"user_id":693,"name":"Genuline","steam_id":76561198126426787,"connected_time":1015000000000,"state":"active","ping":48},{"user_id":683,"name":"CosmicGoonBag","steam_id":76561199431183679,"connected_time":1633000000000,"state":"active","ping":113},{"user_id":701,"name":"nightmare2503","steam_id":76561199100642588,"connected_time":62000000000,"state":"active","ping":59},{"user_id":686,"name":"Kremmen","steam_id":76561198051368641,"connected_time":1338000000000,"state":"active","ping":67},{"user_id":702,"name":"Branko","steam_id":76561199262196710,"connected_time":31000000000,"state":"active","ping":57},{"user_id":703,"name":"Gamma","steam_id":76561198281131757,"connected_time":23000000000,"state":"spawning","ping":101},{"user_id":674,"name":"Yric","steam_id":76561198050493469,"connected_time":2234000000000,"state":"active","ping":58},{"user_id":700,"name":"wombraider","steam_id":76561199375834537,"connected_time":276000000000,"state":"active","ping":122},{"user_id":697,"name":"artel","steam_id":76561198013735219,"connected_time":503000000000,"state":"active","ping":52},{"user_id":704,"name":"Masonnzn","steam_id":76561199191576471,"connected_time":4000000000,"state":"spawning","ping":236},{"user_id":688,"name":"Empr","steam_id":76561198024387396,"connected_time":1268000000000,"state":"active","ping":64},{"user_id":668,"name":"LeoJoeD","steam_id":76561198161848749,"connected_time":2899000000000,"state":"active","ping":42},{"user_id":636,"name":"Yeehaw","steam_id":76561198039684922,"connected_time":4427000000000,"state":"active","ping":38},{"user_id":638,"name":"Soru","steam_id":76561198010844786,"connected_time":4375000000000,"state":"active","ping":60},{"user_id":690,"name":"Blazey ‰ºäÈÅî ÊîøÂÆó","steam_id":76561197971082275,"connected_time":1202000000000,"state":"active","ping":115},{"user_id":695,"name":"NoodlesFade","steam_id":76561198207940839,"connected_time":949000000000,"state":"active","ping":45},{"user_id":673,"name":"tobys carvery","steam_id":76561198061532381,"connected_time":2254000000000,"state":"active","ping":45},{"user_id":681,"name":"Squidacus","steam_id":76561198079003268,"connected_time":1806000000000,"state":"active","ping":96},{"user_id":654,"name":"HAND BANANA","steam_id":76561197960279341,"connected_time":3862000000000,"state":"active","ping":41},{"user_id":694,"name":"Extra Exotic","steam_id":76561198045191981,"connected_time":1014000000000,"state":"active","ping":58}]},{"server_id":123,"name":"Uncletopia | Sydney | 2 | All Maps","name_short":"syd-2","host":"syd-1.au.uncletopia.com","port":27025,"enabled":true,"region":"au","cc":"au","latitude":-33.865143,"longitude":151.2099,"reserved":0,"last_update":"0001-01-01T00:00:00Z","name_a2s":"Uncletopia | Sydney | 2 | All Maps","protocol":17,"map":"koth_viaduct","folder":"tf","game":"Team Fortress","app_id":440,"player_count":0,"max_players":24,"Bots":0,"server_type":"Dedicated","server_os":"Linux","password":true,"vac":true,"version":"7742253","steam_id":85568392924470002,"keywords":["cp","nocrits","nodmgspread","uncletopia"],"game_id":440,"stv_port":27026,"stv_name":"Uncletopia | Sydney | 2 | All Maps | STV","players":null},{"server_id":395,"name":"Uncletopia | Sydney | 3 | All Maps","name_short":"syd-3","host":"syd-1.au.uncletopia.com","port":27035,"enabled":true,"region":"au","cc":"au","latitude":-33.865143,"longitude":151.2099,"reserved":0,"last_update":"0001-01-01T00:00:00Z","name_a2s":"Uncletopia | Sydney | 3 | All Maps","protocol":17,"map":"koth_cascade","folder":"tf","game":"Team Fortress","app_id":440,"player_count":0,"max_players":24,"Bots":0,"server_type":"Dedicated","server_os":"Linux","password":true,"vac":true,"version":"7742253","steam_id":85568392925194467,"keywords":["cp","nocrits","nodmgspread","uncletopia"],"game_id":440,"stv_port":27036,"stv_name":"Uncletopia | Sydney | 3 | All Maps | STV","players":null},{"server_id":396,"name":"Uncletopia | Sydney | 4 | All Maps","name_short":"syd-4","host":"syd-1.au.uncletopia.com","port":27045,"enabled":true,"region":"au","cc":"au","latitude":-33.865143,"longitude":151.2099,"reserved":0,"last_update":"0001-01-01T00:00:00Z","name_a2s":"Uncletopia | Sydney | 4 | All Maps","protocol":17,"map":"koth_viaduct","folder":"tf","game":"Team Fortress","app_id":440,"player_count":0,"max_players":24,"Bots":0,"server_type":"Dedicated","server_os":"Linux","password":true,"vac":true,"version":"7742253","steam_id":85568392925397958,"keywords":["cp","nocrits","nodmgspread","uncletopia"],"game_id":440,"stv_port":27046,"stv_name":"Uncletopia | Sydney | 4 | All Maps | STV","players":null},{"server_id":58,"name":"Uncletopia | Sydney | 5 | Stopwatch Beta","name_short":"syd-5","host":"syd-1.au.uncletopia.com","port":27055,"enabled":true,"region":"au","cc":"au","latitude":-33.865143,"longitude":151.2099,"reserved":0,"last_update":"0001-01-01T00:00:00Z","name_a2s":"Uncletopia | Sydney | 5 | Stopwatch Beta","protocol":17,"map":"koth_highpass","folder":"tf","game":"Team Fortress","app_id":440,"player_count":0,"max_players":24,"Bots":0,"server_type":"Dedicated","server_os":"Linux","password":true,"vac":true,"version":"7742253","steam_id":85568392925397959,"keywords":["cp","nocrits","nodmgspread","uncletopia"],"game_id":440,"stv_port":27056,"stv_name":"Uncletopia | Sydney | 5 | Stopwatch Beta | STV","players":null},{"server_id":59,"name":"Uncletopia | Sydney | 6 | Community","name_short":"syd-6","host":"syd-1.au.uncletopia.com","port":27065,"enabled":true,"region":"au","cc":"au","latitude":-33.865143,"longitude":151.2099,"reserved":0,"last_update":"0001-01-01T00:00:00Z","name_a2s":"Uncletopia | Sydney | 6 | Community","protocol":17,"map":"workshop/koth_slaughter_rc1.ugc1712845210","folder":"tf","game":"Team Fortress","app_id":440,"player_count":0,"max_players":24,"Bots":0,"server_type":"Dedicated","server_os":"Linux","password":true,"vac":true,"version":"7742253","steam_id":85568392925397960,"keywords":["cp","nocrits","nodmgspread","uncletopia"],"game_id":440,"stv_port":27066,"stv_name":"Uncletopia | Sydney | 6 | Community | STV","players":null},{"server_id":49,"name":"Uncletopia | Warsaw | 1 | All Maps","name_short":"waw-1","host":"waw-1.pl.uncletopia.com","port":27015,"enabled":true,"region":"eu","cc":"pl","latitude":52.2297,"longitude":21.017532,"reserved":0,"last_update":"0001-01-01T00:00:00Z","name_a2s":"","protocol":0,"map":"","folder":"","game":"","app_id":0,"player_count":0,"max_players":0,"Bots":0,"server_type":"","server_os":"","password":false,"vac":false,"version":"","steam_id":0,"keywords":null,"game_id":0,"stv_port":0,"stv_name":"","players":null},{"server_id":50,"name":"Uncletopia | Warsaw | 2 | All Maps","name_short":"waw-2","host":"waw-1.pl.uncletopia.com","port":27025,"enabled":true,"region":"eu","cc":"pl","latitude":52.2297,"longitude":21.017532,"reserved":0,"last_update":"0001-01-01T00:00:00Z","name_a2s":"Uncletopia | Warsaw | 2 | All Maps","protocol":17,"map":"koth_lakeside_final","folder":"tf","game":"Team Fortress","app_id":440,"player_count":0,"max_players":24,"Bots":0,"server_type":"Dedicated","server_os":"Linux","password":true,"vac":true,"version":"7742253","steam_id":85568392925397851,"keywords":["cp","nocrits","nodmgspread","uncletopia"],"game_id":440,"stv_port":27026,"stv_name":"Uncletopia | Warsaw | 2 | All Maps | STV","players":null},{"server_id":51,"name":"Uncletopia | Warsaw | 3 | All Maps","name_short":"waw-3","host":"waw-1.pl.uncletopia.com","port":27035,"enabled":true,"region":"eu","cc":"pl","latitude":52.2297,"longitude":21.017532,"reserved":0,"last_update":"0001-01-01T00:00:00Z","name_a2s":"Uncletopia | Warsaw | 3 | All Maps","protocol":17,"map":"koth_lakeside_final","folder":"tf","game":"Team Fortress","app_id":440,"player_count":0,"max_players":24,"Bots":0,"server_type":"Dedicated","server_os":"Linux","password":true,"vac":true,"version":"7742253","steam_id":85568392925397852,"keywords":["cp","nocrits","nodmgspread","uncletopia"],"game_id":440,"stv_port":27036,"stv_name":"Uncletopia | Warsaw | 3 | All Maps | STV","players":null},{"server_id":52,"name":"Uncletopia | Warsaw | 4 | All Maps","name_short":"waw-4","host":"waw-1.pl.uncletopia.com","port":27045,"enabled":true,"region":"eu","cc":"pl","latitude":52.2297,"longitude":21.017532,"reserved":0,"last_update":"0001-01-01T00:00:00Z","name_a2s":"Uncletopia | Warsaw | 4 | All Maps","protocol":17,"map":"cp_snakewater_final1","folder":"tf","game":"Team Fortress","app_id":440,"player_count":0,"max_players":24,"Bots":0,"server_type":"Dedicated","server_os":"Linux","password":true,"vac":true,"version":"7742253","steam_id":85568392925397853,"keywords":["cp","nocrits","nodmgspread","uncletopia"],"game_id":440,"stv_port":27046,"stv_name":"Uncletopia | Warsaw | 4 | All Maps | STV","players":null},{"server_id":53,"name":"Uncletopia | Warsaw | 5 | Stopwatch Beta","name_short":"waw-5","host":"waw-1.pl.uncletopia.com","port":27055,"enabled":true,"region":"eu","cc":"pl","latitude":52.2297,"longitude":21.017532,"reserved":0,"last_update":"0001-01-01T00:00:00Z","name_a2s":"Uncletopia | Warsaw | 5 | Stopwatch Beta","protocol":17,"map":"pl_swiftwater_final1","folder":"tf","game":"Team Fortress","app_id":440,"player_count":0,"max_players":24,"Bots":0,"server_type":"Dedicated","server_os":"Linux","password":true,"vac":true,"version":"7742253","steam_id":85568392925397854,"keywords":["nocrits","nodmgspread","payload","uncletopia"],"game_id":440,"stv_port":27056,"stv_name":"Uncletopia | Warsaw | 5 | Stopwatch Beta | STV","players":null},{"server_id":54,"name":"Uncletopia | Warsaw | 6 | Community","name_short":"waw-6","host":"waw-1.pl.uncletopia.com","port":27065,"enabled":true,"region":"eu","cc":"pl","latitude":52.2297,"longitude":21.017532,"reserved":0,"last_update":"0001-01-01T00:00:00Z","name_a2s":"Uncletopia | Warsaw | 6 | Community","protocol":17,"map":"koth_highpass","folder":"tf","game":"Team Fortress","app_id":440,"player_count":0,"max_players":24,"Bots":0,"server_type":"Dedicated","server_os":"Linux","password":true,"vac":true,"version":"7742253","steam_id":85568392925397856,"keywords":["cp","nocrits","nodmgspread","uncletopia"],"game_id":440,"stv_port":27066,"stv_name":"Uncletopia | Warsaw | 6 | Community | STV","players":null}]}