{"status":true,"message":"","result":[{"server_id":9,"name":"Uncletopia | Atlanta | 1 | All Maps","name_short":"atl-1","host":"atl-1.us.uncletopia.com","port":27015,"enabled":true,"region":"us-east","cc":"us","latitude":33.753746,"longitude":-84.38633,"reserved":0,"last_update":"0001-01-01T00:00:00Z","name_a2s":"Uncletopia | Atlanta | 1 | All Maps","protocol":17,"map":"cp_yukon_final","folder":"tf","game":"Team Fortress","app_id":440,"player_count":24,"max_players":24,"Bots":0,"server_type":"Dedicated","server_os":"Linux","password":true,"vac":true,"version":"7757534","steam_id":85568392924469982,"keywords":["cp","nocrits","nodmgspread","uncletopia"],"game_id":440,"stv_port":27016,"stv_name":"Uncletopia | Atlanta | 1 | All Maps | STV","players":[{"user_id":440,"name":"ATL1 | Bandi","steam_id":76561198432036026,"connected_time":4765000000000,"state":"active","ping":51},{"user_id":428,"name":"com lag","steam_id":76561198019019392,"connected_time":5441000000000,"state":"active","ping":61},{"user_id":476,"name":"You Want Me","steam_id":76561198135492119,"connected_time":1277000000000,"state":"active","ping":71},{"user_id":469,"name":"♡Alyx♡","steam_id":76561198024303978,"connected_time":2218000000000,"state":"active","ping":58},{"user_id":472,"name":"Bottom Trans Cowgirl","steam_id":76561198304239680,"connected_time":1476000000000,"state":"active","ping":73},{"user_id":439,"name":"melancholy","steam_id":76561198024301465,"connected_time":4769000000000,"state":"active","ping":42},{"user_id":457,"name":"BIG HOG","steam_id":76561198079923652,"connected_time":3256000000000,"state":"active","ping":75},{"user_id":484,"name":"Spiderfight1","steam_id":76561199189991528,"connected_time":417000000000,"state":"active","ping":72},{"user_id":458,"name":"Yukko Aioi TF2","steam_id":76561198889857835,"connected_time":3256000000000,"state":"active","ping":137},{"user_id":325,"name":"Firebug","steam_id":76561198081832157,"connected_time":14979000000000,"state":"active","ping":76},{"user_id":478,"name":"HOG1 | Moderate Hog","steam_id":76561198299175965,"connected_time":1217000000000,"state":"active","ping":57},{"user_id":475,"name":"FemboyNate","steam_id":76561198146636410,"connected_time":1309000000000,"state":"active","ping":59},{"user_id":485,"name":"BaconLol","steam_id":76561199125317999,"connected_time":386000000000,"state":"active","ping":175},{"user_id":447,"name":"David De Bergerac","steam_id":76561198010306294,"connected_time":4046000000000,"state":"active","ping":86},{"user_id":480,"name":"O'Keearns","steam_id":76561198042213797,"connected_time":1076000000000,"state":"active","ping":44},{"user_id":486,"name":"wretched thing","steam_id":76561198120973162,"connected_time":381000000000,"state":"active","ping":85},{"user_id":474,"name":"Oddball","steam_id":76561198040440984,"connected_time":1377000000000,"state":"active","ping":100},{"user_id":482,"name":"atl1icyy","steam_id":76561198968001329,"connected_time":671000000000,"state":"active","ping":46},{"user_id":333,"name":"Frimpimy","steam_id":76561198142605675,"connected_time":14263000000000,"state":"active","ping":90},{"user_id":468,"name":"Decolour","steam_id":76561199045608372,"connected_time":2371000000000,"state":"active","ping":73},{"user_id":451,"name":"lil hog","steam_id":76561199230929836,"connected_time":3536000000000,"state":"active","ping":85},{"user_id":488,"name":"ATL1 | Pango","steam_id":76561198069811545,"connected_time":20000000000,"state":"spawning","ping":80},{"user_id":377,"name":"cheeks","steam_id":76561197993371179,"connected_time":11021000000000,"state":"active","ping":45},{"user_id":403,"name":"Brian","steam_id":76561198089908485,"connected_time":9057000000000,"state":"active","ping":60}]},{"server_id":400,"name":"Uncletopia | Atlanta | 3 | Community","name_short":"atl-3","host":"atl-1.us.uncletopia.com","port":27035,"enabled":true,"region":"us-east","cc":"us","latitude":33.753746,"longitude":-84.38633,"reserved":0,"last_update":"0001-01-01T00:00:00Z","name_a2s":"Uncletopia | Atlanta | 3 | Community","protocol":17,"map":"workshop/pl_emerge_rc2.ugc888027758","folder":"tf","game":"Team Fortress","app_id":440,"player_count":0,"max_players":24,"Bots":0,"server_type":"Dedicated","server_os":"Linux","password":true,"vac":true,"version":"7757534","steam_id":85568392924515187,"keywords":["nocrits","nodmgspread","payload","uncletopia"],"game_id":440,"stv_port":27036,"stv_name":"Uncletopia | Atlanta | 3 | Community | STV","players":null},{"server_id":401,"name":"Uncletopia | Atlanta | 4 | No Payload","name_short":"atl-4","host":"atl-1.us.uncletopia.com","port":27045,"enabled":true,"region":"us-east","cc":"us","latitude":33.753746,"longitude":-84.38633,"reserved":0,"last_update":"0001-01-01T00:00:00Z","name_a2s":"","protocol":0,"map":"","folder":"","game":"","app_id":0,"player_count":0,"max_players":0,"Bots":0,"server_type":"","server_os":"","password":false,"vac":false,"version":"","steam_id":0,"keywords":null,"game_id":0,"stv_port":0,"stv_name":"","players":null},{"server_id":2,"name":"Uncletopia | Chicago | 1 | All Maps","name_short":"chi-1","host":"chi-1.us.uncletopia.com","port":27015,"enabled":true,"region":"us-central","cc":"us","latitude":41.881832,"longitude":-87.62318,"reserved":0,"last_update":"0001-01-01T00:00:00Z","name_a2s":"Uncletopia | Chicago | 1 | All Maps","protocol":17,"map":"cp_altitude","folder":"tf","game":"Team Fortress","app_id":440,"player_count":24,"max_players":24,"Bots":0,"server_type":"Dedicated","server_os":"Linux","password":true,"vac":true,"version":"7757534","steam_id":85568392924469984,"keywords":["cp","nocrits","nodmgspread","uncletopia"],"game_id":440,"stv_port":27016,"stv_name":"Uncletopia | Chicago | 1 | All Maps | STV","players":[{"user_id":250,"name":"Dot.","steam_id":76561198149463984,"connected_time":4161000000000,"state":"active","ping":46},{"user_id":270,"name":"What am i covered in?","steam_id":76561198028349444,"connected_time":3080000000000,"state":"active","ping":45},{"user_id":296,"name":"LunarrD","steam_id":76561198811220107,"connected_time":439000000000,"state":"active","ping":79},{"user_id":298,"name":"Seller of Waffles","steam_id":76561198296018138,"connected_time":391000000000,"state":"active","ping":63},{"user_id":241,"name":"worker","steam_id":76561198039608940,"connected_time":4337000000000,"state":"active","ping":115},{"user_id":278,"name":"Rein","steam_id":76561198300340427,"connected_time":1971000000000,"state":"active","ping":63},{"user_id":235,"name":"Apollite","steam_id":76561198071669801,"connected_time":4532000000000,"state":"active","ping":60},{"user_id":306,"name":"evan_is_sauce","steam_id":76561199086802383,"connected_time":132000000000,"state":"active","ping":103},{"user_id":282,"name":"Kritzburgh","steam_id":76561198149466938,"connected_time":1847000000000,"state":"active","ping":62},{"user_id":271,"name":"Azula's #1 Fan","steam_id":76561198133111058,"connected_time":3031000000000,"state":"active","ping":74},{"user_id":236,"name":"Dokkibai","steam_id":76561198355935693,"connected_time":4507000000000,"state":"active","ping":46},{"user_id":275,"name":"Acehay14","steam_id":76561198052373291,"connected_time":2360000000000,"state":"active","ping":55},{"user_id":297,"name":"SinkPinkles","steam_id":76561197987805095,"connected_time":410000000000,"state":"active","ping":89},{"user_id":290,"name":"Roggan?","steam_id":76561198144260455,"connected_time":1060000000000,"state":"active","ping":85},{"user_id":299,"name":"swooce","steam_id":76561198156232484,"connected_time":389000000000,"state":"active","ping":69},{"user_id":300,"name":"josh","steam_id":76561198111565081,"connected_time":365000000000,"state":"active","ping":111},{"user_id":301,"name":"Skeleton Hotel","steam_id":76561198041704727,"connected_time":364000000000,"state":"active","ping":60},{"user_id":264,"name":"Sableye","steam_id":76561198061247147,"connected_time":3434000000000,"state":"active","ping":72},{"user_id":302,"name":"Lawnmower","steam_id":76561198186680197,"connected_time":353000000000,"state":"active","ping":105},{"user_id":293,"name":"Ehttri","steam_id":76561198170138667,"connected_time":567000000000,"state":"active","ping":77},{"user_id":303,"name":"Penrose42","steam_id":76561198288577396,"connected_time":330000000000,"state":"active","ping":87},{"user_id":292,"name":"Generic Username","steam_id":76561199117508128,"connected_time":865000000000,"state":"active","ping":85},{"user_id":294,"name":"Pizza","steam_id":76561198207407833,"connected_time":562000000000,"state":"active","ping":75},{"user_id":304,"name":"silphcon","steam_id":76561198167327682,"connected_time":327000000000,"state":"active","ping":85}]},{"server_id":106,"name":"Uncletopia | Chicago | 2 | All Maps","name_short":"chi-2","host":"chi-1.us.uncletopia.com","port":27025,"enabled":true,"region":"us-central","cc":"us","latitude":41.881832,"longitude":-87.62318,"reserved":0,"last_update":"0001-01-01T00:00:00Z","name_a2s":"Uncletopia | Chicago | 2 | All Maps","protocol":17,"map":"pl_swiftwater_final1","folder":"tf","game":"Team Fortress","app_id":440,"player_count":17,"max_players":24,"Bots":0,"server_type":"Dedicated","server_os":"Linux","password":true,"vac":true,"version":"7757534","steam_id":85568392924469985,"keywords":["nocrits","nodmgspread","payload","uncletopia"],"game_id":440,"stv_port":27026,"stv_name":"Uncletopia | Chicago | 2 | All Maps | STV","players":[{"user_id":202,"name":"avo toast","steam_id":76561198339644583,"connected_time":1415000000000,"state":"active","ping":56},{"user_id":217,"name":"kite","steam_id":76561198346516392,"connected_time":947000000000,"state":"active","ping":70},{"user_id":224,"name":"Dookie","steam_id":76561198354025894,"connected_time":46000000000,"state":"active","ping":56},{"user_id":176,"name":"countrychefbeerboy92","steam_id":76561198132476501,"connected_time":3717000000000,"state":"active","ping":51},{"user_id":200,"name":"Arnude","steam_id":76561198128553858,"connected_time":1921000000000,"state":"active","ping":67},{"user_id":223,"name":"LemonLimeSoda","steam_id":76561198287682469,"connected_time":209000000000,"state":"active","ping":65},{"user_id":225,"name":"Kapitan Bomba","steam_id":76561199102087660,"connected_time":3000000000,"state":"spawning","ping":47},{"user_id":188,"name":"4 life","steam_id":76561198175961598,"connected_time":3171000000000,"state":"active","ping":114},{"user_id":222,"name":"Johnny Lawrence #JohnnyMaxxing","steam_id":76561199367141671,"connected_time":258000000000,"state":"active","ping":59},{"user_id":203,"name":"Quark","steam_id":76561198328155605,"connected_time":1404000000000,"state":"active","ping":53},{"user_id":205,"name":"Cat","steam_id":76561198027383284,"connected_time":1378000000000,"state":"active","ping":155},{"user_id":189,"name":"cotton candy thief","steam_id":76561198058998371,"connected_time":2917000000000,"state":"active","ping":66},{"user_id":211,"name":"soup","steam_id":76561198077790130,"connected_time":1212000000000,"state":"active","ping":53},{"user_id":206,"name":"wuddles","steam_id":76561198025782349,"connected_time":1377000000000,"state":"active","ping":95},{"user_id":201,"name":"Obama F. Kennedy","steam_id":76561198282499318,"connected_time":1433000000000,"state":"active","ping":54},{"user_id":207,"name":".Mei","steam_id":76561198133887117,"connected_time":1340000000000,"state":"active","ping":76},{"user_id":209,"name":"BUNGER","steam_id":76561198131703086,"connected_time":1333000000000,"state":"active","ping":71}]},{"server_id":402,"name":"Uncletopia | Chicago | 3 | All Maps","name_short":"chi-3","host":"chi-1.us.uncletopia.com","port":27035,"enabled":true,"region":"us-central","cc":"us","latitude":41.881832,"longitude":-87.62318,"reserved":0,"last_update":"0001-01-01T00:00:00Z","name_a2s":"Uncletopia | Chicago | 3 | All Maps","protocol":17,"map":"pl_upward","folder":"tf","game":"Team Fortress","app_id":440,"player_count":24,"max_players":24,"Bots":0,"server_type":"Dedicated","server_os":"Linux","password":true,"vac":true,"version":"7757534","steam_id":85568392924515191,"keywords":["nocrits","nodmgspread","payload","uncletopia"],"game_id":440,"stv_port":27036,"stv_name":"Uncletopia | Chicago | 3 | All Maps | STV","players":[{"user_id":16,"name":"drillerman115","steam_id":76561198362523323,"connected_time":4866000000000,"state":"active","ping":108},{"user_id":111,"name":"Defragmented","steam_id":76561198854210081,"connected_time":381000000000,"state":"active","ping":71},{"user_id":112,"name":"BigBubble42","steam_id":76561198136286123,"connected_time":258000000000,"state":"active","ping":60},{"user_id":92,"name":"RiverEgg","steam_id":76561198888913405,"connected_time":1226000000000,"state":"active","ping":54},{"user_id":81,"name":"CptOblivious","steam_id":76561197970150813,"connected_time":1647000000000,"state":"active","ping":70},{"user_id":24,"name":"watchfull","steam_id":76561198433266742,"connected_time":3250000000000,"state":"active","ping":95},{"user_id":25,"name":"The Lasagna Hunter","steam_id":76561199222602638,"connected_time":3235000000000,"state":"active","ping":87},{"user_id":108,"name":"Sqiddwr","steam_id":76561197998071622,"connected_time":703000000000,"state":"active","ping":88},{"user_id":105,"name":"brian enotown massacre","steam_id":76561198109901138,"connected_time":846000000000,"state":"active","ping":75},{"user_id":82,"name":"yoshido","steam_id":76561198846313229,"connected_time":1646000000000,"state":"active","ping":45},{"user_id":89,"name":"Rat Bastard","steam_id":76561198153443658,"connected_time":1330000000000,"state":"active","ping":83},{"user_id":110,"name":"UnHoly Fiend","steam_id":76561198261037986,"connected_time":431000000000,"state":"active","ping":69},{"user_id":102,"name":"Tator007","steam_id":76561198137292890,"connected_time":910000000000,"state":"active","ping":61},{"user_id":103,"name":"majorbobfunction","steam_id":76561198042464632,"connected_time":876000000000,"state":"active","ping":59},{"user_id":107,"name":"Gary Budussy","steam_id":76561197969793969,"connected_time":786000000000,"state":"active","ping":65},{"user_id":38,"name":"Brain Rot Zee","steam_id":76561198094070642,"connected_time":2577000000000,"state":"active","ping":100},{"user_id":113,"name":"Average Gibus Enjoyer","steam_id":76561198300953867,"connected_time":93000000000,"state":"active","ping":91},{"user_id":106,"name":"jake","steam_id":76561199406261605,"connected_time":812000000000,"state":"active","ping":75},{"user_id":67,"name":"drdoofus123","steam_id":76561198016826181,"connected_time":2253000000000,"state":"active","ping":70},{"user_id":90,"name":"recycle","steam_id":76561198819562111,"connected_time":1322000000000,"state":"active","ping":67},{"user_id":97,"name":"adrenaline","steam_id":76561198077902438,"connected_time":1113000000000,"state":"active","ping":74},{"user_id":104,"name":"Egg Guzzler","steam_id":76561199109194893,"connected_time":850000000000,"state":"active","ping":90},{"user_id":91,"name":"who is gavin?","steam_id":76561198069415057,"connected_time":1278000000000,"state":"active","ping":60},{"user_id":75,"name":"ChaingunnerFails","steam_id":76561198963075967,"connected_time":2032000000000,"state":"active","ping":121}]},{"server_id":403,"name":"Uncletopia | Chicago | 4 | All Maps","name_short":"chi-4","host":"chi-1.us.uncletopia.com","port":27045,"enabled":true,"region":"us-central","cc":"us","latitude":41.881832,"longitude":-87.62318,"reserved":0,"last_update":"0001-01-01T00:00:00Z","name_a2s":"Uncletopia | Chicago | 4 | All Maps","protocol":17,"map":"koth_cascade","folder":"tf","game":"Team Fortress","app_id":440,"player_count":0,"max_players":24,"Bots":0,"server_type":"Dedicated","server_os":"Linux","password":true,"vac":true,"version":"7757534","steam_id":85568392924515193,"keywords":["cp","nocrits","nodmgspread","uncletopia"],"game_id":440,"stv_port":27046,"stv_name":"Uncletopia | Chicago | 4 | All Maps | STV","players":null},{"server_id":36,"name":"Uncletopia | Chicago | 5 | All Maps","name_short":"chi-5","host":"chi-2.us.uncletopia.com","port":27015,"enabled":true,"region":"us-central","cc":"us","latitude":41.881832,"longitude":-87.62318,"reserved":0,"last_update":"0001-01-01T00:00:00Z","name_a2s":"Uncletopia | Chicago | 5 | All Maps","protocol":17,"map":"koth_lakeside_final","folder":"tf","game":"Team Fortress","app_id":440,"player_count":6,"max_players":24,"Bots":0,"server_type":"Dedicated","server_os":"Linux","password":true,"vac":true,"version":"7757534","steam_id":85568392924866362,"keywords":["cp","nocrits","nodmgspread","uncletopia"],"game_id":440,"stv_port":27016,"stv_name":"Uncletopia | Chicago | 5 | All Maps | STV","players":[{"user_id":4,"name":"DotBozo","steam_id":76561199131091835,"connected_time":4176000000000,"state":"active","ping":53},{"user_id":14,"name":"henrygrey488","steam_id":76561199455086258,"connected_time":2176000000000,"state":"active","ping":51},{"user_id":16,"name":"DJ Creeper","steam_id":76561199399959639,"connected_time":1473000000000,"state":"active","ping":78},{"user_id":23,"name":"the_capybara_bandit","steam_id":76561198372030749,"connected_time":161000000000,"state":"active","ping":78},{"user_id":21,"name":"dinomikk09","steam_id":76561198337514637,"connected_time":431000000000,"state":"active","ping":67},{"user_id":22,"name":"bbsw1","steam_id":76561198892646307,"connected_time":416000000000,"state":"active","ping":72}]},{"server_id":37,"name":"Uncletopia | Chicago | 6 | All Maps","name_short":"chi-6","host":"chi-2.us.uncletopia.com","port":27025,"enabled":true,"region":"us-central","cc":"us","latitude":41.881832,"longitude":-87.62318,"reserved":0,"last_update":"0001-01-01T00:00:00Z","name_a2s":"Uncletopia | Chicago | 6 | All Maps","protocol":17,"map":"pl_pier","folder":"tf","game":"Team Fortress","app_id":440,"player_count":23,"max_players":24,"Bots":0,"server_type":"Dedicated","server_os":"Linux","password":true,"vac":true,"version":"7757534","steam_id":85568392924866363,"keywords":["nocrits","nodmgspread","payload","uncletopia"],"game_id":440,"stv_port":27026,"stv_name":"Uncletopia | Chicago | 6 | All Maps | STV","players":[{"user_id":96,"name":"PrinceGrotle","steam_id":76561198206131603,"connected_time":737000000000,"state":"active","ping":69},{"user_id":87,"name":"ECCO","steam_id":76561198002821513,"connected_time":1311000000000,"state":"active","ping":59},{"user_id":54,"name":"Fluffeline","steam_id":76561198352909489,"connected_time":3562000000000,"state":"active","ping":144},{"user_id":105,"name":"Bilgecrank","steam_id":76561197967191751,"connected_time":506000000000,"state":"active","ping":89},{"user_id":97,"name":"The_Pacific_gamer","steam_id":76561198089491446,"connected_time":713000000000,"state":"active","ping":90},{"user_id":82,"name":"AverageRundownJoe","steam_id":76561198059359620,"connected_time":1464000000000,"state":"active","ping":72},{"user_id":71,"name":"bojack from the show bojack hor","steam_id":76561198053006712,"connected_time":1889000000000,"state":"active","ping":49},{"user_id":88,"name":"Habber The Quesomancer","steam_id":76561198049642751,"connected_time":1300000000000,"state":"active","ping":62},{"user_id":93,"name":"floral green","steam_id":76561198332519926,"connected_time":908000000000,"state":"active","ping":79},{"user_id":81,"name":"Lord GabeN","steam_id":76561198140862723,"connected_time":1559000000000,"state":"active","ping":71},{"user_id":74,"name":"she sucked me in a peculiar way","steam_id":76561198081220016,"connected_time":1856000000000,"state":"active","ping":50},{"user_id":79,"name":"nhbiker","steam_id":76561198081277675,"connected_time":1697000000000,"state":"active","ping":57},{"user_id":99,"name":"Cousin Corn on the Cob","steam_id":76561198049837377,"connected_time":651000000000,"state":"active","ping":51},{"user_id":109,"name":"YES YES YES","steam_id":76561198969592244,"connected_time":206000000000,"state":"active","ping":91},{"user_id":101,"name":"Goku","steam_id":76561198064143198,"connected_time":594000000000,"state":"active","ping":53},{"user_id":90,"name":"RandoTheGameGuy","steam_id":76561198179927539,"connected_time":1100000000000,"state":"active","ping":93},{"user_id":102,"name":"I Lead MLB In \"Bats Eaten\"","steam_id":76561198034079853,"connected_time":583000000000,"state":"active","ping":73},{"user_id":92,"name":"Kidzbopsicle","steam_id":76561198047660691,"connected_time":1048000000000,"state":"active","ping":48},{"user_id":46,"name":"Mintavious The Third","steam_id":76561198235953338,"connected_time":3823000000000,"state":"active","ping":62},{"user_id":107,"name":"Boom Spy \u003c3","steam_id":76561198126796502,"connected_time":407000000000,"state":"active","ping":88},{"user_id":104,"name":"LukeLeal","steam_id":76561198049822995,"connected_time":522000000000,"state":"active","ping":169},{"user_id":108,"name":"MrVegasAguitar","steam_id":76561198084466946,"connected_time":216000000000,"state":"active","ping":87},{"user_id":51,"name":"CeigeBirb","steam_id":76561198068538473,"connected_time":3721000000000,"state":"active","ping":75}]},{"server_id":38,"name":"Uncletopia | Chicago | 7 | Stopwatch Beta","name_short":"chi-7","host":"chi-2.us.uncletopia.com","port":27035,"enabled":true,"region":"us-central","cc":"us","latitude":41.881832,"longitude":-87.62318,"reserved":0,"last_update":"0001-01-01T00:00:00Z","name_a2s":"Uncletopia | Chicago | 7 | Stopwatch Beta","protocol":17,"map":"koth_viaduct","folder":"tf","game":"Team Fortress","app_id":440,"player_count":2,"max_players":24,"Bots":0,"server_type":"Dedicated","server_os":"Linux","password":true,"vac":true,"version":"7757534","steam_id":85568392924866364,"keywords":["cp","nocrits","nodmgspread","uncletopia"],"game_id":440,"stv_port":27036,"stv_name":"Uncletopia | Chicago | 7 | Stopwatch Beta | STV","players":[{"user_id":4,"name":"Lakhesis","steam_id":76561197969796919,"connected_time":32000000000,"state":"active","ping":54},{"user_id":5,"name":"FartExploder01","steam_id":76561199124760806,"connected_time":16000000000,"state":"active","ping":62}]},{"server_id":39,"name":"Uncletopia | Chicago | 8 | Community","name_short":"chi-8","host":"chi-2.us.uncletopia.com","port":27045,"enabled":true,"region":"us-central","cc":"us","latitude":41.881832,"longitude":-87.62318,"reserved":0,"last_update":"0001-01-01T00:00:00Z","name_a2s":"Uncletopia | Chicago | 8 | Community","protocol":17,"map":"koth_lakeside_final","folder":"tf","game":"Team Fortress","app_id":440,"player_count":0,"max_players":24,"Bots":0,"server_type":"Dedicated","server_os":"Linux","password":true,"vac":true,"version":"7757534","steam_id":85568392924866365,"keywords":["cp","nocrits","nodmgspread","uncletopia"],"game_id":440,"stv_port":27046,"stv_name":"Uncletopia | Chicago | 8 | Community | STV","players":null},{"server_id":8,"name":"Uncletopia | Dallas | 1 | All Maps","name_short":"dal-1","host":"dal-1.us.uncletopia.com","port":27015,"enabled":true,"region":"us-central","cc":"us","latitude":32.779167,"longitude":-96.80889,"reserved":0,"last_update":"0001-01-01T00:00:00Z","name_a2s":"Uncletopia | Dallas | 1 | All Maps","protocol":17,"map":"pl_upward","folder":"tf","game":"Team Fortress","app_id":440,"player_count":21,"max_players":24,"Bots":0,"server_type":"Dedicated","server_os":"Linux","password":true,"vac":true,"version":"7757534","steam_id":85568392924469986,"keywords":["nocrits","nodmgspread","payload","uncletopia"],"game_id":440,"stv_port":27016,"stv_name":"Uncletopia | Dallas | 1 | All Maps | STV","players":[{"user_id":361,"name":"The Ultimate Coomer","steam_id":76561199128833757,"connected_time":561000000000,"state":"active","ping":49},{"user_id":349,"name":"JimmySquid","steam_id":76561198254242530,"connected_time":1100000000000,"state":"active","ping":65},{"user_id":364,"name":"Commodore_Perry","steam_id":76561197986675784,"connected_time":221000000000,"state":"active","ping":91},{"user_id":365,"name":"walterhwhite","steam_id":76561199433675789,"connected_time":9000000000,"state":"spawning","ping":124},{"user_id":358,"name":"Pope","steam_id":76561198053768137,"connected_time":666000000000,"state":"active","ping":46},{"user_id":363,"name":"Stryder","steam_id":76561199387418697,"connected_time":253000000000,"state":"active","ping":71},{"user_id":348,"name":"master chief","steam_id":76561198055975428,"connected_time":1149000000000,"state":"active","ping":62},{"user_id":336,"name":"Huge eevee fan","steam_id":76561198128057732,"connected_time":1694000000000,"state":"active","ping":77},{"user_id":360,"name":"Huell Howser","steam_id":76561198006387337,"connected_time":622000000000,"state":"active","ping":65},{"user_id":273,"name":"ark","steam_id":76561198041066271,"connected_time":7352000000000,"state":"active","ping":74},{"user_id":351,"name":"Wolverine Fingerblaster","steam_id":76561198095394582,"connected_time":1074000000000,"state":"active","ping":59},{"user_id":362,"name":"PingableUsername","steam_id":76561198138760165,"connected_time":284000000000,"state":"active","ping":60},{"user_id":269,"name":"fac","steam_id":76561198009818412,"connected_time":7379000000000,"state":"active","ping":61},{"user_id":355,"name":"NBA Youngboy","steam_id":76561199118797200,"connected_time":748000000000,"state":"active","ping":48},{"user_id":312,"name":"Muse","steam_id":76561198177715869,"connected_time":3280000000000,"state":"active","ping":64},{"user_id":321,"name":"life","steam_id":76561198142254567,"connected_time":2666000000000,"state":"active","ping":78},{"user_id":337,"name":"cook (not cock)","steam_id":76561198073106278,"connected_time":1689000000000,"state":"active","ping":58},{"user_id":352,"name":"A Gamer [F2P]","steam_id":76561198138712892,"connected_time":1026000000000,"state":"active","ping":37},{"user_id":176,"name":"BamboozleMcdoozle","steam_id":76561198166510167,"connected_time":14887000000000,"state":"active","ping":80},{"user_id":313,"name":"kissland","steam_id":76561198018564445,"connected_time":3257000000000,"state":"active","ping":67},{"user_id":357,"name":"ryan's toys review fan","steam_id":76561198129255799,"connected_time":701000000000,"state":"active","ping":101}]},{"server_id":108,"name":"Uncletopia | Dallas | 2 | All Maps","name_short":"dal-2","host":"dal-1.us.uncletopia.com","port":27025,"enabled":true,"region":"us-central","cc":"us","latitude":32.779167,"longitude":-96.80889,"reserved":0,"last_update":"0001-01-01T00:00:00Z","name_a2s":"Uncletopia | Dallas | 2 | All Maps","protocol":17,"map":"koth_cascade","folder":"tf","game":"Team Fortress","app_id":440,"player_count":0,"max_players":24,"Bots":0,"server_type":"Dedicated","server_os":"Linux","password":true,"vac":true,"version":"7757534","steam_id":85568392924469988,"keywords":["cp","nocrits","nodmgspread","uncletopia"],"game_id":440,"stv_port":27026,"stv_name":"Uncletopia | Dallas | 2 | All Maps | STV","players":null},{"server_id":5,"name":"Uncletopia | Frankfurt | 1 | All Maps","name_short":"frk-1","host":"frk-1.de.uncletopia.com","port":27015,"enabled":true,"region":"eu","cc":"de","latitude":50.110924,"longitude":8.682127,"reserved":0,"last_update":"0001-01-01T00:00:00Z","name_a2s":"Uncletopia | Frankfurt | 1 | All Maps","protocol":17,"map":"cp_altitude","folder":"tf","game":"Team Fortress","app_id":440,"player_count":6,"max_players":24,"Bots":0,"server_type":"Dedicated","server_os":"Linux","password":true,"vac":true,"version":"7757534","steam_id":85568392924469989,"keywords":["cp","nocrits","nodmgspread","uncletopia"],"game_id":440,"stv_port":27016,"stv_name":"Uncletopia | Frankfurt | 1 | All Maps | STV","players":[{"user_id":232,"name":"tralalaOuiOui","steam_id":76561197963471507,"connected_time":135000000000,"state":"active","ping":52},{"user_id":233,"name":"Frank","steam_id":76561198086672774,"connected_time":22000000000,"state":"active","ping":281},{"user_id":231,"name":"Moderob","steam_id":76561198087366044,"connected_time":288000000000,"state":"active","ping":83},{"user_id":197,"name":"Julez","steam_id":76561198045505082,"connected_time":2668000000000,"state":"active","ping":60},{"user_id":173,"name":"20BB Raxor","steam_id":76561198239927434,"connected_time":4900000000000,"state":"active","ping":82},{"user_id":201,"name":"Miiukade","steam_id":76561198089157860,"connected_time":1831000000000,"state":"active","ping":141}]},{"server_id":110,"name":"Uncletopia | Frankfurt | 2 | All Maps","name_short":"frk-2","host":"frk-1.de.uncletopia.com","port":27025,"enabled":true,"region":"eu","cc":"de","latitude":50.110924,"longitude":8.682127,"reserved":0,"last_update":"0001-01-01T00:00:00Z","name_a2s":"Uncletopia | Frankfurt | 2 | All Maps","protocol":17,"map":"koth_highpass","folder":"tf","game":"Team Fortress","app_id":440,"player_count":22,"max_players":24,"Bots":0,"server_type":"Dedicated","server_os":"Linux","password":true,"vac":true,"version":"7757534","steam_id":85568392924469990,"keywords":["cp","nocrits","nodmgspread","uncletopia"],"game_id":440,"stv_port":27026,"stv_name":"Uncletopia | Frankfurt | 2 | All Maps | STV","players":[{"user_id":612,"name":"V8 änkätö","steam_id":76561198261320184,"connected_time":233000000000,"state":"active","ping":97},{"user_id":573,"name":"Gryoss","steam_id":76561197999837111,"connected_time":3083000000000,"state":"active","ping":97},{"user_id":517,"name":"tapeworms!","steam_id":76561198069649097,"connected_time":6880000000000,"state":"active","ping":60},{"user_id":610,"name":"Big Noot","steam_id":76561198057707263,"connected_time":548000000000,"state":"active","ping":58},{"user_id":613,"name":"Ushlus","steam_id":76561199225270732,"connected_time":231000000000,"state":"active","ping":117},{"user_id":586,"name":"BΣNZOIC","steam_id":76561198875665995,"connected_time":2118000000000,"state":"active","ping":76},{"user_id":594,"name":"Bucket Head Zombie","steam_id":76561198984733325,"connected_time":1883000000000,"state":"active","ping":64},{"user_id":587,"name":"Jabussy","steam_id":76561198111148719,"connected_time":2086000000000,"state":"active","ping":68},{"user_id":600,"name":"Eteron","steam_id":76561198132835817,"connected_time":905000000000,"state":"active","ping":82},{"user_id":614,"name":"cockwater","steam_id":76561198209101861,"connected_time":96000000000,"state":"active","ping":64},{"user_id":589,"name":"Morpheus","steam_id":76561198208349835,"connected_time":2010000000000,"state":"active","ping":75},{"user_id":511,"name":"megafon","steam_id":76561198143921841,"connected_time":7469000000000,"state":"active","ping":72},{"user_id":449,"name":"RadialMount","steam_id":76561198063002562,"connected_time":12281000000000,"state":"active","ping":62},{"user_id":577,"name":"D_Ink","steam_id":76561198267716662,"connected_time":2979000000000,"state":"active","ping":49},{"user_id":578,"name":"♥ TRANS RIGHTS ♥","steam_id":76561198066258544,"connected_time":2954000000000,"state":"active","ping":46},{"user_id":506,"name":"Carrot Arc","steam_id":76561198164957006,"connected_time":7758000000000,"state":"active","ping":82},{"user_id":615,"name":"Gromov","steam_id":76561198407644131,"connected_time":77000000000,"state":"spawning","ping":76},{"user_id":609,"name":"Bentley","steam_id":76561197978252169,"connected_time":635000000000,"state":"active","ping":74},{"user_id":571,"name":"s a i","steam_id":76561197970379754,"connected_time":3130000000000,"state":"active","ping":56},{"user_id":598,"name":"darktheif54","steam_id":76561198043650119,"connected_time":1415000000000,"state":"active","ping":50},{"user_id":593,"name":"Steen","steam_id":76561198122992510,"connected_time":1892000000000,"state":"active","ping":45},{"user_id":510,"name":"Negromancer","steam_id":76561198065912877,"connected_time":7536000000000,"state":"active","ping":84}]},{"server_id":308,"name":"Uncletopia | Frankfurt | 3 | All Maps","name_short":"frk-3","host":"frk-1.de.uncletopia.com","port":27035,"enabled":true,"region":"eu","cc":"de","latitude":50.110924,"longitude":8.682127,"reserved":0,"last_update":"0001-01-01T00:00:00Z","name_a2s":"Uncletopia | Frankfurt | 3 | All Maps","protocol":17,"map":"pl_rumford_event","folder":"tf","game":"Team Fortress","app_id":440,"player_count":14,"max_players":24,"Bots":0,"server_type":"Dedicated","server_os":"Linux","password":true,"vac":true,"version":"7757534","steam_id":85568392924504274,"keywords":["nocrits","nodmgspread","payload","uncletopia"],"game_id":440,"stv_port":27036,"stv_name":"Uncletopia | Frankfurt | 3 | All Maps | STV","players":[{"user_id":478,"name":"Psychicpie","steam_id":76561198126065206,"connected_time":350000000000,"state":"active","ping":47},{"user_id":483,"name":"NucoDocx","steam_id":76561198106037637,"connected_time":234000000000,"state":"active","ping":67},{"user_id":479,"name":"SilentSol","steam_id":76561198000798212,"connected_time":328000000000,"state":"active","ping":79},{"user_id":482,"name":"Le lapin de l'Impuissance","steam_id":76561198137980672,"connected_time":256000000000,"state":"active","ping":56},{"user_id":484,"name":"Milten","steam_id":76561198191768569,"connected_time":188000000000,"state":"active","ping":64},{"user_id":487,"name":"PootisCoin Investor","steam_id":76561197970114051,"connected_time":33000000000,"state":"active","ping":59},{"user_id":488,"name":"Charon","steam_id":76561198061714753,"connected_time":31000000000,"state":"active","ping":75},{"user_id":491,"name":"Medical mann gaming","steam_id":76561198388750592,"connected_time":18000000000,"state":"spawning","ping":71},{"user_id":458,"name":"Breadcrab","steam_id":76561198015924039,"connected_time":2556000000000,"state":"active","ping":69},{"user_id":490,"name":"slug","steam_id":76561198065902089,"connected_time":26000000000,"state":"active","ping":61},{"user_id":492,"name":"MR.DED#SAVETF2","steam_id":76561199102310318,"connected_time":5000000000,"state":"spawning","ping":145},{"user_id":493,"name":"Femboy with the wrong pronouns","steam_id":76561198072320671,"connected_time":4000000000,"state":"spawning","ping":52},{"user_id":417,"name":"Baki ඞ","steam_id":76561198193615529,"connected_time":5595000000000,"state":"active","ping":50},{"user_id":448,"name":"Gaunt","steam_id":76561198047724887,"connected_time":3578000000000,"state":"active","ping":63}]},{"server_id":309,"name":"Uncletopia | Frankfurt | 4 | All Maps","name_short":"frk-4","host":"frk-1.de.uncletopia.com","port":27045,"enabled":true,"region":"eu","cc":"de","latitude":50.110924,"longitude":8.682127,"reserved":0,"last_update":"0001-01-01T00:00:00Z","name_a2s":"Uncletopia | Frankfurt | 4 | All Maps","protocol":17,"map":"koth_highpass","folder":"tf","game":"Team Fortress","app_id":440,"player_count":0,"max_players":24,"Bots":0,"server_type":"Dedicated","server_os":"Linux","password":true,"vac":true,"version":"7757534","steam_id":85568392924504275,"keywords":["cp","nocrits","nodmgspread","uncletopia"],"game_id":440,"stv_port":27046,"stv_name":"Uncletopia | Frankfurt | 4 | All Maps | STV","players":null},{"server_id":310,"name":"Uncletopia | Frankfurt | 5 | All Maps","name_short":"frk-5","host":"frk-1.de.uncletopia.com","port":27055,"enabled":true,"region":"eu","cc":"de","latitude":50.110924,"longitude":8.682127,"reserved":0,"last_update":"0001-01-01T00:00:00Z","name_a2s":"Uncletopia | Frankfurt | 5 | All Maps","protocol":17,"map":"pl_borneo","folder":"tf","game":"Team Fortress","app_id":440,"player_count":23,"max_players":24,"Bots":0,"server_type":"Dedicated","server_os":"Linux","password":true,"vac":true,"version":"7757534","steam_id":85568392924504277,"keywords":["nocrits","nodmgspread","payload","uncletopia"],"game_id":440,"stv_port":27056,"stv_name":"Uncletopia | Frankfurt | 5 | All Maps | STV","players":[{"user_id":438,"name":"help","steam_id":76561199056338917,"connected_time":1338000000000,"state":"active","ping":172},{"user_id":449,"name":"Aroo","steam_id":76561198132601368,"connected_time":959000000000,"state":"active","ping":71},{"user_id":425,"name":"ChaosMaster","steam_id":76561198360983155,"connected_time":1852000000000,"state":"active","ping":76},{"user_id":422,"name":"Snokie Boi","steam_id":76561198081126247,"connected_time":2304000000000,"state":"active","ping":80},{"user_id":415,"name":"BuzzBees ❤","steam_id":76561198101502273,"connected_time":2939000000000,"state":"active","ping":60},{"user_id":453,"name":"_Starlight_","steam_id":76561197993885738,"connected_time":186000000000,"state":"active","ping":88},{"user_id":382,"name":"nedilya","steam_id":76561198039692077,"connected_time":5078000000000,"state":"active","ping":53},{"user_id":430,"name":"Perpetual Pub Push","steam_id":76561198256714846,"connected_time":1686000000000,"state":"active","ping":57},{"user_id":436,"name":"tm`","steam_id":76561197993580412,"connected_time":1454000000000,"state":"active","ping":60},{"user_id":434,"name":"Ged","steam_id":76561198079288943,"connected_time":1550000000000,"state":"active","ping":100},{"user_id":431,"name":"rummy","steam_id":76561197997573379,"connected_time":1666000000000,"state":"active","ping":68},{"user_id":452,"name":"43291842381","steam_id":76561198038160325,"connected_time":472000000000,"state":"active","ping":71},{"user_id":447,"name":"Tonne","steam_id":76561197970856766,"connected_time":1046000000000,"state":"active","ping":59},{"user_id":390,"name":"ночь на ладоне","steam_id":76561197994492154,"connected_time":4680000000000,"state":"active","ping":67},{"user_id":435,"name":"RebirthInFire","steam_id":76561198200555755,"connected_time":1544000000000,"state":"active","ping":55},{"user_id":385,"name":"paguro","steam_id":76561198119560871,"connected_time":4993000000000,"state":"active","ping":68},{"user_id":414,"name":"KittyKate ❤","steam_id":76561198116340817,"connected_time":3011000000000,"state":"active","ping":63},{"user_id":455,"name":"HOT LOIS","steam_id":76561198302623594,"connected_time":84000000000,"state":"active","ping":104},{"user_id":417,"name":"Udinese Dion","steam_id":76561198067931573,"connected_time":2447000000000,"state":"active","ping":46},{"user_id":442,"name":"Vander","steam_id":76561198213669807,"connected_time":1176000000000,"state":"active","ping":67},{"user_id":420,"name":"fabacher","steam_id":76561198057905272,"connected_time":2334000000000,"state":"active","ping":62},{"user_id":412,"name":"Umbro","steam_id":76561198087930438,"connected_time":3132000000000,"state":"active","ping":75},{"user_id":445,"name":"Floyd","steam_id":76561198125333672,"connected_time":1155000000000,"state":"active","ping":99}]},{"server_id":311,"name":"Uncletopia | Frankfurt | 6 | All Maps","name_short":"frk-6","host":"frk-1.de.uncletopia.com","port":27065,"enabled":true,"region":"eu","cc":"de","latitude":50.110924,"longitude":8.682127,"reserved":0,"last_update":"0001-01-01T00:00:00Z","name_a2s":"Uncletopia | Frankfurt | 6 | All Maps","protocol":17,"map":"cp_process_final","folder":"tf","game":"Team Fortress","app_id":440,"player_count":22,"max_players":24,"Bots":0,"server_type":"Dedicated","server_os":"Linux","password":true,"vac":true,"version":"7757534","steam_id":85568392924504278,"keywords":["cp","nocrits","nodmgspread","uncletopia"],"game_id":440,"stv_port":27066,"stv_name":"Uncletopia | Frankfurt | 6 | All Maps | STV","players":[{"user_id":466,"name":"Mr Manager","steam_id":76561198021775885,"connected_time":114000000000,"state":"active","ping":46},{"user_id":418,"name":"kaelan!","steam_id":76561198001425310,"connected_time":4198000000000,"state":"active","ping":74},{"user_id":439,"name":"Yangus","steam_id":76561198147796010,"connected_time":3235000000000,"state":"active","ping":60},{"user_id":436,"name":"lvl. 50 honkler","steam_id":76561198061688660,"connected_time":3273000000000,"state":"active","ping":106},{"user_id":458,"name":"Spootnak","steam_id":76561198049052518,"connected_time":1100000000000,"state":"active","ping":69},{"user_id":449,"name":"sloppy transgirl toppy","steam_id":76561198057092208,"connected_time":2023000000000,"state":"active","ping":60},{"user_id":441,"name":"Charrky","steam_id":76561198054398642,"connected_time":2799000000000,"state":"active","ping":59},{"user_id":448,"name":"Marsdudes","steam_id":76561198065755365,"connected_time":2065000000000,"state":"active","ping":128},{"user_id":468,"name":"ducks","steam_id":76561198166148685,"connected_time":81000000000,"state":"active","ping":46},{"user_id":460,"name":"Duetts","steam_id":76561198450246954,"connected_time":1060000000000,"state":"active","ping":46},{"user_id":469,"name":"slnc","steam_id":76561198041151496,"connected_time":61000000000,"state":"active","ping":60},{"user_id":470,"name":"Regan","steam_id":76561198100631086,"connected_time":52000000000,"state":"active","ping":66},{"user_id":471,"name":"sorry","steam_id":76561199081305365,"connected_time":50000000000,"state":"active","ping":70},{"user_id":472,"name":"Zogg","steam_id":76561198352683491,"connected_time":46000000000,"state":"active","ping":55},{"user_id":443,"name":"Raymus","steam_id":76561198021330407,"connected_time":2791000000000,"state":"active","ping":45},{"user_id":420,"name":"Pilaarius","steam_id":76561198120273212,"connected_time":4192000000000,"state":"active","ping":117},{"user_id":473,"name":"JeanCorben","steam_id":76561197965133561,"connected_time":29000000000,"state":"active","ping":45},{"user_id":462,"name":"NitPig","steam_id":76561198212991935,"connected_time":1009000000000,"state":"active","ping":121},{"user_id":456,"name":"PaperBagGuy ⌫","steam_id":76561198419513196,"connected_time":1457000000000,"state":"active","ping":88},{"user_id":434,"name":"wepon | google.com","steam_id":76561198097789669,"connected_time":3419000000000,"state":"active","ping":61},{"user_id":444,"name":"Spanns","steam_id":76561197998349793,"connected_time":2757000000000,"state":"active","ping":77},{"user_id":467,"name":"Pico","steam_id":76561198063552545,"connected_time":113000000000,"state":"active","ping":94}]},{"server_id":23,"name":"Uncletopia | Frankfurt | 7 | Stopwatch Beta","name_short":"frk-7","host":"frk-1.de.uncletopia.com","port":27075,"enabled":true,"region":"eu","cc":"de","latitude":50.110924,"longitude":8.682127,"reserved":0,"last_update":"0001-01-01T00:00:00Z","name_a2s":"Uncletopia | Frankfurt | 7 | Stopwatch Beta","protocol":17,"map":"pl_borneo","folder":"tf","game":"Team Fortress","app_id":440,"player_count":0,"max_players":24,"Bots":0,"server_type":"Dedicated","server_os":"Linux","password":true,"vac":true,"version":"7757534","steam_id":85568392924742827,"keywords":["nocrits","nodmgspread","payload","uncletopia"],"game_id":440,"stv_port":27076,"stv_name":"Uncletopia | Frankfurt | 7 | Stopwatch Beta | STV","players":null},{"server_id":24,"name":"Uncletopia | Frankfurt | 8 | Community","name_short":"frk-8","host":"frk-1.de.uncletopia.com","port":27085,"enabled":true,"region":"eu","cc":"de","latitude":50.110924,"longitude":8.682127,"reserved":0,"last_update":"0001-01-01T00:00:00Z","name_a2s":"Uncletopia | Frankfurt | 8 | Community","protocol":17,"map":"workshop/koth_synthetic_rc6a.ugc1549817316","folder":"tf","game":"Team Fortress","app_id":440,"player_count":0,"max_players":24,"Bots":0,"server_type":"Dedicated","server_os":"Linux","password":true,"vac":true,"version":"7757534","steam_id":85568392924742828,"keywords":["cp","nocrits","nodmgspread","uncletopia"],"game_id":440,"stv_port":27086,"stv_name":"Uncletopia | Frankfurt | 8 | Community | STV","players":null},{"server_id":202,"name":"Uncletopia | Hong Kong | 1 | All Maps","name_short":"hgk-1","host":"hgk-1.hk.uncletopia.com","port":27015,"enabled":true,"region":"asia","cc":"hk","latitude":22.302711,"longitude":114.177216,"reserved":0,"last_update":"0001-01-01T00:00:00Z","name_a2s":"Uncletopia | Hong Kong | 1 | All Maps","protocol":17,"map":"cp_sunshine","folder":"tf","game":"Team Fortress","app_id":440,"player_count":0,"max_players":24,"Bots":0,"server_type":"Dedicated","server_os":"Linux","password":true,"vac":true,"version":"7757534","steam_id":85568392924494504,"keywords":["cp","nocrits","nodmgspread","uncletopia"],"game_id":440,"stv_port":27016,"stv_name":"Uncletopia | Hong Kong | 1 | All Maps | STV","players":null},{"server_id":1,"name":"Uncletopia | Los Angeles | 1 | All Maps","name_short":"lax-1","host":"lax-1.us.uncletopia.com","port":27015,"enabled":true,"region":"us-west","cc":"us","latitude":33.94279,"longitude":-118.41004,"reserved":0,"last_update":"0001-01-01T00:00:00Z","name_a2s":"Uncletopia | Los Angeles | 1 | All Maps","protocol":17,"map":"cp_dustbowl","folder":"tf","game":"Team Fortress","app_id":440,"player_count":0,"max_players":24,"Bots":0,"server_type":"Dedicated","server_os":"Linux","password":true,"vac":true,"version":"7757534","steam_id":85568392924469991,"keywords":["cp","nocrits","nodmgspread","uncletopia"],"game_id":440,"stv_port":27016,"stv_name":"Uncletopia | Los Angeles | 1 | All Maps | STV","players":null},{"server_id":112,"name":"Uncletopia | Los Angeles | 2 | All Maps","name_short":"lax-2","host":"lax-1.us.uncletopia.com","port":27025,"enabled":true,"region":"us-west","cc":"us","latitude":33.94279,"longitude":-118.41004,"reserved":0,"last_update":"0001-01-01T00:00:00Z","name_a2s":"Uncletopia | Los Angeles | 2 | All Maps","protocol":17,"map":"koth_viaduct","folder":"tf","game":"Team Fortress","app_id":440,"player_count":0,"max_players":24,"Bots":0,"server_type":"Dedicated","server_os":"Linux","password":true,"vac":true,"version":"7757534","steam_id":85568392924469992,"keywords":["cp","nocrits","nodmgspread","uncletopia"],"game_id":440,"stv_port":27026,"stv_name":"Uncletopia | Los Angeles | 2 | All Maps | STV","players":null},{"server_id":324,"name":"Uncletopia | Los Angeles | 3 | All Maps","name_short":"lax-3","host":"lax-1.us.uncletopia.com","port":27035,"enabled":true,"region":"us-west","cc":"us","latitude":33.94279,"longitude":-118.41004,"reserved":0,"last_update":"0001-01-01T00:00:00Z","name_a2s":"Uncletopia | Los Angeles | 3 | All Maps","protocol":17,"map":"cp_altitude","folder":"tf","game":"Team Fortress","app_id":440,"player_count":0,"max_players":24,"Bots":0,"server_type":"Dedicated","server_os":"Linux","password":true,"vac":true,"version":"7757534","steam_id":85568392924510198,"keywords":["cp","nocrits","nodmgspread","uncletopia"],"game_id":440,"stv_port":27036,"stv_name":"Uncletopia | Los Angeles | 3 | All Maps | STV","players":null},{"server_id":25,"name":"Uncletopia | Los Angeles | 4 | Stopwatch Beta","name_short":"lax-4","host":"lax-1.us.uncletopia.com","port":27045,"enabled":true,"region":"us-west","cc":"us","latitude":33.94279,"longitude":-118.41004,"reserved":0,"last_update":"0001-01-01T00:00:00Z","name_a2s":"Uncletopia | Los Angeles | 4 | Stopwatch Beta","protocol":17,"map":"cp_dustbowl","folder":"tf","game":"Team Fortress","app_id":440,"player_count":0,"max_players":24,"Bots":0,"server_type":"Dedicated","server_os":"Linux","password":true,"vac":true,"version":"7757534","steam_id":85568392924510199,"keywords":["cp","nocrits","nodmgspread","uncletopia"],"game_id":440,"stv_port":27046,"stv_name":"Uncletopia | Los Angeles | 4 | Stopwatch Beta | STV","players":null},{"server_id":11,"name":"Uncletopia | London | 1 | All Maps","name_short":"lon-1","host":"lon-1.uk.uncletopia.com","port":27015,"enabled":true,"region":"eu","cc":"gb","latitude":51.509865,"longitude":-0.118092,"reserved":0,"last_update":"0001-01-01T00:00:00Z","name_a2s":"Uncletopia | London | 1 | All Maps","protocol":17,"map":"pl_badwater","folder":"tf","game":"Team Fortress","app_id":440,"player_count":24,"max_players":24,"Bots":0,"server_type":"Dedicated","server_os":"Linux","password":true,"vac":true,"version":"7757534","steam_id":85568392924367362,"keywords":["nocrits","nodmgspread","payload","uncletopia"],"game_id":440,"stv_port":27016,"stv_name":"Uncletopia | London | 1 | All Maps | STV","players":[{"user_id":676,"name":"✪ J","steam_id":76561198094911581,"connected_time":1950000000000,"state":"active","ping":49},{"user_id":699,"name":"Anemia","steam_id":76561198071595988,"connected_time":270000000000,"state":"active","ping":43},{"user_id":681,"name":"Thalgorock","steam_id":76561198195315022,"connected_time":1564000000000,"state":"active","ping":74},{"user_id":660,"name":"Oki (Bon)","steam_id":76561199047748534,"connected_time":3807000000000,"state":"active","ping":56},{"user_id":694,"name":"aslloc((sizeof(U64) \u003c\u003c 0xff));","steam_id":76561198365870439,"connected_time":625000000000,"state":"active","ping":100},{"user_id":697,"name":"Dr.bigswag","steam_id":76561198998794171,"connected_time":366000000000,"state":"active","ping":39},{"user_id":696,"name":"✪ Danny","steam_id":76561198104483241,"connected_time":385000000000,"state":"active","ping":51},{"user_id":683,"name":"Hotgamerdad","steam_id":76561198085940613,"connected_time":1493000000000,"state":"active","ping":58},{"user_id":698,"name":"rmn","steam_id":76561198182789386,"connected_time":362000000000,"state":"active","ping":62},{"user_id":623,"name":"dec","steam_id":76561198009660168,"connected_time":6424000000000,"state":"active","ping":45},{"user_id":702,"name":"tone'","steam_id":76561198055552635,"connected_time":122000000000,"state":"active","ping":60},{"user_id":695,"name":"kelpie","steam_id":76561198128327529,"connected_time":468000000000,"state":"active","ping":59},{"user_id":664,"name":"Emily","steam_id":76561198393596975,"connected_time":3382000000000,"state":"active","ping":46},{"user_id":691,"name":"Kwizine","steam_id":76561198147999400,"connected_time":1170000000000,"state":"active","ping":66},{"user_id":670,"name":"BatemanPatrick","steam_id":76561198393691611,"connected_time":2799000000000,"state":"active","ping":60},{"user_id":689,"name":"☁ Lou1smeister ☁","steam_id":76561198004032968,"connected_time":1336000000000,"state":"active","ping":74},{"user_id":686,"name":"ster","steam_id":76561198111986039,"connected_time":1420000000000,"state":"active","ping":55},{"user_id":677,"name":"sora","steam_id":76561198096547662,"connected_time":1949000000000,"state":"active","ping":48},{"user_id":675,"name":"Meddler","steam_id":76561198033001402,"connected_time":2189000000000,"state":"active","ping":38},{"user_id":649,"name":"git bash -er","steam_id":76561198072586494,"connected_time":4451000000000,"state":"active","ping":41},{"user_id":690,"name":"AWildTamim","steam_id":76561198048060652,"connected_time":1263000000000,"state":"active","ping":37},{"user_id":703,"name":"kalaa †","steam_id":76561198134652336,"connected_time":111000000000,"state":"active","ping":74},{"user_id":666,"name":"Prism","steam_id":76561198075538312,"connected_time":2962000000000,"state":"active","ping":57},{"user_id":688,"name":"The Bean Man","steam_id":76561198046932811,"connected_time":1387000000000,"state":"active","ping":58}]},{"server_id":114,"name":"Uncletopia | London | 2 | All Maps","name_short":"lon-2","host":"lon-1.uk.uncletopia.com","port":27025,"enabled":true,"region":"eu","cc":"gb","latitude":51.509865,"longitude":-0.118092,"reserved":0,"last_update":"0001-01-01T00:00:00Z","name_a2s":"Uncletopia | London | 2 | All Maps","protocol":17,"map":"koth_lakeside_final","folder":"tf","game":"Team Fortress","app_id":440,"player_count":0,"max_players":24,"Bots":0,"server_type":"Dedicated","server_os":"Linux","password":true,"vac":true,"version":"7757534","steam_id":85568392924470941,"keywords":["cp","nocrits","nodmgspread","uncletopia"],"game_id":440,"stv_port":27026,"stv_name":"Uncletopia | London | 2 | All Maps | STV","players":null},{"server_id":320,"name":"Uncletopia | London | 3 | All Maps","name_short":"lon-3","host":"lon-1.uk.uncletopia.com","port":27035,"enabled":true,"region":"eu","cc":"gb","latitude":51.509865,"longitude":-0.118092,"reserved":0,"last_update":"0001-01-01T00:00:00Z","name_a2s":"Uncletopia | London | 3 | All Maps","protocol":17,"map":"pl_barnblitz","folder":"tf","game":"Team Fortress","app_id":440,"player_count":24,"max_players":24,"Bots":0,"server_type":"Dedicated","server_os":"Linux","password":true,"vac":true,"version":"7757534","steam_id":85568392924510192,"keywords":["nocrits","nodmgspread","payload","uncletopia"],"game_id":440,"stv_port":27036,"stv_name":"Uncletopia | London | 3 | All Maps | STV","players":[{"user_id":411,"name":"gibb (official)","steam_id":76561198074097655,"connected_time":2026000000000,"state":"active","ping":34},{"user_id":412,"name":"ev1lboyo","steam_id":76561199199499453,"connected_time":1964000000000,"state":"active","ping":77},{"user_id":422,"name":"John Noob","steam_id":76561197999170026,"connected_time":1677000000000,"state":"active","ping":99},{"user_id":391,"name":"SuperBob103","steam_id":76561199175360012,"connected_time":3623000000000,"state":"active","ping":50},{"user_id":439,"name":"meriones","steam_id":76561198034234373,"connected_time":84000000000,"state":"active","ping":41},{"user_id":430,"name":"Lil StinGa","steam_id":76561198069444222,"connected_time":1029000000000,"state":"active","ping":51},{"user_id":405,"name":"quaddmg -ƒ$-","steam_id":76561198119449463,"connected_time":2897000000000,"state":"active","ping":63},{"user_id":423,"name":"BlueBlueFox","steam_id":76561198053817230,"connected_time":1462000000000,"state":"active","ping":77},{"user_id":440,"name":"Efeca","steam_id":76561198018923829,"connected_time":45000000000,"state":"active","ping":73},{"user_id":433,"name":"Vitun vittu","steam_id":76561198110679463,"connected_time":541000000000,"state":"active","ping":61},{"user_id":434,"name":"Mark 'The Beast' Labbett","steam_id":76561198118892116,"connected_time":463000000000,"state":"active","ping":50},{"user_id":416,"name":"Space Rimmer","steam_id":76561198069243201,"connected_time":1808000000000,"state":"active","ping":47},{"user_id":435,"name":"Nati Noot","steam_id":76561198212005117,"connected_time":452000000000,"state":"active","ping":71},{"user_id":352,"name":"R","steam_id":76561199379233899,"connected_time":5045000000000,"state":"active","ping":105},{"user_id":417,"name":"Big Mac Gaming","steam_id":76561198158209651,"connected_time":1799000000000,"state":"active","ping":60},{"user_id":418,"name":"Cuthbert","steam_id":76561198204649481,"connected_time":1799000000000,"state":"active","ping":106},{"user_id":419,"name":"etc","steam_id":76561197998394797,"connected_time":1798000000000,"state":"active","ping":53},{"user_id":387,"name":"torn","steam_id":76561198223003236,"connected_time":3721000000000,"state":"active","ping":32},{"user_id":431,"name":"Cpt. Flashbang","steam_id":76561198034617743,"connected_time":729000000000,"state":"active","ping":71},{"user_id":437,"name":"Swedish Vegan","steam_id":76561198042775020,"connected_time":446000000000,"state":"active","ping":76},{"user_id":409,"name":"twitch.tv/matektf","steam_id":76561198063884235,"connected_time":2332000000000,"state":"active","ping":58},{"user_id":429,"name":"Takitataki","steam_id":76561198090146457,"connected_time":1152000000000,"state":"active","ping":43},{"user_id":421,"name":"minespweper","steam_id":76561199096919345,"connected_time":1747000000000,"state":"active","ping":84},{"user_id":385,"name":"waffle toaster","steam_id":76561198799089628,"connected_time":3758000000000,"state":"active","ping":43}]},{"server_id":321,"name":"Uncletopia | London | 4 | All Maps","name_short":"lon-4","host":"lon-1.uk.uncletopia.com","port":27045,"enabled":true,"region":"eu","cc":"gb","latitude":51.509865,"longitude":-0.118092,"reserved":0,"last_update":"0001-01-01T00:00:00Z","name_a2s":"Uncletopia | London | 4 | All Maps","protocol":17,"map":"cp_dustbowl","folder":"tf","game":"Team Fortress","app_id":440,"player_count":0,"max_players":24,"Bots":0,"server_type":"Dedicated","server_os":"Linux","password":true,"vac":true,"version":"7757534","steam_id":85568392924510193,"keywords":["cp","nocrits","nodmgspread","uncletopia"],"game_id":440,"stv_port":27046,"stv_name":"Uncletopia | London | 4 | All Maps | STV","players":null},{"server_id":21,"name":"Uncletopia | London | 5 | All Maps","name_short":"lon-5","host":"lon-1.uk.uncletopia.com","port":27055,"enabled":true,"region":"eu","cc":"gb","latitude":51.509865,"longitude":-0.118092,"reserved":0,"last_update":"0001-01-01T00:00:00Z","name_a2s":"Uncletopia | London | 5 | All Maps","protocol":17,"map":"cp_sunshine","folder":"tf","game":"Team Fortress","app_id":440,"player_count":24,"max_players":24,"Bots":0,"server_type":"Dedicated","server_os":"Linux","password":true,"vac":true,"version":"7757534","steam_id":85568392924742829,"keywords":["cp","nocrits","nodmgspread","uncletopia"],"game_id":440,"stv_port":27056,"stv_name":"Uncletopia | London | 5 | All Maps | STV","players":[{"user_id":763,"name":"Lubrsi","steam_id":76561198040208195,"connected_time":2966000000000,"state":"active","ping":49},{"user_id":771,"name":"❤ToxicAngel❤","steam_id":76561198062208751,"connected_time":2731000000000,"state":"active","ping":49},{"user_id":790,"name":"Grillem Dafoe","steam_id":76561198306874574,"connected_time":903000000000,"state":"active","ping":63},{"user_id":791,"name":"Topme","steam_id":76561198091734693,"connected_time":700000000000,"state":"active","ping":74},{"user_id":794,"name":"Foonguz","steam_id":76561198834610534,"connected_time":408000000000,"state":"active","ping":62},{"user_id":765,"name":"JohkupohkuXD","steam_id":76561198391108762,"connected_time":2917000000000,"state":"active","ping":94},{"user_id":723,"name":"Joxaren","steam_id":76561198049407893,"connected_time":5336000000000,"state":"active","ping":57},{"user_id":792,"name":"Ansari","steam_id":76561198074982971,"connected_time":536000000000,"state":"active","ping":61},{"user_id":795,"name":"JC","steam_id":76561198029213352,"connected_time":113000000000,"state":"active","ping":35},{"user_id":783,"name":"Simple Giggenomics","steam_id":76561198070986689,"connected_time":1193000000000,"state":"active","ping":50},{"user_id":756,"name":"A Pigeon","steam_id":76561198114090555,"connected_time":3250000000000,"state":"active","ping":74},{"user_id":774,"name":"ghenios","steam_id":76561198030011207,"connected_time":2577000000000,"state":"active","ping":98},{"user_id":785,"name":"Petight","steam_id":76561197999438798,"connected_time":1138000000000,"state":"active","ping":30},{"user_id":789,"name":"honeycomb","steam_id":76561198108109628,"connected_time":971000000000,"state":"active","ping":60},{"user_id":786,"name":"transphobe remover","steam_id":76561199474154775,"connected_time":1133000000000,"state":"active","ping":57},{"user_id":775,"name":"John Salad","steam_id":76561198240372376,"connected_time":2495000000000,"state":"active","ping":96},{"user_id":776,"name":"Puck :))","steam_id":76561198378295653,"connected_time":2380000000000,"state":"active","ping":75},{"user_id":769,"name":"sex haver","steam_id":76561198798892497,"connected_time":2806000000000,"state":"active","ping":47},{"user_id":730,"name":"Merca #savetf2","steam_id":76561198088782472,"connected_time":4960000000000,"state":"active","ping":60},{"user_id":751,"name":"Caesium_R4","steam_id":76561198432410602,"connected_time":3643000000000,"state":"active","ping":40},{"user_id":787,"name":"Piros","steam_id":76561198193785653,"connected_time":1126000000000,"state":"active","ping":79},{"user_id":741,"name":"🗻🎴Hadrian Malone🎴🗻","steam_id":76561198036151103,"connected_time":4235000000000,"state":"active","ping":55},{"user_id":788,"name":"N3lly","steam_id":76561198815271970,"connected_time":1122000000000,"state":"active","ping":74},{"user_id":679,"name":"Davey","steam_id":76561198256879107,"connected_time":7652000000000,"state":"active","ping":75}]},{"server_id":22,"name":"Uncletopia | London | 6 | All Maps","name_short":"lon-6","host":"lon-1.uk.uncletopia.com","port":27065,"enabled":true,"region":"eu","cc":"gb","latitude":51.509865,"longitude":-0.118092,"reserved":0,"last_update":"0001-01-01T00:00:00Z","name_a2s":"Uncletopia | London | 6 | All Maps","protocol":17,"map":"cp_process_final","folder":"tf","game":"Team Fortress","app_id":440,"player_count":0,"max_players":24,"Bots":0,"server_type":"Dedicated","server_os":"Linux","password":true,"vac":true,"version":"7757534","steam_id":85568392924742830,"keywords":["cp","nocrits","nodmgspread","uncletopia"],"game_id":440,"stv_port":27066,"stv_name":"Uncletopia | London | 6 | All Maps | STV","players":null},{"server_id":40,"name":"Uncletopia | London | 7 | No Payload","name_short":"lon-7","host":"lon-1.uk.uncletopia.com","port":27075,"enabled":true,"region":"eu","cc":"gb","latitude":51.509865,"longitude":-0.118092,"reserved":0,"last_update":"0001-01-01T00:00:00Z","name_a2s":"Uncletopia | London | 7 | No Payload","protocol":17,"map":"koth_highpass","folder":"tf","game":"Team Fortress","app_id":440,"player_count":0,"max_players":24,"Bots":0,"server_type":"Dedicated","server_os":"Linux","password":true,"vac":true,"version":"7757534","steam_id":85568392924964314,"keywords":["cp","nocrits","nodmgspread","uncletopia"],"game_id":440,"stv_port":27076,"stv_name":"Uncletopia | London | 7 | No Payload | STV","players":null},{"server_id":41,"name":"Uncletopia | London | 8 | Community","name_short":"lon-8","host":"lon-1.uk.uncletopia.com","port":27085,"enabled":true,"region":"eu","cc":"gb","latitude":51.509865,"longitude":-0.118092,"reserved":0,"last_update":"0001-01-01T00:00:00Z","name_a2s":"Uncletopia | London | 8 | Community","protocol":17,"map":"workshop/koth_product_final.ugc454272353","folder":"tf","game":"Team Fortress","app_id":440,"player_count":0,"max_players":24,"Bots":0,"server_type":"Dedicated","server_os":"Linux","password":true,"vac":true,"version":"7757534","steam_id":85568392924964315,"keywords":["cp","nocrits","nodmgspread","uncletopia"],"game_id":440,"stv_port":27086,"stv_name":"Uncletopia | London | 8 | Community | STV","players":null},{"server_id":300,"name":"Uncletopia | Montréal | 1 | All Maps","name_short":"mtl-1","host":"mtl-1.ca.uncletopia.com","port":27015,"enabled":true,"region":"us-east","cc":"ca","latitude":45.50889,"longitude":-73.56167,"reserved":0,"last_update":"0001-01-01T00:00:00Z","name_a2s":"Uncletopia | Montréal | 1 | All Maps","protocol":17,"map":"cp_mountainlab","folder":"tf","game":"Team Fortress","app_id":440,"player_count":0,"max_players":24,"Bots":0,"server_type":"Dedicated","server_os":"Linux","password":true,"vac":true,"version":"7757534","steam_id":85568392924500087,"keywords":["cp","nocrits","nodmgspread","uncletopia"],"game_id":440,"stv_port":27016,"stv_name":"Uncletopia | Montréal | 1 | All Maps | STV","players":null},{"server_id":301,"name":"Uncletopia | Montréal | 2 | All Maps","name_short":"mtl-2","host":"mtl-1.ca.uncletopia.com","port":27025,"enabled":true,"region":"us-east","cc":"ca","latitude":45.50889,"longitude":-73.56167,"reserved":0,"last_update":"0001-01-01T00:00:00Z","name_a2s":"Uncletopia | Montréal | 2 | All Maps","protocol":17,"map":"pl_snowycoast","folder":"tf","game":"Team Fortress","app_id":440,"player_count":4,"max_players":24,"Bots":0,"server_type":"Dedicated","server_os":"Linux","password":true,"vac":true,"version":"7757534","steam_id":85568392924500088,"keywords":["nocrits","nodmgspread","payload","uncletopia"],"game_id":440,"stv_port":27026,"stv_name":"Uncletopia | Montréal | 2 | All Maps | STV","players":[{"user_id":7,"name":"OtherJake","steam_id":76561199097944589,"connected_time":1404000000000,"state":"active","ping":102},{"user_id":8,"name":"Vitzenhauzer","steam_id":76561198116449787,"connected_time":1213000000000,"state":"active","ping":57},{"user_id":13,"name":"BIGGEST MAC","steam_id":76561198847517098,"connected_time":533000000000,"state":"active","ping":82},{"user_id":11,"name":"Simon","steam_id":76561198332763962,"connected_time":1106000000000,"state":"active","ping":56}]},{"server_id":302,"name":"Uncletopia | Montréal | 3 | All Maps","name_short":"mtl-3","host":"mtl-1.ca.uncletopia.com","port":27035,"enabled":true,"region":"us-east","cc":"ca","latitude":45.50889,"longitude":-73.56167,"reserved":0,"last_update":"0001-01-01T00:00:00Z","name_a2s":"Uncletopia | Montréal | 3 | All Maps","protocol":17,"map":"pl_frontier_final","folder":"tf","game":"Team Fortress","app_id":440,"player_count":0,"max_players":24,"Bots":0,"server_type":"Dedicated","server_os":"Linux","password":true,"vac":true,"version":"7757534","steam_id":85568392924500089,"keywords":["nocrits","nodmgspread","payload","uncletopia"],"game_id":440,"stv_port":27036,"stv_name":"Uncletopia | Montréal | 3 | All Maps | STV","players":null},{"server_id":303,"name":"Uncletopia | Montréal | 4 | No Payload","name_short":"mtl-4","host":"mtl-1.ca.uncletopia.com","port":27045,"enabled":true,"region":"us-east","cc":"ca","latitude":45.50889,"longitude":-73.56167,"reserved":0,"last_update":"0001-01-01T00:00:00Z","name_a2s":"Uncletopia | Montréal | 4 | No Payload","protocol":17,"map":"cp_coldfront","folder":"tf","game":"Team Fortress","app_id":440,"player_count":0,"max_players":24,"Bots":0,"server_type":"Dedicated","server_os":"Linux","password":true,"vac":true,"version":"7757534","steam_id":85568392924500090,"keywords":["cp","nocrits","nodmgspread","uncletopia"],"game_id":440,"stv_port":27046,"stv_name":"Uncletopia | Montréal | 4 | No Payload | STV","players":null},{"server_id":13,"name":"Uncletopia | New York City | 1 | All Maps","name_short":"nyc-1","host":"nyc-1.us.uncletopia.com","port":27015,"enabled":true,"region":"us-east","cc":"us","latitude":40.73061,"longitude":-73.93524,"reserved":0,"last_update":"0001-01-01T00:00:00Z","name_a2s":"Uncletopia | New York City | 1 | All Maps","protocol":17,"map":"pl_upward","folder":"tf","game":"Team Fortress","app_id":440,"player_count":22,"max_players":24,"Bots":0,"server_type":"Dedicated","server_os":"Linux","password":true,"vac":true,"version":"7757534","steam_id":85568392924469993,"keywords":["nocrits","nodmgspread","payload","uncletopia"],"game_id":440,"stv_port":27016,"stv_name":"Uncletopia | New York City | 1 | All Maps | STV","players":[{"user_id":363,"name":"Bee","steam_id":76561198074681324,"connected_time":2584000000000,"state":"active","ping":45},{"user_id":391,"name":"Fraklin","steam_id":76561198136451087,"connected_time":35000000000,"state":"active","ping":61},{"user_id":389,"name":"Wiggly","steam_id":76561198015077201,"connected_time":172000000000,"state":"active","ping":54},{"user_id":384,"name":"DJ Sheeve","steam_id":76561198095910139,"connected_time":759000000000,"state":"active","ping":90},{"user_id":390,"name":"demoknight tf2","steam_id":76561198070393998,"connected_time":39000000000,"state":"active","ping":63},{"user_id":328,"name":"Gandalf Gaming","steam_id":76561198368151490,"connected_time":5182000000000,"state":"active","ping":44},{"user_id":362,"name":"King Baldski","steam_id":76561198359568400,"connected_time":2641000000000,"state":"active","ping":135},{"user_id":377,"name":"Lily Thorn","steam_id":76561198305488625,"connected_time":897000000000,"state":"active","ping":131},{"user_id":373,"name":"Schopenhauer","steam_id":76561197990166387,"connected_time":1009000000000,"state":"active","ping":76},{"user_id":385,"name":"Marisad","steam_id":76561198843890616,"connected_time":693000000000,"state":"active","ping":77},{"user_id":365,"name":"PapaCheungus","steam_id":76561198052262520,"connected_time":2476000000000,"state":"active","ping":63},{"user_id":378,"name":"DDD14","steam_id":76561198061485026,"connected_time":887000000000,"state":"active","ping":45},{"user_id":379,"name":"jeff","steam_id":76561198059450566,"connected_time":836000000000,"state":"active","ping":50},{"user_id":350,"name":"CPUnit","steam_id":76561198162881878,"connected_time":3025000000000,"state":"active","ping":81},{"user_id":356,"name":"Romo","steam_id":76561198243101572,"connected_time":2833000000000,"state":"active","ping":83},{"user_id":380,"name":"Grandpa","steam_id":76561198989826375,"connected_time":835000000000,"state":"active","ping":97},{"user_id":381,"name":"Pan Wizard","steam_id":76561198031939694,"connected_time":822000000000,"state":"active","ping":72},{"user_id":382,"name":"Crazy Dave","steam_id":76561198875469297,"connected_time":820000000000,"state":"active","ping":73},{"user_id":322,"name":"Fudgely","steam_id":76561198039425862,"connected_time":5722000000000,"state":"active","ping":58},{"user_id":387,"name":"Dr Drugs","steam_id":76561198281359582,"connected_time":539000000000,"state":"active","ping":123},{"user_id":388,"name":"Fredrick","steam_id":76561197981419964,"connected_time":502000000000,"state":"active","ping":52},{"user_id":383,"name":"bunceian","steam_id":76561198975662918,"connected_time":792000000000,"state":"active","ping":121}]},{"server_id":14,"name":"Uncletopia | New York City | 2 | All Maps","name_short":"nyc-2","host":"nyc-1.us.uncletopia.com","port":27025,"enabled":true,"region":"us-east","cc":"us","latitude":40.73061,"longitude":-73.93524,"reserved":0,"last_update":"0001-01-01T00:00:00Z","name_a2s":"Uncletopia | New York City | 2 | All Maps","protocol":17,"map":"pl_pier","folder":"tf","game":"Team Fortress","app_id":440,"player_count":24,"max_players":24,"Bots":0,"server_type":"Dedicated","server_os":"Linux","password":true,"vac":true,"version":"7757534","steam_id":85568392924469994,"keywords":["nocrits","nodmgspread","payload","uncletopia"],"game_id":440,"stv_port":27026,"stv_name":"Uncletopia | New York City | 2 | All Maps | STV","players":[{"user_id":67,"name":"IKON || SCRINGUS","steam_id":76561198083975056,"connected_time":1059000000000,"state":"active","ping":120},{"user_id":18,"name":"yer_nerd","steam_id":76561199435454093,"connected_time":4197000000000,"state":"active","ping":54},{"user_id":76,"name":"golem","steam_id":76561198355040593,"connected_time":258000000000,"state":"active","ping":57},{"user_id":80,"name":"Toast","steam_id":76561198234616616,"connected_time":160000000000,"state":"active","ping":79},{"user_id":28,"name":"Bulk","steam_id":76561199009814535,"connected_time":2285000000000,"state":"active","ping":45},{"user_id":77,"name":"bhoys","steam_id":76561198353301629,"connected_time":255000000000,"state":"active","ping":123},{"user_id":30,"name":"Spoilt Pudding","steam_id":76561198001195423,"connected_time":2200000000000,"state":"active","ping":87},{"user_id":31,"name":"lyanide","steam_id":76561198311704368,"connected_time":2183000000000,"state":"active","ping":62},{"user_id":32,"name":"AuzzieJZ","steam_id":76561198134430439,"connected_time":2178000000000,"state":"active","ping":81},{"user_id":52,"name":"2 team fortress","steam_id":76561198860068961,"connected_time":1548000000000,"state":"active","ping":57},{"user_id":34,"name":"puppy dog","steam_id":76561198253574099,"connected_time":2091000000000,"state":"active","ping":74},{"user_id":74,"name":"dog","steam_id":76561198263873491,"connected_time":708000000000,"state":"active","ping":64},{"user_id":36,"name":"Mxple.","steam_id":76561199165140868,"connected_time":2002000000000,"state":"active","ping":157},{"user_id":73,"name":"cyclops","steam_id":76561197970370198,"connected_time":818000000000,"state":"active","ping":74},{"user_id":38,"name":"Caffeine Queen","steam_id":76561199042221198,"connected_time":1847000000000,"state":"active","ping":55},{"user_id":39,"name":"Portal2Player","steam_id":76561198062870114,"connected_time":1822000000000,"state":"active","ping":66},{"user_id":81,"name":"Avg. Santa Believer (Nice list)","steam_id":76561198040444697,"connected_time":78000000000,"state":"active","ping":55},{"user_id":41,"name":"The Land Admiral","steam_id":76561198159356609,"connected_time":1788000000000,"state":"active","ping":59},{"user_id":82,"name":"frank","steam_id":76561198045436159,"connected_time":58000000000,"state":"active","ping":59},{"user_id":78,"name":"MentalFatigue","steam_id":76561198045499333,"connected_time":221000000000,"state":"active","ping":109},{"user_id":45,"name":"Smokey2603","steam_id":76561198988487621,"connected_time":1731000000000,"state":"active","ping":66},{"user_id":79,"name":"NamelessBear™","steam_id":76561198014564006,"connected_time":211000000000,"state":"active","ping":59},{"user_id":47,"name":"twinkluvr69","steam_id":76561198068712028,"connected_time":1709000000000,"state":"active","ping":65},{"user_id":49,"name":"grind","steam_id":76561198801214349,"connected_time":1610000000000,"state":"active","ping":64}]},{"server_id":15,"name":"Uncletopia | New York City | 3 | Stopwatch Beta","name_short":"nyc-3","host":"nyc-1.us.uncletopia.com","port":27035,"enabled":true,"region":"us-east","cc":"us","latitude":40.73061,"longitude":-73.93524,"reserved":0,"last_update":"0001-01-01T00:00:00Z","name_a2s":"Uncletopia | New York City | 3 | Stopwatch Beta","protocol":17,"map":"koth_lakeside_final","folder":"tf","game":"Team Fortress","app_id":440,"player_count":0,"max_players":24,"Bots":0,"server_type":"Dedicated","server_os":"Linux","password":true,"vac":true,"version":"7757534","steam_id":85568392924742820,"keywords":["cp","nocrits","nodmgspread","uncletopia"],"game_id":440,"stv_port":27036,"stv_name":"Uncletopia | New York City | 3 | Stopwatch Beta | STV","players":null},{"server_id":16,"name":"Uncletopia | New York City | 4 | Community","name_short":"nyc-4","host":"nyc-1.us.uncletopia.com","port":27045,"enabled":true,"region":"us-east","cc":"us","latitude":40.73061,"longitude":-73.93524,"reserved":0,"last_update":"0001-01-01T00:00:00Z","name_a2s":"Uncletopia | New York City | 4 | Community","protocol":17,"map":"workshop/cp_mannbase_rc2a.ugc1900737467","folder":"tf","game":"Team Fortress","app_id":440,"player_count":0,"max_players":24,"Bots":0,"server_type":"Dedicated","server_os":"Linux","password":true,"vac":true,"version":"7757534","steam_id":85568392924742821,"keywords":["cp","nocrits","nodmgspread","uncletopia"],"game_id":440,"stv_port":27046,"stv_name":"Uncletopia | New York City | 4 | Community | STV","players":null},{"server_id":142,"name":"Uncletopia | São Paulo | 1 | All Maps","name_short":"sao-1","host":"sao-1.br.uncletopia.com","port":27015,"enabled":true,"region":"sa","cc":"br","latitude":-23.533773,"longitude":-46.62529,"reserved":0,"last_update":"0001-01-01T00:00:00Z","name_a2s":"Uncletopia | São Paulo | 1 | All Maps","protocol":17,"map":"pl_borneo","folder":"tf","game":"Team Fortress","app_id":440,"player_count":0,"max_players":24,"Bots":0,"server_type":"Dedicated","server_os":"Linux","password":true,"vac":true,"version":"7757534","steam_id":85568392924469996,"keywords":["nocrits","nodmgspread","payload","uncletopia"],"game_id":440,"stv_port":27016,"stv_name":"Uncletopia | São Paulo | 1 | All Maps | STV","players":null},{"server_id":143,"name":"Uncletopia | São Paulo | 2 | All Maps","name_short":"sao-2","host":"sao-2.br.uncletopia.com","port":27015,"enabled":true,"region":"sa","cc":"br","latitude":-23.533773,"longitude":-46.62529,"reserved":0,"last_update":"0001-01-01T00:00:00Z","name_a2s":"Uncletopia | São Paulo | 2 | All Maps","protocol":17,"map":"koth_cascade","folder":"tf","game":"Team Fortress","app_id":440,"player_count":0,"max_players":24,"Bots":0,"server_type":"Dedicated","server_os":"Linux","password":true,"vac":true,"version":"7757534","steam_id":85568392924485349,"keywords":["cp","nocrits","nodmgspread","uncletopia"],"game_id":440,"stv_port":27016,"stv_name":"Uncletopia | São Paulo | 2 | All Maps | STV","players":null},{"server_id":7,"name":"Uncletopia | Seattle | 1 | All Maps","name_short":"sea-1","host":"sea-1.us.uncletopia.com","port":27015,"enabled":true,"region":"us-west","cc":"us","latitude":47.608013,"longitude":-122.33517,"reserved":0,"last_update":"0001-01-01T00:00:00Z","name_a2s":"Uncletopia | Seattle | 1 | All Maps","protocol":17,"map":"pl_pier","folder":"tf","game":"Team Fortress","app_id":440,"player_count":24,"max_players":24,"Bots":0,"server_type":"Dedicated","server_os":"Linux","password":true,"vac":true,"version":"7757534","steam_id":85568392924469997,"keywords":["nocrits","nodmgspread","payload","uncletopia"],"game_id":440,"stv_port":27016,"stv_name":"Uncletopia | Seattle | 1 | All Maps | STV","players":[{"user_id":453,"name":"Piddlybonking the Cheese Man","steam_id":76561197970791798,"connected_time":1999000000000,"state":"active","ping":45},{"user_id":476,"name":"soda","steam_id":76561198105924953,"connected_time":1035000000000,"state":"active","ping":71},{"user_id":418,"name":"BreadQuest","steam_id":76561198082425960,"connected_time":5460000000000,"state":"active","ping":41},{"user_id":458,"name":"Prinny","steam_id":76561198186445858,"connected_time":1885000000000,"state":"active","ping":109},{"user_id":426,"name":"george piston","steam_id":76561198120396039,"connected_time":4932000000000,"state":"active","ping":72},{"user_id":484,"name":"HaphazardHazel","steam_id":76561198316812693,"connected_time":361000000000,"state":"active","ping":135},{"user_id":467,"name":"gorlab","steam_id":76561198025089694,"connected_time":1601000000000,"state":"active","ping":69},{"user_id":470,"name":"Vespen","steam_id":76561198259984019,"connected_time":1559000000000,"state":"active","ping":74},{"user_id":483,"name":"fancyfreak","steam_id":76561198326466375,"connected_time":445000000000,"state":"active","ping":81},{"user_id":482,"name":"Kontray","steam_id":76561198294948653,"connected_time":633000000000,"state":"active","ping":79},{"user_id":461,"name":"Cubert","steam_id":76561198045494151,"connected_time":1736000000000,"state":"active","ping":107},{"user_id":481,"name":"jawnymac","steam_id":76561198179529599,"connected_time":684000000000,"state":"active","ping":69},{"user_id":460,"name":"Ulrich Stern","steam_id":76561198101739682,"connected_time":1769000000000,"state":"active","ping":120},{"user_id":462,"name":"Cahootles","steam_id":76561198056407485,"connected_time":1729000000000,"state":"active","ping":103},{"user_id":477,"name":"Lochness_monster","steam_id":76561198417831973,"connected_time":1026000000000,"state":"active","ping":66},{"user_id":478,"name":"lavender","steam_id":76561199069518286,"connected_time":981000000000,"state":"active","ping":75},{"user_id":464,"name":"Mammik","steam_id":76561198062790171,"connected_time":1715000000000,"state":"active","ping":112},{"user_id":479,"name":"Hook, Line, and Sphincter","steam_id":76561198078207743,"connected_time":962000000000,"state":"active","ping":122},{"user_id":480,"name":"GearShift","steam_id":76561198094902155,"connected_time":956000000000,"state":"active","ping":124},{"user_id":468,"name":"Choc","steam_id":76561198113878570,"connected_time":1600000000000,"state":"active","ping":45},{"user_id":444,"name":"Keamy","steam_id":76561199471434875,"connected_time":2597000000000,"state":"active","ping":42},{"user_id":469,"name":"Nat the kat","steam_id":76561198144338191,"connected_time":1593000000000,"state":"active","ping":74},{"user_id":472,"name":"Andy","steam_id":76561198043115724,"connected_time":1483000000000,"state":"active","ping":71},{"user_id":473,"name":"armpit fetishist","steam_id":76561199008452637,"connected_time":1450000000000,"state":"active","ping":44}]},{"server_id":119,"name":"Uncletopia | Seattle | 2 | All Maps","name_short":"sea-2","host":"sea-1.us.uncletopia.com","port":27025,"enabled":true,"region":"us-west","cc":"us","latitude":47.608013,"longitude":-122.33517,"reserved":0,"last_update":"0001-01-01T00:00:00Z","name_a2s":"Uncletopia | Seattle | 2 | All Maps","protocol":17,"map":"cp_dustbowl","folder":"tf","game":"Team Fortress","app_id":440,"player_count":22,"max_players":24,"Bots":0,"server_type":"Dedicated","server_os":"Linux","password":true,"vac":true,"version":"7757534","steam_id":85568392924469998,"keywords":["cp","nocrits","nodmgspread","uncletopia"],"game_id":440,"stv_port":27026,"stv_name":"Uncletopia | Seattle | 2 | All Maps | STV","players":[{"user_id":142,"name":"purpleflame1243","steam_id":76561199183848117,"connected_time":2511000000000,"state":"active","ping":54},{"user_id":112,"name":"Angela :3","steam_id":76561198991101353,"connected_time":5125000000000,"state":"active","ping":45},{"user_id":150,"name":"Wacks","steam_id":76561198079476100,"connected_time":1903000000000,"state":"active","ping":71},{"user_id":148,"name":"shy guy","steam_id":76561198151246059,"connected_time":1978000000000,"state":"active","ping":66},{"user_id":161,"name":"twitch.tv/ladyloki_ch","steam_id":76561198280150602,"connected_time":324000000000,"state":"active","ping":57},{"user_id":159,"name":"Mighty","steam_id":76561198008565748,"connected_time":404000000000,"state":"active","ping":72},{"user_id":157,"name":"Wholesale Socks","steam_id":76561198169911945,"connected_time":622000000000,"state":"active","ping":76},{"user_id":113,"name":"dust | she/it","steam_id":76561198045218909,"connected_time":5125000000000,"state":"active","ping":38},{"user_id":149,"name":"lol","steam_id":76561198026491738,"connected_time":1965000000000,"state":"active","ping":88},{"user_id":162,"name":"Br0gon","steam_id":76561199434773987,"connected_time":224000000000,"state":"active","ping":87},{"user_id":109,"name":"Uso","steam_id":76561198012093238,"connected_time":5256000000000,"state":"active","ping":105},{"user_id":155,"name":"Admiral Crumbs","steam_id":76561198108791583,"connected_time":1104000000000,"state":"active","ping":58},{"user_id":163,"name":"Unbind E","steam_id":76561199163159040,"connected_time":222000000000,"state":"active","ping":118},{"user_id":164,"name":"Catbus1000","steam_id":76561199406328081,"connected_time":196000000000,"state":"active","ping":58},{"user_id":167,"name":"mikey | I'm Burning Bright!","steam_id":76561198985847893,"connected_time":128000000000,"state":"active","ping":105},{"user_id":166,"name":"UndeadZomboy","steam_id":76561198048425072,"connected_time":162000000000,"state":"active","ping":71},{"user_id":129,"name":"The Pan","steam_id":76561198813468976,"connected_time":3825000000000,"state":"active","ping":87},{"user_id":160,"name":"iiamiizzyy","steam_id":76561198355030751,"connected_time":379000000000,"state":"active","ping":130},{"user_id":168,"name":"PageBoiSkull","steam_id":76561198237353578,"connected_time":78000000000,"state":"active","ping":70},{"user_id":133,"name":"Fluffy \u003c3 [HUGS]","steam_id":76561198119444962,"connected_time":3717000000000,"state":"active","ping":59},{"user_id":153,"name":"zuzu","steam_id":76561197969622110,"connected_time":1346000000000,"state":"active","ping":71},{"user_id":86,"name":"Kraftlos","steam_id":76561198074350350,"connected_time":6925000000000,"state":"active","ping":132}]},{"server_id":406,"name":"Uncletopia | Seattle | 3 | Stopwatch Beta","name_short":"sea-3","host":"sea-1.us.uncletopia.com","port":27035,"enabled":true,"region":"us-west","cc":"us","latitude":47.608013,"longitude":-122.33517,"reserved":0,"last_update":"0001-01-01T00:00:00Z","name_a2s":"Uncletopia | Seattle | 3 | Stopwatch Beta","protocol":17,"map":"workshop/pl_summercoast_rc8e.ugc1761528829","folder":"tf","game":"Team Fortress","app_id":440,"player_count":0,"max_players":24,"Bots":0,"server_type":"Dedicated","server_os":"Linux","password":true,"vac":true,"version":"7757534","steam_id":85568392924515217,"keywords":["nocrits","nodmgspread","payload","uncletopia"],"game_id":440,"stv_port":27036,"stv_name":"Uncletopia | Seattle | 3 | Stopwatch Beta | STV","players":null},{"server_id":17,"name":"Uncletopia | San Francisco | 1 | All Maps","name_short":"sfo-1","host":"sfo-1.us.uncletopia.com","port":27015,"enabled":true,"region":"us-west","cc":"us","latitude":37.77397,"longitude":-122.4313,"reserved":0,"last_update":"0001-01-01T00:00:00Z","name_a2s":"Uncletopia | San Francisco | 1 | All Maps","protocol":17,"map":"cp_dustbowl","folder":"tf","game":"Team Fortress","app_id":440,"player_count":0,"max_players":24,"Bots":0,"server_type":"Dedicated","server_os":"Linux","password":true,"vac":true,"version":"7757534","steam_id":85568392924469999,"keywords":["cp","nocrits","nodmgspread","uncletopia"],"game_id":440,"stv_port":27016,"stv_name":"Uncletopia | San Francisco | 1 | All Maps | STV","players":null},{"server_id":18,"name":"Uncletopia | San Francisco | 2 | All Maps","name_short":"sfo-2","host":"sfo-1.us.uncletopia.com","port":27025,"enabled":true,"region":"us-west","cc":"us","latitude":37.77397,"longitude":-122.4313,"reserved":0,"last_update":"0001-01-01T00:00:00Z","name_a2s":"Uncletopia | San Francisco | 2 | All Maps","protocol":17,"map":"cp_gorge","folder":"tf","game":"Team Fortress","app_id":440,"player_count":24,"max_players":24,"Bots":0,"server_type":"Dedicated","server_os":"Linux","password":true,"vac":true,"version":"7757534","steam_id":85568392924470000,"keywords":["cp","nocrits","nodmgspread","uncletopia"],"game_id":440,"stv_port":27026,"stv_name":"Uncletopia | San Francisco | 2 | All Maps | STV","players":[{"user_id":85,"name":"Thequirka","steam_id":76561198968058652,"connected_time":1051000000000,"state":"active","ping":63},{"user_id":65,"name":"Arenovas","steam_id":76561198042341811,"connected_time":2433000000000,"state":"active","ping":46},{"user_id":83,"name":"obese farts","steam_id":76561198206922028,"connected_time":1246000000000,"state":"active","ping":53},{"user_id":91,"name":"Chrisjongun","steam_id":76561198331685904,"connected_time":821000000000,"state":"active","ping":80},{"user_id":79,"name":"Jack from Jack in The Box","steam_id":76561199083594971,"connected_time":1534000000000,"state":"active","ping":62},{"user_id":95,"name":"Crustacean Daddy","steam_id":76561198993807061,"connected_time":681000000000,"state":"active","ping":59},{"user_id":66,"name":"Kopenich","steam_id":76561198066205245,"connected_time":2412000000000,"state":"active","ping":56},{"user_id":96,"name":"Medicated Thembo","steam_id":76561198035868181,"connected_time":653000000000,"state":"active","ping":71},{"user_id":100,"name":"Zobozo","steam_id":76561198028954297,"connected_time":136000000000,"state":"active","ping":46},{"user_id":101,"name":"Literally a Trans Woman","steam_id":76561198054639925,"connected_time":31000000000,"state":"spawning","ping":169},{"user_id":93,"name":"StatesideSnake","steam_id":76561198272957048,"connected_time":784000000000,"state":"active","ping":103},{"user_id":78,"name":"navy_jaguar","steam_id":76561198366199909,"connected_time":1613000000000,"state":"active","ping":59},{"user_id":52,"name":"no medic no engie no win","steam_id":76561198048007844,"connected_time":3542000000000,"state":"active","ping":57},{"user_id":94,"name":"Dreiiora","steam_id":76561199250644832,"connected_time":767000000000,"state":"active","ping":121},{"user_id":53,"name":"Boy_Blue","steam_id":76561198142150093,"connected_time":3488000000000,"state":"active","ping":119},{"user_id":81,"name":"yaldabaoth","steam_id":76561198084606869,"connected_time":1466000000000,"state":"active","ping":113},{"user_id":102,"name":"robomike27","steam_id":76561198092268826,"connected_time":19000000000,"state":"active","ping":69},{"user_id":90,"name":"ck_rene","steam_id":76561199079260488,"connected_time":839000000000,"state":"active","ping":129},{"user_id":30,"name":"magotago","steam_id":76561198013650292,"connected_time":4487000000000,"state":"active","ping":135},{"user_id":98,"name":"Jpzorg","steam_id":76561198325416453,"connected_time":442000000000,"state":"active","ping":45},{"user_id":72,"name":"K.A.R.M.A.","steam_id":76561198240750142,"connected_time":1866000000000,"state":"active","ping":57},{"user_id":99,"name":"MyHeadHz","steam_id":76561198090654531,"connected_time":189000000000,"state":"active","ping":84},{"user_id":39,"name":"Crylec","steam_id":76561198092755279,"connected_time":4385000000000,"state":"active","ping":120},{"user_id":69,"name":"Birdman743","steam_id":76561198799636748,"connected_time":2264000000000,"state":"active","ping":83}]},{"server_id":19,"name":"Uncletopia | San Francisco | 3 | Stopwatch Beta","name_short":"sfo-3","host":"sfo-1.us.uncletopia.com","port":27035,"enabled":true,"region":"us-west","cc":"us","latitude":37.77397,"longitude":-122.4313,"reserved":0,"last_update":"0001-01-01T00:00:00Z","name_a2s":"Uncletopia | San Francisco | 3 | Stopwatch Beta","protocol":17,"map":"cp_snakewater_final1","folder":"tf","game":"Team Fortress","app_id":440,"player_count":0,"max_players":24,"Bots":0,"server_type":"Dedicated","server_os":"Linux","password":true,"vac":true,"version":"7757534","steam_id":85568392924742824,"keywords":["cp","nocrits","nodmgspread","uncletopia"],"game_id":440,"stv_port":27036,"stv_name":"Uncletopia | San Francisco | 3 | Stopwatch Beta | STV","players":null},{"server_id":20,"name":"Uncletopia | San Francisco | 4 | Community","name_short":"sfo-4","host":"sfo-1.us.uncletopia.com","port":27045,"enabled":true,"region":"us-west","cc":"us","latitude":37.77397,"longitude":-122.4313,"reserved":0,"last_update":"0001-01-01T00:00:00Z","name_a2s":"Uncletopia | San Francisco | 4 | Community","protocol":17,"map":"pl_frontier_final","folder":"tf","game":"Team Fortress","app_id":440,"player_count":0,"max_players":24,"Bots":0,"server_type":"Dedicated","server_os":"Linux","password":true,"vac":true,"version":"7757534","steam_id":85568392924742826,"keywords":["nocrits","nodmgspread","payload","uncletopia"],"game_id":440,"stv_port":27046,"stv_name":"Uncletopia | San Francisco | 4 | Community | STV","players":null},{"server_id":141,"name":"Uncletopia | Sydney | 1 | All Maps","name_short":"syd-1","host":"syd-1.au.uncletopia.com","port":27015,"enabled":true,"region":"au","cc":"au","latitude":-33.865143,"longitude":151.2099,"reserved":0,"last_update":"0001-01-01T00:00:00Z","name_a2s":"Uncletopia | Sydney | 1 | All Maps","protocol":17,"map":"cp_snakewater_final1","folder":"tf","game":"Team Fortress","app_id":440,"player_count":0,"max_players":24,"Bots":0,"server_type":"Dedicated","server_os":"Linux","password":true,"vac":true,"version":"7757534","steam_id":85568392924470001,"keywords":["cp","nocrits","nodmgspread","uncletopia"],"game_id":440,"stv_port":27016,"stv_name":"Uncletopia | Sydney | 1 | All Maps | STV","players":null},{"server_id":123,"name":"Uncletopia | Sydney | 2 | All Maps","name_short":"syd-2","host":"syd-1.au.uncletopia.com","port":27025,"enabled":true,"region":"au","cc":"au","latitude":-33.865143,"longitude":151.2099,"reserved":0,"last_update":"0001-01-01T00:00:00Z","name_a2s":"Uncletopia | Sydney | 2 | All Maps","protocol":17,"map":"koth_cascade","folder":"tf","game":"Team Fortress","app_id":440,"player_count":0,"max_players":24,"Bots":0,"server_type":"Dedicated","server_os":"Linux","password":true,"vac":true,"version":"7757534","steam_id":85568392924470002,"keywords":["cp","nocrits","nodmgspread","uncletopia"],"game_id":440,"stv_port":27026,"stv_name":"Uncletopia | Sydney | 2 | All Maps | STV","players":null},{"server_id":395,"name":"Uncletopia | Sydney | 3 | All Maps","name_short":"syd-3","host":"syd-1.au.uncletopia.com","port":27035,"enabled":true,"region":"au","cc":"au","latitude":-33.865143,"longitude":151.2099,"reserved":0,"last_update":"0001-01-01T00:00:00Z","name_a2s":"Uncletopia | Sydney | 3 | All Maps","protocol":17,"map":"pl_borneo","folder":"tf","game":"Team Fortress","app_id":440,"player_count":0,"max_players":24,"Bots":0,"server_type":"Dedicated","server_os":"Linux","password":true,"vac":true,"version":"7757534","steam_id":85568392925194467,"keywords":["nocrits","nodmgspread","payload","uncletopia"],"game_id":440,"stv_port":27036,"stv_name":"Uncletopia | Sydney | 3 | All Maps | STV","players":null},{"server_id":396,"name":"Uncletopia | Sydney | 4 | All Maps","name_short":"syd-4","host":"syd-1.au.uncletopia.com","port":27045,"enabled":true,"region":"au","cc":"au","latitude":-33.865143,"longitude":151.2099,"reserved":0,"last_update":"0001-01-01T00:00:00Z","name_a2s":"Uncletopia | Sydney | 4 | All Maps","protocol":17,"map":"cp_dustbowl","folder":"tf","game":"Team Fortress","app_id":440,"player_count":0,"max_players":24,"Bots":0,"server_type":"Dedicated","server_os":"Linux","password":true,"vac":true,"version":"7757534","steam_id":85568392925397958,"keywords":["cp","nocrits","nodmgspread","uncletopia"],"game_id":440,"stv_port":27046,"stv_name":"Uncletopia | Sydney | 4 | All Maps | STV","players":null},{"server_id":58,"name":"Uncletopia | Sydney | 5 | Stopwatch Beta","name_short":"syd-5","host":"syd-1.au.uncletopia.com","port":27055,"enabled":true,"region":"au","cc":"au","latitude":-33.865143,"longitude":151.2099,"reserved":0,"last_update":"0001-01-01T00:00:00Z","name_a2s":"Uncletopia | Sydney | 5 | Stopwatch Beta","protocol":17,"map":"koth_cascade","folder":"tf","game":"Team Fortress","app_id":440,"player_count":0,"max_players":24,"Bots":0,"server_type":"Dedicated","server_os":"Linux","password":true,"vac":true,"version":"7757534","steam_id":85568392925397959,"keywords":["cp","nocrits","nodmgspread","uncletopia"],"game_id":440,"stv_port":27056,"stv_name":"Uncletopia | Sydney | 5 | Stopwatch Beta | STV","players":null},{"server_id":59,"name":"Uncletopia | Sydney | 6 | Community","name_short":"syd-6","host":"syd-1.au.uncletopia.com","port":27065,"enabled":true,"region":"au","cc":"au","latitude":-33.865143,"longitude":151.2099,"reserved":0,"last_update":"0001-01-01T00:00:00Z","name_a2s":"Uncletopia | Sydney | 6 | Community","protocol":17,"map":"pl_badwater","folder":"tf","game":"Team Fortress","app_id":440,"player_count":0,"max_players":24,"Bots":0,"server_type":"Dedicated","server_os":"Linux","password":true,"vac":true,"version":"7757534","steam_id":85568392925397960,"keywords":["nocrits","nodmgspread","payload","uncletopia"],"game_id":440,"stv_port":27066,"stv_name":"Uncletopia | Sydney | 6 | Community | STV","players":null},{"server_id":49,"name":"Uncletopia | Warsaw | 1 | All Maps","name_short":"waw-1","host":"waw-1.pl.uncletopia.com","port":27015,"enabled":true,"region":"eu","cc":"pl","latitude":52.2297,"longitude":21.017532,"reserved":0,"last_update":"0001-01-01T00:00:00Z","name_a2s":"","protocol":0,"map":"","folder":"","game":"","app_id":0,"player_count":0,"max_players":0,"Bots":0,"server_type":"","server_os":"","password":false,"vac":false,"version":"","steam_id":0,"keywords":null,"game_id":0,"stv_port":0,"stv_name":"","players":null},{"server_id":50,"name":"Uncletopia | Warsaw | 2 | All Maps","name_short":"waw-2","host":"waw-1.pl.uncletopia.com","port":27025,"enabled":true,"region":"eu","cc":"pl","latitude":52.2297,"longitude":21.017532,"reserved":0,"last_update":"0001-01-01T00:00:00Z","name_a2s":"Uncletopia | Warsaw | 2 | All Maps","protocol":17,"map":"koth_lakeside_final","folder":"tf","game":"Team Fortress","app_id":440,"player_count":0,"max_players":24,"Bots":0,"server_type":"Dedicated","server_os":"Linux","password":true,"vac":true,"version":"7757534","steam_id":85568392925397851,"keywords":["cp","nocrits","nodmgspread","uncletopia"],"game_id":440,"stv_port":27026,"stv_name":"Uncletopia | Warsaw | 2 | All Maps | STV","players":null},{"server_id":51,"name":"Uncletopia | Warsaw | 3 | All Maps","name_short":"waw-3","host":"waw-1.pl.uncletopia.com","port":27035,"enabled":true,"region":"eu","cc":"pl","latitude":52.2297,"longitude":21.017532,"reserved":0,"last_update":"0001-01-01T00:00:00Z","name_a2s":"Uncletopia | Warsaw | 3 | All Maps","protocol":17,"map":"cp_altitude","folder":"tf","game":"Team Fortress","app_id":440,"player_count":0,"max_players":24,"Bots":0,"server_type":"Dedicated","server_os":"Linux","password":true,"vac":true,"version":"7757534","steam_id":85568392925397852,"keywords":["cp","nocrits","nodmgspread","uncletopia"],"game_id":440,"stv_port":27036,"stv_name":"Uncletopia | Warsaw | 3 | All Maps | STV","players":null},{"server_id":52,"name":"Uncletopia | Warsaw | 4 | All Maps","name_short":"waw-4","host":"waw-1.pl.uncletopia.com","port":27045,"enabled":true,"region":"eu","cc":"pl","latitude":52.2297,"longitude":21.017532,"reserved":0,"last_update":"0001-01-01T00:00:00Z","name_a2s":"Uncletopia | Warsaw | 4 | All Maps","protocol":17,"map":"pl_upward","folder":"tf","game":"Team Fortress","app_id":440,"player_count":0,"max_players":24,"Bots":0,"server_type":"Dedicated","server_os":"Linux","password":true,"vac":true,"version":"7757534","steam_id":85568392925397853,"keywords":["nocrits","nodmgspread","payload","uncletopia"],"game_id":440,"stv_port":27046,"stv_name":"Uncletopia | Warsaw | 4 | All Maps | STV","players":null},{"server_id":53,"name":"Uncletopia | Warsaw | 5 | Stopwatch Beta","name_short":"waw-5","host":"waw-1.pl.uncletopia.com","port":27055,"enabled":true,"region":"eu","cc":"pl","latitude":52.2297,"longitude":21.017532,"reserved":0,"last_update":"0001-01-01T00:00:00Z","name_a2s":"Uncletopia | Warsaw | 5 | Stopwatch Beta","protocol":17,"map":"pl_pier","folder":"tf","game":"Team Fortress","app_id":440,"player_count":0,"max_players":24,"Bots":0,"server_type":"Dedicated","server_os":"Linux","password":true,"vac":true,"version":"7757534","steam_id":85568392925397854,"keywords":["nocrits","nodmgspread","payload","uncletopia"],"game_id":440,"stv_port":27056,"stv_name":"Uncletopia | Warsaw | 5 | Stopwatch Beta | STV","players":null},{"server_id":54,"name":"Uncletopia | Warsaw | 6 | Community","name_short":"waw-6","host":"waw-1.pl.uncletopia.com","port":27065,"enabled":true,"region":"eu","cc":"pl","latitude":52.2297,"longitude":21.017532,"reserved":0,"last_update":"0001-01-01T00:00:00Z","name_a2s":"Uncletopia | Warsaw | 6 | Community","protocol":17,"map":"koth_highpass","folder":"tf","game":"Team Fortress","app_id":440,"player_count":0,"max_players":24,"Bots":0,"server_type":"Dedicated","server_os":"Linux","password":true,"vac":true,"version":"7757534","steam_id":85568392925397856,"keywords":["cp","nocrits","nodmgspread","uncletopia"],"game_id":440,"stv_port":27066,"stv_name":"Uncletopia | Warsaw | 6 | Community | STV","players":null}]}