{"status":true,"message":"","result":[{"server_id":9,"name":"Uncletopia | Atlanta | 1 | All Maps","name_short":"atl-1","host":"atl-1.us.uncletopia.com","port":27015,"enabled":true,"region":"us-east","cc":"us","latitude":33.753746,"longitude":-84.38633,"reserved":0,"last_update":"0001-01-01T00:00:00Z","name_a2s":"Uncletopia | Atlanta | 1 | All Maps","protocol":17,"map":"pl_pier","folder":"tf","game":"Team Fortress","app_id":440,"player_count":23,"max_players":24,"Bots":0,"server_type":"Dedicated","server_os":"Linux","password":true,"vac":true,"version":"7961495","steam_id":85568392924469982,"keywords":["nocrits","nodmgspread","payload","uncletopia"],"game_id":440,"stv_port":27016,"stv_name":"Uncletopia | Atlanta | 1 | All Maps | STV","players":null},{"server_id":104,"name":"Uncletopia | Atlanta | 2 | All Maps","name_short":"atl-2","host":"atl-1.us.uncletopia.com","port":27025,"enabled":true,"region":"us-east","cc":"us","latitude":33.753746,"longitude":-84.38633,"reserved":0,"last_update":"0001-01-01T00:00:00Z","name_a2s":"Uncletopia | Atlanta | 2 | All Maps","protocol":17,"map":"pl_frontier_final","folder":"tf","game":"Team Fortress","app_id":440,"player_count":22,"max_players":24,"Bots":0,"server_type":"Dedicated","server_os":"Linux","password":true,"vac":true,"version":"7961495","steam_id":85568392924469983,"keywords":["nocrits","nodmgspread","payload","uncletopia"],"game_id":440,"stv_port":27026,"stv_name":"Uncletopia | Atlanta | 2 | All Maps | STV","players":null},{"server_id":400,"name":"Uncletopia | Atlanta | 3 | Stopwatch","name_short":"atl-3","host":"atl-1.us.uncletopia.com","port":27035,"enabled":true,"region":"us-east","cc":"us","latitude":33.753746,"longitude":-84.38633,"reserved":0,"last_update":"0001-01-01T00:00:00Z","name_a2s":"Uncletopia | Atlanta | 3 | Stopwatch","protocol":17,"map":"cp_process_final","folder":"tf","game":"Team Fortress","app_id":440,"player_count":0,"max_players":24,"Bots":0,"server_type":"Dedicated","server_os":"Linux","password":true,"vac":true,"version":"7961495","steam_id":85568392924515187,"keywords":["cp","nocrits","nodmgspread","uncletopia"],"game_id":440,"stv_port":27036,"stv_name":"Uncletopia | Atlanta | 3 | Stopwatch | STV","players":null},{"server_id":401,"name":"Uncletopia | Atlanta | 4 | Community","name_short":"atl-4","host":"atl-1.us.uncletopia.com","port":27045,"enabled":true,"region":"us-east","cc":"us","latitude":33.753746,"longitude":-84.38633,"reserved":0,"last_update":"0001-01-01T00:00:00Z","name_a2s":"Uncletopia | Atlanta | 4 | Community","protocol":17,"map":"koth_trenchfoot_b1a","folder":"tf","game":"Team Fortress","app_id":440,"player_count":0,"max_players":24,"Bots":0,"server_type":"Dedicated","server_os":"Linux","password":true,"vac":true,"version":"7961495","steam_id":85568392924515188,"keywords":["cp","nocrits","nodmgspread","uncletopia"],"game_id":440,"stv_port":27046,"stv_name":"Uncletopia | Atlanta | 4 | Community | STV","players":null},{"server_id":2,"name":"Uncletopia | Chicago | 1 | All Maps","name_short":"chi-1","host":"chi-1.us.uncletopia.com","port":27015,"enabled":true,"region":"us-central","cc":"us","latitude":41.881832,"longitude":-87.62318,"reserved":0,"last_update":"0001-01-01T00:00:00Z","name_a2s":"Uncletopia | Chicago | 1 | All Maps","protocol":17,"map":"cp_process_final","folder":"tf","game":"Team Fortress","app_id":440,"player_count":24,"max_players":24,"Bots":0,"server_type":"Dedicated","server_os":"Linux","password":true,"vac":true,"version":"7961495","steam_id":85568392924469984,"keywords":["cp","nocrits","nodmgspread","uncletopia"],"game_id":440,"stv_port":27016,"stv_name":"Uncletopia | Chicago | 1 | All Maps | STV","players":[{"user_id":198,"name":"McGruble","steam_id":76561198136317340,"connected_time":1673000000000,"state":"active","ping":83},{"user_id":195,"name":"eekum bokum","steam_id":76561198157266273,"connected_time":2130000000000,"state":"active","ping":75},{"user_id":217,"name":"Snugboo","steam_id":76561198147970327,"connected_time":622000000000,"state":"active","ping":50},{"user_id":218,"name":"fishing.memes.official","steam_id":76561198374899960,"connected_time":581000000000,"state":"active","ping":68},{"user_id":219,"name":"giacomo","steam_id":76561198058560798,"connected_time":572000000000,"state":"active","ping":59},{"user_id":226,"name":"Dan","steam_id":76561199236719411,"connected_time":357000000000,"state":"active","ping":73},{"user_id":200,"name":"LORD CANTI","steam_id":76561198254479725,"connected_time":1647000000000,"state":"active","ping":46},{"user_id":228,"name":"ThePopularLoner3334","steam_id":76561198202436474,"connected_time":153000000000,"state":"active","ping":60},{"user_id":210,"name":"Idk","steam_id":76561198971629959,"connected_time":1002000000000,"state":"active","ping":135},{"user_id":229,"name":"Pete","steam_id":76561198070499160,"connected_time":25000000000,"state":"active","ping":58},{"user_id":186,"name":"CoconutRice","steam_id":76561198114909164,"connected_time":3523000000000,"state":"active","ping":45},{"user_id":207,"name":"John Fortnite","steam_id":76561198076608253,"connected_time":1586000000000,"state":"active","ping":70},{"user_id":189,"name":"Yayifications","steam_id":76561198066227208,"connected_time":3439000000000,"state":"active","ping":60},{"user_id":141,"name":"allahsdroptop","steam_id":76561198133195238,"connected_time":7273000000000,"state":"active","ping":103},{"user_id":201,"name":"gods hungriest pitbull","steam_id":76561198111669774,"connected_time":1644000000000,"state":"active","ping":49},{"user_id":211,"name":"The Juice","steam_id":76561198065307144,"connected_time":1001000000000,"state":"active","ping":72},{"user_id":202,"name":"Doctor Emerald(Bison enjoyer)","steam_id":76561199123003872,"connected_time":1643000000000,"state":"active","ping":92},{"user_id":203,"name":"soltuno","steam_id":76561198074430565,"connected_time":1642000000000,"state":"active","ping":117},{"user_id":154,"name":"Scorpie Doodle","steam_id":76561198021845763,"connected_time":6142000000000,"state":"active","ping":56},{"user_id":209,"name":"Zing","steam_id":76561198097160898,"connected_time":1097000000000,"state":"active","ping":47},{"user_id":188,"name":"youtube @poshypop","steam_id":76561198046163953,"connected_time":3500000000000,"state":"active","ping":55},{"user_id":221,"name":"dillon/dylan","steam_id":76561198118054166,"connected_time":541000000000,"state":"active","ping":71},{"user_id":125,"name":"Voids","steam_id":76561198128386726,"connected_time":8594000000000,"state":"active","ping":84},{"user_id":216,"name":"LikeASir","steam_id":76561198042209721,"connected_time":670000000000,"state":"active","ping":45}]},{"server_id":106,"name":"Uncletopia | Chicago | 2 | All Maps","name_short":"chi-2","host":"chi-1.us.uncletopia.com","port":27025,"enabled":true,"region":"us-central","cc":"us","latitude":41.881832,"longitude":-87.62318,"reserved":0,"last_update":"0001-01-01T00:00:00Z","name_a2s":"Uncletopia | Chicago | 2 | All Maps","protocol":17,"map":"pl_pier","folder":"tf","game":"Team Fortress","app_id":440,"player_count":0,"max_players":24,"Bots":0,"server_type":"Dedicated","server_os":"Linux","password":true,"vac":true,"version":"7961495","steam_id":85568392924469985,"keywords":["nocrits","nodmgspread","payload","uncletopia"],"game_id":440,"stv_port":27026,"stv_name":"Uncletopia | Chicago | 2 | All Maps | STV","players":null},{"server_id":402,"name":"Uncletopia | Chicago | 3 | All Maps","name_short":"chi-3","host":"chi-1.us.uncletopia.com","port":27035,"enabled":true,"region":"us-central","cc":"us","latitude":41.881832,"longitude":-87.62318,"reserved":0,"last_update":"0001-01-01T00:00:00Z","name_a2s":"Uncletopia | Chicago | 3 | All Maps","protocol":17,"map":"koth_nucleus","folder":"tf","game":"Team Fortress","app_id":440,"player_count":21,"max_players":24,"Bots":0,"server_type":"Dedicated","server_os":"Linux","password":true,"vac":true,"version":"7961495","steam_id":85568392924515191,"keywords":["cp","nocrits","nodmgspread","uncletopia"],"game_id":440,"stv_port":27036,"stv_name":"Uncletopia | Chicago | 3 | All Maps | STV","players":[{"user_id":111,"name":"2JZ_","steam_id":76561198064027289,"connected_time":894000000000,"state":"active","ping":70},{"user_id":102,"name":"Madeline the Mad","steam_id":76561198153456869,"connected_time":1473000000000,"state":"active","ping":63},{"user_id":124,"name":"TheOneZoot","steam_id":76561198121944243,"connected_time":289000000000,"state":"active","ping":71},{"user_id":116,"name":"Egg","steam_id":76561198028157625,"connected_time":688000000000,"state":"active","ping":75},{"user_id":119,"name":"dogface","steam_id":76561198074407897,"connected_time":455000000000,"state":"active","ping":69},{"user_id":127,"name":"chiswola","steam_id":76561198046920142,"connected_time":132000000000,"state":"active","ping":70},{"user_id":105,"name":"Mecha","steam_id":76561198014927379,"connected_time":1298000000000,"state":"active","ping":71},{"user_id":114,"name":"Si1entSn1pa","steam_id":76561198170095479,"connected_time":751000000000,"state":"active","ping":84},{"user_id":93,"name":"Walt","steam_id":76561198964107245,"connected_time":2684000000000,"state":"active","ping":88},{"user_id":123,"name":"FrostNova","steam_id":76561198348354629,"connected_time":345000000000,"state":"active","ping":105},{"user_id":128,"name":"DOMO_MR_ROBOTO","steam_id":76561198077108345,"connected_time":40000000000,"state":"active","ping":130},{"user_id":108,"name":"TurnupDig75","steam_id":76561198852375121,"connected_time":1237000000000,"state":"active","ping":73},{"user_id":115,"name":"LegendaryMister151","steam_id":76561198064890524,"connected_time":728000000000,"state":"active","ping":82},{"user_id":109,"name":"QWERTY","steam_id":76561198211430420,"connected_time":1237000000000,"state":"active","ping":80},{"user_id":126,"name":"pimbo jingus","steam_id":76561198275343583,"connected_time":214000000000,"state":"active","ping":46},{"user_id":74,"name":"Zomwashroomz","steam_id":76561198131316167,"connected_time":3946000000000,"state":"active","ping":85},{"user_id":91,"name":"Jesse","steam_id":76561198157305426,"connected_time":2930000000000,"state":"active","ping":60},{"user_id":55,"name":"PyroEagle","steam_id":76561198296434231,"connected_time":4443000000000,"state":"active","ping":69},{"user_id":118,"name":"FIREPOW","steam_id":76561198111259720,"connected_time":497000000000,"state":"active","ping":66},{"user_id":40,"name":"basilberry","steam_id":76561198145275937,"connected_time":5012000000000,"state":"active","ping":81},{"user_id":113,"name":"BriKai","steam_id":76561198072510597,"connected_time":842000000000,"state":"active","ping":88}]},{"server_id":403,"name":"Uncletopia | Chicago | 4 | All Maps","name_short":"chi-4","host":"chi-1.us.uncletopia.com","port":27045,"enabled":true,"region":"us-central","cc":"us","latitude":41.881832,"longitude":-87.62318,"reserved":0,"last_update":"0001-01-01T00:00:00Z","name_a2s":"Uncletopia | Chicago | 4 | All Maps","protocol":17,"map":"pl_badwater","folder":"tf","game":"Team Fortress","app_id":440,"player_count":20,"max_players":24,"Bots":0,"server_type":"Dedicated","server_os":"Linux","password":true,"vac":true,"version":"7961495","steam_id":85568392924515193,"keywords":["nocrits","nodmgspread","payload","uncletopia"],"game_id":440,"stv_port":27046,"stv_name":"Uncletopia | Chicago | 4 | All Maps | STV","players":[{"user_id":309,"name":"Agent of Cringe","steam_id":76561198055456543,"connected_time":1123000000000,"state":"connecting","ping":96},{"user_id":310,"name":"Asha'man","steam_id":76561198057913763,"connected_time":1115000000000,"state":"connecting","ping":31},{"user_id":327,"name":"William Wallace","steam_id":76561199343316814,"connected_time":453000000000,"state":"connecting","ping":79},{"user_id":304,"name":"Sweppy","steam_id":76561198035457667,"connected_time":2139000000000,"state":"connecting","ping":72},{"user_id":340,"name":"Deantallica","steam_id":76561198287223999,"connected_time":135000000000,"state":"connecting","ping":77},{"user_id":337,"name":"Crunchy","steam_id":76561198060342804,"connected_time":213000000000,"state":"connecting","ping":76},{"user_id":324,"name":"6t26j","steam_id":76561198278282836,"connected_time":570000000000,"state":"connecting","ping":54},{"user_id":308,"name":"Ringo x Seiran","steam_id":76561198357437908,"connected_time":1137000000000,"state":"connecting","ping":83},{"user_id":338,"name":"Sunshine","steam_id":76561198885528098,"connected_time":200000000000,"state":"connecting","ping":94},{"user_id":286,"name":"JC","steam_id":76561198135307995,"connected_time":2981000000000,"state":"connecting","ping":76},{"user_id":307,"name":"rin","steam_id":76561198155841915,"connected_time":1327000000000,"state":"connecting","ping":81},{"user_id":330,"name":"Spyincorporated","steam_id":76561198080956951,"connected_time":368000000000,"state":"connecting","ping":59},{"user_id":200,"name":"Nephi","steam_id":76561198031525122,"connected_time":9534000000000,"state":"connecting","ping":84},{"user_id":331,"name":"Rustyorion","steam_id":76561198439186347,"connected_time":339000000000,"state":"connecting","ping":115},{"user_id":339,"name":"euphoricfilth","steam_id":76561198100160865,"connected_time":191000000000,"state":"connecting","ping":76},{"user_id":292,"name":"NYC APPA YIP YIP","steam_id":76561198112929942,"connected_time":2705000000000,"state":"connecting","ping":75},{"user_id":332,"name":"KarmaStar","steam_id":76561197971945357,"connected_time":309000000000,"state":"connecting","ping":90},{"user_id":333,"name":"Sickmind33","steam_id":76561198036248611,"connected_time":307000000000,"state":"connecting","ping":65},{"user_id":265,"name":"asbestos","steam_id":76561198079178866,"connected_time":4401000000000,"state":"connecting","ping":90},{"user_id":335,"name":"ladbotz","steam_id":76561199196366229,"connected_time":251000000000,"state":"connecting","ping":72}]},{"server_id":36,"name":"Uncletopia | Chicago | 5 | All Maps","name_short":"chi-5","host":"chi-2.us.uncletopia.com","port":27015,"enabled":true,"region":"us-central","cc":"us","latitude":41.881832,"longitude":-87.62318,"reserved":0,"last_update":"0001-01-01T00:00:00Z","name_a2s":"Uncletopia | Chicago | 5 | All Maps","protocol":17,"map":"koth_viaduct","folder":"tf","game":"Team Fortress","app_id":440,"player_count":0,"max_players":24,"Bots":0,"server_type":"Dedicated","server_os":"Linux","password":true,"vac":true,"version":"7961495","steam_id":85568392924866362,"keywords":["cp","nocrits","nodmgspread","uncletopia"],"game_id":440,"stv_port":27016,"stv_name":"Uncletopia | Chicago | 5 | All Maps | STV","players":null},{"server_id":37,"name":"Uncletopia | Chicago | 6 | All Maps","name_short":"chi-6","host":"chi-2.us.uncletopia.com","port":27025,"enabled":true,"region":"us-central","cc":"us","latitude":41.881832,"longitude":-87.62318,"reserved":0,"last_update":"0001-01-01T00:00:00Z","name_a2s":"Uncletopia | Chicago | 6 | All Maps","protocol":17,"map":"pl_frontier_final","folder":"tf","game":"Team Fortress","app_id":440,"player_count":0,"max_players":24,"Bots":0,"server_type":"Dedicated","server_os":"Linux","password":true,"vac":true,"version":"7961495","steam_id":85568392924866363,"keywords":["nocrits","nodmgspread","payload","uncletopia"],"game_id":440,"stv_port":27026,"stv_name":"Uncletopia | Chicago | 6 | All Maps | STV","players":null},{"server_id":38,"name":"Uncletopia | Chicago | 7 | Stopwatch","name_short":"chi-7","host":"chi-2.us.uncletopia.com","port":27035,"enabled":true,"region":"us-central","cc":"us","latitude":41.881832,"longitude":-87.62318,"reserved":0,"last_update":"0001-01-01T00:00:00Z","name_a2s":"Uncletopia | Chicago | 7 | Stopwatch","protocol":17,"map":"pl_badwater","folder":"tf","game":"Team Fortress","app_id":440,"player_count":0,"max_players":24,"Bots":0,"server_type":"Dedicated","server_os":"Linux","password":true,"vac":true,"version":"7961495","steam_id":85568392924866364,"keywords":["nocrits","nodmgspread","payload","uncletopia"],"game_id":440,"stv_port":27036,"stv_name":"Uncletopia | Chicago | 7 | Stopwatch | STV","players":null},{"server_id":39,"name":"Uncletopia | Chicago | 8 | Community","name_short":"chi-8","host":"chi-2.us.uncletopia.com","port":27045,"enabled":true,"region":"us-central","cc":"us","latitude":41.881832,"longitude":-87.62318,"reserved":0,"last_update":"0001-01-01T00:00:00Z","name_a2s":"Uncletopia | Chicago | 8 | Community","protocol":17,"map":"pl_pier","folder":"tf","game":"Team Fortress","app_id":440,"player_count":0,"max_players":24,"Bots":0,"server_type":"Dedicated","server_os":"Linux","password":true,"vac":true,"version":"7961495","steam_id":85568392924866365,"keywords":["nocrits","nodmgspread","payload","uncletopia"],"game_id":440,"stv_port":27046,"stv_name":"Uncletopia | Chicago | 8 | Community | STV","players":null},{"server_id":8,"name":"Uncletopia | Dallas | 1 | All Maps","name_short":"dal-1","host":"dal-1.us.uncletopia.com","port":27015,"enabled":true,"region":"us-central","cc":"us","latitude":32.779167,"longitude":-96.80889,"reserved":0,"last_update":"0001-01-01T00:00:00Z","name_a2s":"Uncletopia | Dallas | 1 | All Maps","protocol":17,"map":"cp_mountainlab","folder":"tf","game":"Team Fortress","app_id":440,"player_count":22,"max_players":24,"Bots":0,"server_type":"Dedicated","server_os":"Linux","password":true,"vac":true,"version":"7961495","steam_id":85568392924469986,"keywords":["cp","nocrits","nodmgspread","uncletopia"],"game_id":440,"stv_port":27016,"stv_name":"Uncletopia | Dallas | 1 | All Maps | STV","players":[{"user_id":23,"name":"cremeoner","steam_id":76561198372332251,"connected_time":2339000000000,"state":"active","ping":75},{"user_id":24,"name":"Imanub","steam_id":76561199004541513,"connected_time":2290000000000,"state":"active","ping":93},{"user_id":61,"name":"GeraldyJones65","steam_id":76561199122297098,"connected_time":1173000000000,"state":"active","ping":97},{"user_id":27,"name":"FI LO","steam_id":76561198976530881,"connected_time":1787000000000,"state":"active","ping":91},{"user_id":74,"name":"reymundo","steam_id":76561197989412830,"connected_time":234000000000,"state":"active","ping":106},{"user_id":31,"name":"Identity Theft","steam_id":76561199229844998,"connected_time":1670000000000,"state":"active","ping":85},{"user_id":55,"name":"Seduce!_!Me_!213","steam_id":76561198857556368,"connected_time":1262000000000,"state":"active","ping":71},{"user_id":34,"name":"Hope","steam_id":76561199201900779,"connected_time":1501000000000,"state":"active","ping":106},{"user_id":35,"name":"MoonMan Midnight","steam_id":76561198300525893,"connected_time":1467000000000,"state":"active","ping":60},{"user_id":36,"name":"Captain Chicken","steam_id":76561198047767530,"connected_time":1415000000000,"state":"active","ping":120},{"user_id":68,"name":"ttv/IanTheAwsm","steam_id":76561198093031738,"connected_time":645000000000,"state":"active","ping":75},{"user_id":62,"name":"bottom pride burger","steam_id":76561198322247602,"connected_time":1156000000000,"state":"active","ping":92},{"user_id":45,"name":"Sneaky55","steam_id":76561199016166412,"connected_time":1382000000000,"state":"active","ping":111},{"user_id":64,"name":"Soda_black","steam_id":76561198921541055,"connected_time":1141000000000,"state":"active","ping":77},{"user_id":72,"name":"Ea Nasir","steam_id":76561198878661482,"connected_time":546000000000,"state":"active","ping":44},{"user_id":71,"name":"bleh :p","steam_id":76561198880268129,"connected_time":574000000000,"state":"active","ping":105},{"user_id":50,"name":"strawberry pizza enjoyer","steam_id":76561198244527426,"connected_time":1323000000000,"state":"active","ping":102},{"user_id":51,"name":"mossoon","steam_id":76561198274244849,"connected_time":1311000000000,"state":"active","ping":93},{"user_id":54,"name":"aisu","steam_id":76561198043768507,"connected_time":1263000000000,"state":"active","ping":91},{"user_id":57,"name":"GX thedittoguy","steam_id":76561199013129784,"connected_time":1239000000000,"state":"active","ping":60},{"user_id":60,"name":"motherofdragons96","steam_id":76561198864779097,"connected_time":1192000000000,"state":"active","ping":111},{"user_id":63,"name":"Where's my Laptop?","steam_id":76561198860068961,"connected_time":1151000000000,"state":"active","ping":83}]},{"server_id":108,"name":"Uncletopia | Dallas | 2 | All Maps","name_short":"dal-2","host":"dal-1.us.uncletopia.com","port":27025,"enabled":true,"region":"us-central","cc":"us","latitude":32.779167,"longitude":-96.80889,"reserved":0,"last_update":"0001-01-01T00:00:00Z","name_a2s":"Uncletopia | Dallas | 2 | All Maps","protocol":17,"map":"cp_egypt_final","folder":"tf","game":"Team Fortress","app_id":440,"player_count":23,"max_players":24,"Bots":0,"server_type":"Dedicated","server_os":"Linux","password":true,"vac":true,"version":"7961495","steam_id":85568392924469988,"keywords":["cp","nocrits","nodmgspread","uncletopia"],"game_id":440,"stv_port":27026,"stv_name":"Uncletopia | Dallas | 2 | All Maps | STV","players":[{"user_id":151,"name":"GlizzLord","steam_id":76561198321010427,"connected_time":1110000000000,"state":"active","ping":101},{"user_id":117,"name":"3/4'' x 18'' industrial pipe","steam_id":76561198094042613,"connected_time":3229000000000,"state":"active","ping":92},{"user_id":109,"name":"spacetoven","steam_id":76561198115821131,"connected_time":4158000000000,"state":"active","ping":92},{"user_id":7,"name":"FormalCheese","steam_id":76561198068636715,"connected_time":12719000000000,"state":"active","ping":64},{"user_id":145,"name":"AshenFall_","steam_id":76561198135389116,"connected_time":1818000000000,"state":"active","ping":93},{"user_id":165,"name":"catus","steam_id":76561198167075606,"connected_time":434000000000,"state":"active","ping":76},{"user_id":166,"name":"Jomdac","steam_id":76561198150447896,"connected_time":368000000000,"state":"active","ping":95},{"user_id":130,"name":"ADRIEN BRODY","steam_id":76561198009299473,"connected_time":2793000000000,"state":"active","ping":91},{"user_id":150,"name":"BackwardsEagle","steam_id":76561199013712612,"connected_time":1526000000000,"state":"active","ping":97},{"user_id":170,"name":"intense radish","steam_id":76561199061038624,"connected_time":168000000000,"state":"active","ping":56},{"user_id":120,"name":"airballer","steam_id":76561198165899125,"connected_time":3142000000000,"state":"active","ping":90},{"user_id":159,"name":"bonk","steam_id":76561198922763623,"connected_time":531000000000,"state":"active","ping":108},{"user_id":149,"name":"–≤–Ω–∏–∑ –ø–æ–≥–∞–Ω–æ","steam_id":76561198142819600,"connected_time":1560000000000,"state":"active","ping":37},{"user_id":171,"name":"Chub","steam_id":76561197960983902,"connected_time":108000000000,"state":"active","ping":44},{"user_id":172,"name":"Jus71n","steam_id":76561198133487430,"connected_time":100000000000,"state":"active","ping":87},{"user_id":167,"name":"ryce","steam_id":76561198114572309,"connected_time":360000000000,"state":"active","ping":62},{"user_id":144,"name":"songcreator","steam_id":76561198076822464,"connected_time":1886000000000,"state":"active","ping":76},{"user_id":168,"name":"Hermit_","steam_id":76561198013807290,"connected_time":327000000000,"state":"active","ping":56},{"user_id":161,"name":"Big Man Lard","steam_id":76561198069074737,"connected_time":503000000000,"state":"active","ping":80},{"user_id":162,"name":"Alkimia","steam_id":76561198385763137,"connected_time":476000000000,"state":"active","ping":189},{"user_id":169,"name":"SCRAPTRAP1001","steam_id":76561199417627762,"connected_time":294000000000,"state":"active","ping":68},{"user_id":131,"name":"harryjohnson1965","steam_id":76561198037803087,"connected_time":2628000000000,"state":"active","ping":79},{"user_id":135,"name":"ALDOMLG","steam_id":76561198343776095,"connected_time":2155000000000,"state":"active","ping":92}]},{"server_id":404,"name":"Uncletopia | Dallas | 3 | All Maps","name_short":"dal-3","host":"dal-1.us.uncletopia.com","port":27035,"enabled":true,"region":"us-central","cc":"us","latitude":32.779167,"longitude":-96.80889,"reserved":0,"last_update":"0001-01-01T00:00:00Z","name_a2s":"Uncletopia | Dallas | 3 | All Maps","protocol":17,"map":"pl_badwater","folder":"tf","game":"Team Fortress","app_id":440,"player_count":0,"max_players":24,"Bots":0,"server_type":"Dedicated","server_os":"Linux","password":true,"vac":true,"version":"7961495","steam_id":85568392924515219,"keywords":["nocrits","nodmgspread","payload","uncletopia"],"game_id":440,"stv_port":27036,"stv_name":"Uncletopia | Dallas | 3 | All Maps | STV","players":null},{"server_id":405,"name":"Uncletopia | Dallas | 4 | Community","name_short":"dal-4","host":"dal-1.us.uncletopia.com","port":27045,"enabled":true,"region":"us-central","cc":"us","latitude":32.779167,"longitude":-96.80889,"reserved":0,"last_update":"0001-01-01T00:00:00Z","name_a2s":"Uncletopia | Dallas | 4 | Community","protocol":17,"map":"workshop/cp_mannbase_rc2a.ugc1900737467","folder":"tf","game":"Team Fortress","app_id":440,"player_count":0,"max_players":24,"Bots":0,"server_type":"Dedicated","server_os":"Linux","password":true,"vac":true,"version":"7961495","steam_id":85568392924515220,"keywords":["cp","nocrits","nodmgspread","uncletopia"],"game_id":440,"stv_port":27046,"stv_name":"Uncletopia | Dallas | 4 | Community | STV","players":null},{"server_id":5,"name":"Uncletopia | Frankfurt | 1 | All Maps","name_short":"frk-1","host":"frk-1.de.uncletopia.com","port":27015,"enabled":true,"region":"eu","cc":"de","latitude":50.110924,"longitude":8.682127,"reserved":0,"last_update":"0001-01-01T00:00:00Z","name_a2s":"Uncletopia | Frankfurt | 1 | All Maps","protocol":17,"map":"pl_barnblitz","folder":"tf","game":"Team Fortress","app_id":440,"player_count":24,"max_players":24,"Bots":0,"server_type":"Dedicated","server_os":"Linux","password":true,"vac":true,"version":"7961495","steam_id":85568392924469989,"keywords":["nocrits","nodmgspread","payload","uncletopia"],"game_id":440,"stv_port":27016,"stv_name":"Uncletopia | Frankfurt | 1 | All Maps | STV","players":[{"user_id":593,"name":"Vivon","steam_id":76561198830042245,"connected_time":513000000000,"state":"active","ping":132},{"user_id":586,"name":"olof","steam_id":76561198095681561,"connected_time":876000000000,"state":"active","ping":103},{"user_id":554,"name":"nekoooooo","steam_id":76561198974207724,"connected_time":3066000000000,"state":"active","ping":110},{"user_id":537,"name":"ChicoColo [ A1r ]","steam_id":76561198045977760,"connected_time":4100000000000,"state":"active","ping":44},{"user_id":561,"name":"live funny joke reaction cam","steam_id":76561198346324423,"connected_time":2700000000000,"state":"active","ping":110},{"user_id":577,"name":"Lukas","steam_id":76561198454286820,"connected_time":1270000000000,"state":"active","ping":70},{"user_id":595,"name":"Gaattori","steam_id":76561198065624683,"connected_time":164000000000,"state":"active","ping":93},{"user_id":583,"name":"Squash Nyderü•í Tarm Bryder\ufffd\ufffd\ufffd","steam_id":76561198300501653,"connected_time":895000000000,"state":"active","ping":45},{"user_id":522,"name":"Ross from F.R.I.E.N.D.S.","steam_id":76561198008511665,"connected_time":4713000000000,"state":"active","ping":59},{"user_id":596,"name":"Tusho","steam_id":76561198115447383,"connected_time":132000000000,"state":"active","ping":135},{"user_id":576,"name":"Bunnygirl Stalin","steam_id":76561199044101274,"connected_time":1294000000000,"state":"active","ping":70},{"user_id":589,"name":"le'pablo","steam_id":76561199009805208,"connected_time":593000000000,"state":"active","ping":99},{"user_id":474,"name":"robu","steam_id":76561198113874116,"connected_time":8215000000000,"state":"active","ping":75},{"user_id":571,"name":"[P-roc] Cmm Bert","steam_id":76561198016658674,"connected_time":1523000000000,"state":"active","ping":67},{"user_id":499,"name":"ultim8","steam_id":76561198201501691,"connected_time":6174000000000,"state":"active","ping":45},{"user_id":590,"name":"Wolfdad Duke","steam_id":76561197986442930,"connected_time":586000000000,"state":"active","ping":61},{"user_id":587,"name":"skeleton_archer_1","steam_id":76561198407636430,"connected_time":788000000000,"state":"active","ping":99},{"user_id":567,"name":"adie","steam_id":76561198255874943,"connected_time":1908000000000,"state":"active","ping":68},{"user_id":594,"name":"flange","steam_id":76561198040182692,"connected_time":460000000000,"state":"active","ping":52},{"user_id":579,"name":"Beni ü¶ßüçå","steam_id":76561198011340227,"connected_time":1144000000000,"state":"active","ping":74},{"user_id":572,"name":"Mammut","steam_id":76561198056773933,"connected_time":1423000000000,"state":"active","ping":46},{"user_id":597,"name":"THEALLSEEINGCAKE","steam_id":76561199251417876,"connected_time":32000000000,"state":"active","ping":104},{"user_id":574,"name":"medium rare chicken enjoyer","steam_id":76561198050214002,"connected_time":1392000000000,"state":"active","ping":61},{"user_id":520,"name":"Noam","steam_id":76561198057789807,"connected_time":5275000000000,"state":"active","ping":98}]},{"server_id":110,"name":"Uncletopia | Frankfurt | 2 | All Maps","name_short":"frk-2","host":"frk-1.de.uncletopia.com","port":27025,"enabled":true,"region":"eu","cc":"de","latitude":50.110924,"longitude":8.682127,"reserved":0,"last_update":"0001-01-01T00:00:00Z","name_a2s":"Uncletopia | Frankfurt | 2 | All Maps","protocol":17,"map":"pl_swiftwater_final1","folder":"tf","game":"Team Fortress","app_id":440,"player_count":24,"max_players":24,"Bots":0,"server_type":"Dedicated","server_os":"Linux","password":true,"vac":true,"version":"7961495","steam_id":85568392924469990,"keywords":["nocrits","nodmgspread","payload","uncletopia"],"game_id":440,"stv_port":27026,"stv_name":"Uncletopia | Frankfurt | 2 | All Maps | STV","players":[{"user_id":462,"name":"TylowStar","steam_id":76561198357107806,"connected_time":1865000000000,"state":"active","ping":60},{"user_id":467,"name":"tea girl","steam_id":76561198068054530,"connected_time":1818000000000,"state":"active","ping":80},{"user_id":461,"name":"julito","steam_id":76561198213597056,"connected_time":1891000000000,"state":"active","ping":80},{"user_id":481,"name":"Grim the lemon","steam_id":76561199083433988,"connected_time":846000000000,"state":"active","ping":51},{"user_id":396,"name":"Caliban","steam_id":76561197999696839,"connected_time":5861000000000,"state":"active","ping":109},{"user_id":486,"name":"Gurgula","steam_id":76561198021253678,"connected_time":82000000000,"state":"active","ping":60},{"user_id":480,"name":"Medium sized Cunt","steam_id":76561199012566222,"connected_time":968000000000,"state":"active","ping":52},{"user_id":468,"name":"Laival","steam_id":76561198253293366,"connected_time":1767000000000,"state":"active","ping":102},{"user_id":464,"name":"Fataol","steam_id":76561198242227064,"connected_time":1859000000000,"state":"active","ping":89},{"user_id":367,"name":"The Wolf Leader","steam_id":76561198038007462,"connected_time":7749000000000,"state":"active","ping":93},{"user_id":460,"name":"Seb, Comrade","steam_id":76561198040279587,"connected_time":1894000000000,"state":"active","ping":94},{"user_id":471,"name":"Gryoss","steam_id":76561197999837111,"connected_time":1452000000000,"state":"active","ping":105},{"user_id":485,"name":"Solymr ibn Wali Barad","steam_id":76561198044008976,"connected_time":199000000000,"state":"active","ping":72},{"user_id":446,"name":"HADID_sex_god","steam_id":76561198302623594,"connected_time":2700000000000,"state":"active","ping":90},{"user_id":469,"name":"justins","steam_id":76561198093214392,"connected_time":1640000000000,"state":"active","ping":67},{"user_id":483,"name":"LizCul","steam_id":76561198024436969,"connected_time":333000000000,"state":"active","ping":57},{"user_id":470,"name":"Feylo","steam_id":76561199149815448,"connected_time":1585000000000,"state":"active","ping":56},{"user_id":479,"name":"Krabs","steam_id":76561198161679477,"connected_time":1061000000000,"state":"active","ping":58},{"user_id":476,"name":"cactus_octoling","steam_id":76561198837919828,"connected_time":1165000000000,"state":"active","ping":100},{"user_id":477,"name":"Paper","steam_id":76561199037749675,"connected_time":1161000000000,"state":"active","ping":40},{"user_id":482,"name":"Lammet","steam_id":76561198149409729,"connected_time":749000000000,"state":"active","ping":72},{"user_id":453,"name":"–†–£–öN –ë–ê–ó–£–öN","steam_id":76561198320336543,"connected_time":2362000000000,"state":"active","ping":104},{"user_id":439,"name":"Doctor A","steam_id":76561199099922811,"connected_time":3050000000000,"state":"active","ping":137},{"user_id":466,"name":"_3tHeR_","steam_id":76561199109870743,"connected_time":1854000000000,"state":"active","ping":59}]},{"server_id":308,"name":"Uncletopia | Frankfurt | 3 | All Maps","name_short":"frk-3","host":"frk-1.de.uncletopia.com","port":27035,"enabled":true,"region":"eu","cc":"de","latitude":50.110924,"longitude":8.682127,"reserved":0,"last_update":"0001-01-01T00:00:00Z","name_a2s":"Uncletopia | Frankfurt | 3 | All Maps","protocol":17,"map":"pl_pier","folder":"tf","game":"Team Fortress","app_id":440,"player_count":24,"max_players":24,"Bots":0,"server_type":"Dedicated","server_os":"Linux","password":true,"vac":true,"version":"7961495","steam_id":85568392924504274,"keywords":["nocrits","nodmgspread","payload","uncletopia"],"game_id":440,"stv_port":27036,"stv_name":"Uncletopia | Frankfurt | 3 | All Maps | STV","players":[{"user_id":138,"name":"ttv/Kuferl","steam_id":76561198017940897,"connected_time":222000000000,"state":"active","ping":56},{"user_id":133,"name":"Hyperion","steam_id":76561198043716162,"connected_time":957000000000,"state":"active","ping":66},{"user_id":132,"name":"VEH-DEH-VEH","steam_id":76561198010978989,"connected_time":1001000000000,"state":"active","ping":66},{"user_id":128,"name":"Pretentious Gunspy","steam_id":76561199241325005,"connected_time":1475000000000,"state":"active","ping":149},{"user_id":137,"name":"Kasilkot","steam_id":76561198409678667,"connected_time":249000000000,"state":"active","ping":65},{"user_id":130,"name":"Piox","steam_id":76561198125689157,"connected_time":1025000000000,"state":"active","ping":72},{"user_id":90,"name":"Kylul_","steam_id":76561198042981061,"connected_time":3359000000000,"state":"active","ping":54},{"user_id":101,"name":"Doriian","steam_id":76561198071438810,"connected_time":2606000000000,"state":"active","ping":75},{"user_id":93,"name":"kirkan","steam_id":76561198029873185,"connected_time":3058000000000,"state":"active","ping":59},{"user_id":125,"name":"Average Trader","steam_id":76561199179702903,"connected_time":1634000000000,"state":"active","ping":138},{"user_id":139,"name":"Time-Green","steam_id":76561198133937444,"connected_time":149000000000,"state":"active","ping":69},{"user_id":127,"name":"Torion","steam_id":76561197990663339,"connected_time":1535000000000,"state":"active","ping":45},{"user_id":62,"name":"Vee","steam_id":76561198173065294,"connected_time":5282000000000,"state":"active","ping":63},{"user_id":99,"name":"Archive","steam_id":76561198071255385,"connected_time":2792000000000,"state":"active","ping":92},{"user_id":140,"name":"bryophyta","steam_id":76561197968945306,"connected_time":124000000000,"state":"active","ping":71},{"user_id":129,"name":"Oddos","steam_id":76561198032029823,"connected_time":1107000000000,"state":"active","ping":69},{"user_id":113,"name":"Leighpoh","steam_id":76561198088577922,"connected_time":2264000000000,"state":"active","ping":63},{"user_id":96,"name":"Eyencia","steam_id":76561198834995822,"connected_time":3022000000000,"state":"active","ping":74},{"user_id":141,"name":"Dawidowski","steam_id":76561199137466824,"connected_time":85000000000,"state":"active","ping":70},{"user_id":142,"name":"Mango","steam_id":76561198000079423,"connected_time":18000000000,"state":"spawning","ping":59},{"user_id":143,"name":"Spetse","steam_id":76561197990649972,"connected_time":16000000000,"state":"spawning","ping":112},{"user_id":119,"name":"Wardruna96","steam_id":76561199057083828,"connected_time":2164000000000,"state":"active","ping":86},{"user_id":144,"name":"-rikeOo-","steam_id":76561198303995379,"connected_time":2000000000,"state":"spawning","ping":80},{"user_id":112,"name":"DrExplosive","steam_id":76561198063678579,"connected_time":2280000000000,"state":"active","ping":52}]},{"server_id":309,"name":"Uncletopia | Frankfurt | 4 | All Maps","name_short":"frk-4","host":"frk-1.de.uncletopia.com","port":27045,"enabled":true,"region":"eu","cc":"de","latitude":50.110924,"longitude":8.682127,"reserved":0,"last_update":"0001-01-01T00:00:00Z","name_a2s":"Uncletopia | Frankfurt | 4 | All Maps","protocol":17,"map":"cp_gravelpit","folder":"tf","game":"Team Fortress","app_id":440,"player_count":20,"max_players":24,"Bots":0,"server_type":"Dedicated","server_os":"Linux","password":true,"vac":true,"version":"7961495","steam_id":85568392924504275,"keywords":["cp","nocrits","nodmgspread","uncletopia"],"game_id":440,"stv_port":27046,"stv_name":"Uncletopia | Frankfurt | 4 | All Maps | STV","players":[{"user_id":95,"name":"F4.exe","steam_id":76561198278822807,"connected_time":274000000000,"state":"active","ping":64},{"user_id":20,"name":"Chainfire","steam_id":76561198120774329,"connected_time":3820000000000,"state":"active","ping":118},{"user_id":59,"name":"Mido","steam_id":76561198014315688,"connected_time":1923000000000,"state":"active","ping":63},{"user_id":103,"name":"soldier tf2","steam_id":76561198372186715,"connected_time":11000000000,"state":"spawning","ping":112},{"user_id":102,"name":"Bonduelle#Savetf2","steam_id":76561199041992422,"connected_time":115000000000,"state":"active","ping":168},{"user_id":33,"name":"hello Love","steam_id":76561198348567663,"connected_time":2721000000000,"state":"active","ping":68},{"user_id":37,"name":"doker","steam_id":76561198251840154,"connected_time":2481000000000,"state":"active","ping":62},{"user_id":93,"name":"Amandus","steam_id":76561198036281079,"connected_time":338000000000,"state":"active","ping":56},{"user_id":66,"name":"Bottle O' Scrumpy","steam_id":76561199244250562,"connected_time":1299000000000,"state":"active","ping":107},{"user_id":67,"name":"Edgyboi67","steam_id":76561198967966303,"connected_time":1296000000000,"state":"active","ping":60},{"user_id":42,"name":"Flohr","steam_id":76561198191948841,"connected_time":2431000000000,"state":"active","ping":50},{"user_id":82,"name":"DrZerg","steam_id":76561198071810495,"connected_time":739000000000,"state":"active","ping":75},{"user_id":98,"name":"Masster","steam_id":76561198136111053,"connected_time":213000000000,"state":"active","ping":84},{"user_id":72,"name":"MDehh","steam_id":76561198057745208,"connected_time":1229000000000,"state":"active","ping":46},{"user_id":70,"name":"ScoutPilgrim","steam_id":76561198013007215,"connected_time":1268000000000,"state":"active","ping":49},{"user_id":99,"name":"‡πñSectant","steam_id":76561198278440393,"connected_time":186000000000,"state":"active","ping":83},{"user_id":51,"name":"$teomy :3","steam_id":76561199129423422,"connected_time":2379000000000,"state":"active","ping":103},{"user_id":52,"name":"MostSereneDogeBestDoge","steam_id":76561198061196566,"connected_time":2378000000000,"state":"active","ping":72},{"user_id":71,"name":"‚Ä†ùî•e œâoo","steam_id":76561198929808815,"connected_time":1263000000000,"state":"active","ping":59},{"user_id":76,"name":"Zune","steam_id":76561198119382708,"connected_time":1025000000000,"state":"active","ping":98}]},{"server_id":310,"name":"Uncletopia | Frankfurt | 5 | All Maps","name_short":"frk-5","host":"frk-1.de.uncletopia.com","port":27055,"enabled":true,"region":"eu","cc":"de","latitude":50.110924,"longitude":8.682127,"reserved":0,"last_update":"0001-01-01T00:00:00Z","name_a2s":"Uncletopia | Frankfurt | 5 | All Maps","protocol":17,"map":"pl_badwater","folder":"tf","game":"Team Fortress","app_id":440,"player_count":24,"max_players":24,"Bots":0,"server_type":"Dedicated","server_os":"Linux","password":true,"vac":true,"version":"7961495","steam_id":85568392924504277,"keywords":["nocrits","nodmgspread","payload","uncletopia"],"game_id":440,"stv_port":27056,"stv_name":"Uncletopia | Frankfurt | 5 | All Maps | STV","players":[{"user_id":326,"name":"The‚òÜCops","steam_id":76561198146358073,"connected_time":1988000000000,"state":"active","ping":93},{"user_id":343,"name":"zerp","steam_id":76561199031452227,"connected_time":776000000000,"state":"active","ping":60},{"user_id":344,"name":"Threon","steam_id":76561198826783545,"connected_time":768000000000,"state":"active","ping":78},{"user_id":345,"name":"Dave The Sloth","steam_id":76561199135831355,"connected_time":756000000000,"state":"active","ping":61},{"user_id":335,"name":"anders McFlanders","steam_id":76561198022811995,"connected_time":1521000000000,"state":"active","ping":61},{"user_id":327,"name":"Einzelh√§ndler","steam_id":76561199482936356,"connected_time":1968000000000,"state":"active","ping":51},{"user_id":346,"name":"Temperance","steam_id":76561198446955878,"connected_time":755000000000,"state":"active","ping":67},{"user_id":347,"name":"Keijo","steam_id":76561198010255870,"connected_time":709000000000,"state":"active","ping":89},{"user_id":338,"name":"GMsU | Acoul","steam_id":76561198229222992,"connected_time":1017000000000,"state":"active","ping":45},{"user_id":341,"name":"Technic","steam_id":76561198128096130,"connected_time":909000000000,"state":"active","ping":46},{"user_id":319,"name":"Vexu","steam_id":76561198113145846,"connected_time":2272000000000,"state":"active","ping":86},{"user_id":352,"name":"esheen","steam_id":76561198139376665,"connected_time":607000000000,"state":"active","ping":60},{"user_id":320,"name":"iniT","steam_id":76561198019883794,"connected_time":2261000000000,"state":"active","ping":60},{"user_id":354,"name":"Watermelon","steam_id":76561198078349914,"connected_time":420000000000,"state":"active","ping":60},{"user_id":337,"name":"Gamlader","steam_id":76561198306177608,"connected_time":1250000000000,"state":"active","ping":68},{"user_id":356,"name":"panakid","steam_id":76561198364121077,"connected_time":163000000000,"state":"active","ping":80},{"user_id":357,"name":"Hitotsume","steam_id":76561198129157178,"connected_time":63000000000,"state":"active","ping":91},{"user_id":358,"name":"Professional facestab","steam_id":76561198258721056,"connected_time":45000000000,"state":"active","ping":55},{"user_id":350,"name":"Geist","steam_id":76561198047566695,"connected_time":630000000000,"state":"active","ping":79},{"user_id":301,"name":"heallixa","steam_id":76561198167986712,"connected_time":3057000000000,"state":"active","ping":114},{"user_id":317,"name":"Elon Musk's Last Braincell","steam_id":76561198846784757,"connected_time":2567000000000,"state":"active","ping":69},{"user_id":336,"name":"GMsU | Rebikas","steam_id":76561198077053764,"connected_time":1361000000000,"state":"active","ping":41},{"user_id":355,"name":"Arsonist","steam_id":76561199087953833,"connected_time":278000000000,"state":"active","ping":93},{"user_id":353,"name":"mitical uknown","steam_id":76561198844852761,"connected_time":606000000000,"state":"active","ping":71}]},{"server_id":311,"name":"Uncletopia | Frankfurt | 6 | All Maps","name_short":"frk-6","host":"frk-1.de.uncletopia.com","port":27065,"enabled":true,"region":"eu","cc":"de","latitude":50.110924,"longitude":8.682127,"reserved":0,"last_update":"0001-01-01T00:00:00Z","name_a2s":"Uncletopia | Frankfurt | 6 | All Maps","protocol":17,"map":"pl_pier","folder":"tf","game":"Team Fortress","app_id":440,"player_count":24,"max_players":24,"Bots":0,"server_type":"Dedicated","server_os":"Linux","password":true,"vac":true,"version":"7961495","steam_id":85568392924504278,"keywords":["nocrits","nodmgspread","payload","uncletopia"],"game_id":440,"stv_port":27066,"stv_name":"Uncletopia | Frankfurt | 6 | All Maps | STV","players":[{"user_id":401,"name":"Pudlich","steam_id":76561198300089671,"connected_time":1128000000000,"state":"active","ping":70},{"user_id":280,"name":"s a i","steam_id":76561197970379754,"connected_time":8129000000000,"state":"active","ping":55},{"user_id":400,"name":"Stormosaurus","steam_id":76561197999089931,"connected_time":1188000000000,"state":"active","ping":72},{"user_id":405,"name":"Cookies and Bakies","steam_id":76561198017442928,"connected_time":959000000000,"state":"active","ping":61},{"user_id":428,"name":"ElongatedSpoon","steam_id":76561198057457674,"connected_time":96000000000,"state":"active","ping":73},{"user_id":410,"name":"r0la","steam_id":76561198128315340,"connected_time":640000000000,"state":"active","ping":85},{"user_id":355,"name":"Osqq :s","steam_id":76561198075465106,"connected_time":2936000000000,"state":"active","ping":58},{"user_id":422,"name":"Coja","steam_id":76561198083974982,"connected_time":274000000000,"state":"active","ping":80},{"user_id":347,"name":"Revenge of the Jews in 3D","steam_id":76561199381623663,"connected_time":3201000000000,"state":"active","ping":90},{"user_id":412,"name":"Sexsmith","steam_id":76561197992927989,"connected_time":595000000000,"state":"active","ping":100},{"user_id":413,"name":"Simurg","steam_id":76561198120781668,"connected_time":536000000000,"state":"active","ping":74},{"user_id":425,"name":"Apox","steam_id":76561198008005377,"connected_time":205000000000,"state":"active","ping":56},{"user_id":414,"name":"ash","steam_id":76561198004728744,"connected_time":421000000000,"state":"active","ping":50},{"user_id":423,"name":"playerarda04","steam_id":76561198923648132,"connected_time":266000000000,"state":"active","ping":106},{"user_id":387,"name":"anghenfilod","steam_id":76561199488187336,"connected_time":1767000000000,"state":"active","ping":60},{"user_id":415,"name":"‚â° YOBAMA ‚â°","steam_id":76561198126707319,"connected_time":383000000000,"state":"active","ping":78},{"user_id":416,"name":"real videogamer (real)","steam_id":76561198053929269,"connected_time":373000000000,"state":"active","ping":88},{"user_id":418,"name":"dusty","steam_id":76561199011977567,"connected_time":357000000000,"state":"active","ping":55},{"user_id":419,"name":"Engineer TF2","steam_id":76561198380555082,"connected_time":341000000000,"state":"active","ping":58},{"user_id":420,"name":"waj","steam_id":76561198053628243,"connected_time":341000000000,"state":"active","ping":58},{"user_id":426,"name":"Will - no sound","steam_id":76561198173329977,"connected_time":192000000000,"state":"active","ping":64},{"user_id":424,"name":"kelm","steam_id":76561198027166144,"connected_time":258000000000,"state":"active","ping":81},{"user_id":427,"name":"RazorsEdge","steam_id":76561198006549279,"connected_time":148000000000,"state":"active","ping":45},{"user_id":399,"name":"Smell Seller","steam_id":76561198819368483,"connected_time":1278000000000,"state":"active","ping":72}]},{"server_id":23,"name":"Uncletopia | Frankfurt | 7 | Stopwatch","name_short":"frk-7","host":"frk-1.de.uncletopia.com","port":27075,"enabled":true,"region":"eu","cc":"de","latitude":50.110924,"longitude":8.682127,"reserved":0,"last_update":"0001-01-01T00:00:00Z","name_a2s":"Uncletopia | Frankfurt | 7 | Stopwatch","protocol":17,"map":"workshop/pl_barnblitz_pro7.ugc582280235","folder":"tf","game":"Team Fortress","app_id":440,"player_count":19,"max_players":24,"Bots":0,"server_type":"Dedicated","server_os":"Linux","password":true,"vac":true,"version":"7961495","steam_id":85568392924742827,"keywords":["nocrits","nodmgspread","payload","uncletopia"],"game_id":440,"stv_port":27076,"stv_name":"Uncletopia | Frankfurt | 7 | Stopwatch | STV","players":[{"user_id":108,"name":"XxAires_AlphaxX","steam_id":76561199051734255,"connected_time":334000000000,"state":"active","ping":81},{"user_id":23,"name":"BoPoe","steam_id":76561198093333882,"connected_time":2142000000000,"state":"active","ping":109},{"user_id":105,"name":"Pao_is_good","steam_id":76561199071206846,"connected_time":404000000000,"state":"active","ping":118},{"user_id":100,"name":"JustSorry","steam_id":76561198449998090,"connected_time":505000000000,"state":"active","ping":75},{"user_id":86,"name":"Fum","steam_id":76561198301816090,"connected_time":1072000000000,"state":"active","ping":65},{"user_id":98,"name":"VolcanicArts","steam_id":76561198063453246,"connected_time":606000000000,"state":"active","ping":62},{"user_id":76,"name":"britiliximab","steam_id":76561198141173061,"connected_time":1380000000000,"state":"active","ping":90},{"user_id":96,"name":"TriR–ò–å","steam_id":76561198119622375,"connected_time":646000000000,"state":"active","ping":74},{"user_id":73,"name":"Yrj√∂ Koskinen Yrj√∂-Koskinen","steam_id":76561198368181145,"connected_time":1498000000000,"state":"active","ping":76},{"user_id":62,"name":"Jodio","steam_id":76561198885801359,"connected_time":1750000000000,"state":"active","ping":85},{"user_id":103,"name":"Compot enjoer","steam_id":76561198271350885,"connected_time":425000000000,"state":"active","ping":81},{"user_id":49,"name":"koko08","steam_id":76561198337707428,"connected_time":1894000000000,"state":"active","ping":78},{"user_id":104,"name":"Jeerven","steam_id":76561198259189841,"connected_time":424000000000,"state":"active","ping":61},{"user_id":110,"name":"TiagoMSG","steam_id":76561198976708632,"connected_time":172000000000,"state":"active","ping":83},{"user_id":81,"name":"DOOKIEBOB","steam_id":76561198061248547,"connected_time":1130000000000,"state":"active","ping":54},{"user_id":107,"name":"CrazyIvan102","steam_id":76561198161335230,"connected_time":360000000000,"state":"active","ping":73},{"user_id":52,"name":"PanPatrik","steam_id":76561198293331527,"connected_time":1815000000000,"state":"active","ping":50},{"user_id":111,"name":"Zhyvje Bjelarus'!","steam_id":76561199293036742,"connected_time":125000000000,"state":"active","ping":60},{"user_id":58,"name":"Automator_2","steam_id":76561198383941698,"connected_time":1775000000000,"state":"active","ping":64}]},{"server_id":24,"name":"Uncletopia | Frankfurt | 8 | Community","name_short":"frk-8","host":"frk-1.de.uncletopia.com","port":27085,"enabled":true,"region":"eu","cc":"de","latitude":50.110924,"longitude":8.682127,"reserved":0,"last_update":"0001-01-01T00:00:00Z","name_a2s":"Uncletopia | Frankfurt | 8 | Community","protocol":17,"map":"workshop/pl_emerge_rc2.ugc888027758","folder":"tf","game":"Team Fortress","app_id":440,"player_count":0,"max_players":24,"Bots":0,"server_type":"Dedicated","server_os":"Linux","password":true,"vac":true,"version":"7961495","steam_id":85568392924742828,"keywords":["nocrits","nodmgspread","payload","uncletopia"],"game_id":440,"stv_port":27086,"stv_name":"Uncletopia | Frankfurt | 8 | Community | STV","players":null},{"server_id":202,"name":"Uncletopia | Hong Kong | 1 | All Maps","name_short":"hgk-1","host":"hgk-1.hk.uncletopia.com","port":27015,"enabled":true,"region":"asia","cc":"hk","latitude":22.302711,"longitude":114.177216,"reserved":0,"last_update":"0001-01-01T00:00:00Z","name_a2s":"Uncletopia | Hong Kong | 1 | All Maps","protocol":17,"map":"koth_cascade","folder":"tf","game":"Team Fortress","app_id":440,"player_count":0,"max_players":24,"Bots":0,"server_type":"Dedicated","server_os":"Linux","password":true,"vac":true,"version":"7961495","steam_id":85568392924494504,"keywords":["cp","nocrits","nodmgspread","uncletopia"],"game_id":440,"stv_port":27016,"stv_name":"Uncletopia | Hong Kong | 1 | All Maps | STV","players":null},{"server_id":1,"name":"Uncletopia | Los Angeles | 1 | All Maps","name_short":"lax-1","host":"lax-1.us.uncletopia.com","port":27015,"enabled":true,"region":"us-west","cc":"us","latitude":33.94279,"longitude":-118.41004,"reserved":0,"last_update":"0001-01-01T00:00:00Z","name_a2s":"Uncletopia | Los Angeles | 1 | All Maps","protocol":17,"map":"pl_snowycoast","folder":"tf","game":"Team Fortress","app_id":440,"player_count":0,"max_players":24,"Bots":0,"server_type":"Dedicated","server_os":"Linux","password":true,"vac":true,"version":"7961495","steam_id":85568392924469991,"keywords":["nocrits","nodmgspread","payload","uncletopia"],"game_id":440,"stv_port":27016,"stv_name":"Uncletopia | Los Angeles | 1 | All Maps | STV","players":null},{"server_id":112,"name":"Uncletopia | Los Angeles | 2 | All Maps","name_short":"lax-2","host":"lax-1.us.uncletopia.com","port":27025,"enabled":true,"region":"us-west","cc":"us","latitude":33.94279,"longitude":-118.41004,"reserved":0,"last_update":"0001-01-01T00:00:00Z","name_a2s":"Uncletopia | Los Angeles | 2 | All Maps","protocol":17,"map":"cp_mountainlab","folder":"tf","game":"Team Fortress","app_id":440,"player_count":0,"max_players":24,"Bots":0,"server_type":"Dedicated","server_os":"Linux","password":true,"vac":true,"version":"7961495","steam_id":85568392924469992,"keywords":["cp","nocrits","nodmgspread","uncletopia"],"game_id":440,"stv_port":27026,"stv_name":"Uncletopia | Los Angeles | 2 | All Maps | STV","players":null},{"server_id":324,"name":"Uncletopia | Los Angeles | 3 | All Maps","name_short":"lax-3","host":"lax-1.us.uncletopia.com","port":27035,"enabled":true,"region":"us-west","cc":"us","latitude":33.94279,"longitude":-118.41004,"reserved":0,"last_update":"0001-01-01T00:00:00Z","name_a2s":"Uncletopia | Los Angeles | 3 | All Maps","protocol":17,"map":"pl_frontier_final","folder":"tf","game":"Team Fortress","app_id":440,"player_count":0,"max_players":24,"Bots":0,"server_type":"Dedicated","server_os":"Linux","password":true,"vac":true,"version":"7961495","steam_id":85568392924510198,"keywords":["nocrits","nodmgspread","payload","uncletopia"],"game_id":440,"stv_port":27036,"stv_name":"Uncletopia | Los Angeles | 3 | All Maps | STV","players":null},{"server_id":25,"name":"Uncletopia | Los Angeles | 4 | Stopwatch","name_short":"lax-4","host":"lax-1.us.uncletopia.com","port":27045,"enabled":true,"region":"us-west","cc":"us","latitude":33.94279,"longitude":-118.41004,"reserved":0,"last_update":"0001-01-01T00:00:00Z","name_a2s":"Uncletopia | Los Angeles | 4 | Stopwatch","protocol":17,"map":"pl_barnblitz","folder":"tf","game":"Team Fortress","app_id":440,"player_count":0,"max_players":24,"Bots":0,"server_type":"Dedicated","server_os":"Linux","password":true,"vac":true,"version":"7961495","steam_id":85568392924510199,"keywords":["nocrits","nodmgspread","payload","uncletopia"],"game_id":440,"stv_port":27046,"stv_name":"Uncletopia | Los Angeles | 4 | Stopwatch | STV","players":null},{"server_id":11,"name":"Uncletopia | London | 1 | All Maps","name_short":"lon-1","host":"lon-1.uk.uncletopia.com","port":27015,"enabled":true,"region":"eu","cc":"gb","latitude":51.509865,"longitude":-0.118092,"reserved":0,"last_update":"0001-01-01T00:00:00Z","name_a2s":"Uncletopia | London | 1 | All Maps","protocol":17,"map":"pl_borneo","folder":"tf","game":"Team Fortress","app_id":440,"player_count":24,"max_players":24,"Bots":0,"server_type":"Dedicated","server_os":"Linux","password":true,"vac":true,"version":"7961495","steam_id":85568392924367362,"keywords":["nocrits","nodmgspread","payload","uncletopia"],"game_id":440,"stv_port":27016,"stv_name":"Uncletopia | London | 1 | All Maps | STV","players":[{"user_id":354,"name":"Bonkovich","steam_id":76561198256800084,"connected_time":9343000000000,"state":"active","ping":131},{"user_id":478,"name":"ein","steam_id":76561198152162834,"connected_time":1127000000000,"state":"active","ping":103},{"user_id":493,"name":"YunikkoN","steam_id":76561198211962412,"connected_time":80000000000,"state":"active","ping":87},{"user_id":489,"name":"ShebiHeart","steam_id":76561198420207307,"connected_time":192000000000,"state":"active","ping":60},{"user_id":484,"name":"jonesy","steam_id":76561198073975078,"connected_time":282000000000,"state":"active","ping":55},{"user_id":486,"name":"Auragen","steam_id":76561198085801798,"connected_time":214000000000,"state":"active","ping":50},{"user_id":460,"name":"Rai_to","steam_id":76561199013720618,"connected_time":2004000000000,"state":"active","ping":86},{"user_id":481,"name":"halow","steam_id":76561198061505163,"connected_time":833000000000,"state":"active","ping":111},{"user_id":490,"name":"Fuzz","steam_id":76561198013049077,"connected_time":187000000000,"state":"active","ping":81},{"user_id":466,"name":"Dill","steam_id":76561198079393743,"connected_time":1671000000000,"state":"active","ping":70},{"user_id":491,"name":"Dr.Livesey","steam_id":76561198405914700,"connected_time":160000000000,"state":"active","ping":80},{"user_id":482,"name":"Dr. Funkenstein","steam_id":76561197977816210,"connected_time":821000000000,"state":"active","ping":65},{"user_id":421,"name":"gibb (official)","steam_id":76561198074097655,"connected_time":4819000000000,"state":"active","ping":36},{"user_id":469,"name":".mp3","steam_id":76561198070710025,"connected_time":1511000000000,"state":"active","ping":156},{"user_id":492,"name":"Erithial","steam_id":76561198182904167,"connected_time":110000000000,"state":"active","ping":53},{"user_id":464,"name":"Ziy???","steam_id":76561197995765491,"connected_time":1910000000000,"state":"active","ping":60},{"user_id":366,"name":"shooer!","steam_id":76561198110531281,"connected_time":8321000000000,"state":"active","ping":63},{"user_id":429,"name":"Ixsus\u003c3","steam_id":76561198094756869,"connected_time":4211000000000,"state":"active","ping":61},{"user_id":423,"name":"gothmoth","steam_id":76561198386910896,"connected_time":4816000000000,"state":"active","ping":64},{"user_id":483,"name":"sondi :)","steam_id":76561198045466209,"connected_time":818000000000,"state":"active","ping":78},{"user_id":439,"name":"—É—Ö –ê–ª–µ–∫—Å–∞–Ω–¥—Ä","steam_id":76561198995476261,"connected_time":3767000000000,"state":"active","ping":108},{"user_id":487,"name":"Trapezoid","steam_id":76561198059369295,"connected_time":212000000000,"state":"active","ping":74},{"user_id":488,"name":"sAmasam","steam_id":76561198114953928,"connected_time":209000000000,"state":"active","ping":74},{"user_id":458,"name":"Mak≈Çowicz","steam_id":76561198281831506,"connected_time":2025000000000,"state":"active","ping":93}]},{"server_id":114,"name":"Uncletopia | London | 2 | All Maps","name_short":"lon-2","host":"lon-1.uk.uncletopia.com","port":27025,"enabled":true,"region":"eu","cc":"gb","latitude":51.509865,"longitude":-0.118092,"reserved":0,"last_update":"0001-01-01T00:00:00Z","name_a2s":"Uncletopia | London | 2 | All Maps","protocol":17,"map":"pl_badwater","folder":"tf","game":"Team Fortress","app_id":440,"player_count":24,"max_players":24,"Bots":0,"server_type":"Dedicated","server_os":"Linux","password":true,"vac":true,"version":"7961495","steam_id":85568392924470941,"keywords":["nocrits","nodmgspread","payload","uncletopia"],"game_id":440,"stv_port":27026,"stv_name":"Uncletopia | London | 2 | All Maps | STV","players":[{"user_id":275,"name":"Sza","steam_id":76561198022132105,"connected_time":6020000000000,"state":"active","ping":63},{"user_id":387,"name":"ILoveKey2","steam_id":76561198814559564,"connected_time":367000000000,"state":"active","ping":74},{"user_id":244,"name":"Gabe Howard","steam_id":76561198331677788,"connected_time":8105000000000,"state":"active","ping":80},{"user_id":370,"name":"LivEssense","steam_id":76561198052476979,"connected_time":1613000000000,"state":"active","ping":88},{"user_id":379,"name":"ChinyBoy","steam_id":76561198126520767,"connected_time":1487000000000,"state":"active","ping":73},{"user_id":388,"name":"Jane Doe","steam_id":76561198058675116,"connected_time":171000000000,"state":"active","ping":58},{"user_id":331,"name":"I.AM.THE.BOOP.WHICH.IS.APROACHI","steam_id":76561198049342507,"connected_time":4138000000000,"state":"active","ping":94},{"user_id":360,"name":"daddy cheese","steam_id":76561199049128913,"connected_time":1905000000000,"state":"active","ping":60},{"user_id":384,"name":"Vinhal Keller","steam_id":76561198145589528,"connected_time":677000000000,"state":"active","ping":57},{"user_id":343,"name":"MaTke","steam_id":76561198378170301,"connected_time":3580000000000,"state":"active","ping":84},{"user_id":338,"name":"Dat Fat Cat","steam_id":76561198058652558,"connected_time":3661000000000,"state":"active","ping":42},{"user_id":358,"name":"Flying Squirrel","steam_id":76561198005202791,"connected_time":2101000000000,"state":"active","ping":76},{"user_id":377,"name":"Knight in shining armour","steam_id":76561199089290269,"connected_time":1552000000000,"state":"active","ping":66},{"user_id":376,"name":"yoshifane","steam_id":76561199390959024,"connected_time":1584000000000,"state":"active","ping":56},{"user_id":386,"name":"Norret Gantier","steam_id":76561198170062453,"connected_time":477000000000,"state":"active","ping":88},{"user_id":340,"name":"bailey","steam_id":76561198327418768,"connected_time":3652000000000,"state":"active","ping":45},{"user_id":383,"name":"Thors","steam_id":76561197968739075,"connected_time":786000000000,"state":"active","ping":41},{"user_id":381,"name":"Fill","steam_id":76561198206117503,"connected_time":1221000000000,"state":"active","ping":101},{"user_id":371,"name":"long crab","steam_id":76561198136239861,"connected_time":1612000000000,"state":"active","ping":42},{"user_id":350,"name":"Ptahotep","steam_id":76561198008708645,"connected_time":2726000000000,"state":"active","ping":52},{"user_id":385,"name":"Jara.","steam_id":76561197992207165,"connected_time":595000000000,"state":"active","ping":100},{"user_id":382,"name":"demoman","steam_id":76561198046170435,"connected_time":903000000000,"state":"active","ping":69},{"user_id":373,"name":"ZaynIsntHere","steam_id":76561199065092566,"connected_time":1607000000000,"state":"active","ping":51},{"user_id":354,"name":"Moth","steam_id":76561198845262365,"connected_time":2436000000000,"state":"active","ping":104}]},{"server_id":320,"name":"Uncletopia | London | 3 | All Maps","name_short":"lon-3","host":"lon-1.uk.uncletopia.com","port":27035,"enabled":true,"region":"eu","cc":"gb","latitude":51.509865,"longitude":-0.118092,"reserved":0,"last_update":"0001-01-01T00:00:00Z","name_a2s":"Uncletopia | London | 3 | All Maps","protocol":17,"map":"koth_suijin","folder":"tf","game":"Team Fortress","app_id":440,"player_count":24,"max_players":24,"Bots":0,"server_type":"Dedicated","server_os":"Linux","password":true,"vac":true,"version":"7961495","steam_id":85568392924510192,"keywords":["cp","nocrits","nodmgspread","uncletopia"],"game_id":440,"stv_port":27036,"stv_name":"Uncletopia | London | 3 | All Maps | STV","players":[{"user_id":245,"name":"Mister_fLeXsS","steam_id":76561198075613556,"connected_time":690000000000,"state":"active","ping":104},{"user_id":202,"name":"ACG_Dubsy","steam_id":76561198797308565,"connected_time":2459000000000,"state":"active","ping":54},{"user_id":117,"name":"Carbon Monoxide Detector","steam_id":76561198055608801,"connected_time":9124000000000,"state":"active","ping":66},{"user_id":223,"name":"spookd. ! !","steam_id":76561198285825743,"connected_time":1330000000000,"state":"active","ping":83},{"user_id":229,"name":"Danpir","steam_id":76561198208311515,"connected_time":1290000000000,"state":"active","ping":105},{"user_id":208,"name":"DragonLord","steam_id":76561198074279225,"connected_time":1977000000000,"state":"active","ping":45},{"user_id":249,"name":"nug","steam_id":76561198055396568,"connected_time":254000000000,"state":"active","ping":60},{"user_id":233,"name":"ghost of chicken kiev","steam_id":76561199049764891,"connected_time":1250000000000,"state":"active","ping":43},{"user_id":237,"name":"the grongle","steam_id":76561198989398023,"connected_time":1110000000000,"state":"active","ping":115},{"user_id":218,"name":"Organic Donut","steam_id":76561199119121016,"connected_time":1720000000000,"state":"active","ping":76},{"user_id":243,"name":"glyph","steam_id":76561197980736364,"connected_time":861000000000,"state":"active","ping":82},{"user_id":101,"name":"Largo","steam_id":76561198844368927,"connected_time":10068000000000,"state":"active","ping":79},{"user_id":225,"name":"Rat King","steam_id":76561198256783599,"connected_time":1304000000000,"state":"active","ping":71},{"user_id":238,"name":"JaneDoe","steam_id":76561198067081506,"connected_time":1104000000000,"state":"active","ping":88},{"user_id":234,"name":"nick","steam_id":76561199137237424,"connected_time":1207000000000,"state":"active","ping":45},{"user_id":242,"name":"Apple eater 45","steam_id":76561199229282567,"connected_time":999000000000,"state":"active","ping":60},{"user_id":193,"name":"lulu","steam_id":76561199147764133,"connected_time":3100000000000,"state":"active","ping":76},{"user_id":250,"name":"vi hava en usel regering","steam_id":76561198037978654,"connected_time":247000000000,"state":"active","ping":74},{"user_id":162,"name":"TomNoSocks","steam_id":76561198114071046,"connected_time":6267000000000,"state":"active","ping":62},{"user_id":209,"name":"cowb√∂y","steam_id":76561198048990716,"connected_time":1935000000000,"state":"active","ping":100},{"user_id":244,"name":"Summer ‚ô•","steam_id":76561198047723907,"connected_time":860000000000,"state":"active","ping":35},{"user_id":205,"name":"Enjoyer","steam_id":76561198147399855,"connected_time":2450000000000,"state":"active","ping":130},{"user_id":231,"name":"Milosz52","steam_id":76561199060940204,"connected_time":1279000000000,"state":"active","ping":87},{"user_id":251,"name":"willo","steam_id":76561198034442999,"connected_time":30000000000,"state":"active","ping":58}]},{"server_id":321,"name":"Uncletopia | London | 4 | All Maps","name_short":"lon-4","host":"lon-1.uk.uncletopia.com","port":27045,"enabled":true,"region":"eu","cc":"gb","latitude":51.509865,"longitude":-0.118092,"reserved":0,"last_update":"0001-01-01T00:00:00Z","name_a2s":"Uncletopia | London | 4 | All Maps","protocol":17,"map":"cp_mountainlab","folder":"tf","game":"Team Fortress","app_id":440,"player_count":24,"max_players":24,"Bots":0,"server_type":"Dedicated","server_os":"Linux","password":true,"vac":true,"version":"7961495","steam_id":85568392924510193,"keywords":["cp","nocrits","nodmgspread","uncletopia"],"game_id":440,"stv_port":27046,"stv_name":"Uncletopia | London | 4 | All Maps | STV","players":[{"user_id":617,"name":"fshfkr","steam_id":76561198095979282,"connected_time":493000000000,"state":"active","ping":31},{"user_id":630,"name":"Name Not Needed","steam_id":76561199300534904,"connected_time":108000000000,"state":"active","ping":124},{"user_id":606,"name":"Testicular torsion","steam_id":76561198119547399,"connected_time":1407000000000,"state":"active","ping":66},{"user_id":608,"name":"The Guy","steam_id":76561199066895875,"connected_time":1354000000000,"state":"active","ping":87},{"user_id":620,"name":"MondoDong","steam_id":76561197991400109,"connected_time":439000000000,"state":"active","ping":114},{"user_id":600,"name":"Diamhair","steam_id":76561198109020178,"connected_time":1463000000000,"state":"active","ping":60},{"user_id":580,"name":"That Bussy Can Squirt","steam_id":76561199185615752,"connected_time":3129000000000,"state":"active","ping":55},{"user_id":629,"name":"Flying Chemist","steam_id":76561198085039837,"connected_time":187000000000,"state":"active","ping":66},{"user_id":614,"name":"√áodar","steam_id":76561198235518444,"connected_time":622000000000,"state":"active","ping":38},{"user_id":574,"name":"Schmack","steam_id":76561198026535437,"connected_time":3271000000000,"state":"active","ping":55},{"user_id":628,"name":"Max","steam_id":76561198138959361,"connected_time":224000000000,"state":"active","ping":72},{"user_id":345,"name":"john fortress","steam_id":76561198013237629,"connected_time":19545000000000,"state":"active","ping":98},{"user_id":623,"name":"Wrangler","steam_id":76561198835569824,"connected_time":414000000000,"state":"active","ping":46},{"user_id":610,"name":"Fran","steam_id":76561199070516960,"connected_time":1048000000000,"state":"active","ping":71},{"user_id":624,"name":"pierogi","steam_id":76561198718760200,"connected_time":404000000000,"state":"active","ping":45},{"user_id":616,"name":"Samsara Escaper","steam_id":76561197984661199,"connected_time":541000000000,"state":"active","ping":58},{"user_id":573,"name":"bean","steam_id":76561198161013815,"connected_time":3758000000000,"state":"active","ping":53},{"user_id":602,"name":"When no zaza for 1 milisecond","steam_id":76561198833392443,"connected_time":1459000000000,"state":"active","ping":93},{"user_id":625,"name":"Ëä±ÁÅ´","steam_id":76561198112316151,"connected_time":388000000000,"state":"active","ping":67},{"user_id":598,"name":"Swift_Baguette","steam_id":76561199230477090,"connected_time":1520000000000,"state":"active","ping":55},{"user_id":615,"name":"hotrew #BLM","steam_id":76561198166469397,"connected_time":563000000000,"state":"active","ping":65},{"user_id":597,"name":"One Shiny Boi‚Ñ¢","steam_id":76561198199193627,"connected_time":1538000000000,"state":"active","ping":80},{"user_id":605,"name":"Medic bonk","steam_id":76561198849785855,"connected_time":1428000000000,"state":"active","ping":52},{"user_id":626,"name":"Purple Soup :D","steam_id":76561198985100366,"connected_time":370000000000,"state":"active","ping":93}]},{"server_id":21,"name":"Uncletopia | London | 5 | All Maps","name_short":"lon-5","host":"lon-1.uk.uncletopia.com","port":27055,"enabled":true,"region":"eu","cc":"gb","latitude":51.509865,"longitude":-0.118092,"reserved":0,"last_update":"0001-01-01T00:00:00Z","name_a2s":"Uncletopia | London | 5 | All Maps","protocol":17,"map":"koth_lakeside_final","folder":"tf","game":"Team Fortress","app_id":440,"player_count":0,"max_players":24,"Bots":0,"server_type":"Dedicated","server_os":"Linux","password":true,"vac":true,"version":"7961495","steam_id":85568392924742829,"keywords":["cp","nocrits","nodmgspread","uncletopia"],"game_id":440,"stv_port":27056,"stv_name":"Uncletopia | London | 5 | All Maps | STV","players":null},{"server_id":22,"name":"Uncletopia | London | 6 | All Maps","name_short":"lon-6","host":"lon-1.uk.uncletopia.com","port":27065,"enabled":true,"region":"eu","cc":"gb","latitude":51.509865,"longitude":-0.118092,"reserved":0,"last_update":"0001-01-01T00:00:00Z","name_a2s":"Uncletopia | London | 6 | All Maps","protocol":17,"map":"cp_snakewater_final1","folder":"tf","game":"Team Fortress","app_id":440,"player_count":23,"max_players":24,"Bots":0,"server_type":"Dedicated","server_os":"Linux","password":true,"vac":true,"version":"7961495","steam_id":85568392924742830,"keywords":["cp","nocrits","nodmgspread","uncletopia"],"game_id":440,"stv_port":27066,"stv_name":"Uncletopia | London | 6 | All Maps | STV","players":[{"user_id":642,"name":"Stu","steam_id":76561198131449281,"connected_time":247000000000,"state":"active","ping":48},{"user_id":631,"name":"Druid5333","steam_id":76561198348066287,"connected_time":859000000000,"state":"active","ping":71},{"user_id":643,"name":"Emerald","steam_id":76561199141384216,"connected_time":231000000000,"state":"active","ping":49},{"user_id":624,"name":"Linguini","steam_id":76561198327750625,"connected_time":1227000000000,"state":"active","ping":39},{"user_id":638,"name":"buget dude","steam_id":76561199204617310,"connected_time":338000000000,"state":"active","ping":38},{"user_id":632,"name":"gang weed studios","steam_id":76561199025084891,"connected_time":679000000000,"state":"active","ping":58},{"user_id":635,"name":"Operator","steam_id":76561199375569807,"connected_time":457000000000,"state":"active","ping":120},{"user_id":625,"name":"wouris","steam_id":76561198876188003,"connected_time":1226000000000,"state":"active","ping":63},{"user_id":623,"name":"quickfast","steam_id":76561199438900919,"connected_time":1248000000000,"state":"active","ping":40},{"user_id":613,"name":"Fors√©n","steam_id":76561199131971501,"connected_time":1958000000000,"state":"active","ping":88},{"user_id":629,"name":"[AXG] PK Blizzard","steam_id":76561198039836567,"connected_time":907000000000,"state":"active","ping":45},{"user_id":644,"name":"armadillo","steam_id":76561198324656652,"connected_time":201000000000,"state":"active","ping":47},{"user_id":640,"name":"_Context_","steam_id":76561199163359312,"connected_time":320000000000,"state":"active","ping":59},{"user_id":583,"name":"Welder","steam_id":76561198355300561,"connected_time":3720000000000,"state":"active","ping":72},{"user_id":641,"name":"Shovelhalfrusty","steam_id":76561198346447513,"connected_time":307000000000,"state":"active","ping":76},{"user_id":628,"name":"pad6z23h8s","steam_id":76561198880756741,"connected_time":957000000000,"state":"active","ping":87},{"user_id":618,"name":"Rom","steam_id":76561199208735868,"connected_time":1594000000000,"state":"active","ping":79},{"user_id":469,"name":"Fat Pigeon","steam_id":76561198817940142,"connected_time":13348000000000,"state":"active","ping":45},{"user_id":621,"name":"ATH1234","steam_id":76561199164853373,"connected_time":1370000000000,"state":"active","ping":43},{"user_id":491,"name":"Nittugai","steam_id":76561198067366462,"connected_time":11153000000000,"state":"active","ping":61},{"user_id":630,"name":"twscsvl","steam_id":76561198045304929,"connected_time":898000000000,"state":"active","ping":104},{"user_id":645,"name":"\"TF2 Reference\"","steam_id":76561198867546842,"connected_time":196000000000,"state":"active","ping":70},{"user_id":646,"name":"Egor Pomidor","steam_id":76561199175688390,"connected_time":168000000000,"state":"active","ping":78}]},{"server_id":40,"name":"Uncletopia | London | 7 | Stopwatch","name_short":"lon-7","host":"lon-1.uk.uncletopia.com","port":27075,"enabled":true,"region":"eu","cc":"gb","latitude":51.509865,"longitude":-0.118092,"reserved":0,"last_update":"0001-01-01T00:00:00Z","name_a2s":"Uncletopia | London | 7 | Stopwatch","protocol":17,"map":"workshop/koth_bagel_rc6.ugc2514036946","folder":"tf","game":"Team Fortress","app_id":440,"player_count":0,"max_players":24,"Bots":0,"server_type":"Dedicated","server_os":"Linux","password":true,"vac":true,"version":"7961495","steam_id":85568392924964314,"keywords":["cp","nocrits","nodmgspread","uncletopia"],"game_id":440,"stv_port":27076,"stv_name":"Uncletopia | London | 7 | Stopwatch | STV","players":null},{"server_id":41,"name":"Uncletopia | London | 8 | Community","name_short":"lon-8","host":"lon-1.uk.uncletopia.com","port":27085,"enabled":true,"region":"eu","cc":"gb","latitude":51.509865,"longitude":-0.118092,"reserved":0,"last_update":"0001-01-01T00:00:00Z","name_a2s":"Uncletopia | London | 8 | Community","protocol":17,"map":"workshop/cp_indulge.ugc528106646","folder":"tf","game":"Team Fortress","app_id":440,"player_count":0,"max_players":24,"Bots":0,"server_type":"Dedicated","server_os":"Linux","password":true,"vac":true,"version":"7961495","steam_id":85568392924964315,"keywords":["cp","nocrits","nodmgspread","uncletopia"],"game_id":440,"stv_port":27086,"stv_name":"Uncletopia | London | 8 | Community | STV","players":null},{"server_id":300,"name":"Uncletopia | Montr√©al | 1 | All Maps","name_short":"mtl-1","host":"mtl-1.ca.uncletopia.com","port":27015,"enabled":true,"region":"us-east","cc":"ca","latitude":45.50889,"longitude":-73.56167,"reserved":0,"last_update":"0001-01-01T00:00:00Z","name_a2s":"","protocol":0,"map":"","folder":"","game":"","app_id":0,"player_count":0,"max_players":0,"Bots":0,"server_type":"","server_os":"","password":false,"vac":false,"version":"","steam_id":0,"keywords":null,"game_id":0,"stv_port":0,"stv_name":"","players":null},{"server_id":301,"name":"Uncletopia | Montr√©al | 2 | All Maps","name_short":"mtl-2","host":"mtl-1.ca.uncletopia.com","port":27025,"enabled":true,"region":"us-east","cc":"ca","latitude":45.50889,"longitude":-73.56167,"reserved":0,"last_update":"0001-01-01T00:00:00Z","name_a2s":"","protocol":0,"map":"","folder":"","game":"","app_id":0,"player_count":0,"max_players":0,"Bots":0,"server_type":"","server_os":"","password":false,"vac":false,"version":"","steam_id":0,"keywords":null,"game_id":0,"stv_port":0,"stv_name":"","players":null},{"server_id":302,"name":"Uncletopia | Montr√©al | 3 | All Maps","name_short":"mtl-3","host":"mtl-1.ca.uncletopia.com","port":27035,"enabled":true,"region":"us-east","cc":"ca","latitude":45.50889,"longitude":-73.56167,"reserved":0,"last_update":"0001-01-01T00:00:00Z","name_a2s":"","protocol":0,"map":"","folder":"","game":"","app_id":0,"player_count":0,"max_players":0,"Bots":0,"server_type":"","server_os":"","password":false,"vac":false,"version":"","steam_id":0,"keywords":null,"game_id":0,"stv_port":0,"stv_name":"","players":null},{"server_id":303,"name":"Uncletopia | Montr√©al | 4 | No Payload","name_short":"mtl-4","host":"mtl-1.ca.uncletopia.com","port":27045,"enabled":true,"region":"us-east","cc":"ca","latitude":45.50889,"longitude":-73.56167,"reserved":0,"last_update":"0001-01-01T00:00:00Z","name_a2s":"","protocol":0,"map":"","folder":"","game":"","app_id":0,"player_count":0,"max_players":0,"Bots":0,"server_type":"","server_os":"","password":false,"vac":false,"version":"","steam_id":0,"keywords":null,"game_id":0,"stv_port":0,"stv_name":"","players":null},{"server_id":13,"name":"Uncletopia | New York City | 1 | All Maps","name_short":"nyc-1","host":"nyc-1.us.uncletopia.com","port":27015,"enabled":true,"region":"us-east","cc":"us","latitude":40.73061,"longitude":-73.93524,"reserved":0,"last_update":"0001-01-01T00:00:00Z","name_a2s":"Uncletopia | New York City | 1 | All Maps","protocol":17,"map":"koth_highpass","folder":"tf","game":"Team Fortress","app_id":440,"player_count":0,"max_players":24,"Bots":0,"server_type":"Dedicated","server_os":"Linux","password":true,"vac":true,"version":"7961495","steam_id":85568392924469993,"keywords":["cp","nocrits","nodmgspread","uncletopia"],"game_id":440,"stv_port":27016,"stv_name":"Uncletopia | New York City | 1 | All Maps | STV","players":null},{"server_id":14,"name":"Uncletopia | New York City | 2 | All Maps","name_short":"nyc-2","host":"nyc-1.us.uncletopia.com","port":27025,"enabled":true,"region":"us-east","cc":"us","latitude":40.73061,"longitude":-73.93524,"reserved":0,"last_update":"0001-01-01T00:00:00Z","name_a2s":"Uncletopia | New York City | 2 | All Maps","protocol":17,"map":"cp_snakewater_final1","folder":"tf","game":"Team Fortress","app_id":440,"player_count":0,"max_players":24,"Bots":0,"server_type":"Dedicated","server_os":"Linux","password":true,"vac":true,"version":"7961495","steam_id":85568392924469994,"keywords":["cp","nocrits","nodmgspread","uncletopia"],"game_id":440,"stv_port":27026,"stv_name":"Uncletopia | New York City | 2 | All Maps | STV","players":null},{"server_id":15,"name":"Uncletopia | New York City | 3 | Stopwatch","name_short":"nyc-3","host":"nyc-1.us.uncletopia.com","port":27035,"enabled":true,"region":"us-east","cc":"us","latitude":40.73061,"longitude":-73.93524,"reserved":0,"last_update":"0001-01-01T00:00:00Z","name_a2s":"Uncletopia | New York City | 3 | Stopwatch","protocol":17,"map":"pl_snowycoast","folder":"tf","game":"Team Fortress","app_id":440,"player_count":0,"max_players":24,"Bots":0,"server_type":"Dedicated","server_os":"Linux","password":true,"vac":true,"version":"7961495","steam_id":85568392924742820,"keywords":["nocrits","nodmgspread","payload","uncletopia"],"game_id":440,"stv_port":27036,"stv_name":"Uncletopia | New York City | 3 | Stopwatch | STV","players":null},{"server_id":16,"name":"Uncletopia | New York City | 4 | Community","name_short":"nyc-4","host":"nyc-1.us.uncletopia.com","port":27045,"enabled":true,"region":"us-east","cc":"us","latitude":40.73061,"longitude":-73.93524,"reserved":0,"last_update":"0001-01-01T00:00:00Z","name_a2s":"Uncletopia | New York City | 4 | Community","protocol":17,"map":"cp_altitude","folder":"tf","game":"Team Fortress","app_id":440,"player_count":0,"max_players":24,"Bots":0,"server_type":"Dedicated","server_os":"Linux","password":true,"vac":true,"version":"7961495","steam_id":85568392924742821,"keywords":["cp","nocrits","nodmgspread","uncletopia"],"game_id":440,"stv_port":27046,"stv_name":"Uncletopia | New York City | 4 | Community | STV","players":null},{"server_id":142,"name":"Uncletopia | S√£o Paulo | 1 | All Maps","name_short":"sao-1","host":"sao-1.br.uncletopia.com","port":27015,"enabled":true,"region":"sa","cc":"br","latitude":-23.533773,"longitude":-46.62529,"reserved":0,"last_update":"0001-01-01T00:00:00Z","name_a2s":"Uncletopia | S√£o Paulo | 1 | All Maps","protocol":17,"map":"pl_snowycoast","folder":"tf","game":"Team Fortress","app_id":440,"player_count":0,"max_players":24,"Bots":0,"server_type":"Dedicated","server_os":"Linux","password":true,"vac":true,"version":"7961495","steam_id":85568392924469996,"keywords":["nocrits","nodmgspread","payload","uncletopia"],"game_id":440,"stv_port":27016,"stv_name":"Uncletopia | S√£o Paulo | 1 | All Maps | STV","players":null},{"server_id":143,"name":"Uncletopia | S√£o Paulo | 2 | Community","name_short":"sao-2","host":"sao-2.br.uncletopia.com","port":27015,"enabled":true,"region":"sa","cc":"br","latitude":-23.533773,"longitude":-46.62529,"reserved":0,"last_update":"0001-01-01T00:00:00Z","name_a2s":"Uncletopia | S√£o Paulo | 2 | Community","protocol":17,"map":"pl_badwater","folder":"tf","game":"Team Fortress","app_id":440,"player_count":0,"max_players":24,"Bots":0,"server_type":"Dedicated","server_os":"Linux","password":true,"vac":true,"version":"7961495","steam_id":85568392924485349,"keywords":["nocrits","nodmgspread","payload","uncletopia"],"game_id":440,"stv_port":27016,"stv_name":"Uncletopia | S√£o Paulo | 2 | Community | STV","players":null},{"server_id":7,"name":"Uncletopia | Seattle | 1 | All Maps","name_short":"sea-1","host":"sea-1.us.uncletopia.com","port":27015,"enabled":true,"region":"us-west","cc":"us","latitude":47.608013,"longitude":-122.33517,"reserved":0,"last_update":"0001-01-01T00:00:00Z","name_a2s":"Uncletopia | Seattle | 1 | All Maps","protocol":17,"map":"pl_frontier_final","folder":"tf","game":"Team Fortress","app_id":440,"player_count":14,"max_players":24,"Bots":0,"server_type":"Dedicated","server_os":"Linux","password":true,"vac":true,"version":"7961495","steam_id":85568392924469997,"keywords":["nocrits","nodmgspread","payload","uncletopia"],"game_id":440,"stv_port":27016,"stv_name":"Uncletopia | Seattle | 1 | All Maps | STV","players":[{"user_id":5,"name":"Qwal0x","steam_id":76561198298324396,"connected_time":2123000000000,"state":"active","ping":70},{"user_id":20,"name":"fridge","steam_id":76561198986774696,"connected_time":948000000000,"state":"active","ping":65},{"user_id":7,"name":"Jade Jetts [She/They]","steam_id":76561198206130076,"connected_time":2104000000000,"state":"active","ping":72},{"user_id":17,"name":"Kronos_Titan","steam_id":76561199091925123,"connected_time":1177000000000,"state":"active","ping":82},{"user_id":23,"name":"ExplosiveGoose","steam_id":76561197971562966,"connected_time":545000000000,"state":"active","ping":79},{"user_id":19,"name":"XxProOwOGamerxX","steam_id":76561199440523721,"connected_time":982000000000,"state":"active","ping":109},{"user_id":11,"name":"SuperEvilPasta","steam_id":76561198078258907,"connected_time":2044000000000,"state":"active","ping":79},{"user_id":26,"name":"The Crab Man","steam_id":76561198969954287,"connected_time":485000000000,"state":"active","ping":72},{"user_id":32,"name":"WarMace","steam_id":76561198395937853,"connected_time":118000000000,"state":"active","ping":104},{"user_id":25,"name":"Mr_Caterpillar07","steam_id":76561198984898901,"connected_time":516000000000,"state":"active","ping":80},{"user_id":29,"name":"RedCrimsons","steam_id":76561198446060671,"connected_time":231000000000,"state":"active","ping":88},{"user_id":30,"name":"Imitation Caucasian","steam_id":76561198320536166,"connected_time":228000000000,"state":"active","ping":88},{"user_id":33,"name":"Mom","steam_id":76561198207936000,"connected_time":104000000000,"state":"active","ping":50},{"user_id":34,"name":"Lili W.","steam_id":76561199391478575,"connected_time":82000000000,"state":"active","ping":56}]},{"server_id":119,"name":"Uncletopia | Seattle | 2 | All Maps","name_short":"sea-2","host":"sea-1.us.uncletopia.com","port":27025,"enabled":true,"region":"us-west","cc":"us","latitude":47.608013,"longitude":-122.33517,"reserved":0,"last_update":"0001-01-01T00:00:00Z","name_a2s":"Uncletopia | Seattle | 2 | All Maps","protocol":17,"map":"pl_swiftwater_final1","folder":"tf","game":"Team Fortress","app_id":440,"player_count":22,"max_players":24,"Bots":0,"server_type":"Dedicated","server_os":"Linux","password":true,"vac":true,"version":"7961495","steam_id":85568392924469998,"keywords":["nocrits","nodmgspread","payload","uncletopia"],"game_id":440,"stv_port":27026,"stv_name":"Uncletopia | Seattle | 2 | All Maps | STV","players":[{"user_id":103,"name":"Vap","steam_id":76561198080606426,"connected_time":1605000000000,"state":"active","ping":115},{"user_id":95,"name":"staradder","steam_id":76561198064068693,"connected_time":1777000000000,"state":"active","ping":71},{"user_id":108,"name":"Cooki","steam_id":76561198051705314,"connected_time":785000000000,"state":"active","ping":129},{"user_id":97,"name":"The Great Eagle Scourge of 1822","steam_id":76561198325086209,"connected_time":1758000000000,"state":"active","ping":109},{"user_id":109,"name":"anotherl2","steam_id":76561198354418895,"connected_time":764000000000,"state":"active","ping":64},{"user_id":112,"name":"kn0n2999","steam_id":76561198249172818,"connected_time":653000000000,"state":"active","ping":110},{"user_id":40,"name":"Immortal8Reaper","steam_id":76561198297661559,"connected_time":4016000000000,"state":"active","ping":91},{"user_id":107,"name":"Keamy","steam_id":76561199471434875,"connected_time":830000000000,"state":"active","ping":44},{"user_id":120,"name":"LEAN \u003c3","steam_id":76561198185286203,"connected_time":130000000000,"state":"active","ping":93},{"user_id":124,"name":"Apollo","steam_id":76561198162364702,"connected_time":61000000000,"state":"active","ping":45},{"user_id":26,"name":"[TrC] Dackstrus","steam_id":76561197973518509,"connected_time":4882000000000,"state":"active","ping":57},{"user_id":61,"name":"Bottom Dweller","steam_id":76561198066806674,"connected_time":3418000000000,"state":"active","ping":101},{"user_id":121,"name":"Mr8bittripper","steam_id":76561198133894229,"connected_time":128000000000,"state":"active","ping":50},{"user_id":122,"name":"JellyParrot","steam_id":76561199190990163,"connected_time":125000000000,"state":"active","ping":119},{"user_id":114,"name":"I am the pinnacle of funny","steam_id":76561198306393090,"connected_time":587000000000,"state":"active","ping":90},{"user_id":81,"name":"some nerd","steam_id":76561198297272878,"connected_time":2438000000000,"state":"active","ping":66},{"user_id":99,"name":"The_Skull","steam_id":76561198121244647,"connected_time":1745000000000,"state":"active","ping":145},{"user_id":105,"name":"Obama","steam_id":76561198194065283,"connected_time":998000000000,"state":"active","ping":76},{"user_id":48,"name":"Lucas","steam_id":76561198399704604,"connected_time":3823000000000,"state":"spawning","ping":176},{"user_id":102,"name":"line","steam_id":76561198086222096,"connected_time":1681000000000,"state":"active","ping":78},{"user_id":116,"name":"Satori Komeiji","steam_id":76561198158211423,"connected_time":504000000000,"state":"active","ping":76},{"user_id":106,"name":"Ohio Toast","steam_id":76561199492560735,"connected_time":964000000000,"state":"active","ping":146}]},{"server_id":406,"name":"Uncletopia | Seattle | 3 | Stopwatch","name_short":"sea-3","host":"sea-1.us.uncletopia.com","port":27035,"enabled":true,"region":"us-west","cc":"us","latitude":47.608013,"longitude":-122.33517,"reserved":0,"last_update":"0001-01-01T00:00:00Z","name_a2s":"Uncletopia | Seattle | 3 | Stopwatch","protocol":17,"map":"koth_highpass","folder":"tf","game":"Team Fortress","app_id":440,"player_count":0,"max_players":24,"Bots":0,"server_type":"Dedicated","server_os":"Linux","password":true,"vac":true,"version":"7961495","steam_id":85568392924515217,"keywords":["cp","nocrits","nodmgspread","uncletopia"],"game_id":440,"stv_port":27036,"stv_name":"Uncletopia | Seattle | 3 | Stopwatch | STV","players":null},{"server_id":17,"name":"Uncletopia | San Francisco | 1 | All Maps","name_short":"sfo-1","host":"sfo-1.us.uncletopia.com","port":27015,"enabled":true,"region":"us-west","cc":"us","latitude":37.77397,"longitude":-122.4313,"reserved":0,"last_update":"0001-01-01T00:00:00Z","name_a2s":"Uncletopia | San Francisco | 1 | All Maps","protocol":17,"map":"koth_cascade","folder":"tf","game":"Team Fortress","app_id":440,"player_count":0,"max_players":24,"Bots":0,"server_type":"Dedicated","server_os":"Linux","password":true,"vac":true,"version":"7961495","steam_id":85568392924469999,"keywords":["cp","nocrits","nodmgspread","uncletopia"],"game_id":440,"stv_port":27016,"stv_name":"Uncletopia | San Francisco | 1 | All Maps | STV","players":null},{"server_id":18,"name":"Uncletopia | San Francisco | 2 | All Maps","name_short":"sfo-2","host":"sfo-1.us.uncletopia.com","port":27025,"enabled":true,"region":"us-west","cc":"us","latitude":37.77397,"longitude":-122.4313,"reserved":0,"last_update":"0001-01-01T00:00:00Z","name_a2s":"Uncletopia | San Francisco | 2 | All Maps","protocol":17,"map":"pl_frontier_final","folder":"tf","game":"Team Fortress","app_id":440,"player_count":0,"max_players":24,"Bots":0,"server_type":"Dedicated","server_os":"Linux","password":true,"vac":true,"version":"7961495","steam_id":85568392924470000,"keywords":["nocrits","nodmgspread","payload","uncletopia"],"game_id":440,"stv_port":27026,"stv_name":"Uncletopia | San Francisco | 2 | All Maps | STV","players":null},{"server_id":19,"name":"Uncletopia | San Francisco | 3 | Stopwatch","name_short":"sfo-3","host":"sfo-1.us.uncletopia.com","port":27035,"enabled":true,"region":"us-west","cc":"us","latitude":37.77397,"longitude":-122.4313,"reserved":0,"last_update":"0001-01-01T00:00:00Z","name_a2s":"Uncletopia | San Francisco | 3 | Stopwatch","protocol":17,"map":"pl_pier","folder":"tf","game":"Team Fortress","app_id":440,"player_count":0,"max_players":24,"Bots":0,"server_type":"Dedicated","server_os":"Linux","password":true,"vac":true,"version":"7961495","steam_id":85568392924742824,"keywords":["nocrits","nodmgspread","payload","uncletopia"],"game_id":440,"stv_port":27036,"stv_name":"Uncletopia | San Francisco | 3 | Stopwatch | STV","players":null},{"server_id":20,"name":"Uncletopia | San Francisco | 4 | Community","name_short":"sfo-4","host":"sfo-1.us.uncletopia.com","port":27045,"enabled":true,"region":"us-west","cc":"us","latitude":37.77397,"longitude":-122.4313,"reserved":0,"last_update":"0001-01-01T00:00:00Z","name_a2s":"Uncletopia | San Francisco | 4 | Community","protocol":17,"map":"pl_pier","folder":"tf","game":"Team Fortress","app_id":440,"player_count":0,"max_players":24,"Bots":0,"server_type":"Dedicated","server_os":"Linux","password":true,"vac":true,"version":"7961495","steam_id":85568392924742826,"keywords":["nocrits","nodmgspread","payload","uncletopia"],"game_id":440,"stv_port":27046,"stv_name":"Uncletopia | San Francisco | 4 | Community | STV","players":null},{"server_id":141,"name":"Uncletopia | Sydney | 1 | All Maps","name_short":"syd-1","host":"syd-1.au.uncletopia.com","port":27015,"enabled":true,"region":"au","cc":"au","latitude":-33.865143,"longitude":151.2099,"reserved":0,"last_update":"0001-01-01T00:00:00Z","name_a2s":"Uncletopia | Sydney | 1 | All Maps","protocol":17,"map":"pl_upward","folder":"tf","game":"Team Fortress","app_id":440,"player_count":0,"max_players":24,"Bots":0,"server_type":"Dedicated","server_os":"Linux","password":true,"vac":true,"version":"7961495","steam_id":85568392924470001,"keywords":["nocrits","nodmgspread","payload","uncletopia"],"game_id":440,"stv_port":27016,"stv_name":"Uncletopia | Sydney | 1 | All Maps | STV","players":null},{"server_id":123,"name":"Uncletopia | Sydney | 2 | All Maps","name_short":"syd-2","host":"syd-1.au.uncletopia.com","port":27025,"enabled":true,"region":"au","cc":"au","latitude":-33.865143,"longitude":151.2099,"reserved":0,"last_update":"0001-01-01T00:00:00Z","name_a2s":"Uncletopia | Sydney | 2 | All Maps","protocol":17,"map":"koth_lakeside_final","folder":"tf","game":"Team Fortress","app_id":440,"player_count":3,"max_players":24,"Bots":0,"server_type":"Dedicated","server_os":"Linux","password":true,"vac":true,"version":"7961495","steam_id":85568392924470002,"keywords":["cp","nocrits","nodmgspread","uncletopia"],"game_id":440,"stv_port":27026,"stv_name":"Uncletopia | Sydney | 2 | All Maps | STV","players":[{"user_id":475,"name":"bonus ducks","steam_id":76561199133093829,"connected_time":965000000000,"state":"active","ping":257},{"user_id":474,"name":"Yillix","steam_id":76561198213327008,"connected_time":1689000000000,"state":"active","ping":57},{"user_id":457,"name":"little raw meat boy","steam_id":76561199248254676,"connected_time":6004000000000,"state":"active","ping":50}]},{"server_id":395,"name":"Uncletopia | Sydney | 3 | All Maps","name_short":"syd-3","host":"syd-1.au.uncletopia.com","port":27035,"enabled":true,"region":"au","cc":"au","latitude":-33.865143,"longitude":151.2099,"reserved":0,"last_update":"0001-01-01T00:00:00Z","name_a2s":"Uncletopia | Sydney | 3 | All Maps","protocol":17,"map":"koth_viaduct","folder":"tf","game":"Team Fortress","app_id":440,"player_count":0,"max_players":24,"Bots":0,"server_type":"Dedicated","server_os":"Linux","password":true,"vac":true,"version":"7961495","steam_id":85568392925194467,"keywords":["cp","nocrits","nodmgspread","uncletopia"],"game_id":440,"stv_port":27036,"stv_name":"Uncletopia | Sydney | 3 | All Maps | STV","players":null},{"server_id":396,"name":"Uncletopia | Sydney | 4 | All Maps","name_short":"syd-4","host":"syd-1.au.uncletopia.com","port":27045,"enabled":true,"region":"au","cc":"au","latitude":-33.865143,"longitude":151.2099,"reserved":0,"last_update":"0001-01-01T00:00:00Z","name_a2s":"Uncletopia | Sydney | 4 | All Maps","protocol":17,"map":"cp_sunshine","folder":"tf","game":"Team Fortress","app_id":440,"player_count":0,"max_players":24,"Bots":0,"server_type":"Dedicated","server_os":"Linux","password":true,"vac":true,"version":"7961495","steam_id":85568392925397958,"keywords":["cp","nocrits","nodmgspread","uncletopia"],"game_id":440,"stv_port":27046,"stv_name":"Uncletopia | Sydney | 4 | All Maps | STV","players":null},{"server_id":58,"name":"Uncletopia | Sydney | 5 | Stopwatch","name_short":"syd-5","host":"syd-1.au.uncletopia.com","port":27055,"enabled":true,"region":"au","cc":"au","latitude":-33.865143,"longitude":151.2099,"reserved":0,"last_update":"0001-01-01T00:00:00Z","name_a2s":"Uncletopia | Sydney | 5 | Stopwatch","protocol":17,"map":"koth_lakeside_final","folder":"tf","game":"Team Fortress","app_id":440,"player_count":0,"max_players":24,"Bots":0,"server_type":"Dedicated","server_os":"Linux","password":true,"vac":true,"version":"7961495","steam_id":85568392925397959,"keywords":["cp","nocrits","nodmgspread","uncletopia"],"game_id":440,"stv_port":27056,"stv_name":"Uncletopia | Sydney | 5 | Stopwatch | STV","players":null},{"server_id":59,"name":"Uncletopia | Sydney | 6 | Community","name_short":"syd-6","host":"syd-1.au.uncletopia.com","port":27065,"enabled":true,"region":"au","cc":"au","latitude":-33.865143,"longitude":151.2099,"reserved":0,"last_update":"0001-01-01T00:00:00Z","name_a2s":"Uncletopia | Sydney | 6 | Community","protocol":17,"map":"workshop/koth_product_final.ugc454272353","folder":"tf","game":"Team Fortress","app_id":440,"player_count":0,"max_players":24,"Bots":0,"server_type":"Dedicated","server_os":"Linux","password":true,"vac":true,"version":"7961495","steam_id":85568392925397960,"keywords":["cp","nocrits","nodmgspread","uncletopia"],"game_id":440,"stv_port":27066,"stv_name":"Uncletopia | Sydney | 6 | Community | STV","players":null},{"server_id":49,"name":"Uncletopia | Warsaw | 1 | All Maps","name_short":"waw-1","host":"waw-1.pl.uncletopia.com","port":27015,"enabled":true,"region":"eu","cc":"pl","latitude":52.2297,"longitude":21.017532,"reserved":0,"last_update":"0001-01-01T00:00:00Z","name_a2s":"Uncletopia | Warsaw | 1 | All Maps","protocol":17,"map":"pl_swiftwater_final1","folder":"tf","game":"Team Fortress","app_id":440,"player_count":0,"max_players":24,"Bots":0,"server_type":"Dedicated","server_os":"Linux","password":true,"vac":true,"version":"7961495","steam_id":85568392925397850,"keywords":["nocrits","nodmgspread","payload","uncletopia"],"game_id":440,"stv_port":27016,"stv_name":"Uncletopia | Warsaw | 1 | All Maps | STV","players":null},{"server_id":50,"name":"Uncletopia | Warsaw | 2 | All Maps","name_short":"waw-2","host":"waw-1.pl.uncletopia.com","port":27025,"enabled":true,"region":"eu","cc":"pl","latitude":52.2297,"longitude":21.017532,"reserved":0,"last_update":"0001-01-01T00:00:00Z","name_a2s":"Uncletopia | Warsaw | 2 | All Maps","protocol":17,"map":"pl_upward","folder":"tf","game":"Team Fortress","app_id":440,"player_count":22,"max_players":24,"Bots":0,"server_type":"Dedicated","server_os":"Linux","password":true,"vac":true,"version":"7961495","steam_id":85568392925397851,"keywords":["nocrits","nodmgspread","payload","uncletopia"],"game_id":440,"stv_port":27026,"stv_name":"Uncletopia | Warsaw | 2 | All Maps | STV","players":[{"user_id":56,"name":"Haggabah,WhoPliesTheUmbralPath","steam_id":76561198846984399,"connected_time":449000000000,"state":"active","ping":96},{"user_id":33,"name":"[HADES]Dr.Seven","steam_id":76561198206439440,"connected_time":1086000000000,"state":"active","ping":62},{"user_id":32,"name":"Edd Ward","steam_id":76561198323451780,"connected_time":1103000000000,"state":"active","ping":77},{"user_id":48,"name":"Pigeon Man","steam_id":76561198067030681,"connected_time":623000000000,"state":"active","ping":75},{"user_id":17,"name":"Doogie","steam_id":76561198846924693,"connected_time":1701000000000,"state":"active","ping":86},{"user_id":19,"name":"Jahmez Lyin","steam_id":76561198065785912,"connected_time":1610000000000,"state":"active","ping":91},{"user_id":28,"name":"Dick Willard","steam_id":76561198087470426,"connected_time":1267000000000,"state":"active","ping":89},{"user_id":35,"name":"Lorenzo Lovers","steam_id":76561198073973581,"connected_time":1019000000000,"state":"active","ping":95},{"user_id":57,"name":"YuriJJ","steam_id":76561197971660049,"connected_time":118000000000,"state":"active","ping":117},{"user_id":26,"name":"–•–ª–æ–ø—å—è :3","steam_id":76561198444092567,"connected_time":1315000000000,"state":"active","ping":96},{"user_id":30,"name":"sanya.bergs","steam_id":76561199490622856,"connected_time":1206000000000,"state":"active","ping":129},{"user_id":58,"name":"weaselmeister","steam_id":76561199059841173,"connected_time":82000000000,"state":"active","ping":74},{"user_id":45,"name":"m909","steam_id":76561198279621400,"connected_time":698000000000,"state":"active","ping":92},{"user_id":38,"name":"ike","steam_id":76561198039573338,"connected_time":977000000000,"state":"active","ping":107},{"user_id":41,"name":"the gloorp","steam_id":76561199105196433,"connected_time":894000000000,"state":"active","ping":101},{"user_id":42,"name":"milan","steam_id":76561198858509678,"connected_time":847000000000,"state":"active","ping":93},{"user_id":53,"name":"Maro","steam_id":76561198395701352,"connected_time":512000000000,"state":"active","ping":51},{"user_id":49,"name":"YarickAbobA","steam_id":76561198442761336,"connected_time":622000000000,"state":"active","ping":80},{"user_id":50,"name":"kluri","steam_id":76561198084518962,"connected_time":618000000000,"state":"active","ping":82},{"user_id":54,"name":"Shmakey_Bakey","steam_id":76561199441412885,"connected_time":506000000000,"state":"active","ping":88},{"user_id":55,"name":"I AM BURNING AAAAAAAAAAAAAAAAA","steam_id":76561198034437500,"connected_time":489000000000,"state":"active","ping":55},{"user_id":60,"name":"Dolcelatte","steam_id":76561198038501770,"connected_time":73000000000,"state":"active","ping":68}]},{"server_id":51,"name":"Uncletopia | Warsaw | 3 | All Maps","name_short":"waw-3","host":"waw-1.pl.uncletopia.com","port":27035,"enabled":true,"region":"eu","cc":"pl","latitude":52.2297,"longitude":21.017532,"reserved":0,"last_update":"0001-01-01T00:00:00Z","name_a2s":"Uncletopia | Warsaw | 3 | All Maps","protocol":17,"map":"cp_mountainlab","folder":"tf","game":"Team Fortress","app_id":440,"player_count":2,"max_players":24,"Bots":0,"server_type":"Dedicated","server_os":"Linux","password":true,"vac":true,"version":"7961495","steam_id":85568392925397852,"keywords":["cp","nocrits","nodmgspread","uncletopia"],"game_id":440,"stv_port":27036,"stv_name":"Uncletopia | Warsaw | 3 | All Maps | STV","players":[{"user_id":9,"name":"JOL_MAX","steam_id":76561199196047539,"connected_time":510000000000,"state":"active","ping":93},{"user_id":11,"name":"76561199496145129","steam_id":76561199496145129,"connected_time":171000000000,"state":"active","ping":54}]},{"server_id":52,"name":"Uncletopia | Warsaw | 4 | All Maps","name_short":"waw-4","host":"waw-1.pl.uncletopia.com","port":27045,"enabled":true,"region":"eu","cc":"pl","latitude":52.2297,"longitude":21.017532,"reserved":0,"last_update":"0001-01-01T00:00:00Z","name_a2s":"Uncletopia | Warsaw | 4 | All Maps","protocol":17,"map":"pl_borneo","folder":"tf","game":"Team Fortress","app_id":440,"player_count":3,"max_players":24,"Bots":0,"server_type":"Dedicated","server_os":"Linux","password":true,"vac":true,"version":"7961495","steam_id":85568392925397853,"keywords":["nocrits","nodmgspread","payload","uncletopia"],"game_id":440,"stv_port":27046,"stv_name":"Uncletopia | Warsaw | 4 | All Maps | STV","players":[{"user_id":5,"name":"poiu2020","steam_id":76561198845416650,"connected_time":890000000000,"state":"active","ping":56},{"user_id":6,"name":"doxbn","steam_id":76561199062460619,"connected_time":802000000000,"state":"active","ping":41},{"user_id":7,"name":"Poles≈Çaw","steam_id":76561199063955952,"connected_time":335000000000,"state":"active","ping":56}]},{"server_id":53,"name":"Uncletopia | Warsaw | 5 | Stopwatch","name_short":"waw-5","host":"waw-1.pl.uncletopia.com","port":27055,"enabled":true,"region":"eu","cc":"pl","latitude":52.2297,"longitude":21.017532,"reserved":0,"last_update":"0001-01-01T00:00:00Z","name_a2s":"Uncletopia | Warsaw | 5 | Stopwatch","protocol":17,"map":"pl_barnblitz","folder":"tf","game":"Team Fortress","app_id":440,"player_count":0,"max_players":24,"Bots":0,"server_type":"Dedicated","server_os":"Linux","password":true,"vac":true,"version":"7961495","steam_id":85568392925397854,"keywords":["nocrits","nodmgspread","payload","uncletopia"],"game_id":440,"stv_port":27056,"stv_name":"Uncletopia | Warsaw | 5 | Stopwatch | STV","players":null},{"server_id":54,"name":"Uncletopia | Warsaw | 6 | Community","name_short":"waw-6","host":"waw-1.pl.uncletopia.com","port":27065,"enabled":true,"region":"eu","cc":"pl","latitude":52.2297,"longitude":21.017532,"reserved":0,"last_update":"0001-01-01T00:00:00Z","name_a2s":"Uncletopia | Warsaw | 6 | Community","protocol":17,"map":"workshop/pl_badwater_pro_v12.ugc2142942074","folder":"tf","game":"Team Fortress","app_id":440,"player_count":0,"max_players":24,"Bots":0,"server_type":"Dedicated","server_os":"Linux","password":true,"vac":true,"version":"7961495","steam_id":85568392925397856,"keywords":["nocrits","nodmgspread","payload","uncletopia"],"game_id":440,"stv_port":27066,"stv_name":"Uncletopia | Warsaw | 6 | Community | STV","players":null}]}