{"status":true,"message":"","result":[{"server_id":9,"name":"Uncletopia | Atlanta | 1 | All Maps","name_short":"atl-1","host":"atl-1.us.uncletopia.com","port":27015,"enabled":true,"region":"us-east","cc":"us","latitude":33.753746,"longitude":-84.38633,"reserved":0,"last_update":"0001-01-01T00:00:00Z","name_a2s":"Uncletopia | Atlanta | 1 | All Maps","protocol":17,"map":"pl_borneo","folder":"tf","game":"Team Fortress","app_id":440,"player_count":24,"max_players":24,"Bots":0,"server_type":"Dedicated","server_os":"Linux","password":true,"vac":true,"version":"7757534","steam_id":85568392924469982,"keywords":["nocrits","nodmgspread","payload","uncletopia"],"game_id":440,"stv_port":27016,"stv_name":"Uncletopia | Atlanta | 1 | All Maps | STV","players":[{"user_id":313,"name":"astrophobic","steam_id":76561198838757422,"connected_time":4250000000000,"state":"active","ping":82},{"user_id":302,"name":"ATL1 | Sunny004","steam_id":76561198105397410,"connected_time":4827000000000,"state":"active","ping":58},{"user_id":348,"name":"Spiderfight1","steam_id":76561199189991528,"connected_time":602000000000,"state":"active","ping":75},{"user_id":323,"name":"kohlhagen","steam_id":76561198120440587,"connected_time":3112000000000,"state":"active","ping":46},{"user_id":203,"name":"com lag","steam_id":76561198019019392,"connected_time":7435000000000,"state":"active","ping":65},{"user_id":106,"name":"8,000,000 merged Chihuahuas","steam_id":76561198130772096,"connected_time":15279000000000,"state":"active","ping":48},{"user_id":307,"name":"LunarrD","steam_id":76561198811220107,"connected_time":4422000000000,"state":"active","ping":86},{"user_id":333,"name":"truundrscr","steam_id":76561198213525809,"connected_time":1999000000000,"state":"active","ping":116},{"user_id":341,"name":"nemo","steam_id":76561198319990195,"connected_time":854000000000,"state":"active","ping":90},{"user_id":343,"name":"Shame","steam_id":76561198100490994,"connected_time":677000000000,"state":"active","ping":61},{"user_id":271,"name":"Motreir","steam_id":76561198151717946,"connected_time":5692000000000,"state":"active","ping":76},{"user_id":332,"name":"Broken Cereal‚àö","steam_id":76561198087489795,"connected_time":2026000000000,"state":"active","ping":67},{"user_id":338,"name":"mau","steam_id":76561198354473513,"connected_time":1778000000000,"state":"active","ping":74},{"user_id":326,"name":"lil hog","steam_id":76561199230929836,"connected_time":2737000000000,"state":"active","ping":76},{"user_id":315,"name":"Grandpa¬¥s Last Drop of Cum","steam_id":76561198079516696,"connected_time":3875000000000,"state":"active","ping":91},{"user_id":329,"name":"Der Munchkin[2098]","steam_id":76561197998833309,"connected_time":2047000000000,"state":"active","ping":59},{"user_id":339,"name":"Halor","steam_id":76561198082791371,"connected_time":1083000000000,"state":"active","ping":176},{"user_id":295,"name":"M@verick","steam_id":76561198006363519,"connected_time":5067000000000,"state":"active","ping":79},{"user_id":314,"name":"Intro Bonito","steam_id":76561198119478838,"connected_time":4144000000000,"state":"active","ping":48},{"user_id":340,"name":"‚ô°Alyx‚ô°","steam_id":76561198024303978,"connected_time":965000000000,"state":"active","ping":62},{"user_id":346,"name":"ash","steam_id":76561198127890645,"connected_time":620000000000,"state":"active","ping":69},{"user_id":322,"name":"Mug","steam_id":76561199282207802,"connected_time":3715000000000,"state":"active","ping":80},{"user_id":310,"name":"mrcatman","steam_id":76561198358434883,"connected_time":4392000000000,"state":"active","ping":72},{"user_id":331,"name":"Bali","steam_id":76561198038693845,"connected_time":2047000000000,"state":"active","ping":84}]},{"server_id":400,"name":"Uncletopia | Atlanta | 3 | Community","name_short":"atl-3","host":"atl-1.us.uncletopia.com","port":27035,"enabled":true,"region":"us-east","cc":"us","latitude":33.753746,"longitude":-84.38633,"reserved":0,"last_update":"0001-01-01T00:00:00Z","name_a2s":"Uncletopia | Atlanta | 3 | Community","protocol":17,"map":"workshop/pl_cactuscanyon_redux_final1.ugc2579644293","folder":"tf","game":"Team Fortress","app_id":440,"player_count":21,"max_players":24,"Bots":0,"server_type":"Dedicated","server_os":"Linux","password":true,"vac":true,"version":"7757534","steam_id":85568392924515187,"keywords":["nocrits","nodmgspread","payload","uncletopia"],"game_id":440,"stv_port":27036,"stv_name":"Uncletopia | Atlanta | 3 | Community | STV","players":[{"user_id":203,"name":"Fresh0c0","steam_id":76561198271933283,"connected_time":2924000000000,"state":"active","ping":93},{"user_id":238,"name":"Aristotle Voulton","steam_id":76561198100174923,"connected_time":526000000000,"state":"active","ping":116},{"user_id":239,"name":"Pathara44","steam_id":76561198048238620,"connected_time":467000000000,"state":"active","ping":74},{"user_id":240,"name":"Schpungus, Lord of The Fungus","steam_id":76561198883762078,"connected_time":449000000000,"state":"active","ping":104},{"user_id":256,"name":"Drusalem","steam_id":76561199078547218,"connected_time":3000000000,"state":"spawning","ping":73},{"user_id":242,"name":"Oni","steam_id":76561198112066584,"connected_time":407000000000,"state":"active","ping":52},{"user_id":244,"name":"GailusTerran","steam_id":76561198319509387,"connected_time":343000000000,"state":"active","ping":60},{"user_id":245,"name":"Yayboo Bear","steam_id":76561197990770266,"connected_time":330000000000,"state":"active","ping":76},{"user_id":246,"name":"Lucy","steam_id":76561198032590343,"connected_time":320000000000,"state":"active","ping":85},{"user_id":247,"name":"Lukey","steam_id":76561198074642724,"connected_time":310000000000,"state":"active","ping":159},{"user_id":181,"name":"Mad Cow ‚Äª","steam_id":76561199470707812,"connected_time":4697000000000,"state":"active","ping":76},{"user_id":254,"name":"JazzMuted","steam_id":76561197974184265,"connected_time":63000000000,"state":"active","ping":66},{"user_id":219,"name":"Claw Finger","steam_id":76561198116408865,"connected_time":2080000000000,"state":"active","ping":68},{"user_id":220,"name":"Blare","steam_id":76561198023669032,"connected_time":1834000000000,"state":"active","ping":103},{"user_id":255,"name":"∆û√∏œÑ_«ù…Ø","steam_id":76561199063941100,"connected_time":24000000000,"state":"spawning","ping":386},{"user_id":236,"name":"TF2 Scout","steam_id":76561199211023244,"connected_time":645000000000,"state":"active","ping":188},{"user_id":193,"name":"fruitlogic","steam_id":76561198071251588,"connected_time":4186000000000,"state":"active","ping":67},{"user_id":197,"name":"Fk it we Ball","steam_id":76561198078421075,"connected_time":3700000000000,"state":"active","ping":48},{"user_id":235,"name":"Rami #SaveTF2","steam_id":76561198371359190,"connected_time":650000000000,"state":"active","ping":105},{"user_id":251,"name":"Dr. Peppers Strongest Soldier","steam_id":76561199107068627,"connected_time":167000000000,"state":"active","ping":81},{"user_id":253,"name":"KingSteve42","steam_id":76561198409455888,"connected_time":149000000000,"state":"active","ping":116}]},{"server_id":401,"name":"Uncletopia | Atlanta | 4 | No Payload","name_short":"atl-4","host":"atl-1.us.uncletopia.com","port":27045,"enabled":true,"region":"us-east","cc":"us","latitude":33.753746,"longitude":-84.38633,"reserved":0,"last_update":"0001-01-01T00:00:00Z","name_a2s":"","protocol":0,"map":"","folder":"","game":"","app_id":0,"player_count":0,"max_players":0,"Bots":0,"server_type":"","server_os":"","password":false,"vac":false,"version":"","steam_id":0,"keywords":null,"game_id":0,"stv_port":0,"stv_name":"","players":null},{"server_id":2,"name":"Uncletopia | Chicago | 1 | All Maps","name_short":"chi-1","host":"chi-1.us.uncletopia.com","port":27015,"enabled":true,"region":"us-central","cc":"us","latitude":41.881832,"longitude":-87.62318,"reserved":0,"last_update":"0001-01-01T00:00:00Z","name_a2s":"Uncletopia | Chicago | 1 | All Maps","protocol":17,"map":"pl_pier","folder":"tf","game":"Team Fortress","app_id":440,"player_count":24,"max_players":24,"Bots":0,"server_type":"Dedicated","server_os":"Linux","password":true,"vac":true,"version":"7757534","steam_id":85568392924469984,"keywords":["nocrits","nodmgspread","payload","uncletopia"],"game_id":440,"stv_port":27016,"stv_name":"Uncletopia | Chicago | 1 | All Maps | STV","players":[{"user_id":337,"name":"lag","steam_id":76561197963872739,"connected_time":2038000000000,"state":"active","ping":91},{"user_id":264,"name":"Astoriae!","steam_id":76561199090168858,"connected_time":7290000000000,"state":"active","ping":67},{"user_id":354,"name":"Ed gaming 114","steam_id":76561199401784260,"connected_time":191000000000,"state":"active","ping":77},{"user_id":321,"name":"crayonnipple","steam_id":76561198070253331,"connected_time":3138000000000,"state":"active","ping":93},{"user_id":320,"name":"Isn't Water","steam_id":76561199253511650,"connected_time":3211000000000,"state":"active","ping":153},{"user_id":313,"name":"Shmebulock","steam_id":76561198046941925,"connected_time":3773000000000,"state":"active","ping":60},{"user_id":357,"name":"OhFuckOhGodFuckFuckFuck","steam_id":76561198114934927,"connected_time":37000000000,"state":"active","ping":73},{"user_id":352,"name":"[DEEP] Roz257","steam_id":76561198842844532,"connected_time":888000000000,"state":"active","ping":76},{"user_id":323,"name":"egyptiangodcard","steam_id":76561198855935442,"connected_time":3105000000000,"state":"active","ping":73},{"user_id":347,"name":"Stoner Wizard","steam_id":76561198033885983,"connected_time":1245000000000,"state":"active","ping":91},{"user_id":297,"name":"Big Phony","steam_id":76561199092395311,"connected_time":5038000000000,"state":"active","ping":60},{"user_id":299,"name":"Sebi","steam_id":76561198182090858,"connected_time":4693000000000,"state":"active","ping":52},{"user_id":318,"name":"Ascended SoS","steam_id":76561198123441203,"connected_time":3348000000000,"state":"active","ping":69},{"user_id":353,"name":"‚ô° ASMR Bunny Massage ‚ô°","steam_id":76561198079603532,"connected_time":379000000000,"state":"active","ping":87},{"user_id":336,"name":"Skinny Pete","steam_id":76561198801608576,"connected_time":2077000000000,"state":"active","ping":74},{"user_id":330,"name":"quint","steam_id":76561198046797995,"connected_time":2489000000000,"state":"active","ping":70},{"user_id":317,"name":"weeb_whacker#Jenius#Hateologist","steam_id":76561198187098041,"connected_time":3551000000000,"state":"active","ping":58},{"user_id":333,"name":"Magik","steam_id":76561198200169706,"connected_time":2345000000000,"state":"active","ping":66},{"user_id":319,"name":"Hob-Goblin Jim The IV","steam_id":76561199046650666,"connected_time":3330000000000,"state":"active","ping":57},{"user_id":327,"name":"Lawnmower","steam_id":76561198186680197,"connected_time":2589000000000,"state":"active","ping":99},{"user_id":332,"name":"ÿ®ÿßÿ±ŸÉ ÿßŸÑŸÑŸá ŸÅŸäbodyshot","steam_id":76561198103496593,"connected_time":2482000000000,"state":"active","ping":71},{"user_id":345,"name":"THROAT HUGGER #Hateology","steam_id":76561198046870291,"connected_time":1322000000000,"state":"active","ping":74},{"user_id":350,"name":"gay people","steam_id":76561198249206656,"connected_time":914000000000,"state":"active","ping":62},{"user_id":254,"name":"Training Arc","steam_id":76561198038832034,"connected_time":7845000000000,"state":"active","ping":106}]},{"server_id":106,"name":"Uncletopia | Chicago | 2 | All Maps","name_short":"chi-2","host":"chi-1.us.uncletopia.com","port":27025,"enabled":true,"region":"us-central","cc":"us","latitude":41.881832,"longitude":-87.62318,"reserved":0,"last_update":"0001-01-01T00:00:00Z","name_a2s":"Uncletopia | Chicago | 2 | All Maps","protocol":17,"map":"pl_frontier_final","folder":"tf","game":"Team Fortress","app_id":440,"player_count":0,"max_players":24,"Bots":0,"server_type":"Dedicated","server_os":"Linux","password":true,"vac":true,"version":"7757534","steam_id":85568392924469985,"keywords":["nocrits","nodmgspread","payload","uncletopia"],"game_id":440,"stv_port":27026,"stv_name":"Uncletopia | Chicago | 2 | All Maps | STV","players":null},{"server_id":402,"name":"Uncletopia | Chicago | 3 | All Maps","name_short":"chi-3","host":"chi-1.us.uncletopia.com","port":27035,"enabled":true,"region":"us-central","cc":"us","latitude":41.881832,"longitude":-87.62318,"reserved":0,"last_update":"0001-01-01T00:00:00Z","name_a2s":"Uncletopia | Chicago | 3 | All Maps","protocol":17,"map":"pl_rumford_event","folder":"tf","game":"Team Fortress","app_id":440,"player_count":23,"max_players":24,"Bots":0,"server_type":"Dedicated","server_os":"Linux","password":true,"vac":true,"version":"7757534","steam_id":85568392924515191,"keywords":["nocrits","nodmgspread","payload","uncletopia"],"game_id":440,"stv_port":27036,"stv_name":"Uncletopia | Chicago | 3 | All Maps | STV","players":[{"user_id":137,"name":"Bread Baker","steam_id":76561198185335103,"connected_time":4448000000000,"state":"active","ping":46},{"user_id":108,"name":"bubblebathgod873","steam_id":76561198083463877,"connected_time":6506000000000,"state":"active","ping":47},{"user_id":177,"name":"shalankawanak","steam_id":76561198987719376,"connected_time":1328000000000,"state":"active","ping":57},{"user_id":110,"name":"he drove a series ten cadillac","steam_id":76561198142756572,"connected_time":6200000000000,"state":"active","ping":65},{"user_id":186,"name":"chaffy","steam_id":76561198021754567,"connected_time":374000000000,"state":"active","ping":51},{"user_id":170,"name":"21ST CENTURY SCHIZOID MAN","steam_id":76561198081681647,"connected_time":2213000000000,"state":"active","ping":68},{"user_id":185,"name":"Doubting Dave","steam_id":76561198066410749,"connected_time":1101000000000,"state":"active","ping":98},{"user_id":190,"name":"JohnnyBoi","steam_id":76561199082599937,"connected_time":334000000000,"state":"active","ping":112},{"user_id":192,"name":"Deathpill","steam_id":76561197994404793,"connected_time":280000000000,"state":"active","ping":72},{"user_id":183,"name":"Rx Auntie","steam_id":76561198051618393,"connected_time":1289000000000,"state":"active","ping":60},{"user_id":171,"name":"Scarlet Oni","steam_id":76561198059586304,"connected_time":2196000000000,"state":"active","ping":74},{"user_id":139,"name":"TeriyakiDynamite","steam_id":76561198050049346,"connected_time":4249000000000,"state":"active","ping":114},{"user_id":188,"name":"LegendaryMister151","steam_id":76561198064890524,"connected_time":372000000000,"state":"active","ping":91},{"user_id":184,"name":"wiiblob","steam_id":76561198109106242,"connected_time":1114000000000,"state":"active","ping":140},{"user_id":195,"name":"radiohead enjoyer","steam_id":76561198397662124,"connected_time":213000000000,"state":"active","ping":86},{"user_id":157,"name":"MAJICBUCKET","steam_id":76561198825268471,"connected_time":2452000000000,"state":"active","ping":73},{"user_id":193,"name":"Nand512","steam_id":76561198277758753,"connected_time":260000000000,"state":"active","ping":83},{"user_id":168,"name":"Zigadox","steam_id":76561198079813479,"connected_time":2243000000000,"state":"active","ping":87},{"user_id":159,"name":"MAXIMUM OVERDRIVE","steam_id":76561198113992547,"connected_time":2391000000000,"state":"active","ping":76},{"user_id":179,"name":"TheSnipersHat","steam_id":76561198057684066,"connected_time":1325000000000,"state":"active","ping":59},{"user_id":194,"name":"gps","steam_id":76561198067492304,"connected_time":254000000000,"state":"active","ping":80},{"user_id":189,"name":"Ace","steam_id":76561198309637160,"connected_time":370000000000,"state":"active","ping":44},{"user_id":175,"name":"Tax","steam_id":76561198335683534,"connected_time":1889000000000,"state":"active","ping":61}]},{"server_id":403,"name":"Uncletopia | Chicago | 4 | All Maps","name_short":"chi-4","host":"chi-1.us.uncletopia.com","port":27045,"enabled":true,"region":"us-central","cc":"us","latitude":41.881832,"longitude":-87.62318,"reserved":0,"last_update":"0001-01-01T00:00:00Z","name_a2s":"Uncletopia | Chicago | 4 | All Maps","protocol":17,"map":"koth_cascade","folder":"tf","game":"Team Fortress","app_id":440,"player_count":0,"max_players":24,"Bots":0,"server_type":"Dedicated","server_os":"Linux","password":true,"vac":true,"version":"7757534","steam_id":85568392924515193,"keywords":["cp","nocrits","nodmgspread","uncletopia"],"game_id":440,"stv_port":27046,"stv_name":"Uncletopia | Chicago | 4 | All Maps | STV","players":null},{"server_id":36,"name":"Uncletopia | Chicago | 5 | All Maps","name_short":"chi-5","host":"chi-2.us.uncletopia.com","port":27015,"enabled":true,"region":"us-central","cc":"us","latitude":41.881832,"longitude":-87.62318,"reserved":0,"last_update":"0001-01-01T00:00:00Z","name_a2s":"Uncletopia | Chicago | 5 | All Maps","protocol":17,"map":"koth_lakeside_final","folder":"tf","game":"Team Fortress","app_id":440,"player_count":0,"max_players":24,"Bots":0,"server_type":"Dedicated","server_os":"Linux","password":true,"vac":true,"version":"7757534","steam_id":85568392924866362,"keywords":["cp","nocrits","nodmgspread","uncletopia"],"game_id":440,"stv_port":27016,"stv_name":"Uncletopia | Chicago | 5 | All Maps | STV","players":null},{"server_id":37,"name":"Uncletopia | Chicago | 6 | All Maps","name_short":"chi-6","host":"chi-2.us.uncletopia.com","port":27025,"enabled":true,"region":"us-central","cc":"us","latitude":41.881832,"longitude":-87.62318,"reserved":0,"last_update":"0001-01-01T00:00:00Z","name_a2s":"Uncletopia | Chicago | 6 | All Maps","protocol":17,"map":"koth_cascade","folder":"tf","game":"Team Fortress","app_id":440,"player_count":1,"max_players":24,"Bots":0,"server_type":"Dedicated","server_os":"Linux","password":true,"vac":true,"version":"7757534","steam_id":85568392924866363,"keywords":["cp","nocrits","nodmgspread","uncletopia"],"game_id":440,"stv_port":27026,"stv_name":"Uncletopia | Chicago | 6 | All Maps | STV","players":[{"user_id":9,"name":"kirbo","steam_id":76561198057895955,"connected_time":20000000000,"state":"active","ping":61}]},{"server_id":38,"name":"Uncletopia | Chicago | 7 | Stopwatch Beta","name_short":"chi-7","host":"chi-2.us.uncletopia.com","port":27035,"enabled":true,"region":"us-central","cc":"us","latitude":41.881832,"longitude":-87.62318,"reserved":0,"last_update":"0001-01-01T00:00:00Z","name_a2s":"Uncletopia | Chicago | 7 | Stopwatch Beta","protocol":17,"map":"workshop/pl_badwater_pro_v12.ugc2142942074","folder":"tf","game":"Team Fortress","app_id":440,"player_count":25,"max_players":24,"Bots":0,"server_type":"Dedicated","server_os":"Linux","password":true,"vac":true,"version":"7757534","steam_id":85568392924866364,"keywords":["nocrits","nodmgspread","payload","uncletopia"],"game_id":440,"stv_port":27036,"stv_name":"Uncletopia | Chicago | 7 | Stopwatch Beta | STV","players":[{"user_id":8,"name":"Bern","steam_id":76561198294032289,"connected_time":5076000000000,"state":"active","ping":47},{"user_id":76,"name":"lost in spaaaaace","steam_id":76561199085974120,"connected_time":1100000000000,"state":"active","ping":65},{"user_id":13,"name":"Thomas Goblin-man Yorke","steam_id":76561197999658755,"connected_time":4132000000000,"state":"active","ping":46},{"user_id":11,"name":"the cake","steam_id":76561198405346572,"connected_time":4701000000000,"state":"active","ping":73},{"user_id":59,"name":"nickles","steam_id":76561199177498487,"connected_time":1720000000000,"state":"active","ping":70},{"user_id":92,"name":"MeatShield 2000","steam_id":76561199375192850,"connected_time":17000000000,"state":"active","ping":94},{"user_id":87,"name":"Literally a Trans Woman","steam_id":76561198054639925,"connected_time":383000000000,"state":"active","ping":74},{"user_id":83,"name":"Magnus1738","steam_id":76561198330283667,"connected_time":575000000000,"state":"spawning","ping":220},{"user_id":85,"name":"[DEEP] Danmar33","steam_id":76561198056453091,"connected_time":532000000000,"state":"active","ping":45},{"user_id":19,"name":"Risguy","steam_id":76561198256419746,"connected_time":3360000000000,"state":"active","ping":106},{"user_id":93,"name":"Hash Yellow Mellow","steam_id":76561198089697360,"connected_time":9000000000,"state":"spawning","ping":155},{"user_id":88,"name":"Rylee Zondo'Man","steam_id":76561199044382703,"connected_time":356000000000,"state":"spawning","ping":221},{"user_id":89,"name":"Octavia","steam_id":76561198035475444,"connected_time":327000000000,"state":"active","ping":50},{"user_id":57,"name":"Byu","steam_id":76561199012880340,"connected_time":1782000000000,"state":"active","ping":113},{"user_id":75,"name":"Kohbold","steam_id":76561198996480140,"connected_time":1185000000000,"state":"spawning","ping":272},{"user_id":81,"name":"evan_is_sauce","steam_id":76561199086802383,"connected_time":770000000000,"state":"active","ping":100},{"user_id":70,"name":"HappyHitchhiker","steam_id":76561198080228697,"connected_time":1316000000000,"state":"spawning","ping":145},{"user_id":50,"name":"Dive(z)","steam_id":76561198140843225,"connected_time":2493000000000,"state":"active","ping":101},{"user_id":32,"name":"Massive Conquistador","steam_id":76561197961138002,"connected_time":3202000000000,"state":"active","ping":71},{"user_id":91,"name":"Ramses the Tomcat","steam_id":76561199200480562,"connected_time":287000000000,"state":"active","ping":113},{"user_id":60,"name":"Tom Cr√∫aich","steam_id":76561197999439911,"connected_time":1594000000000,"state":"active","ping":63},{"user_id":71,"name":"Zoawsome","steam_id":76561198018758753,"connected_time":1316000000000,"state":"active","ping":45},{"user_id":73,"name":"shadow6","steam_id":76561197979807910,"connected_time":1268000000000,"state":"active","ping":304},{"user_id":84,"name":"delusional schizophrenic","steam_id":76561198323435040,"connected_time":540000000000,"state":"active","ping":57},{"user_id":94,"name":"blobb","steam_id":76561198950448488,"connected_time":2000000000,"state":"spawning","ping":50}]},{"server_id":39,"name":"Uncletopia | Chicago | 8 | Community","name_short":"chi-8","host":"chi-2.us.uncletopia.com","port":27045,"enabled":true,"region":"us-central","cc":"us","latitude":41.881832,"longitude":-87.62318,"reserved":0,"last_update":"0001-01-01T00:00:00Z","name_a2s":"Uncletopia | Chicago | 8 | Community","protocol":17,"map":"koth_lakeside_final","folder":"tf","game":"Team Fortress","app_id":440,"player_count":0,"max_players":24,"Bots":0,"server_type":"Dedicated","server_os":"Linux","password":true,"vac":true,"version":"7757534","steam_id":85568392924866365,"keywords":["cp","nocrits","nodmgspread","uncletopia"],"game_id":440,"stv_port":27046,"stv_name":"Uncletopia | Chicago | 8 | Community | STV","players":null},{"server_id":8,"name":"Uncletopia | Dallas | 1 | All Maps","name_short":"dal-1","host":"dal-1.us.uncletopia.com","port":27015,"enabled":true,"region":"us-central","cc":"us","latitude":32.779167,"longitude":-96.80889,"reserved":0,"last_update":"0001-01-01T00:00:00Z","name_a2s":"Uncletopia | Dallas | 1 | All Maps","protocol":17,"map":"koth_highpass","folder":"tf","game":"Team Fortress","app_id":440,"player_count":0,"max_players":24,"Bots":0,"server_type":"Dedicated","server_os":"Linux","password":true,"vac":true,"version":"7757534","steam_id":85568392924469986,"keywords":["cp","nocrits","nodmgspread","uncletopia"],"game_id":440,"stv_port":27016,"stv_name":"Uncletopia | Dallas | 1 | All Maps | STV","players":null},{"server_id":108,"name":"Uncletopia | Dallas | 2 | All Maps","name_short":"dal-2","host":"dal-1.us.uncletopia.com","port":27025,"enabled":true,"region":"us-central","cc":"us","latitude":32.779167,"longitude":-96.80889,"reserved":0,"last_update":"0001-01-01T00:00:00Z","name_a2s":"Uncletopia | Dallas | 2 | All Maps","protocol":17,"map":"pl_borneo","folder":"tf","game":"Team Fortress","app_id":440,"player_count":24,"max_players":24,"Bots":0,"server_type":"Dedicated","server_os":"Linux","password":true,"vac":true,"version":"7757534","steam_id":85568392924469988,"keywords":["nocrits","nodmgspread","payload","uncletopia"],"game_id":440,"stv_port":27026,"stv_name":"Uncletopia | Dallas | 2 | All Maps | STV","players":[{"user_id":550,"name":"Fresh Lychee","steam_id":76561198045399559,"connected_time":5229000000000,"state":"active","ping":73},{"user_id":580,"name":"[_Dr.Scythe_]","steam_id":76561198845245858,"connected_time":2866000000000,"state":"active","ping":57},{"user_id":584,"name":"demolition man team fortress","steam_id":76561198101971132,"connected_time":2552000000000,"state":"active","ping":52},{"user_id":592,"name":"Luna","steam_id":76561198131342156,"connected_time":1584000000000,"state":"active","ping":64},{"user_id":548,"name":"jturner1nm","steam_id":76561198344493652,"connected_time":5553000000000,"state":"active","ping":96},{"user_id":601,"name":"tie dye die guy","steam_id":76561198049845337,"connected_time":1071000000000,"state":"active","ping":107},{"user_id":597,"name":"Dictator Noodle","steam_id":76561198277243768,"connected_time":1115000000000,"state":"active","ping":74},{"user_id":600,"name":"ally of big tobacco","steam_id":76561198169927835,"connected_time":1097000000000,"state":"active","ping":67},{"user_id":546,"name":"tekan","steam_id":76561199077174231,"connected_time":5714000000000,"state":"active","ping":98},{"user_id":568,"name":"ajplays28","steam_id":76561199023537026,"connected_time":4034000000000,"state":"active","ping":107},{"user_id":544,"name":"The World's Softest Sandwich","steam_id":76561198015577707,"connected_time":6232000000000,"state":"active","ping":69},{"user_id":591,"name":"Lezabel","steam_id":76561198970753261,"connected_time":2113000000000,"state":"active","ping":74},{"user_id":576,"name":"[LINUX] Purple Penguin Pybro","steam_id":76561198093538786,"connected_time":3027000000000,"state":"active","ping":52},{"user_id":604,"name":"nelly modelo","steam_id":76561198044875206,"connected_time":830000000000,"state":"active","ping":90},{"user_id":532,"name":"Shaquille Oatmeal","steam_id":76561198186835074,"connected_time":7205000000000,"state":"active","ping":67},{"user_id":599,"name":"br brbm urhrm gowogw","steam_id":76561198822069026,"connected_time":1114000000000,"state":"active","ping":113},{"user_id":579,"name":"ChottoAMinute","steam_id":76561198873157775,"connected_time":2871000000000,"state":"active","ping":34},{"user_id":556,"name":"Leo","steam_id":76561198309760791,"connected_time":4480000000000,"state":"active","ping":120},{"user_id":593,"name":"james may","steam_id":76561198043857339,"connected_time":1569000000000,"state":"active","ping":82},{"user_id":553,"name":"King Baldski","steam_id":76561198359568400,"connected_time":5180000000000,"state":"active","ping":150},{"user_id":588,"name":"poage","steam_id":76561199067205225,"connected_time":2363000000000,"state":"active","ping":75},{"user_id":572,"name":"0r161n4lj0k3","steam_id":76561198127328235,"connected_time":3291000000000,"state":"active","ping":89},{"user_id":606,"name":"ShaggyRed","steam_id":76561198046996355,"connected_time":594000000000,"state":"active","ping":87},{"user_id":574,"name":"DJ Tigress","steam_id":76561198065005979,"connected_time":3208000000000,"state":"active","ping":98}]},{"server_id":5,"name":"Uncletopia | Frankfurt | 1 | All Maps","name_short":"frk-1","host":"frk-1.de.uncletopia.com","port":27015,"enabled":true,"region":"eu","cc":"de","latitude":50.110924,"longitude":8.682127,"reserved":0,"last_update":"0001-01-01T00:00:00Z","name_a2s":"Uncletopia | Frankfurt | 1 | All Maps","protocol":17,"map":"pl_upward","folder":"tf","game":"Team Fortress","app_id":440,"player_count":24,"max_players":24,"Bots":0,"server_type":"Dedicated","server_os":"Linux","password":true,"vac":true,"version":"7757534","steam_id":85568392924469989,"keywords":["nocrits","nodmgspread","payload","uncletopia"],"game_id":440,"stv_port":27016,"stv_name":"Uncletopia | Frankfurt | 1 | All Maps | STV","players":[{"user_id":471,"name":"ldshwt","steam_id":76561198090364357,"connected_time":4178000000000,"state":"active","ping":56},{"user_id":532,"name":"Jag √§r ett anka","steam_id":76561198059978438,"connected_time":1178000000000,"state":"active","ping":39},{"user_id":511,"name":"Alura","steam_id":76561198122379430,"connected_time":2374000000000,"state":"active","ping":85},{"user_id":482,"name":"REN","steam_id":76561198000596385,"connected_time":3325000000000,"state":"active","ping":62},{"user_id":506,"name":"boofing prozac","steam_id":76561198851157897,"connected_time":2661000000000,"state":"active","ping":75},{"user_id":539,"name":"big tiddy goth bf","steam_id":76561198170609049,"connected_time":693000000000,"state":"active","ping":61},{"user_id":515,"name":"I am piss man","steam_id":76561198039209685,"connected_time":2068000000000,"state":"active","ping":58},{"user_id":538,"name":"big tiddy goth gf","steam_id":76561198097507847,"connected_time":704000000000,"state":"active","ping":70},{"user_id":540,"name":"FJADL","steam_id":76561198237008214,"connected_time":690000000000,"state":"active","ping":52},{"user_id":527,"name":"meatsoupcube","steam_id":76561198276802249,"connected_time":1673000000000,"state":"active","ping":112},{"user_id":541,"name":"Looking for Goth with tiddies!?","steam_id":76561198067204908,"connected_time":686000000000,"state":"active","ping":70},{"user_id":466,"name":"jones","steam_id":76561198044434971,"connected_time":4446000000000,"state":"active","ping":59},{"user_id":485,"name":"MGE Bro","steam_id":76561198796600155,"connected_time":3292000000000,"state":"active","ping":91},{"user_id":486,"name":"Badass gangnam style minion","steam_id":76561198297602677,"connected_time":3283000000000,"state":"active","ping":92},{"user_id":501,"name":"Crims0n","steam_id":76561198110735434,"connected_time":2813000000000,"state":"active","ping":60},{"user_id":458,"name":"Kakograf","steam_id":76561198148375639,"connected_time":4795000000000,"state":"active","ping":86},{"user_id":525,"name":"Bonca","steam_id":76561198137503531,"connected_time":1678000000000,"state":"active","ping":82},{"user_id":503,"name":"Bocchi the Cock o_0","steam_id":76561198051862530,"connected_time":2684000000000,"state":"active","ping":73},{"user_id":543,"name":"relic_","steam_id":76561199053114167,"connected_time":613000000000,"state":"active","ping":81},{"user_id":537,"name":"‚ô´‚òÖXriasp‚òÖ‚ô´","steam_id":76561198104721321,"connected_time":729000000000,"state":"active","ping":75},{"user_id":490,"name":"rob","steam_id":76561198122211848,"connected_time":3247000000000,"state":"active","ping":122},{"user_id":512,"name":"Renolox","steam_id":76561198036590182,"connected_time":2343000000000,"state":"active","ping":69},{"user_id":535,"name":"M4R1O","steam_id":76561198050528464,"connected_time":835000000000,"state":"active","ping":60},{"user_id":533,"name":"Great recession of 2008","steam_id":76561198881151562,"connected_time":1121000000000,"state":"active","ping":97}]},{"server_id":110,"name":"Uncletopia | Frankfurt | 2 | All Maps","name_short":"frk-2","host":"frk-1.de.uncletopia.com","port":27025,"enabled":true,"region":"eu","cc":"de","latitude":50.110924,"longitude":8.682127,"reserved":0,"last_update":"0001-01-01T00:00:00Z","name_a2s":"Uncletopia | Frankfurt | 2 | All Maps","protocol":17,"map":"koth_lakeside_final","folder":"tf","game":"Team Fortress","app_id":440,"player_count":0,"max_players":24,"Bots":0,"server_type":"Dedicated","server_os":"Linux","password":true,"vac":true,"version":"7757534","steam_id":85568392924469990,"keywords":["cp","nocrits","nodmgspread","uncletopia"],"game_id":440,"stv_port":27026,"stv_name":"Uncletopia | Frankfurt | 2 | All Maps | STV","players":null},{"server_id":308,"name":"Uncletopia | Frankfurt | 3 | All Maps","name_short":"frk-3","host":"frk-1.de.uncletopia.com","port":27035,"enabled":true,"region":"eu","cc":"de","latitude":50.110924,"longitude":8.682127,"reserved":0,"last_update":"0001-01-01T00:00:00Z","name_a2s":"Uncletopia | Frankfurt | 3 | All Maps","protocol":17,"map":"koth_lakeside_final","folder":"tf","game":"Team Fortress","app_id":440,"player_count":23,"max_players":24,"Bots":0,"server_type":"Dedicated","server_os":"Linux","password":true,"vac":true,"version":"7757534","steam_id":85568392924504274,"keywords":["cp","nocrits","nodmgspread","uncletopia"],"game_id":440,"stv_port":27036,"stv_name":"Uncletopia | Frankfurt | 3 | All Maps | STV","players":[{"user_id":264,"name":"just do it","steam_id":76561199052690012,"connected_time":927000000000,"state":"active","ping":112},{"user_id":256,"name":"Filleman","steam_id":76561198159386946,"connected_time":1489000000000,"state":"active","ping":61},{"user_id":257,"name":"Petight","steam_id":76561197999438798,"connected_time":1447000000000,"state":"active","ping":45},{"user_id":290,"name":"local man","steam_id":76561198004303915,"connected_time":24000000000,"state":"active","ping":105},{"user_id":282,"name":"chrome","steam_id":76561199097209739,"connected_time":278000000000,"state":"active","ping":105},{"user_id":260,"name":"J005KE","steam_id":76561198815127418,"connected_time":1213000000000,"state":"active","ping":88},{"user_id":261,"name":"Faucheur51","steam_id":76561198857596658,"connected_time":1185000000000,"state":"active","ping":61},{"user_id":272,"name":"IWantSomeMore","steam_id":76561198318673581,"connected_time":678000000000,"state":"active","ping":137},{"user_id":287,"name":"trolley","steam_id":76561199089765404,"connected_time":121000000000,"state":"active","ping":64},{"user_id":276,"name":"Parapluie","steam_id":76561197971640301,"connected_time":476000000000,"state":"active","ping":51},{"user_id":288,"name":"Sputnik","steam_id":76561198138660241,"connected_time":90000000000,"state":"active","ping":75},{"user_id":269,"name":"N√∂tig","steam_id":76561198150158285,"connected_time":754000000000,"state":"active","ping":74},{"user_id":274,"name":"misky","steam_id":76561198179070173,"connected_time":592000000000,"state":"active","ping":46},{"user_id":275,"name":"Dzan50","steam_id":76561198059758591,"connected_time":525000000000,"state":"active","ping":94},{"user_id":279,"name":"Chill Spirit","steam_id":76561198845001725,"connected_time":403000000000,"state":"active","ping":45},{"user_id":280,"name":"Okuu","steam_id":76561198093035602,"connected_time":389000000000,"state":"active","ping":55},{"user_id":281,"name":"Cheayan219","steam_id":76561199087845015,"connected_time":377000000000,"state":"active","ping":150},{"user_id":286,"name":"EEEEEH","steam_id":76561198126717413,"connected_time":158000000000,"state":"active","ping":82},{"user_id":289,"name":"DinBin","steam_id":76561198801591466,"connected_time":64000000000,"state":"active","ping":107},{"user_id":285,"name":"ger√∂steteK√ºrbiskerne","steam_id":76561198077484975,"connected_time":220000000000,"state":"active","ping":62},{"user_id":291,"name":"Paul B√§umer","steam_id":76561198308302932,"connected_time":17000000000,"state":"spawning","ping":104},{"user_id":292,"name":"phroggiie ‚ô•","steam_id":76561198307368616,"connected_time":8000000000,"state":"spawning","ping":65},{"user_id":293,"name":"dIT_TIb","steam_id":76561198095698655,"connected_time":0,"state":"connecting","ping":0}]},{"server_id":309,"name":"Uncletopia | Frankfurt | 4 | All Maps","name_short":"frk-4","host":"frk-1.de.uncletopia.com","port":27045,"enabled":true,"region":"eu","cc":"de","latitude":50.110924,"longitude":8.682127,"reserved":0,"last_update":"0001-01-01T00:00:00Z","name_a2s":"Uncletopia | Frankfurt | 4 | All Maps","protocol":17,"map":"pl_badwater","folder":"tf","game":"Team Fortress","app_id":440,"player_count":24,"max_players":24,"Bots":0,"server_type":"Dedicated","server_os":"Linux","password":true,"vac":true,"version":"7757534","steam_id":85568392924504275,"keywords":["nocrits","nodmgspread","payload","uncletopia"],"game_id":440,"stv_port":27046,"stv_name":"Uncletopia | Frankfurt | 4 | All Maps | STV","players":[{"user_id":133,"name":"Kestrel","steam_id":76561198144033005,"connected_time":371000000000,"state":"active","ping":61},{"user_id":128,"name":"piotrpiotrek003","steam_id":76561199029189261,"connected_time":1046000000000,"state":"active","ping":71},{"user_id":120,"name":"KILL","steam_id":76561198436817109,"connected_time":1441000000000,"state":"active","ping":70},{"user_id":124,"name":"xd","steam_id":76561198066523881,"connected_time":1299000000000,"state":"active","ping":56},{"user_id":130,"name":"Nethesda","steam_id":76561198055365234,"connected_time":733000000000,"state":"active","ping":80},{"user_id":117,"name":"Adrenaline","steam_id":76561197970852048,"connected_time":1473000000000,"state":"active","ping":61},{"user_id":75,"name":"galaxy","steam_id":76561198164819022,"connected_time":3320000000000,"state":"active","ping":68},{"user_id":126,"name":"Peter Cipher","steam_id":76561198078944963,"connected_time":1190000000000,"state":"active","ping":60},{"user_id":132,"name":"moody blues","steam_id":76561198444036574,"connected_time":456000000000,"state":"active","ping":61},{"user_id":95,"name":"Proto-arc","steam_id":76561198012776747,"connected_time":2646000000000,"state":"active","ping":60},{"user_id":76,"name":"justin_ (f2p) (real)","steam_id":76561198839843428,"connected_time":3316000000000,"state":"active","ping":123},{"user_id":52,"name":"Dozer","steam_id":76561197998742338,"connected_time":3750000000000,"state":"active","ping":67},{"user_id":134,"name":"Bobirulez","steam_id":76561198009125458,"connected_time":221000000000,"state":"active","ping":74},{"user_id":121,"name":"Kek meister 8 mil","steam_id":76561197989904384,"connected_time":1368000000000,"state":"active","ping":68},{"user_id":112,"name":"Deacon Dracul","steam_id":76561198046880663,"connected_time":2012000000000,"state":"active","ping":101},{"user_id":92,"name":"a Regurar Barroon","steam_id":76561198834913692,"connected_time":2843000000000,"state":"active","ping":73},{"user_id":96,"name":"Carrot Arc","steam_id":76561198164957006,"connected_time":2633000000000,"state":"active","ping":89},{"user_id":125,"name":"Joking Julz","steam_id":76561198020746298,"connected_time":1236000000000,"state":"active","ping":65},{"user_id":127,"name":"RadialMount","steam_id":76561198063002562,"connected_time":1082000000000,"state":"active","ping":56},{"user_id":61,"name":"k","steam_id":76561198089342103,"connected_time":3645000000000,"state":"active","ping":83},{"user_id":81,"name":"Rusty Shackleford","steam_id":76561198069226593,"connected_time":3285000000000,"state":"active","ping":57},{"user_id":82,"name":"Atypical‚ô±Rila","steam_id":76561198244277732,"connected_time":3277000000000,"state":"active","ping":59},{"user_id":97,"name":"Gio'sMonkey","steam_id":76561198892432223,"connected_time":2587000000000,"state":"active","ping":82},{"user_id":136,"name":"addicted","steam_id":76561199129801006,"connected_time":199000000000,"state":"active","ping":54}]},{"server_id":310,"name":"Uncletopia | Frankfurt | 5 | All Maps","name_short":"frk-5","host":"frk-1.de.uncletopia.com","port":27055,"enabled":true,"region":"eu","cc":"de","latitude":50.110924,"longitude":8.682127,"reserved":0,"last_update":"0001-01-01T00:00:00Z","name_a2s":"Uncletopia | Frankfurt | 5 | All Maps","protocol":17,"map":"koth_highpass","folder":"tf","game":"Team Fortress","app_id":440,"player_count":0,"max_players":24,"Bots":0,"server_type":"Dedicated","server_os":"Linux","password":true,"vac":true,"version":"7757534","steam_id":85568392924504277,"keywords":["cp","nocrits","nodmgspread","uncletopia"],"game_id":440,"stv_port":27056,"stv_name":"Uncletopia | Frankfurt | 5 | All Maps | STV","players":null},{"server_id":311,"name":"Uncletopia | Frankfurt | 6 | All Maps","name_short":"frk-6","host":"frk-1.de.uncletopia.com","port":27065,"enabled":true,"region":"eu","cc":"de","latitude":50.110924,"longitude":8.682127,"reserved":0,"last_update":"0001-01-01T00:00:00Z","name_a2s":"Uncletopia | Frankfurt | 6 | All Maps","protocol":17,"map":"pl_barnblitz","folder":"tf","game":"Team Fortress","app_id":440,"player_count":24,"max_players":24,"Bots":0,"server_type":"Dedicated","server_os":"Linux","password":true,"vac":true,"version":"7757534","steam_id":85568392924504278,"keywords":["nocrits","nodmgspread","payload","uncletopia"],"game_id":440,"stv_port":27066,"stv_name":"Uncletopia | Frankfurt | 6 | All Maps | STV","players":[{"user_id":86,"name":"Piteras","steam_id":76561198858532207,"connected_time":54000000000,"state":"active","ping":73},{"user_id":79,"name":"Ansari","steam_id":76561198074982971,"connected_time":562000000000,"state":"active","ping":49},{"user_id":25,"name":"antlionguard","steam_id":76561198072747143,"connected_time":2767000000000,"state":"active","ping":87},{"user_id":85,"name":"ScarredPixel123","steam_id":76561199165112703,"connected_time":106000000000,"state":"active","ping":77},{"user_id":84,"name":"Pepegi","steam_id":76561198001230113,"connected_time":149000000000,"state":"active","ping":77},{"user_id":83,"name":"Tobb_Harvard","steam_id":76561199222100485,"connected_time":207000000000,"state":"active","ping":76},{"user_id":65,"name":"Zombi3","steam_id":76561198326290621,"connected_time":1405000000000,"state":"active","ping":70},{"user_id":80,"name":"A 7/4 Time Signature (SWTZR)","steam_id":76561198049823315,"connected_time":441000000000,"state":"active","ping":93},{"user_id":49,"name":"cat (they/them)","steam_id":76561198416657815,"connected_time":1822000000000,"state":"active","ping":101},{"user_id":70,"name":"moser23","steam_id":76561197960543171,"connected_time":767000000000,"state":"active","ping":49},{"user_id":36,"name":"Datenegassie","steam_id":76561198089417032,"connected_time":2309000000000,"state":"active","ping":68},{"user_id":51,"name":"teddyswk","steam_id":76561198404939571,"connected_time":1764000000000,"state":"active","ping":143},{"user_id":52,"name":"Robin BPR","steam_id":76561198433123666,"connected_time":1764000000000,"state":"active","ping":107},{"user_id":71,"name":"ricorno","steam_id":76561199441603388,"connected_time":766000000000,"state":"active","ping":109},{"user_id":54,"name":"T K","steam_id":76561198134256917,"connected_time":1731000000000,"state":"active","ping":66},{"user_id":77,"name":"X45Y","steam_id":76561198112534025,"connected_time":647000000000,"state":"active","ping":45},{"user_id":57,"name":"Eggcracker","steam_id":76561199274850641,"connected_time":1685000000000,"state":"active","ping":85},{"user_id":58,"name":"–î–∂–æ–∫–µ—Ä –õ–ù–†","steam_id":76561198983721537,"connected_time":1673000000000,"state":"active","ping":62},{"user_id":59,"name":"Batman DNR","steam_id":76561199004923871,"connected_time":1670000000000,"state":"active","ping":90},{"user_id":87,"name":"jovi_","steam_id":76561198449280552,"connected_time":43000000000,"state":"active","ping":67},{"user_id":88,"name":"nailbxmb98","steam_id":76561199131463997,"connected_time":12000000000,"state":"spawning","ping":219},{"user_id":66,"name":"Thors","steam_id":76561197968739075,"connected_time":1368000000000,"state":"active","ping":53},{"user_id":63,"name":"vadim_kotler","steam_id":76561199016634369,"connected_time":1625000000000,"state":"active","ping":107},{"user_id":68,"name":"üòà COCKDESTROYER üòà","steam_id":76561198042846999,"connected_time":1066000000000,"state":"active","ping":74}]},{"server_id":23,"name":"Uncletopia | Frankfurt | 7 | Stopwatch Beta","name_short":"frk-7","host":"frk-1.de.uncletopia.com","port":27075,"enabled":true,"region":"eu","cc":"de","latitude":50.110924,"longitude":8.682127,"reserved":0,"last_update":"0001-01-01T00:00:00Z","name_a2s":"Uncletopia | Frankfurt | 7 | Stopwatch Beta","protocol":17,"map":"koth_highpass","folder":"tf","game":"Team Fortress","app_id":440,"player_count":0,"max_players":24,"Bots":0,"server_type":"Dedicated","server_os":"Linux","password":true,"vac":true,"version":"7757534","steam_id":85568392924742827,"keywords":["cp","nocrits","nodmgspread","uncletopia"],"game_id":440,"stv_port":27076,"stv_name":"Uncletopia | Frankfurt | 7 | Stopwatch Beta | STV","players":null},{"server_id":24,"name":"Uncletopia | Frankfurt | 8 | Community","name_short":"frk-8","host":"frk-1.de.uncletopia.com","port":27085,"enabled":true,"region":"eu","cc":"de","latitude":50.110924,"longitude":8.682127,"reserved":0,"last_update":"0001-01-01T00:00:00Z","name_a2s":"Uncletopia | Frankfurt | 8 | Community","protocol":17,"map":"workshop/koth_product_final.ugc454272353","folder":"tf","game":"Team Fortress","app_id":440,"player_count":0,"max_players":24,"Bots":0,"server_type":"Dedicated","server_os":"Linux","password":true,"vac":true,"version":"7757534","steam_id":85568392924742828,"keywords":["cp","nocrits","nodmgspread","uncletopia"],"game_id":440,"stv_port":27086,"stv_name":"Uncletopia | Frankfurt | 8 | Community | STV","players":null},{"server_id":202,"name":"Uncletopia | Hong Kong | 1 | All Maps","name_short":"hgk-1","host":"hgk-1.hk.uncletopia.com","port":27015,"enabled":true,"region":"asia","cc":"hk","latitude":22.302711,"longitude":114.177216,"reserved":0,"last_update":"0001-01-01T00:00:00Z","name_a2s":"Uncletopia | Hong Kong | 1 | All Maps","protocol":17,"map":"cp_process_final","folder":"tf","game":"Team Fortress","app_id":440,"player_count":0,"max_players":24,"Bots":0,"server_type":"Dedicated","server_os":"Linux","password":true,"vac":true,"version":"7757534","steam_id":85568392924494504,"keywords":["cp","nocrits","nodmgspread","uncletopia"],"game_id":440,"stv_port":27016,"stv_name":"Uncletopia | Hong Kong | 1 | All Maps | STV","players":null},{"server_id":1,"name":"Uncletopia | Los Angeles | 1 | All Maps","name_short":"lax-1","host":"lax-1.us.uncletopia.com","port":27015,"enabled":true,"region":"us-west","cc":"us","latitude":33.94279,"longitude":-118.41004,"reserved":0,"last_update":"0001-01-01T00:00:00Z","name_a2s":"Uncletopia | Los Angeles | 1 | All Maps","protocol":17,"map":"cp_snakewater_final1","folder":"tf","game":"Team Fortress","app_id":440,"player_count":0,"max_players":24,"Bots":0,"server_type":"Dedicated","server_os":"Linux","password":true,"vac":true,"version":"7757534","steam_id":85568392924469991,"keywords":["cp","nocrits","nodmgspread","uncletopia"],"game_id":440,"stv_port":27016,"stv_name":"Uncletopia | Los Angeles | 1 | All Maps | STV","players":null},{"server_id":112,"name":"Uncletopia | Los Angeles | 2 | All Maps","name_short":"lax-2","host":"lax-1.us.uncletopia.com","port":27025,"enabled":true,"region":"us-west","cc":"us","latitude":33.94279,"longitude":-118.41004,"reserved":0,"last_update":"0001-01-01T00:00:00Z","name_a2s":"Uncletopia | Los Angeles | 2 | All Maps","protocol":17,"map":"koth_viaduct","folder":"tf","game":"Team Fortress","app_id":440,"player_count":0,"max_players":24,"Bots":0,"server_type":"Dedicated","server_os":"Linux","password":true,"vac":true,"version":"7757534","steam_id":85568392924469992,"keywords":["cp","nocrits","nodmgspread","uncletopia"],"game_id":440,"stv_port":27026,"stv_name":"Uncletopia | Los Angeles | 2 | All Maps | STV","players":null},{"server_id":324,"name":"Uncletopia | Los Angeles | 3 | All Maps","name_short":"lax-3","host":"lax-1.us.uncletopia.com","port":27035,"enabled":true,"region":"us-west","cc":"us","latitude":33.94279,"longitude":-118.41004,"reserved":0,"last_update":"0001-01-01T00:00:00Z","name_a2s":"Uncletopia | Los Angeles | 3 | All Maps","protocol":17,"map":"cp_altitude","folder":"tf","game":"Team Fortress","app_id":440,"player_count":0,"max_players":24,"Bots":0,"server_type":"Dedicated","server_os":"Linux","password":true,"vac":true,"version":"7757534","steam_id":85568392924510198,"keywords":["cp","nocrits","nodmgspread","uncletopia"],"game_id":440,"stv_port":27036,"stv_name":"Uncletopia | Los Angeles | 3 | All Maps | STV","players":null},{"server_id":25,"name":"Uncletopia | Los Angeles | 4 | Stopwatch Beta","name_short":"lax-4","host":"lax-1.us.uncletopia.com","port":27045,"enabled":true,"region":"us-west","cc":"us","latitude":33.94279,"longitude":-118.41004,"reserved":0,"last_update":"0001-01-01T00:00:00Z","name_a2s":"Uncletopia | Los Angeles | 4 | Stopwatch Beta","protocol":17,"map":"cp_dustbowl","folder":"tf","game":"Team Fortress","app_id":440,"player_count":0,"max_players":24,"Bots":0,"server_type":"Dedicated","server_os":"Linux","password":true,"vac":true,"version":"7757534","steam_id":85568392924510199,"keywords":["cp","nocrits","nodmgspread","uncletopia"],"game_id":440,"stv_port":27046,"stv_name":"Uncletopia | Los Angeles | 4 | Stopwatch Beta | STV","players":null},{"server_id":11,"name":"Uncletopia | London | 1 | All Maps","name_short":"lon-1","host":"lon-1.uk.uncletopia.com","port":27015,"enabled":true,"region":"eu","cc":"gb","latitude":51.509865,"longitude":-0.118092,"reserved":0,"last_update":"0001-01-01T00:00:00Z","name_a2s":"Uncletopia | London | 1 | All Maps","protocol":17,"map":"pl_snowycoast","folder":"tf","game":"Team Fortress","app_id":440,"player_count":24,"max_players":24,"Bots":0,"server_type":"Dedicated","server_os":"Linux","password":true,"vac":true,"version":"7757534","steam_id":85568392924367362,"keywords":["nocrits","nodmgspread","payload","uncletopia"],"game_id":440,"stv_port":27016,"stv_name":"Uncletopia | London | 1 | All Maps | STV","players":[{"user_id":514,"name":"shaidai (she/her)","steam_id":76561199215168925,"connected_time":228000000000,"state":"active","ping":63},{"user_id":510,"name":"alma","steam_id":76561198857712172,"connected_time":888000000000,"state":"active","ping":52},{"user_id":507,"name":"JOHN GAMING (based)","steam_id":76561199085822219,"connected_time":1156000000000,"state":"active","ping":82},{"user_id":493,"name":"New","steam_id":76561198402195911,"connected_time":2492000000000,"state":"active","ping":120},{"user_id":470,"name":"SKFBoge","steam_id":76561198269038278,"connected_time":4369000000000,"state":"active","ping":80},{"user_id":474,"name":"Solymr ibn Wali Barad","steam_id":76561198044008976,"connected_time":4102000000000,"state":"active","ping":62},{"user_id":416,"name":"dane uncle","steam_id":76561199374351531,"connected_time":6956000000000,"state":"active","ping":59},{"user_id":497,"name":"wasto-/-‚Ñ¢","steam_id":76561198102888038,"connected_time":2107000000000,"state":"active","ping":59},{"user_id":439,"name":"Raymus","steam_id":76561198021330407,"connected_time":5036000000000,"state":"active","ping":55},{"user_id":515,"name":"Pingutaro","steam_id":76561198112803718,"connected_time":200000000000,"state":"active","ping":50},{"user_id":506,"name":"Daddy Myers","steam_id":76561198206971777,"connected_time":1311000000000,"state":"active","ping":76},{"user_id":516,"name":"Sm0k3","steam_id":76561198046396310,"connected_time":195000000000,"state":"active","ping":77},{"user_id":517,"name":"Littleyoshifan","steam_id":76561198445491045,"connected_time":185000000000,"state":"active","ping":44},{"user_id":518,"name":"Explosive_kink","steam_id":76561198998702838,"connected_time":128000000000,"state":"active","ping":59},{"user_id":499,"name":"‚éù‚ßπpolar_bear‚ß∏‚é†","steam_id":76561198409154467,"connected_time":2075000000000,"state":"active","ping":189},{"user_id":519,"name":"sv_opor 13123","steam_id":76561198002229612,"connected_time":109000000000,"state":"active","ping":85},{"user_id":482,"name":"Over here saw bones","steam_id":76561198320506848,"connected_time":3364000000000,"state":"active","ping":41},{"user_id":500,"name":"scarecrowshelper","steam_id":76561198072260553,"connected_time":2074000000000,"state":"active","ping":60},{"user_id":477,"name":"Gustavo Fring","steam_id":76561198080764989,"connected_time":3573000000000,"state":"active","ping":62},{"user_id":503,"name":"sriracha..","steam_id":76561198005560221,"connected_time":1920000000000,"state":"active","ping":121},{"user_id":473,"name":"Caerot","steam_id":76561198839000676,"connected_time":4192000000000,"state":"spawning","ping":79},{"user_id":496,"name":"Jamie","steam_id":76561198007043853,"connected_time":2189000000000,"state":"active","ping":65},{"user_id":508,"name":"Nebe0","steam_id":76561199133770186,"connected_time":1086000000000,"state":"active","ping":161},{"user_id":512,"name":"Katie","steam_id":76561198056193753,"connected_time":715000000000,"state":"active","ping":52}]},{"server_id":114,"name":"Uncletopia | London | 2 | All Maps","name_short":"lon-2","host":"lon-1.uk.uncletopia.com","port":27025,"enabled":true,"region":"eu","cc":"gb","latitude":51.509865,"longitude":-0.118092,"reserved":0,"last_update":"0001-01-01T00:00:00Z","name_a2s":"Uncletopia | London | 2 | All Maps","protocol":17,"map":"pl_swiftwater_final1","folder":"tf","game":"Team Fortress","app_id":440,"player_count":24,"max_players":24,"Bots":0,"server_type":"Dedicated","server_os":"Linux","password":true,"vac":true,"version":"7757534","steam_id":85568392924470941,"keywords":["nocrits","nodmgspread","payload","uncletopia"],"game_id":440,"stv_port":27026,"stv_name":"Uncletopia | London | 2 | All Maps | STV","players":[{"user_id":676,"name":"Nifi","steam_id":76561198102682566,"connected_time":6321000000000,"state":"active","ping":75},{"user_id":701,"name":"ghost","steam_id":76561198189940229,"connected_time":5004000000000,"state":"active","ping":58},{"user_id":754,"name":"Maestro_69","steam_id":76561199153246582,"connected_time":326000000000,"state":"active","ping":116},{"user_id":748,"name":"Max Andrew","steam_id":76561198158955194,"connected_time":674000000000,"state":"active","ping":72},{"user_id":737,"name":"gibb (official)","steam_id":76561198074097655,"connected_time":1809000000000,"state":"active","ping":41},{"user_id":755,"name":"‚ò© Knightz ‚ò©","steam_id":76561198040936414,"connected_time":325000000000,"state":"active","ping":110},{"user_id":753,"name":"LarsInABox","steam_id":76561198028329262,"connected_time":348000000000,"state":"active","ping":70},{"user_id":742,"name":"Pestdoktor","steam_id":76561198058159271,"connected_time":1471000000000,"state":"active","ping":72},{"user_id":739,"name":"alshep00","steam_id":76561198079585198,"connected_time":1798000000000,"state":"active","ping":56},{"user_id":727,"name":"Sarah Obama Michella","steam_id":76561198078996559,"connected_time":3128000000000,"state":"active","ping":84},{"user_id":756,"name":"Archer","steam_id":76561198132860299,"connected_time":316000000000,"state":"active","ping":57},{"user_id":740,"name":"gabagool","steam_id":76561198307111838,"connected_time":1794000000000,"state":"active","ping":45},{"user_id":757,"name":"mumbler","steam_id":76561197970641239,"connected_time":314000000000,"state":"active","ping":75},{"user_id":761,"name":"CarBombEnthusiast","steam_id":76561199448185434,"connected_time":166000000000,"state":"active","ping":70},{"user_id":744,"name":"‚ô¨ ·¥õ·¥á·¥ã…™·¥õ ‚ô¨","steam_id":76561198111704722,"connected_time":1001000000000,"state":"active","ping":103},{"user_id":752,"name":"Kris","steam_id":76561198240638652,"connected_time":355000000000,"state":"active","ping":45},{"user_id":639,"name":"Serton‚ôù","steam_id":76561198011061126,"connected_time":8778000000000,"state":"active","ping":75},{"user_id":751,"name":"Dr.Sees [F2P]","steam_id":76561199219233587,"connected_time":497000000000,"state":"active","ping":78},{"user_id":580,"name":"EdSuedi","steam_id":76561199387956486,"connected_time":11658000000000,"state":"active","ping":60},{"user_id":747,"name":"roygbiv","steam_id":76561198344281978,"connected_time":693000000000,"state":"active","ping":50},{"user_id":763,"name":"Topia","steam_id":76561198163571788,"connected_time":29000000000,"state":"active","ping":106},{"user_id":710,"name":"Sloneczku","steam_id":76561198032886890,"connected_time":4032000000000,"state":"active","ping":90},{"user_id":674,"name":"‚ú™ qua ‚ú™","steam_id":76561198066408333,"connected_time":6416000000000,"state":"active","ping":89},{"user_id":760,"name":"poliakov.noam","steam_id":76561199259322961,"connected_time":291000000000,"state":"active","ping":106}]},{"server_id":320,"name":"Uncletopia | London | 3 | All Maps","name_short":"lon-3","host":"lon-1.uk.uncletopia.com","port":27035,"enabled":true,"region":"eu","cc":"gb","latitude":51.509865,"longitude":-0.118092,"reserved":0,"last_update":"0001-01-01T00:00:00Z","name_a2s":"Uncletopia | London | 3 | All Maps","protocol":17,"map":"koth_harvest_final","folder":"tf","game":"Team Fortress","app_id":440,"player_count":24,"max_players":24,"Bots":0,"server_type":"Dedicated","server_os":"Linux","password":true,"vac":true,"version":"7757534","steam_id":85568392924510192,"keywords":["cp","nocrits","nodmgspread","uncletopia"],"game_id":440,"stv_port":27036,"stv_name":"Uncletopia | London | 3 | All Maps | STV","players":[{"user_id":353,"name":"Ross from F.R.I.E.N.D.S.","steam_id":76561198008511665,"connected_time":5947000000000,"state":"active","ping":54},{"user_id":422,"name":"Dill Killem","steam_id":76561199071571354,"connected_time":1148000000000,"state":"active","ping":79},{"user_id":393,"name":"British Disapproval","steam_id":76561198001375260,"connected_time":3043000000000,"state":"active","ping":66},{"user_id":411,"name":"Solarium","steam_id":76561198083941858,"connected_time":1961000000000,"state":"active","ping":42},{"user_id":425,"name":"Gonubax","steam_id":76561198192843133,"connected_time":606000000000,"state":"active","ping":60},{"user_id":408,"name":"fleants","steam_id":76561198085416641,"connected_time":1987000000000,"state":"active","ping":114},{"user_id":419,"name":"‚ú™ Danny","steam_id":76561198104483241,"connected_time":1286000000000,"state":"active","ping":49},{"user_id":429,"name":"FUKTARD2005","steam_id":76561198839121591,"connected_time":140000000000,"state":"active","ping":61},{"user_id":430,"name":"Charrky","steam_id":76561198054398642,"connected_time":111000000000,"state":"active","ping":60},{"user_id":401,"name":"Dorich","steam_id":76561198287126217,"connected_time":2728000000000,"state":"active","ping":68},{"user_id":420,"name":"FreeMarket","steam_id":76561198029916416,"connected_time":1255000000000,"state":"active","ping":71},{"user_id":402,"name":"Ash","steam_id":76561198110133179,"connected_time":2406000000000,"state":"active","ping":53},{"user_id":426,"name":"MitzoAtlas","steam_id":76561198160890702,"connected_time":342000000000,"state":"active","ping":119},{"user_id":432,"name":"Menace activities","steam_id":76561198328805441,"connected_time":58000000000,"state":"active","ping":116},{"user_id":327,"name":"Lyra","steam_id":76561198043601838,"connected_time":7218000000000,"state":"active","ping":75},{"user_id":338,"name":"boot kla","steam_id":76561198106049954,"connected_time":6871000000000,"state":"active","ping":87},{"user_id":364,"name":"Smiffsmiffwild3","steam_id":76561199097073780,"connected_time":5373000000000,"state":"active","ping":79},{"user_id":431,"name":"‚òûLaZe‚òú","steam_id":76561198202191400,"connected_time":97000000000,"state":"active","ping":59},{"user_id":329,"name":"i make you my b*tch","steam_id":76561198190583242,"connected_time":7211000000000,"state":"active","ping":81},{"user_id":417,"name":"Vladimir Chirgin","steam_id":76561198170035235,"connected_time":1686000000000,"state":"active","ping":136},{"user_id":330,"name":"Waltcha","steam_id":76561198007691468,"connected_time":7207000000000,"state":"active","ping":65},{"user_id":418,"name":"Vershal Smershal","steam_id":76561198116223995,"connected_time":1372000000000,"state":"active","ping":53},{"user_id":339,"name":"d00bie","steam_id":76561198025295218,"connected_time":6785000000000,"state":"active","ping":71},{"user_id":389,"name":"V","steam_id":76561199006462039,"connected_time":3166000000000,"state":"active","ping":65}]},{"server_id":321,"name":"Uncletopia | London | 4 | All Maps","name_short":"lon-4","host":"lon-1.uk.uncletopia.com","port":27045,"enabled":true,"region":"eu","cc":"gb","latitude":51.509865,"longitude":-0.118092,"reserved":0,"last_update":"0001-01-01T00:00:00Z","name_a2s":"Uncletopia | London | 4 | All Maps","protocol":17,"map":"pl_swiftwater_final1","folder":"tf","game":"Team Fortress","app_id":440,"player_count":14,"max_players":24,"Bots":0,"server_type":"Dedicated","server_os":"Linux","password":true,"vac":true,"version":"7757534","steam_id":85568392924510193,"keywords":["nocrits","nodmgspread","payload","uncletopia"],"game_id":440,"stv_port":27046,"stv_name":"Uncletopia | London | 4 | All Maps | STV","players":[{"user_id":642,"name":"Syd","steam_id":76561198020515027,"connected_time":34000000000,"state":"active","ping":74},{"user_id":606,"name":"After8","steam_id":76561198090750865,"connected_time":2521000000000,"state":"active","ping":74},{"user_id":627,"name":"Anonymous47007","steam_id":76561199005211417,"connected_time":1097000000000,"state":"spawning","ping":82},{"user_id":637,"name":"‚û§ A H S O K A ‚û§","steam_id":76561198162074008,"connected_time":632000000000,"state":"active","ping":39},{"user_id":643,"name":"Ocra","steam_id":76561199085256400,"connected_time":29000000000,"state":"spawning","ping":500},{"user_id":615,"name":"d u k k i","steam_id":76561198071807437,"connected_time":1325000000000,"state":"spawning","ping":98},{"user_id":636,"name":"oh","steam_id":76561198284086634,"connected_time":854000000000,"state":"active","ping":59},{"user_id":613,"name":"Certified Hood pybro (ua)","steam_id":76561198970562699,"connected_time":1553000000000,"state":"active","ping":49},{"user_id":618,"name":"Ged","steam_id":76561198079288943,"connected_time":1268000000000,"state":"active","ping":143},{"user_id":628,"name":"Big Knoxy","steam_id":76561198291107227,"connected_time":1096000000000,"state":"active","ping":61},{"user_id":619,"name":"Kotlet schabowy","steam_id":76561198048983509,"connected_time":1267000000000,"state":"active","ping":81},{"user_id":638,"name":"Dolcelatte","steam_id":76561198038501770,"connected_time":625000000000,"state":"active","ping":60},{"user_id":609,"name":"nachtraaf","steam_id":76561197960473205,"connected_time":2435000000000,"state":"active","ping":58},{"user_id":610,"name":"masatin","steam_id":76561198044967818,"connected_time":2393000000000,"state":"active","ping":61}]},{"server_id":21,"name":"Uncletopia | London | 5 | All Maps","name_short":"lon-5","host":"lon-1.uk.uncletopia.com","port":27055,"enabled":true,"region":"eu","cc":"gb","latitude":51.509865,"longitude":-0.118092,"reserved":0,"last_update":"0001-01-01T00:00:00Z","name_a2s":"Uncletopia | London | 5 | All Maps","protocol":17,"map":"cp_steel","folder":"tf","game":"Team Fortress","app_id":440,"player_count":24,"max_players":24,"Bots":0,"server_type":"Dedicated","server_os":"Linux","password":true,"vac":true,"version":"7757534","steam_id":85568392924742829,"keywords":["cp","nocrits","nodmgspread","uncletopia"],"game_id":440,"stv_port":27056,"stv_name":"Uncletopia | London | 5 | All Maps | STV","players":[{"user_id":236,"name":"pfear","steam_id":76561197999207328,"connected_time":3154000000000,"state":"active","ping":90},{"user_id":271,"name":"lambrusco di sorbara","steam_id":76561198066071855,"connected_time":486000000000,"state":"active","ping":73},{"user_id":223,"name":"WAPtrick star","steam_id":76561198133532980,"connected_time":4833000000000,"state":"active","ping":48},{"user_id":269,"name":"Dragul","steam_id":76561198032885938,"connected_time":885000000000,"state":"active","ping":72},{"user_id":237,"name":"leonardini.w","steam_id":76561199097963071,"connected_time":3151000000000,"state":"active","ping":93},{"user_id":273,"name":"satire (f2p)","steam_id":76561199404665460,"connected_time":227000000000,"state":"active","ping":55},{"user_id":267,"name":"shrekus","steam_id":76561198186831205,"connected_time":908000000000,"state":"active","ping":90},{"user_id":277,"name":"not∆íreshprince","steam_id":76561198012239150,"connected_time":19000000000,"state":"active","ping":44},{"user_id":257,"name":"The Godmonkey","steam_id":76561198204670361,"connected_time":1184000000000,"state":"active","ping":98},{"user_id":224,"name":"Fat Pigeon","steam_id":76561198817940142,"connected_time":4824000000000,"state":"active","ping":46},{"user_id":258,"name":"Egor Pomidor","steam_id":76561199175688390,"connected_time":1126000000000,"state":"active","ping":82},{"user_id":230,"name":"Milca_11 [Wrench Aficionado]","steam_id":76561198848650365,"connected_time":4196000000000,"state":"active","ping":88},{"user_id":263,"name":"Nut With Potential","steam_id":76561198293297458,"connected_time":1042000000000,"state":"active","ping":71},{"user_id":245,"name":"plazma","steam_id":76561198886594048,"connected_time":2347000000000,"state":"active","ping":115},{"user_id":248,"name":"Ecton","steam_id":76561198025103720,"connected_time":2322000000000,"state":"active","ping":56},{"user_id":259,"name":"UnknownHero","steam_id":76561198864766392,"connected_time":1117000000000,"state":"active","ping":102},{"user_id":246,"name":"LoganMega","steam_id":76561199169420356,"connected_time":2337000000000,"state":"active","ping":88},{"user_id":250,"name":"Endi","steam_id":76561198914938199,"connected_time":2305000000000,"state":"active","ping":105},{"user_id":275,"name":"Harpenden, Harpenden, Harpenden","steam_id":76561198118138546,"connected_time":199000000000,"state":"active","ping":44},{"user_id":252,"name":"TJ1212","steam_id":76561199013575313,"connected_time":2289000000000,"state":"active","ping":73},{"user_id":272,"name":"randompixel","steam_id":76561198003941207,"connected_time":317000000000,"state":"active","ping":57},{"user_id":276,"name":"DooWooD","steam_id":76561198335810106,"connected_time":175000000000,"state":"active","ping":75},{"user_id":268,"name":"semplisimohome","steam_id":76561198019977257,"connected_time":903000000000,"state":"active","ping":99},{"user_id":278,"name":"the inventor of Sex, Pisslord","steam_id":76561198074624639,"connected_time":11000000000,"state":"spawning","ping":993}]},{"server_id":22,"name":"Uncletopia | London | 6 | All Maps","name_short":"lon-6","host":"lon-1.uk.uncletopia.com","port":27065,"enabled":true,"region":"eu","cc":"gb","latitude":51.509865,"longitude":-0.118092,"reserved":0,"last_update":"0001-01-01T00:00:00Z","name_a2s":"Uncletopia | London | 6 | All Maps","protocol":17,"map":"pl_thundermountain","folder":"tf","game":"Team Fortress","app_id":440,"player_count":24,"max_players":24,"Bots":0,"server_type":"Dedicated","server_os":"Linux","password":true,"vac":true,"version":"7757534","steam_id":85568392924742830,"keywords":["nocrits","nodmgspread","payload","uncletopia"],"game_id":440,"stv_port":27066,"stv_name":"Uncletopia | London | 6 | All Maps | STV","players":[{"user_id":541,"name":"fifionet","steam_id":76561198026618085,"connected_time":1575000000000,"state":"active","ping":89},{"user_id":554,"name":"MpJens","steam_id":76561198000347669,"connected_time":942000000000,"state":"active","ping":51},{"user_id":558,"name":"DumDum","steam_id":76561198836275186,"connected_time":822000000000,"state":"active","ping":80},{"user_id":563,"name":"jefe","steam_id":76561199380849468,"connected_time":460000000000,"state":"active","ping":61},{"user_id":514,"name":"reik","steam_id":76561198075239099,"connected_time":3101000000000,"state":"active","ping":68},{"user_id":559,"name":"row lft","steam_id":76561198053400769,"connected_time":812000000000,"state":"active","ping":47},{"user_id":560,"name":"F","steam_id":76561199149462792,"connected_time":760000000000,"state":"active","ping":66},{"user_id":565,"name":"FADe","steam_id":76561197960400908,"connected_time":392000000000,"state":"active","ping":44},{"user_id":566,"name":"HilldogGaming","steam_id":76561198082209322,"connected_time":385000000000,"state":"active","ping":85},{"user_id":549,"name":"GrzMik","steam_id":76561198061951968,"connected_time":1160000000000,"state":"active","ping":100},{"user_id":516,"name":"i am bread","steam_id":76561199180277321,"connected_time":2373000000000,"state":"active","ping":53},{"user_id":574,"name":"Baba Sraka","steam_id":76561198128292318,"connected_time":121000000000,"state":"active","ping":135},{"user_id":525,"name":"maslowski02","steam_id":76561199410835527,"connected_time":2042000000000,"state":"active","ping":93},{"user_id":575,"name":"Camo Leaf","steam_id":76561197999456575,"connected_time":28000000000,"state":"active","ping":49},{"user_id":568,"name":"stinkyshitass","steam_id":76561198816594501,"connected_time":298000000000,"state":"active","ping":80},{"user_id":569,"name":"hades","steam_id":76561199435854673,"connected_time":274000000000,"state":"active","ping":45},{"user_id":570,"name":"NitPig","steam_id":76561198212991935,"connected_time":264000000000,"state":"active","ping":106},{"user_id":539,"name":"Timber","steam_id":76561198024886009,"connected_time":1764000000000,"state":"active","ping":163},{"user_id":545,"name":"sex havin'","steam_id":76561198169857427,"connected_time":1336000000000,"state":"active","ping":71},{"user_id":542,"name":"***** ***","steam_id":76561198048037379,"connected_time":1538000000000,"state":"active","ping":85},{"user_id":571,"name":"gGABEsz","steam_id":76561198117199068,"connected_time":262000000000,"state":"active","ping":80},{"user_id":572,"name":"Hindmost","steam_id":76561199081837220,"connected_time":248000000000,"state":"active","ping":175},{"user_id":573,"name":"Riel","steam_id":76561198066017633,"connected_time":242000000000,"state":"active","ping":75},{"user_id":535,"name":"TryX","steam_id":76561199356781475,"connected_time":1876000000000,"state":"active","ping":85}]},{"server_id":40,"name":"Uncletopia | London | 7 | No Payload","name_short":"lon-7","host":"lon-1.uk.uncletopia.com","port":27075,"enabled":true,"region":"eu","cc":"gb","latitude":51.509865,"longitude":-0.118092,"reserved":0,"last_update":"0001-01-01T00:00:00Z","name_a2s":"Uncletopia | London | 7 | No Payload","protocol":17,"map":"koth_harvest_final","folder":"tf","game":"Team Fortress","app_id":440,"player_count":6,"max_players":24,"Bots":0,"server_type":"Dedicated","server_os":"Linux","password":true,"vac":true,"version":"7757534","steam_id":85568392924964314,"keywords":["cp","nocrits","nodmgspread","uncletopia"],"game_id":440,"stv_port":27076,"stv_name":"Uncletopia | London | 7 | No Payload | STV","players":[{"user_id":36,"name":"Pinkchup","steam_id":76561198106802803,"connected_time":1299000000000,"state":"active","ping":79},{"user_id":37,"name":"Minimi","steam_id":76561198873850443,"connected_time":1293000000000,"state":"active","ping":37},{"user_id":38,"name":"Kraiti","steam_id":76561198847296908,"connected_time":1285000000000,"state":"active","ping":79},{"user_id":40,"name":"AwterSix","steam_id":76561198042561678,"connected_time":237000000000,"state":"active","ping":58},{"user_id":41,"name":"ran is running","steam_id":76561199443185667,"connected_time":150000000000,"state":"active","ping":146},{"user_id":42,"name":"Warpzel65","steam_id":76561198799303596,"connected_time":47000000000,"state":"active","ping":104}]},{"server_id":41,"name":"Uncletopia | London | 8 | Community","name_short":"lon-8","host":"lon-1.uk.uncletopia.com","port":27085,"enabled":true,"region":"eu","cc":"gb","latitude":51.509865,"longitude":-0.118092,"reserved":0,"last_update":"0001-01-01T00:00:00Z","name_a2s":"Uncletopia | London | 8 | Community","protocol":17,"map":"workshop/pl_corrode_rc2.ugc546577989","folder":"tf","game":"Team Fortress","app_id":440,"player_count":24,"max_players":24,"Bots":0,"server_type":"Dedicated","server_os":"Linux","password":true,"vac":true,"version":"7757534","steam_id":85568392924964315,"keywords":["nocrits","nodmgspread","payload","uncletopia"],"game_id":440,"stv_port":27086,"stv_name":"Uncletopia | London | 8 | Community | STV","players":[{"user_id":151,"name":"Icetanker","steam_id":76561198094189764,"connected_time":895000000000,"state":"active","ping":47},{"user_id":124,"name":"Mr.Fosty","steam_id":76561198045212783,"connected_time":2647000000000,"state":"active","ping":80},{"user_id":168,"name":"Pablo.Fortnite.2011","steam_id":76561198259034983,"connected_time":477000000000,"state":"active","ping":71},{"user_id":131,"name":"Wenolainen","steam_id":76561198334592800,"connected_time":1902000000000,"state":"active","ping":94},{"user_id":132,"name":"The real Postal Dude","steam_id":76561198799097492,"connected_time":1734000000000,"state":"active","ping":48},{"user_id":164,"name":"Bleachy","steam_id":76561198101976229,"connected_time":638000000000,"state":"active","ping":62},{"user_id":167,"name":"wicked","steam_id":76561198164376035,"connected_time":544000000000,"state":"active","ping":76},{"user_id":153,"name":"silicon based life form","steam_id":76561199127121346,"connected_time":869000000000,"state":"active","ping":55},{"user_id":160,"name":"aGryphoN","steam_id":76561198245175308,"connected_time":788000000000,"state":"active","ping":66},{"user_id":161,"name":"JO√ÉO MIGUEL","steam_id":76561198066297489,"connected_time":750000000000,"state":"active","ping":71},{"user_id":146,"name":"Cerabond","steam_id":76561199230915333,"connected_time":1286000000000,"state":"active","ping":129},{"user_id":149,"name":"Paulo","steam_id":76561198001386978,"connected_time":995000000000,"state":"active","ping":53},{"user_id":157,"name":"Knife Boots Larry","steam_id":76561198021175465,"connected_time":826000000000,"state":"active","ping":94},{"user_id":135,"name":"Fr√∂gg-K√§t","steam_id":76561198263561004,"connected_time":1604000000000,"state":"active","ping":84},{"user_id":162,"name":"Michael","steam_id":76561198003146906,"connected_time":676000000000,"state":"active","ping":47},{"user_id":171,"name":"RAONICALIAS","steam_id":76561198847048146,"connected_time":190000000000,"state":"active","ping":65},{"user_id":80,"name":"B0r–µ–∞l","steam_id":76561198268369013,"connected_time":5219000000000,"state":"active","ping":86},{"user_id":163,"name":"NikodemosPL","steam_id":76561198271226975,"connected_time":676000000000,"state":"active","ping":130},{"user_id":123,"name":"MajorKlebstoff","steam_id":76561198035489363,"connected_time":2661000000000,"state":"active","ping":59},{"user_id":142,"name":"Kneh","steam_id":76561198121744739,"connected_time":1455000000000,"state":"active","ping":74},{"user_id":166,"name":"–°–Ω—é—Å–æ–µ–¥","steam_id":76561198835078059,"connected_time":600000000000,"state":"active","ping":114},{"user_id":140,"name":"Dr. Uberschwein","steam_id":76561198111367431,"connected_time":1473000000000,"state":"active","ping":68},{"user_id":141,"name":"Palettenbrett","steam_id":76561198124162943,"connected_time":1471000000000,"state":"active","ping":85},{"user_id":165,"name":"tj #MISSLADY","steam_id":76561198161926133,"connected_time":637000000000,"state":"active","ping":77}]},{"server_id":300,"name":"Uncletopia | Montr√©al | 1 | All Maps","name_short":"mtl-1","host":"mtl-1.ca.uncletopia.com","port":27015,"enabled":true,"region":"us-east","cc":"ca","latitude":45.50889,"longitude":-73.56167,"reserved":0,"last_update":"0001-01-01T00:00:00Z","name_a2s":"Uncletopia | Montr√©al | 1 | All Maps","protocol":17,"map":"pl_swiftwater_final1","folder":"tf","game":"Team Fortress","app_id":440,"player_count":23,"max_players":24,"Bots":0,"server_type":"Dedicated","server_os":"Linux","password":true,"vac":true,"version":"7757534","steam_id":85568392924500087,"keywords":["nocrits","nodmgspread","payload","uncletopia"],"game_id":440,"stv_port":27016,"stv_name":"Uncletopia | Montr√©al | 1 | All Maps | STV","players":[{"user_id":4,"name":"t.tv/stabslive","steam_id":76561198293116584,"connected_time":2012000000000,"state":"active","ping":77},{"user_id":40,"name":"a_person_159","steam_id":76561199024416326,"connected_time":0,"state":"spawning","ping":22},{"user_id":6,"name":"minion lover","steam_id":76561198202990635,"connected_time":1999000000000,"state":"active","ping":151},{"user_id":7,"name":"thomasdee725","steam_id":76561199189526173,"connected_time":1990000000000,"state":"active","ping":90},{"user_id":8,"name":"kebo","steam_id":76561198237159430,"connected_time":1989000000000,"state":"active","ping":131},{"user_id":9,"name":":]","steam_id":76561198271892201,"connected_time":1972000000000,"state":"active","ping":142},{"user_id":10,"name":"Jared In Target","steam_id":76561198372449718,"connected_time":1952000000000,"state":"active","ping":92},{"user_id":11,"name":"kyscout","steam_id":76561199097909603,"connected_time":1934000000000,"state":"active","ping":140},{"user_id":12,"name":"Gesetzen der G√∂tter leben","steam_id":76561198299604510,"connected_time":1920000000000,"state":"active","ping":55},{"user_id":31,"name":"Jikusen","steam_id":76561198143055842,"connected_time":1408000000000,"state":"active","ping":82},{"user_id":21,"name":"doctor sex md","steam_id":76561198150678175,"connected_time":1788000000000,"state":"active","ping":129},{"user_id":36,"name":"Jadthegamerofgames","steam_id":76561198310575719,"connected_time":879000000000,"state":"active","ping":44},{"user_id":19,"name":"Duo34","steam_id":76561198000464258,"connected_time":1826000000000,"state":"active","ping":81},{"user_id":20,"name":"Dictatorial Karelian","steam_id":76561198196736457,"connected_time":1797000000000,"state":"active","ping":170},{"user_id":23,"name":"Oganesson","steam_id":76561198334899723,"connected_time":1741000000000,"state":"active","ping":61},{"user_id":38,"name":"Kasane","steam_id":76561198209006780,"connected_time":590000000000,"state":"active","ping":107},{"user_id":25,"name":"uzr","steam_id":76561198799343084,"connected_time":1633000000000,"state":"active","ping":130},{"user_id":26,"name":"Pescavelho","steam_id":76561198267897588,"connected_time":1632000000000,"state":"active","ping":150},{"user_id":37,"name":"Testosteroblerone","steam_id":76561199031278496,"connected_time":878000000000,"state":"active","ping":97},{"user_id":28,"name":"Arbiter Soul","steam_id":76561198067798973,"connected_time":1587000000000,"state":"active","ping":139},{"user_id":35,"name":"Bernie Sanders","steam_id":76561199035800539,"connected_time":893000000000,"state":"active","ping":48},{"user_id":39,"name":"captain come on","steam_id":76561199090438928,"connected_time":520000000000,"state":"active","ping":75},{"user_id":34,"name":"lampshade","steam_id":76561199092140963,"connected_time":950000000000,"state":"active","ping":136}]},{"server_id":301,"name":"Uncletopia | Montr√©al | 2 | All Maps","name_short":"mtl-2","host":"mtl-1.ca.uncletopia.com","port":27025,"enabled":true,"region":"us-east","cc":"ca","latitude":45.50889,"longitude":-73.56167,"reserved":0,"last_update":"0001-01-01T00:00:00Z","name_a2s":"Uncletopia | Montr√©al | 2 | All Maps","protocol":17,"map":"cp_sunshine","folder":"tf","game":"Team Fortress","app_id":440,"player_count":0,"max_players":24,"Bots":0,"server_type":"Dedicated","server_os":"Linux","password":true,"vac":true,"version":"7757534","steam_id":85568392924500088,"keywords":["cp","nocrits","nodmgspread","uncletopia"],"game_id":440,"stv_port":27026,"stv_name":"Uncletopia | Montr√©al | 2 | All Maps | STV","players":null},{"server_id":302,"name":"Uncletopia | Montr√©al | 3 | All Maps","name_short":"mtl-3","host":"mtl-1.ca.uncletopia.com","port":27035,"enabled":true,"region":"us-east","cc":"ca","latitude":45.50889,"longitude":-73.56167,"reserved":0,"last_update":"0001-01-01T00:00:00Z","name_a2s":"Uncletopia | Montr√©al | 3 | All Maps","protocol":17,"map":"pl_frontier_final","folder":"tf","game":"Team Fortress","app_id":440,"player_count":0,"max_players":24,"Bots":0,"server_type":"Dedicated","server_os":"Linux","password":true,"vac":true,"version":"7757534","steam_id":85568392924500089,"keywords":["nocrits","nodmgspread","payload","uncletopia"],"game_id":440,"stv_port":27036,"stv_name":"Uncletopia | Montr√©al | 3 | All Maps | STV","players":null},{"server_id":303,"name":"Uncletopia | Montr√©al | 4 | No Payload","name_short":"mtl-4","host":"mtl-1.ca.uncletopia.com","port":27045,"enabled":true,"region":"us-east","cc":"ca","latitude":45.50889,"longitude":-73.56167,"reserved":0,"last_update":"0001-01-01T00:00:00Z","name_a2s":"Uncletopia | Montr√©al | 4 | No Payload","protocol":17,"map":"cp_well","folder":"tf","game":"Team Fortress","app_id":440,"player_count":0,"max_players":24,"Bots":0,"server_type":"Dedicated","server_os":"Linux","password":true,"vac":true,"version":"7757534","steam_id":85568392924500090,"keywords":["cp","nocrits","nodmgspread","uncletopia"],"game_id":440,"stv_port":27046,"stv_name":"Uncletopia | Montr√©al | 4 | No Payload | STV","players":null},{"server_id":13,"name":"Uncletopia | New York City | 1 | All Maps","name_short":"nyc-1","host":"nyc-1.us.uncletopia.com","port":27015,"enabled":true,"region":"us-east","cc":"us","latitude":40.73061,"longitude":-73.93524,"reserved":0,"last_update":"0001-01-01T00:00:00Z","name_a2s":"Uncletopia | New York City | 1 | All Maps","protocol":17,"map":"koth_harvest_final","folder":"tf","game":"Team Fortress","app_id":440,"player_count":24,"max_players":24,"Bots":0,"server_type":"Dedicated","server_os":"Linux","password":true,"vac":true,"version":"7757534","steam_id":85568392924469993,"keywords":["cp","nocrits","nodmgspread","uncletopia"],"game_id":440,"stv_port":27016,"stv_name":"Uncletopia | New York City | 1 | All Maps | STV","players":[{"user_id":206,"name":"Quaker Oats","steam_id":76561197992800293,"connected_time":1265000000000,"state":"active","ping":82},{"user_id":205,"name":"AFunkyPigeon","steam_id":76561199350099870,"connected_time":1362000000000,"state":"active","ping":96},{"user_id":222,"name":"rollsroycekibby","steam_id":76561198991982630,"connected_time":364000000000,"state":"active","ping":43},{"user_id":197,"name":"Gustavo_Banana","steam_id":76561198387866587,"connected_time":1557000000000,"state":"active","ping":172},{"user_id":225,"name":"hotline bling","steam_id":76561198984131011,"connected_time":152000000000,"state":"active","ping":70},{"user_id":187,"name":"Big ol' Willy Gaming","steam_id":76561198048545731,"connected_time":2587000000000,"state":"active","ping":109},{"user_id":188,"name":"I can't heal","steam_id":76561198039763676,"connected_time":2579000000000,"state":"active","ping":74},{"user_id":201,"name":"shokolad","steam_id":76561198431770137,"connected_time":1521000000000,"state":"active","ping":77},{"user_id":212,"name":"Ros","steam_id":76561199055963822,"connected_time":717000000000,"state":"active","ping":72},{"user_id":218,"name":"Asourcious","steam_id":76561198101635322,"connected_time":592000000000,"state":"active","ping":72},{"user_id":217,"name":"Enron Hubbard","steam_id":76561198012951411,"connected_time":612000000000,"state":"active","ping":75},{"user_id":208,"name":"mayoratheone","steam_id":76561199013353434,"connected_time":939000000000,"state":"active","ping":118},{"user_id":220,"name":"xen","steam_id":76561198048568188,"connected_time":391000000000,"state":"active","ping":45},{"user_id":219,"name":"Pockets","steam_id":76561198001742296,"connected_time":528000000000,"state":"active","ping":82},{"user_id":176,"name":"Lanky Kong","steam_id":76561198142455488,"connected_time":3494000000000,"state":"active","ping":46},{"user_id":224,"name":"Meth Goblin","steam_id":76561198086355221,"connected_time":288000000000,"state":"active","ping":97},{"user_id":200,"name":"Jackleg Joel","steam_id":76561198271636476,"connected_time":1534000000000,"state":"active","ping":133},{"user_id":100,"name":"Adventurematt","steam_id":76561199302420877,"connected_time":8453000000000,"state":"active","ping":58},{"user_id":213,"name":"banana97286","steam_id":76561199367847817,"connected_time":703000000000,"state":"active","ping":47},{"user_id":214,"name":"yaldabaoth","steam_id":76561198084606869,"connected_time":695000000000,"state":"active","ping":61},{"user_id":215,"name":"DiscoTraveler","steam_id":76561199240168088,"connected_time":688000000000,"state":"active","ping":37},{"user_id":216,"name":"evnobev","steam_id":76561198038966462,"connected_time":680000000000,"state":"active","ping":40},{"user_id":204,"name":"Leftshadows","steam_id":76561199089515791,"connected_time":1410000000000,"state":"active","ping":138},{"user_id":124,"name":"exsre`m","steam_id":76561199249121659,"connected_time":6326000000000,"state":"active","ping":91}]},{"server_id":14,"name":"Uncletopia | New York City | 2 | All Maps","name_short":"nyc-2","host":"nyc-1.us.uncletopia.com","port":27025,"enabled":true,"region":"us-east","cc":"us","latitude":40.73061,"longitude":-73.93524,"reserved":0,"last_update":"0001-01-01T00:00:00Z","name_a2s":"Uncletopia | New York City | 2 | All Maps","protocol":17,"map":"pl_upward","folder":"tf","game":"Team Fortress","app_id":440,"player_count":24,"max_players":24,"Bots":0,"server_type":"Dedicated","server_os":"Linux","password":true,"vac":true,"version":"7757534","steam_id":85568392924469994,"keywords":["nocrits","nodmgspread","payload","uncletopia"],"game_id":440,"stv_port":27026,"stv_name":"Uncletopia | New York City | 2 | All Maps | STV","players":[{"user_id":157,"name":"AwesomenessPhD","steam_id":76561198152631718,"connected_time":224000000000,"state":"active","ping":105},{"user_id":141,"name":"HYPERBOREAN SPACE STONERS","steam_id":76561198158206236,"connected_time":771000000000,"state":"active","ping":106},{"user_id":103,"name":"Skullypoo","steam_id":76561198067912022,"connected_time":2765000000000,"state":"active","ping":65},{"user_id":149,"name":"Zen Skye","steam_id":76561198114452552,"connected_time":721000000000,"state":"active","ping":85},{"user_id":94,"name":"rivera","steam_id":76561198051058706,"connected_time":3439000000000,"state":"active","ping":33},{"user_id":114,"name":"Fredrick","steam_id":76561197981419964,"connected_time":2383000000000,"state":"active","ping":53},{"user_id":151,"name":"crabapples","steam_id":76561198075818655,"connected_time":690000000000,"state":"active","ping":58},{"user_id":101,"name":"gghfgfgfg","steam_id":76561198064823861,"connected_time":2805000000000,"state":"active","ping":58},{"user_id":150,"name":"nefarious criminal","steam_id":76561198077506415,"connected_time":712000000000,"state":"active","ping":45},{"user_id":147,"name":"Mr. Smithsonian","steam_id":76561198417572742,"connected_time":742000000000,"state":"active","ping":100},{"user_id":117,"name":"Giddy","steam_id":76561198129732108,"connected_time":2323000000000,"state":"active","ping":103},{"user_id":154,"name":"Cube","steam_id":76561199021614213,"connected_time":440000000000,"state":"active","ping":163},{"user_id":140,"name":"faxxy","steam_id":76561198079621240,"connected_time":845000000000,"state":"active","ping":82},{"user_id":55,"name":"B","steam_id":76561198015740144,"connected_time":6160000000000,"state":"active","ping":79},{"user_id":156,"name":"lynt","steam_id":76561198988333976,"connected_time":360000000000,"state":"active","ping":51},{"user_id":138,"name":"thecal","steam_id":76561198307893384,"connected_time":956000000000,"state":"active","ping":74},{"user_id":119,"name":"Kally‚Ñ¢","steam_id":76561198112369159,"connected_time":2282000000000,"state":"active","ping":86},{"user_id":148,"name":"Riandox","steam_id":76561198130577326,"connected_time":732000000000,"state":"active","ping":77},{"user_id":125,"name":"hapi bananuh","steam_id":76561198091547092,"connected_time":2027000000000,"state":"active","ping":56},{"user_id":158,"name":"Recursive Gamer","steam_id":76561198042102952,"connected_time":50000000000,"state":"active","ping":91},{"user_id":47,"name":"/Floes/","steam_id":76561198022270876,"connected_time":6524000000000,"state":"active","ping":168},{"user_id":106,"name":"Sam","steam_id":76561198079393512,"connected_time":2719000000000,"state":"active","ping":59},{"user_id":130,"name":"\\|)=|_|=(|/","steam_id":76561198171491110,"connected_time":1334000000000,"state":"active","ping":49},{"user_id":131,"name":"Fiendish Frog","steam_id":76561198029478821,"connected_time":1334000000000,"state":"active","ping":52}]},{"server_id":15,"name":"Uncletopia | New York City | 3 | Stopwatch Beta","name_short":"nyc-3","host":"nyc-1.us.uncletopia.com","port":27035,"enabled":true,"region":"us-east","cc":"us","latitude":40.73061,"longitude":-73.93524,"reserved":0,"last_update":"0001-01-01T00:00:00Z","name_a2s":"Uncletopia | New York City | 3 | Stopwatch Beta","protocol":17,"map":"workshop/koth_ashville_final.ugc2130459942","folder":"tf","game":"Team Fortress","app_id":440,"player_count":23,"max_players":24,"Bots":0,"server_type":"Dedicated","server_os":"Linux","password":true,"vac":true,"version":"7757534","steam_id":85568392924742820,"keywords":["cp","nocrits","nodmgspread","uncletopia"],"game_id":440,"stv_port":27036,"stv_name":"Uncletopia | New York City | 3 | Stopwatch Beta | STV","players":[{"user_id":13,"name":"quadapalozle","steam_id":76561198327686110,"connected_time":2402000000000,"state":"active","ping":126},{"user_id":29,"name":"dwarf guy","steam_id":76561198993740818,"connected_time":985000000000,"state":"active","ping":65},{"user_id":9,"name":"Tyrannical Birate","steam_id":76561198109746316,"connected_time":4263000000000,"state":"active","ping":88},{"user_id":19,"name":"Tre3","steam_id":76561198054795379,"connected_time":1338000000000,"state":"active","ping":134},{"user_id":24,"name":"Chao","steam_id":76561198834293382,"connected_time":1084000000000,"state":"active","ping":114},{"user_id":21,"name":"Zwiess","steam_id":76561198091711177,"connected_time":1288000000000,"state":"active","ping":89},{"user_id":18,"name":"alcohol","steam_id":76561198328109873,"connected_time":1442000000000,"state":"active","ping":54},{"user_id":22,"name":"Forgetful_Gamer","steam_id":76561198172779746,"connected_time":1285000000000,"state":"active","ping":135},{"user_id":23,"name":"Engineer is Engihere","steam_id":76561199315167502,"connected_time":1214000000000,"state":"active","ping":65},{"user_id":25,"name":"MontellWilliams","steam_id":76561198172143015,"connected_time":1078000000000,"state":"active","ping":52},{"user_id":26,"name":"VanillaWoof","steam_id":76561198158343951,"connected_time":1056000000000,"state":"active","ping":134},{"user_id":27,"name":"Strike","steam_id":76561197974662975,"connected_time":1049000000000,"state":"active","ping":151},{"user_id":42,"name":"Mr_Frosty","steam_id":76561199380389079,"connected_time":255000000000,"state":"active","ping":85},{"user_id":32,"name":"|WS| Don't_Taze_Me_Bro","steam_id":76561198043289495,"connected_time":819000000000,"state":"active","ping":76},{"user_id":43,"name":"DAMN DANIEL AR AR AR AR AR","steam_id":76561198314941120,"connected_time":187000000000,"state":"active","ping":87},{"user_id":37,"name":"Militant Pacifist","steam_id":76561198290691432,"connected_time":616000000000,"state":"active","ping":102},{"user_id":41,"name":"Ronnie McNutt","steam_id":76561198453543661,"connected_time":434000000000,"state":"active","ping":76},{"user_id":36,"name":"BasicPeaches","steam_id":76561198190890150,"connected_time":705000000000,"state":"active","ping":60},{"user_id":38,"name":"dairy","steam_id":76561198117033273,"connected_time":605000000000,"state":"active","ping":120},{"user_id":44,"name":"Dragonsofdra","steam_id":76561198253369292,"connected_time":128000000000,"state":"active","ping":119},{"user_id":40,"name":"oreo mcflurry with caramel","steam_id":76561198143132686,"connected_time":553000000000,"state":"active","ping":105},{"user_id":45,"name":"kivee","steam_id":76561198838223023,"connected_time":124000000000,"state":"active","ping":71},{"user_id":46,"name":"dirty dank","steam_id":76561198360904432,"connected_time":103000000000,"state":"active","ping":55}]},{"server_id":16,"name":"Uncletopia | New York City | 4 | Community","name_short":"nyc-4","host":"nyc-1.us.uncletopia.com","port":27045,"enabled":true,"region":"us-east","cc":"us","latitude":40.73061,"longitude":-73.93524,"reserved":0,"last_update":"0001-01-01T00:00:00Z","name_a2s":"Uncletopia | New York City | 4 | Community","protocol":17,"map":"workshop/cp_reckoner_rc6.ugc674719999","folder":"tf","game":"Team Fortress","app_id":440,"player_count":0,"max_players":24,"Bots":0,"server_type":"Dedicated","server_os":"Linux","password":true,"vac":true,"version":"7757534","steam_id":85568392924742821,"keywords":["cp","nocrits","nodmgspread","uncletopia"],"game_id":440,"stv_port":27046,"stv_name":"Uncletopia | New York City | 4 | Community | STV","players":null},{"server_id":142,"name":"Uncletopia | S√£o Paulo | 1 | All Maps","name_short":"sao-1","host":"sao-1.br.uncletopia.com","port":27015,"enabled":true,"region":"sa","cc":"br","latitude":-23.533773,"longitude":-46.62529,"reserved":0,"last_update":"0001-01-01T00:00:00Z","name_a2s":"Uncletopia | S√£o Paulo | 1 | All Maps","protocol":17,"map":"koth_cascade","folder":"tf","game":"Team Fortress","app_id":440,"player_count":0,"max_players":24,"Bots":0,"server_type":"Dedicated","server_os":"Linux","password":true,"vac":true,"version":"7757534","steam_id":85568392924469996,"keywords":["cp","nocrits","nodmgspread","uncletopia"],"game_id":440,"stv_port":27016,"stv_name":"Uncletopia | S√£o Paulo | 1 | All Maps | STV","players":null},{"server_id":143,"name":"Uncletopia | S√£o Paulo | 2 | All Maps","name_short":"sao-2","host":"sao-2.br.uncletopia.com","port":27015,"enabled":true,"region":"sa","cc":"br","latitude":-23.533773,"longitude":-46.62529,"reserved":0,"last_update":"0001-01-01T00:00:00Z","name_a2s":"Uncletopia | S√£o Paulo | 2 | All Maps","protocol":17,"map":"koth_viaduct","folder":"tf","game":"Team Fortress","app_id":440,"player_count":0,"max_players":24,"Bots":0,"server_type":"Dedicated","server_os":"Linux","password":true,"vac":true,"version":"7757534","steam_id":85568392924485349,"keywords":["cp","nocrits","nodmgspread","uncletopia"],"game_id":440,"stv_port":27016,"stv_name":"Uncletopia | S√£o Paulo | 2 | All Maps | STV","players":null},{"server_id":7,"name":"Uncletopia | Seattle | 1 | All Maps","name_short":"sea-1","host":"sea-1.us.uncletopia.com","port":27015,"enabled":true,"region":"us-west","cc":"us","latitude":47.608013,"longitude":-122.33517,"reserved":0,"last_update":"0001-01-01T00:00:00Z","name_a2s":"Uncletopia | Seattle | 1 | All Maps","protocol":17,"map":"pl_badwater","folder":"tf","game":"Team Fortress","app_id":440,"player_count":25,"max_players":24,"Bots":0,"server_type":"Dedicated","server_os":"Linux","password":true,"vac":true,"version":"7757534","steam_id":85568392924469997,"keywords":["nocrits","nodmgspread","payload","uncletopia"],"game_id":440,"stv_port":27016,"stv_name":"Uncletopia | Seattle | 1 | All Maps | STV","players":[{"user_id":284,"name":"T.T","steam_id":76561198041907345,"connected_time":84000000000,"state":"active","ping":82},{"user_id":234,"name":"ShidFard|RayWilliamJohnsonGamin","steam_id":76561198207800784,"connected_time":917000000000,"state":"active","ping":44},{"user_id":254,"name":"lotus","steam_id":76561198057510009,"connected_time":447000000000,"state":"active","ping":77},{"user_id":255,"name":"BillyOneShot242","steam_id":76561199245556843,"connected_time":441000000000,"state":"active","ping":63},{"user_id":282,"name":"BLU3","steam_id":76561198059652670,"connected_time":109000000000,"state":"active","ping":46},{"user_id":285,"name":"blah","steam_id":76561197980327249,"connected_time":83000000000,"state":"active","ping":68},{"user_id":222,"name":"Sprucelass","steam_id":76561197998391724,"connected_time":2133000000000,"state":"active","ping":98},{"user_id":238,"name":"gatorbelt","steam_id":76561198145784505,"connected_time":854000000000,"state":"active","ping":73},{"user_id":241,"name":"[SFG] Sirebellum","steam_id":76561199012778952,"connected_time":759000000000,"state":"active","ping":105},{"user_id":217,"name":"WACKY JIM","steam_id":76561198961641122,"connected_time":2338000000000,"state":"active","ping":58},{"user_id":196,"name":"DoctorHa","steam_id":76561198044026008,"connected_time":5099000000000,"state":"active","ping":88},{"user_id":213,"name":"Local","steam_id":76561198170915102,"connected_time":3438000000000,"state":"active","ping":47},{"user_id":288,"name":"indyjacob","steam_id":76561198065158713,"connected_time":23000000000,"state":"active","ping":99},{"user_id":251,"name":"yayayuyu121","steam_id":76561199271895855,"connected_time":495000000000,"state":"active","ping":127},{"user_id":273,"name":"Sticky Ethan","steam_id":76561198277211625,"connected_time":165000000000,"state":"active","ping":71},{"user_id":239,"name":"THE Bucket Man","steam_id":76561198851816161,"connected_time":851000000000,"state":"active","ping":105},{"user_id":206,"name":"Agent86","steam_id":76561198046794593,"connected_time":4364000000000,"state":"active","ping":108},{"user_id":240,"name":"RaTtYc","steam_id":76561198954419354,"connected_time":806000000000,"state":"active","ping":144},{"user_id":243,"name":"Dargoos","steam_id":76561198366212046,"connected_time":744000000000,"state":"active","ping":76},{"user_id":186,"name":"iamsohardrn","steam_id":76561199147510427,"connected_time":6060000000000,"state":"active","ping":85},{"user_id":246,"name":"ORANGE","steam_id":76561198000401769,"connected_time":658000000000,"state":"active","ping":45},{"user_id":256,"name":"–ó–∞–π—á–∏–∫","steam_id":76561198058590461,"connected_time":404000000000,"state":"active","ping":128},{"user_id":248,"name":"Morse","steam_id":76561198039944542,"connected_time":536000000000,"state":"active","ping":58},{"user_id":280,"name":"flycargodash1010","steam_id":76561199456589841,"connected_time":118000000000,"state":"active","ping":101},{"user_id":291,"name":"worst scout ever","steam_id":76561198383509659,"connected_time":0,"state":"connecting","ping":0}]},{"server_id":119,"name":"Uncletopia | Seattle | 2 | All Maps","name_short":"sea-2","host":"sea-1.us.uncletopia.com","port":27025,"enabled":true,"region":"us-west","cc":"us","latitude":47.608013,"longitude":-122.33517,"reserved":0,"last_update":"0001-01-01T00:00:00Z","name_a2s":"Uncletopia | Seattle | 2 | All Maps","protocol":17,"map":"pl_swiftwater_final1","folder":"tf","game":"Team Fortress","app_id":440,"player_count":23,"max_players":24,"Bots":0,"server_type":"Dedicated","server_os":"Linux","password":true,"vac":true,"version":"7757534","steam_id":85568392924469998,"keywords":["nocrits","nodmgspread","payload","uncletopia"],"game_id":440,"stv_port":27026,"stv_name":"Uncletopia | Seattle | 2 | All Maps | STV","players":[{"user_id":146,"name":"‚ô• fey ‚ô•","steam_id":76561198119191002,"connected_time":3006000000000,"state":"active","ping":96},{"user_id":159,"name":"Chadley","steam_id":76561198066933113,"connected_time":2184000000000,"state":"active","ping":105},{"user_id":183,"name":"Keekiizz","steam_id":76561198317177149,"connected_time":1048000000000,"state":"active","ping":90},{"user_id":195,"name":"Gato","steam_id":76561198063521721,"connected_time":476000000000,"state":"active","ping":105},{"user_id":160,"name":"Mr. Feline","steam_id":76561198090704790,"connected_time":2168000000000,"state":"active","ping":103},{"user_id":91,"name":"FREE IPAD (Click to Download)","steam_id":76561199012771039,"connected_time":7375000000000,"state":"active","ping":111},{"user_id":188,"name":"EEBIGAA","steam_id":76561198056535988,"connected_time":950000000000,"state":"active","ping":74},{"user_id":175,"name":"BayanTheBear","steam_id":76561198134537476,"connected_time":1661000000000,"state":"active","ping":142},{"user_id":184,"name":"2 Point Tom","steam_id":76561198087617008,"connected_time":1031000000000,"state":"active","ping":53},{"user_id":192,"name":"squid game","steam_id":76561199248960166,"connected_time":623000000000,"state":"active","ping":39},{"user_id":185,"name":"isy","steam_id":76561198068017860,"connected_time":1029000000000,"state":"active","ping":80},{"user_id":151,"name":"Missterious Lesbian","steam_id":76561198382295070,"connected_time":2634000000000,"state":"active","ping":125},{"user_id":163,"name":"ulti_fd","steam_id":76561198050926014,"connected_time":2083000000000,"state":"active","ping":122},{"user_id":152,"name":"kodynotcody","steam_id":76561198340685758,"connected_time":2631000000000,"state":"active","ping":56},{"user_id":169,"name":"dust | she/it","steam_id":76561198045218909,"connected_time":1730000000000,"state":"active","ping":37},{"user_id":193,"name":"nathan","steam_id":76561198170402666,"connected_time":612000000000,"state":"active","ping":72},{"user_id":189,"name":"FoodzAreGoodz","steam_id":76561198309262052,"connected_time":851000000000,"state":"active","ping":82},{"user_id":190,"name":"greens beans","steam_id":76561198153611491,"connected_time":758000000000,"state":"active","ping":41},{"user_id":196,"name":"Responsible Father Figure","steam_id":76561199247095754,"connected_time":326000000000,"state":"active","ping":70},{"user_id":168,"name":"--)YawgMoss(-- \"The Salt\"","steam_id":76561198072971649,"connected_time":1824000000000,"state":"active","ping":66},{"user_id":182,"name":"[FUG] Gen'chill medic","steam_id":76561198931541704,"connected_time":1301000000000,"state":"active","ping":105},{"user_id":149,"name":"boulder","steam_id":76561198347225801,"connected_time":2657000000000,"state":"active","ping":53},{"user_id":156,"name":"soldlemon","steam_id":76561199034747133,"connected_time":2576000000000,"state":"active","ping":82}]},{"server_id":406,"name":"Uncletopia | Seattle | 3 | Stopwatch Beta","name_short":"sea-3","host":"sea-1.us.uncletopia.com","port":27035,"enabled":true,"region":"us-west","cc":"us","latitude":47.608013,"longitude":-122.33517,"reserved":0,"last_update":"0001-01-01T00:00:00Z","name_a2s":"Uncletopia | Seattle | 3 | Stopwatch Beta","protocol":17,"map":"workshop/pl_barnblitz_pro7.ugc582280235","folder":"tf","game":"Team Fortress","app_id":440,"player_count":0,"max_players":24,"Bots":0,"server_type":"Dedicated","server_os":"Linux","password":true,"vac":true,"version":"7757534","steam_id":85568392924515217,"keywords":["nocrits","nodmgspread","payload","uncletopia"],"game_id":440,"stv_port":27036,"stv_name":"Uncletopia | Seattle | 3 | Stopwatch Beta | STV","players":null},{"server_id":17,"name":"Uncletopia | San Francisco | 1 | All Maps","name_short":"sfo-1","host":"sfo-1.us.uncletopia.com","port":27015,"enabled":true,"region":"us-west","cc":"us","latitude":37.77397,"longitude":-122.4313,"reserved":0,"last_update":"0001-01-01T00:00:00Z","name_a2s":"Uncletopia | San Francisco | 1 | All Maps","protocol":17,"map":"pl_goldrush","folder":"tf","game":"Team Fortress","app_id":440,"player_count":24,"max_players":24,"Bots":0,"server_type":"Dedicated","server_os":"Linux","password":true,"vac":true,"version":"7757534","steam_id":85568392924469999,"keywords":["nocrits","nodmgspread","payload","uncletopia"],"game_id":440,"stv_port":27016,"stv_name":"Uncletopia | San Francisco | 1 | All Maps | STV","players":[{"user_id":88,"name":"chaos","steam_id":76561198055462404,"connected_time":4081000000000,"state":"active","ping":46},{"user_id":159,"name":"Ulrich Stern","steam_id":76561198101739682,"connected_time":30000000000,"state":"spawning","ping":84},{"user_id":124,"name":"Slugma","steam_id":76561198048544669,"connected_time":1840000000000,"state":"active","ping":133},{"user_id":128,"name":"Master Shake","steam_id":76561199427729136,"connected_time":1813000000000,"state":"active","ping":130},{"user_id":145,"name":"bowling","steam_id":76561198854571744,"connected_time":787000000000,"state":"active","ping":55},{"user_id":156,"name":"Uprightmoss7528","steam_id":76561199200138486,"connected_time":130000000000,"state":"active","ping":69},{"user_id":147,"name":"Carbonated Cocaine","steam_id":76561198110678966,"connected_time":648000000000,"state":"active","ping":85},{"user_id":155,"name":"Alpharius","steam_id":76561197996284353,"connected_time":240000000000,"state":"active","ping":87},{"user_id":96,"name":"Watatsuki no Yorihime","steam_id":76561198063315650,"connected_time":3756000000000,"state":"active","ping":81},{"user_id":142,"name":"rocketgreentea","steam_id":76561198081241988,"connected_time":931000000000,"state":"active","ping":47},{"user_id":144,"name":"MarcusDragon11","steam_id":76561198071836719,"connected_time":813000000000,"state":"active","ping":93},{"user_id":72,"name":"chanoc","steam_id":76561198026734746,"connected_time":4371000000000,"state":"active","ping":50},{"user_id":157,"name":"M4_Patriot","steam_id":76561198380134648,"connected_time":89000000000,"state":"active","ping":58},{"user_id":149,"name":"Haywood Jablowme","steam_id":76561198097721532,"connected_time":536000000000,"state":"active","ping":66},{"user_id":152,"name":"E-ferret","steam_id":76561198394134715,"connected_time":466000000000,"state":"active","ping":126},{"user_id":151,"name":"Zobozo","steam_id":76561198028954297,"connected_time":472000000000,"state":"active","ping":55},{"user_id":153,"name":"yolginmo","steam_id":76561198157985901,"connected_time":421000000000,"state":"active","ping":105},{"user_id":150,"name":"KatzenMeister","steam_id":76561198315056580,"connected_time":524000000000,"state":"active","ping":64},{"user_id":158,"name":"Neoplix","steam_id":76561199012756422,"connected_time":45000000000,"state":"active","ping":130},{"user_id":137,"name":"Nibotshooter","steam_id":76561199284825579,"connected_time":1410000000000,"state":"active","ping":81},{"user_id":103,"name":"FiddyFoMike","steam_id":76561198057072581,"connected_time":3008000000000,"state":"active","ping":50},{"user_id":112,"name":"raf","steam_id":76561197999439695,"connected_time":2793000000000,"state":"active","ping":58},{"user_id":132,"name":"Fluffy \u003c3 [HUGS]","steam_id":76561198119444962,"connected_time":1771000000000,"state":"active","ping":82},{"user_id":141,"name":"BoX_hEaD101","steam_id":76561198200875467,"connected_time":958000000000,"state":"active","ping":72}]},{"server_id":18,"name":"Uncletopia | San Francisco | 2 | All Maps","name_short":"sfo-2","host":"sfo-1.us.uncletopia.com","port":27025,"enabled":true,"region":"us-west","cc":"us","latitude":37.77397,"longitude":-122.4313,"reserved":0,"last_update":"0001-01-01T00:00:00Z","name_a2s":"Uncletopia | San Francisco | 2 | All Maps","protocol":17,"map":"koth_viaduct","folder":"tf","game":"Team Fortress","app_id":440,"player_count":0,"max_players":24,"Bots":0,"server_type":"Dedicated","server_os":"Linux","password":true,"vac":true,"version":"7757534","steam_id":85568392924470000,"keywords":["cp","nocrits","nodmgspread","uncletopia"],"game_id":440,"stv_port":27026,"stv_name":"Uncletopia | San Francisco | 2 | All Maps | STV","players":null},{"server_id":19,"name":"Uncletopia | San Francisco | 3 | Stopwatch Beta","name_short":"sfo-3","host":"sfo-1.us.uncletopia.com","port":27035,"enabled":true,"region":"us-west","cc":"us","latitude":37.77397,"longitude":-122.4313,"reserved":0,"last_update":"0001-01-01T00:00:00Z","name_a2s":"Uncletopia | San Francisco | 3 | Stopwatch Beta","protocol":17,"map":"cp_snakewater_final1","folder":"tf","game":"Team Fortress","app_id":440,"player_count":0,"max_players":24,"Bots":0,"server_type":"Dedicated","server_os":"Linux","password":true,"vac":true,"version":"7757534","steam_id":85568392924742824,"keywords":["cp","nocrits","nodmgspread","uncletopia"],"game_id":440,"stv_port":27036,"stv_name":"Uncletopia | San Francisco | 3 | Stopwatch Beta | STV","players":null},{"server_id":20,"name":"Uncletopia | San Francisco | 4 | Community","name_short":"sfo-4","host":"sfo-1.us.uncletopia.com","port":27045,"enabled":true,"region":"us-west","cc":"us","latitude":37.77397,"longitude":-122.4313,"reserved":0,"last_update":"0001-01-01T00:00:00Z","name_a2s":"Uncletopia | San Francisco | 4 | Community","protocol":17,"map":"workshop/pl_divulgence_b4b.ugc2884808746","folder":"tf","game":"Team Fortress","app_id":440,"player_count":0,"max_players":24,"Bots":0,"server_type":"Dedicated","server_os":"Linux","password":true,"vac":true,"version":"7757534","steam_id":85568392924742826,"keywords":["nocrits","nodmgspread","payload","uncletopia"],"game_id":440,"stv_port":27046,"stv_name":"Uncletopia | San Francisco | 4 | Community | STV","players":null},{"server_id":141,"name":"Uncletopia | Sydney | 1 | All Maps","name_short":"syd-1","host":"syd-1.au.uncletopia.com","port":27015,"enabled":true,"region":"au","cc":"au","latitude":-33.865143,"longitude":151.2099,"reserved":0,"last_update":"0001-01-01T00:00:00Z","name_a2s":"Uncletopia | Sydney | 1 | All Maps","protocol":17,"map":"pl_borneo","folder":"tf","game":"Team Fortress","app_id":440,"player_count":0,"max_players":24,"Bots":0,"server_type":"Dedicated","server_os":"Linux","password":true,"vac":true,"version":"7757534","steam_id":85568392924470001,"keywords":["nocrits","nodmgspread","payload","uncletopia"],"game_id":440,"stv_port":27016,"stv_name":"Uncletopia | Sydney | 1 | All Maps | STV","players":null},{"server_id":123,"name":"Uncletopia | Sydney | 2 | All Maps","name_short":"syd-2","host":"syd-1.au.uncletopia.com","port":27025,"enabled":true,"region":"au","cc":"au","latitude":-33.865143,"longitude":151.2099,"reserved":0,"last_update":"0001-01-01T00:00:00Z","name_a2s":"Uncletopia | Sydney | 2 | All Maps","protocol":17,"map":"cp_snakewater_final1","folder":"tf","game":"Team Fortress","app_id":440,"player_count":0,"max_players":24,"Bots":0,"server_type":"Dedicated","server_os":"Linux","password":true,"vac":true,"version":"7757534","steam_id":85568392924470002,"keywords":["cp","nocrits","nodmgspread","uncletopia"],"game_id":440,"stv_port":27026,"stv_name":"Uncletopia | Sydney | 2 | All Maps | STV","players":null},{"server_id":395,"name":"Uncletopia | Sydney | 3 | All Maps","name_short":"syd-3","host":"syd-1.au.uncletopia.com","port":27035,"enabled":true,"region":"au","cc":"au","latitude":-33.865143,"longitude":151.2099,"reserved":0,"last_update":"0001-01-01T00:00:00Z","name_a2s":"Uncletopia | Sydney | 3 | All Maps","protocol":17,"map":"pl_borneo","folder":"tf","game":"Team Fortress","app_id":440,"player_count":0,"max_players":24,"Bots":0,"server_type":"Dedicated","server_os":"Linux","password":true,"vac":true,"version":"7757534","steam_id":85568392925194467,"keywords":["nocrits","nodmgspread","payload","uncletopia"],"game_id":440,"stv_port":27036,"stv_name":"Uncletopia | Sydney | 3 | All Maps | STV","players":null},{"server_id":396,"name":"Uncletopia | Sydney | 4 | All Maps","name_short":"syd-4","host":"syd-1.au.uncletopia.com","port":27045,"enabled":true,"region":"au","cc":"au","latitude":-33.865143,"longitude":151.2099,"reserved":0,"last_update":"0001-01-01T00:00:00Z","name_a2s":"Uncletopia | Sydney | 4 | All Maps","protocol":17,"map":"cp_process_final","folder":"tf","game":"Team Fortress","app_id":440,"player_count":0,"max_players":24,"Bots":0,"server_type":"Dedicated","server_os":"Linux","password":true,"vac":true,"version":"7757534","steam_id":85568392925397958,"keywords":["cp","nocrits","nodmgspread","uncletopia"],"game_id":440,"stv_port":27046,"stv_name":"Uncletopia | Sydney | 4 | All Maps | STV","players":null},{"server_id":58,"name":"Uncletopia | Sydney | 5 | Stopwatch Beta","name_short":"syd-5","host":"syd-1.au.uncletopia.com","port":27055,"enabled":true,"region":"au","cc":"au","latitude":-33.865143,"longitude":151.2099,"reserved":0,"last_update":"0001-01-01T00:00:00Z","name_a2s":"Uncletopia | Sydney | 5 | Stopwatch Beta","protocol":17,"map":"koth_cascade","folder":"tf","game":"Team Fortress","app_id":440,"player_count":0,"max_players":24,"Bots":0,"server_type":"Dedicated","server_os":"Linux","password":true,"vac":true,"version":"7757534","steam_id":85568392925397959,"keywords":["cp","nocrits","nodmgspread","uncletopia"],"game_id":440,"stv_port":27056,"stv_name":"Uncletopia | Sydney | 5 | Stopwatch Beta | STV","players":null},{"server_id":59,"name":"Uncletopia | Sydney | 6 | Community","name_short":"syd-6","host":"syd-1.au.uncletopia.com","port":27065,"enabled":true,"region":"au","cc":"au","latitude":-33.865143,"longitude":151.2099,"reserved":0,"last_update":"0001-01-01T00:00:00Z","name_a2s":"Uncletopia | Sydney | 6 | Community","protocol":17,"map":"pl_badwater","folder":"tf","game":"Team Fortress","app_id":440,"player_count":0,"max_players":24,"Bots":0,"server_type":"Dedicated","server_os":"Linux","password":true,"vac":true,"version":"7757534","steam_id":85568392925397960,"keywords":["nocrits","nodmgspread","payload","uncletopia"],"game_id":440,"stv_port":27066,"stv_name":"Uncletopia | Sydney | 6 | Community | STV","players":null},{"server_id":49,"name":"Uncletopia | Warsaw | 1 | All Maps","name_short":"waw-1","host":"waw-1.pl.uncletopia.com","port":27015,"enabled":true,"region":"eu","cc":"pl","latitude":52.2297,"longitude":21.017532,"reserved":0,"last_update":"0001-01-01T00:00:00Z","name_a2s":"","protocol":0,"map":"","folder":"","game":"","app_id":0,"player_count":0,"max_players":0,"Bots":0,"server_type":"","server_os":"","password":false,"vac":false,"version":"","steam_id":0,"keywords":null,"game_id":0,"stv_port":0,"stv_name":"","players":null},{"server_id":50,"name":"Uncletopia | Warsaw | 2 | All Maps","name_short":"waw-2","host":"waw-1.pl.uncletopia.com","port":27025,"enabled":true,"region":"eu","cc":"pl","latitude":52.2297,"longitude":21.017532,"reserved":0,"last_update":"0001-01-01T00:00:00Z","name_a2s":"Uncletopia | Warsaw | 2 | All Maps","protocol":17,"map":"pl_upward","folder":"tf","game":"Team Fortress","app_id":440,"player_count":0,"max_players":24,"Bots":0,"server_type":"Dedicated","server_os":"Linux","password":true,"vac":true,"version":"7757534","steam_id":85568392925397851,"keywords":["nocrits","nodmgspread","payload","uncletopia"],"game_id":440,"stv_port":27026,"stv_name":"Uncletopia | Warsaw | 2 | All Maps | STV","players":null},{"server_id":51,"name":"Uncletopia | Warsaw | 3 | All Maps","name_short":"waw-3","host":"waw-1.pl.uncletopia.com","port":27035,"enabled":true,"region":"eu","cc":"pl","latitude":52.2297,"longitude":21.017532,"reserved":0,"last_update":"0001-01-01T00:00:00Z","name_a2s":"Uncletopia | Warsaw | 3 | All Maps","protocol":17,"map":"cp_mountainlab","folder":"tf","game":"Team Fortress","app_id":440,"player_count":0,"max_players":24,"Bots":0,"server_type":"Dedicated","server_os":"Linux","password":true,"vac":true,"version":"7757534","steam_id":85568392925397852,"keywords":["cp","nocrits","nodmgspread","uncletopia"],"game_id":440,"stv_port":27036,"stv_name":"Uncletopia | Warsaw | 3 | All Maps | STV","players":null},{"server_id":52,"name":"Uncletopia | Warsaw | 4 | All Maps","name_short":"waw-4","host":"waw-1.pl.uncletopia.com","port":27045,"enabled":true,"region":"eu","cc":"pl","latitude":52.2297,"longitude":21.017532,"reserved":0,"last_update":"0001-01-01T00:00:00Z","name_a2s":"Uncletopia | Warsaw | 4 | All Maps","protocol":17,"map":"pl_borneo","folder":"tf","game":"Team Fortress","app_id":440,"player_count":0,"max_players":24,"Bots":0,"server_type":"Dedicated","server_os":"Linux","password":true,"vac":true,"version":"7757534","steam_id":85568392925397853,"keywords":["nocrits","nodmgspread","payload","uncletopia"],"game_id":440,"stv_port":27046,"stv_name":"Uncletopia | Warsaw | 4 | All Maps | STV","players":null},{"server_id":53,"name":"Uncletopia | Warsaw | 5 | Stopwatch Beta","name_short":"waw-5","host":"waw-1.pl.uncletopia.com","port":27055,"enabled":true,"region":"eu","cc":"pl","latitude":52.2297,"longitude":21.017532,"reserved":0,"last_update":"0001-01-01T00:00:00Z","name_a2s":"Uncletopia | Warsaw | 5 | Stopwatch Beta","protocol":17,"map":"pl_pier","folder":"tf","game":"Team Fortress","app_id":440,"player_count":0,"max_players":24,"Bots":0,"server_type":"Dedicated","server_os":"Linux","password":true,"vac":true,"version":"7757534","steam_id":85568392925397854,"keywords":["nocrits","nodmgspread","payload","uncletopia"],"game_id":440,"stv_port":27056,"stv_name":"Uncletopia | Warsaw | 5 | Stopwatch Beta | STV","players":null},{"server_id":54,"name":"Uncletopia | Warsaw | 6 | Community","name_short":"waw-6","host":"waw-1.pl.uncletopia.com","port":27065,"enabled":true,"region":"eu","cc":"pl","latitude":52.2297,"longitude":21.017532,"reserved":0,"last_update":"0001-01-01T00:00:00Z","name_a2s":"Uncletopia | Warsaw | 6 | Community","protocol":17,"map":"koth_highpass","folder":"tf","game":"Team Fortress","app_id":440,"player_count":0,"max_players":24,"Bots":0,"server_type":"Dedicated","server_os":"Linux","password":true,"vac":true,"version":"7757534","steam_id":85568392925397856,"keywords":["cp","nocrits","nodmgspread","uncletopia"],"game_id":440,"stv_port":27066,"stv_name":"Uncletopia | Warsaw | 6 | Community | STV","players":null}]}