{"status":true,"message":"","result":[{"server_id":9,"name":"Uncletopia | Atlanta | 1 | All Maps","name_short":"atl-1","host":"atl-1.us.uncletopia.com","port":27015,"enabled":true,"region":"us-east","cc":"us","latitude":33.753746,"longitude":-84.38633,"reserved":0,"last_update":"0001-01-01T00:00:00Z","name_a2s":"Uncletopia | Atlanta | 1 | All Maps","protocol":17,"map":"pl_barnblitz","folder":"tf","game":"Team Fortress","app_id":440,"player_count":24,"max_players":24,"Bots":0,"server_type":"Dedicated","server_os":"Linux","password":true,"vac":true,"version":"7961495","steam_id":85568392924469982,"keywords":["nocrits","nodmgspread","payload","uncletopia"],"game_id":440,"stv_port":27016,"stv_name":"Uncletopia | Atlanta | 1 | All Maps | STV","players":[{"user_id":338,"name":"creeeeeee","steam_id":76561198392539722,"connected_time":578000000000,"state":"active","ping":82},{"user_id":293,"name":"rose","steam_id":76561198048882285,"connected_time":3750000000000,"state":"active","ping":63},{"user_id":318,"name":"Sadge","steam_id":76561199087928712,"connected_time":1569000000000,"state":"active","ping":61},{"user_id":297,"name":"blob","steam_id":76561198122375328,"connected_time":3035000000000,"state":"active","ping":44},{"user_id":304,"name":"SLaPPy- oNaSiS","steam_id":76561198009286862,"connected_time":2443000000000,"state":"active","ping":98},{"user_id":298,"name":"\u003e:3c","steam_id":76561198085815757,"connected_time":3034000000000,"state":"active","ping":78},{"user_id":243,"name":"ATL1 | on my hunting trip","steam_id":76561198315341646,"connected_time":5913000000000,"state":"active","ping":72},{"user_id":316,"name":"Lilith","steam_id":76561198125102885,"connected_time":1937000000000,"state":"active","ping":65},{"user_id":326,"name":"Krissy","steam_id":76561197960848174,"connected_time":1080000000000,"state":"active","ping":64},{"user_id":327,"name":"Alchemist84","steam_id":76561198166625404,"connected_time":1025000000000,"state":"active","ping":72},{"user_id":303,"name":"theannoyingorang213","steam_id":76561198079416036,"connected_time":2519000000000,"state":"active","ping":72},{"user_id":295,"name":"loot","steam_id":76561198069954956,"connected_time":3252000000000,"state":"active","ping":53},{"user_id":248,"name":"Nyle","steam_id":76561198045652639,"connected_time":5370000000000,"state":"active","ping":112},{"user_id":235,"name":"squaggles!","steam_id":76561197994995011,"connected_time":6573000000000,"state":"active","ping":44},{"user_id":323,"name":"Amestris","steam_id":76561198097284610,"connected_time":1287000000000,"state":"active","ping":75},{"user_id":324,"name":"sonikro","steam_id":76561197989428692,"connected_time":1281000000000,"state":"active","ping":71},{"user_id":355,"name":"Shame","steam_id":76561198100490994,"connected_time":160000000000,"state":"active","ping":60},{"user_id":317,"name":"hayes","steam_id":76561198057101042,"connected_time":1676000000000,"state":"active","ping":72},{"user_id":325,"name":"señor COCK","steam_id":76561198041643833,"connected_time":1259000000000,"state":"active","ping":87},{"user_id":296,"name":"Boneless Blithen","steam_id":76561197989955619,"connected_time":3046000000000,"state":"active","ping":130},{"user_id":241,"name":"Robo","steam_id":76561199106531261,"connected_time":5935000000000,"state":"active","ping":55},{"user_id":344,"name":"HarryjusttHarry","steam_id":76561198982810452,"connected_time":489000000000,"state":"active","ping":74},{"user_id":306,"name":"Dr.Inkmix(femboy medic!)","steam_id":76561198854070384,"connected_time":2225000000000,"state":"active","ping":116},{"user_id":320,"name":"Le4n!!!","steam_id":76561198045522596,"connected_time":1569000000000,"state":"active","ping":73}]},{"server_id":104,"name":"Uncletopia | Atlanta | 2 | All Maps","name_short":"atl-2","host":"atl-1.us.uncletopia.com","port":27025,"enabled":true,"region":"us-east","cc":"us","latitude":33.753746,"longitude":-84.38633,"reserved":0,"last_update":"0001-01-01T00:00:00Z","name_a2s":"Uncletopia | Atlanta | 2 | All Maps","protocol":17,"map":"pl_snowycoast","folder":"tf","game":"Team Fortress","app_id":440,"player_count":24,"max_players":24,"Bots":0,"server_type":"Dedicated","server_os":"Linux","password":true,"vac":true,"version":"7961495","steam_id":85568392924469983,"keywords":["nocrits","nodmgspread","payload","uncletopia"],"game_id":440,"stv_port":27026,"stv_name":"Uncletopia | Atlanta | 2 | All Maps | STV","players":[{"user_id":11,"name":"tac","steam_id":76561198408477421,"connected_time":13079000000000,"state":"active","ping":93},{"user_id":191,"name":"YoteDab McFapDab.jpg","steam_id":76561197984870380,"connected_time":1434000000000,"state":"active","ping":77},{"user_id":198,"name":"simonjohna646","steam_id":76561199403481880,"connected_time":624000000000,"state":"active","ping":71},{"user_id":165,"name":"The One True Luke","steam_id":76561198180891187,"connected_time":2921000000000,"state":"active","ping":75},{"user_id":190,"name":"coda","steam_id":76561198092052685,"connected_time":1451000000000,"state":"active","ping":65},{"user_id":180,"name":"big play","steam_id":76561198011675372,"connected_time":2015000000000,"state":"active","ping":116},{"user_id":210,"name":"Mickey","steam_id":76561197976868960,"connected_time":113000000000,"state":"active","ping":167},{"user_id":161,"name":"brg","steam_id":76561197998415548,"connected_time":3027000000000,"state":"active","ping":74},{"user_id":208,"name":"coopcumber","steam_id":76561198289728181,"connected_time":400000000000,"state":"active","ping":54},{"user_id":173,"name":"iHarvest","steam_id":76561198821639766,"connected_time":2302000000000,"state":"active","ping":62},{"user_id":199,"name":"Tarr Boy","steam_id":76561198025775376,"connected_time":620000000000,"state":"active","ping":81},{"user_id":200,"name":"man in your closet","steam_id":76561199019744442,"connected_time":571000000000,"state":"active","ping":166},{"user_id":153,"name":"mr poop","steam_id":76561199195196632,"connected_time":3293000000000,"state":"active","ping":132},{"user_id":189,"name":"WungoMungo","steam_id":76561198123039025,"connected_time":1469000000000,"state":"active","ping":75},{"user_id":140,"name":"Tang","steam_id":76561198121340574,"connected_time":3873000000000,"state":"active","ping":123},{"user_id":201,"name":"the keebler","steam_id":76561199486326945,"connected_time":548000000000,"state":"active","ping":62},{"user_id":169,"name":"Micah","steam_id":76561198006837982,"connected_time":2501000000000,"state":"active","ping":90},{"user_id":209,"name":"Mr_MagicMan","steam_id":76561198372713689,"connected_time":310000000000,"state":"active","ping":97},{"user_id":182,"name":"rando","steam_id":76561197982325629,"connected_time":1910000000000,"state":"active","ping":67},{"user_id":203,"name":"murfree","steam_id":76561198045335319,"connected_time":507000000000,"state":"active","ping":75},{"user_id":184,"name":"Scoot the Burbs","steam_id":76561198079507179,"connected_time":1892000000000,"state":"active","ping":92},{"user_id":212,"name":"trobin120","steam_id":76561199122420273,"connected_time":4000000000,"state":"spawning","ping":63},{"user_id":194,"name":"moe","steam_id":76561198929586245,"connected_time":1284000000000,"state":"active","ping":92},{"user_id":205,"name":"sugoiboi48","steam_id":76561198060056280,"connected_time":485000000000,"state":"active","ping":51}]},{"server_id":400,"name":"Uncletopia | Atlanta | 3 | Stopwatch","name_short":"atl-3","host":"atl-1.us.uncletopia.com","port":27035,"enabled":true,"region":"us-east","cc":"us","latitude":33.753746,"longitude":-84.38633,"reserved":0,"last_update":"0001-01-01T00:00:00Z","name_a2s":"Uncletopia | Atlanta | 3 | Stopwatch","protocol":17,"map":"workshop/pl_badwater_pro_v12.ugc2142942074","folder":"tf","game":"Team Fortress","app_id":440,"player_count":0,"max_players":24,"Bots":0,"server_type":"Dedicated","server_os":"Linux","password":true,"vac":true,"version":"7961495","steam_id":85568392924515187,"keywords":["nocrits","nodmgspread","payload","uncletopia"],"game_id":440,"stv_port":27036,"stv_name":"Uncletopia | Atlanta | 3 | Stopwatch | STV","players":null},{"server_id":401,"name":"Uncletopia | Atlanta | 4 | Community","name_short":"atl-4","host":"atl-1.us.uncletopia.com","port":27045,"enabled":true,"region":"us-east","cc":"us","latitude":33.753746,"longitude":-84.38633,"reserved":0,"last_update":"0001-01-01T00:00:00Z","name_a2s":"Uncletopia | Atlanta | 4 | Community","protocol":17,"map":"workshop/cp_alloy_rc3.ugc592805587","folder":"tf","game":"Team Fortress","app_id":440,"player_count":0,"max_players":24,"Bots":0,"server_type":"Dedicated","server_os":"Linux","password":true,"vac":true,"version":"7961495","steam_id":85568392924515188,"keywords":["cp","nocrits","nodmgspread","uncletopia"],"game_id":440,"stv_port":27046,"stv_name":"Uncletopia | Atlanta | 4 | Community | STV","players":null},{"server_id":2,"name":"Uncletopia | Chicago | 1 | All Maps","name_short":"chi-1","host":"chi-1.us.uncletopia.com","port":27015,"enabled":true,"region":"us-central","cc":"us","latitude":41.881832,"longitude":-87.62318,"reserved":0,"last_update":"0001-01-01T00:00:00Z","name_a2s":"Uncletopia | Chicago | 1 | All Maps","protocol":17,"map":"pl_barnblitz","folder":"tf","game":"Team Fortress","app_id":440,"player_count":24,"max_players":24,"Bots":0,"server_type":"Dedicated","server_os":"Linux","password":true,"vac":true,"version":"7961495","steam_id":85568392924469984,"keywords":["nocrits","nodmgspread","payload","uncletopia"],"game_id":440,"stv_port":27016,"stv_name":"Uncletopia | Chicago | 1 | All Maps | STV","players":[{"user_id":417,"name":"seven1","steam_id":76561198082210257,"connected_time":297000000000,"state":"active","ping":59},{"user_id":418,"name":"janitor","steam_id":76561198166433332,"connected_time":282000000000,"state":"active","ping":101},{"user_id":360,"name":"SenpaiZetch","steam_id":76561199132227118,"connected_time":4436000000000,"state":"active","ping":78},{"user_id":419,"name":"flamingcookies","steam_id":76561198280864779,"connected_time":278000000000,"state":"active","ping":61},{"user_id":382,"name":"Dogma","steam_id":76561198879961615,"connected_time":2768000000000,"state":"active","ping":59},{"user_id":402,"name":"FrostStorm","steam_id":76561198142685151,"connected_time":2099000000000,"state":"active","ping":68},{"user_id":416,"name":"White_Wizard_Named_Corona","steam_id":76561198055652735,"connected_time":347000000000,"state":"active","ping":92},{"user_id":413,"name":"Astoriae!","steam_id":76561199090168858,"connected_time":663000000000,"state":"active","ping":68},{"user_id":357,"name":"Your Local Queer Librarian","steam_id":76561198013077080,"connected_time":4793000000000,"state":"active","ping":55},{"user_id":381,"name":"Brawns","steam_id":76561198045190199,"connected_time":2853000000000,"state":"active","ping":71},{"user_id":385,"name":"West","steam_id":76561199156365366,"connected_time":2718000000000,"state":"active","ping":95},{"user_id":320,"name":"richard clock","steam_id":76561198048455671,"connected_time":7465000000000,"state":"active","ping":62},{"user_id":420,"name":"autisthicc","steam_id":76561198003918928,"connected_time":264000000000,"state":"active","ping":136},{"user_id":400,"name":"RealStanzy","steam_id":76561199060261003,"connected_time":2174000000000,"state":"active","ping":80},{"user_id":350,"name":"NeoTenico","steam_id":76561198025938411,"connected_time":5533000000000,"state":"active","ping":68},{"user_id":387,"name":"NikoOS (NO SOUND)","steam_id":76561198180020521,"connected_time":2710000000000,"state":"active","ping":147},{"user_id":406,"name":"You hate kissing boys,Don't you","steam_id":76561198996218460,"connected_time":1689000000000,"state":"active","ping":81},{"user_id":422,"name":"Zhukov","steam_id":76561199006602717,"connected_time":222000000000,"state":"active","ping":87},{"user_id":361,"name":"Redsight","steam_id":76561198204999529,"connected_time":4380000000000,"state":"active","ping":86},{"user_id":412,"name":"Milkmur","steam_id":76561198210043821,"connected_time":866000000000,"state":"active","ping":68},{"user_id":409,"name":"eduard","steam_id":76561198136550093,"connected_time":1455000000000,"state":"active","ping":67},{"user_id":399,"name":"Gealach","steam_id":76561198803757663,"connected_time":2394000000000,"state":"active","ping":112},{"user_id":421,"name":"Cap'n Bill","steam_id":76561197969559549,"connected_time":261000000000,"state":"active","ping":59},{"user_id":415,"name":"general.b","steam_id":76561198162480519,"connected_time":531000000000,"state":"active","ping":54}]},{"server_id":106,"name":"Uncletopia | Chicago | 2 | All Maps","name_short":"chi-2","host":"chi-1.us.uncletopia.com","port":27025,"enabled":true,"region":"us-central","cc":"us","latitude":41.881832,"longitude":-87.62318,"reserved":0,"last_update":"0001-01-01T00:00:00Z","name_a2s":"Uncletopia | Chicago | 2 | All Maps","protocol":17,"map":"cp_well","folder":"tf","game":"Team Fortress","app_id":440,"player_count":24,"max_players":24,"Bots":0,"server_type":"Dedicated","server_os":"Linux","password":true,"vac":true,"version":"7961495","steam_id":85568392924469985,"keywords":["cp","nocrits","nodmgspread","uncletopia"],"game_id":440,"stv_port":27026,"stv_name":"Uncletopia | Chicago | 2 | All Maps | STV","players":[{"user_id":303,"name":"Captain","steam_id":76561198155723294,"connected_time":2016000000000,"state":"active","ping":57},{"user_id":328,"name":"fuck cheaters fr fr","steam_id":76561199060552704,"connected_time":220000000000,"state":"active","ping":72},{"user_id":310,"name":"GOLDIE","steam_id":76561199375258674,"connected_time":1248000000000,"state":"active","ping":74},{"user_id":327,"name":"Frost ♥","steam_id":76561198168870617,"connected_time":291000000000,"state":"active","ping":73},{"user_id":222,"name":"ShellBug","steam_id":76561198144187527,"connected_time":9860000000000,"state":"active","ping":70},{"user_id":308,"name":"Beebo, Son of Beebo","steam_id":76561198055948497,"connected_time":1418000000000,"state":"active","ping":54},{"user_id":313,"name":"Comfy!","steam_id":76561198008818346,"connected_time":1055000000000,"state":"active","ping":84},{"user_id":280,"name":"HalfDead","steam_id":76561198049700226,"connected_time":3363000000000,"state":"active","ping":89},{"user_id":322,"name":"UwU","steam_id":76561198971629959,"connected_time":767000000000,"state":"active","ping":129},{"user_id":298,"name":"Xavibite","steam_id":76561198209380493,"connected_time":2489000000000,"state":"active","ping":63},{"user_id":247,"name":"e0e0","steam_id":76561198293839750,"connected_time":6006000000000,"state":"active","ping":67},{"user_id":287,"name":"Remix.SMG","steam_id":76561198052895933,"connected_time":3145000000000,"state":"active","ping":76},{"user_id":325,"name":"PinkLemonade","steam_id":76561198799286228,"connected_time":597000000000,"state":"active","ping":316},{"user_id":255,"name":"sam","steam_id":76561198217362968,"connected_time":4976000000000,"state":"active","ping":68},{"user_id":329,"name":"SANTA IS REAL","steam_id":76561199103766971,"connected_time":140000000000,"state":"active","ping":60},{"user_id":314,"name":"Dan","steam_id":76561199236719411,"connected_time":1026000000000,"state":"active","ping":70},{"user_id":315,"name":"booze cruiser","steam_id":76561198203395648,"connected_time":1022000000000,"state":"active","ping":76},{"user_id":318,"name":"Beef Wellington","steam_id":76561198049837377,"connected_time":983000000000,"state":"active","ping":51},{"user_id":306,"name":"DJThunderHeart","steam_id":76561198274197575,"connected_time":1776000000000,"state":"active","ping":75},{"user_id":326,"name":"Russet-Burbank Potato","steam_id":76561198010147684,"connected_time":498000000000,"state":"active","ping":158},{"user_id":263,"name":"Snivy64","steam_id":76561198423445376,"connected_time":4794000000000,"state":"active","ping":99},{"user_id":264,"name":"Inevitable","steam_id":76561198210050169,"connected_time":4763000000000,"state":"active","ping":64},{"user_id":324,"name":"Shrim","steam_id":76561198068455981,"connected_time":738000000000,"state":"active","ping":77},{"user_id":309,"name":"Kid named download","steam_id":76561199192074448,"connected_time":1418000000000,"state":"active","ping":89}]},{"server_id":402,"name":"Uncletopia | Chicago | 3 | All Maps","name_short":"chi-3","host":"chi-1.us.uncletopia.com","port":27035,"enabled":true,"region":"us-central","cc":"us","latitude":41.881832,"longitude":-87.62318,"reserved":0,"last_update":"0001-01-01T00:00:00Z","name_a2s":"Uncletopia | Chicago | 3 | All Maps","protocol":17,"map":"koth_viaduct","folder":"tf","game":"Team Fortress","app_id":440,"player_count":24,"max_players":24,"Bots":0,"server_type":"Dedicated","server_os":"Linux","password":true,"vac":true,"version":"7961495","steam_id":85568392924515191,"keywords":["cp","nocrits","nodmgspread","uncletopia"],"game_id":440,"stv_port":27036,"stv_name":"Uncletopia | Chicago | 3 | All Maps | STV","players":[{"user_id":278,"name":"Pissless Pissmass Pissman","steam_id":76561198409907417,"connected_time":196000000000,"state":"active","ping":109},{"user_id":268,"name":"(Ô)Ô)Wandering Singer(Ô(Ô)","steam_id":76561198126477141,"connected_time":678000000000,"state":"active","ping":65},{"user_id":200,"name":"barefoot fruitscato","steam_id":76561198094225038,"connected_time":4278000000000,"state":"active","ping":51},{"user_id":247,"name":"Tea Enthusiast","steam_id":76561198185583925,"connected_time":1713000000000,"state":"active","ping":55},{"user_id":199,"name":"Andrew Weber","steam_id":76561199359977174,"connected_time":4334000000000,"state":"active","ping":94},{"user_id":276,"name":"Ono","steam_id":76561198024377986,"connected_time":363000000000,"state":"active","ping":89},{"user_id":260,"name":"Cwiishe","steam_id":76561199482943969,"connected_time":822000000000,"state":"active","ping":61},{"user_id":245,"name":"Haha you didn't watch your back","steam_id":76561197987073279,"connected_time":1813000000000,"state":"active","ping":76},{"user_id":256,"name":"PiolaCat","steam_id":76561199100535345,"connected_time":898000000000,"state":"active","ping":152},{"user_id":246,"name":"Vector","steam_id":76561199055958107,"connected_time":1798000000000,"state":"active","ping":53},{"user_id":279,"name":"RestingImmortal","steam_id":76561198254240564,"connected_time":159000000000,"state":"active","ping":68},{"user_id":275,"name":"BOUZENZEL","steam_id":76561198095000722,"connected_time":411000000000,"state":"active","ping":60},{"user_id":201,"name":"TrashPanda (she/her)","steam_id":76561198447864095,"connected_time":4276000000000,"state":"active","ping":89},{"user_id":270,"name":"inphlate","steam_id":76561199016973013,"connected_time":661000000000,"state":"active","ping":76},{"user_id":280,"name":"lotus","steam_id":76561198177893343,"connected_time":158000000000,"state":"active","ping":74},{"user_id":281,"name":"midijamshred","steam_id":76561197999416403,"connected_time":80000000000,"state":"active","ping":58},{"user_id":191,"name":"yes daddy","steam_id":76561198166100997,"connected_time":5541000000000,"state":"active","ping":80},{"user_id":251,"name":"dogerich404","steam_id":76561199124102546,"connected_time":1510000000000,"state":"active","ping":105},{"user_id":248,"name":"A Puppy","steam_id":76561198828184456,"connected_time":1662000000000,"state":"active","ping":60},{"user_id":255,"name":"Kiss Master","steam_id":76561198289572271,"connected_time":907000000000,"state":"active","ping":80},{"user_id":282,"name":"igotmail","steam_id":76561198070631899,"connected_time":20000000000,"state":"active","ping":78},{"user_id":230,"name":"Bobbn","steam_id":76561198876124683,"connected_time":2718000000000,"state":"active","ping":82},{"user_id":265,"name":"SIN K4RMA","steam_id":76561198869287223,"connected_time":798000000000,"state":"active","ping":83}]},{"server_id":403,"name":"Uncletopia | Chicago | 4 | All Maps","name_short":"chi-4","host":"chi-1.us.uncletopia.com","port":27045,"enabled":true,"region":"us-central","cc":"us","latitude":41.881832,"longitude":-87.62318,"reserved":0,"last_update":"0001-01-01T00:00:00Z","name_a2s":"Uncletopia | Chicago | 4 | All Maps","protocol":17,"map":"pl_snowycoast","folder":"tf","game":"Team Fortress","app_id":440,"player_count":24,"max_players":24,"Bots":0,"server_type":"Dedicated","server_os":"Linux","password":true,"vac":true,"version":"7961495","steam_id":85568392924515193,"keywords":["nocrits","nodmgspread","payload","uncletopia"],"game_id":440,"stv_port":27046,"stv_name":"Uncletopia | Chicago | 4 | All Maps | STV","players":[{"user_id":375,"name":"The Grim Heaper","steam_id":76561197987759101,"connected_time":833000000000,"state":"active","ping":109},{"user_id":371,"name":"Anamm","steam_id":76561198328762510,"connected_time":891000000000,"state":"active","ping":66},{"user_id":341,"name":"Jonah Hill from 21 Jump Street","steam_id":76561198811130843,"connected_time":3389000000000,"state":"active","ping":93},{"user_id":369,"name":"|WS| Don't_Taze_Me_Bro","steam_id":76561198043289495,"connected_time":1124000000000,"state":"active","ping":71},{"user_id":384,"name":"Kuwait Grips","steam_id":76561198292689973,"connected_time":249000000000,"state":"active","ping":50},{"user_id":385,"name":"MelonLikeAFelon","steam_id":76561198060170336,"connected_time":234000000000,"state":"active","ping":68},{"user_id":345,"name":"[SAW] Lost Darkrai","steam_id":76561198021034873,"connected_time":3193000000000,"state":"active","ping":71},{"user_id":338,"name":"FreshlyBrewed","steam_id":76561198181099881,"connected_time":3673000000000,"state":"active","ping":61},{"user_id":346,"name":"dave :3","steam_id":76561198135961731,"connected_time":3184000000000,"state":"active","ping":90},{"user_id":354,"name":"Jack Celliers","steam_id":76561198060983357,"connected_time":1972000000000,"state":"active","ping":61},{"user_id":331,"name":"mushroom taco","steam_id":76561198097554694,"connected_time":4333000000000,"state":"active","ping":75},{"user_id":356,"name":"[El Fail] MR.BadassMCLee","steam_id":76561198043787818,"connected_time":1965000000000,"state":"active","ping":118},{"user_id":378,"name":"pogo","steam_id":76561198148913461,"connected_time":576000000000,"state":"active","ping":68},{"user_id":366,"name":"Lord of Lizards","steam_id":76561198881852468,"connected_time":1605000000000,"state":"active","ping":79},{"user_id":379,"name":"Lawnmower","steam_id":76561198186680197,"connected_time":572000000000,"state":"active","ping":88},{"user_id":381,"name":"rapscallion","steam_id":76561198188722751,"connected_time":418000000000,"state":"active","ping":98},{"user_id":373,"name":"KevinKendrick","steam_id":76561198364706359,"connected_time":864000000000,"state":"active","ping":103},{"user_id":352,"name":"Erectnophobia","steam_id":76561198053743602,"connected_time":2392000000000,"state":"active","ping":51},{"user_id":386,"name":"Rulers Reach fan","steam_id":76561198367340750,"connected_time":102000000000,"state":"active","ping":60},{"user_id":380,"name":"Flap","steam_id":76561198078889633,"connected_time":433000000000,"state":"active","ping":58},{"user_id":377,"name":"Kaypo","steam_id":76561198262420097,"connected_time":638000000000,"state":"active","ping":66},{"user_id":383,"name":"[TF2Apples] Intense Green Apple","steam_id":76561198803561622,"connected_time":363000000000,"state":"active","ping":79},{"user_id":365,"name":"rhain","steam_id":76561198168683352,"connected_time":1621000000000,"state":"active","ping":63},{"user_id":340,"name":"Reisalin Stout","steam_id":76561198272955205,"connected_time":3577000000000,"state":"active","ping":87}]},{"server_id":36,"name":"Uncletopia | Chicago | 5 | All Maps","name_short":"chi-5","host":"chi-2.us.uncletopia.com","port":27015,"enabled":true,"region":"us-central","cc":"us","latitude":41.881832,"longitude":-87.62318,"reserved":0,"last_update":"0001-01-01T00:00:00Z","name_a2s":"Uncletopia | Chicago | 5 | All Maps","protocol":17,"map":"cp_snakewater_final1","folder":"tf","game":"Team Fortress","app_id":440,"player_count":24,"max_players":24,"Bots":0,"server_type":"Dedicated","server_os":"Linux","password":true,"vac":true,"version":"7961495","steam_id":85568392924866362,"keywords":["cp","nocrits","nodmgspread","uncletopia"],"game_id":440,"stv_port":27016,"stv_name":"Uncletopia | Chicago | 5 | All Maps | STV","players":[{"user_id":223,"name":"Adam (Cursed Confetti Creature)","steam_id":76561198317690197,"connected_time":2983000000000,"state":"active","ping":45},{"user_id":256,"name":"Garfield","steam_id":76561198147300599,"connected_time":452000000000,"state":"active","ping":58},{"user_id":168,"name":"NUt","steam_id":76561198031007966,"connected_time":6181000000000,"state":"active","ping":59},{"user_id":254,"name":"Tom Dude","steam_id":76561198093913484,"connected_time":651000000000,"state":"active","ping":56},{"user_id":257,"name":"dox","steam_id":76561198838245430,"connected_time":426000000000,"state":"active","ping":69},{"user_id":231,"name":"Miner2495","steam_id":76561198445904523,"connected_time":2670000000000,"state":"active","ping":71},{"user_id":249,"name":"Marc Antony","steam_id":76561198011366517,"connected_time":850000000000,"state":"active","ping":56},{"user_id":259,"name":"Robert","steam_id":76561198133200895,"connected_time":136000000000,"state":"active","ping":61},{"user_id":246,"name":"CheekiBreeki","steam_id":76561198008596138,"connected_time":1223000000000,"state":"active","ping":83},{"user_id":217,"name":"[GU1Z] Palamute Jho","steam_id":76561199219936729,"connected_time":3354000000000,"state":"active","ping":85},{"user_id":250,"name":"Bucket Hat Trick","steam_id":76561198381785132,"connected_time":848000000000,"state":"active","ping":86},{"user_id":215,"name":"I have no idea what I am doing?","steam_id":76561198093152207,"connected_time":3539000000000,"state":"active","ping":90},{"user_id":229,"name":"Lia_Rein TTV","steam_id":76561198151569597,"connected_time":2727000000000,"state":"active","ping":160},{"user_id":243,"name":"beefskewer","steam_id":76561198049992949,"connected_time":2331000000000,"state":"active","ping":106},{"user_id":251,"name":"I Eat Money","steam_id":76561199226007666,"connected_time":841000000000,"state":"active","ping":87},{"user_id":175,"name":"Odd Life","steam_id":76561198244979998,"connected_time":5607000000000,"state":"active","ping":112},{"user_id":244,"name":"Word To Your Mothership","steam_id":76561198034329138,"connected_time":2092000000000,"state":"active","ping":101},{"user_id":258,"name":"bladees realest, saddest verse","steam_id":76561198098099826,"connected_time":426000000000,"state":"active","ping":106},{"user_id":260,"name":"Printypro","steam_id":76561199063254804,"connected_time":31000000000,"state":"active","ping":84},{"user_id":203,"name":"Frog Finance Gutter Justice","steam_id":76561198067247951,"connected_time":4189000000000,"state":"active","ping":60},{"user_id":239,"name":"Winter the Witchie","steam_id":76561198151971178,"connected_time":2517000000000,"state":"active","ping":54},{"user_id":247,"name":"Greaseball","steam_id":76561198240220178,"connected_time":880000000000,"state":"active","ping":79},{"user_id":236,"name":"boutthatbreadfred","steam_id":76561198051881047,"connected_time":2614000000000,"state":"active","ping":92},{"user_id":237,"name":"MechaSixVII","steam_id":76561198014927379,"connected_time":2597000000000,"state":"active","ping":72}]},{"server_id":37,"name":"Uncletopia | Chicago | 6 | All Maps","name_short":"chi-6","host":"chi-2.us.uncletopia.com","port":27025,"enabled":true,"region":"us-central","cc":"us","latitude":41.881832,"longitude":-87.62318,"reserved":0,"last_update":"0001-01-01T00:00:00Z","name_a2s":"Uncletopia | Chicago | 6 | All Maps","protocol":17,"map":"pl_borneo","folder":"tf","game":"Team Fortress","app_id":440,"player_count":24,"max_players":24,"Bots":0,"server_type":"Dedicated","server_os":"Linux","password":true,"vac":true,"version":"7961495","steam_id":85568392924866363,"keywords":["nocrits","nodmgspread","payload","uncletopia"],"game_id":440,"stv_port":27026,"stv_name":"Uncletopia | Chicago | 6 | All Maps | STV","players":[{"user_id":116,"name":"TheOnlyDj101","steam_id":76561198798152859,"connected_time":619000000000,"state":"active","ping":64},{"user_id":119,"name":"Sheev Palpatine","steam_id":76561198252332430,"connected_time":600000000000,"state":"active","ping":60},{"user_id":115,"name":"Shrebbie","steam_id":76561198875230824,"connected_time":648000000000,"state":"active","ping":52},{"user_id":112,"name":"Geep","steam_id":76561198171880691,"connected_time":1593000000000,"state":"active","ping":85},{"user_id":124,"name":"Yoshikage Kira","steam_id":76561198848930696,"connected_time":457000000000,"state":"active","ping":49},{"user_id":64,"name":"TheGreythreat","steam_id":76561198021995538,"connected_time":4709000000000,"state":"active","ping":67},{"user_id":126,"name":"Good Teammate","steam_id":76561198140604297,"connected_time":247000000000,"state":"active","ping":71},{"user_id":66,"name":"HexT","steam_id":76561199085359931,"connected_time":4623000000000,"state":"active","ping":52},{"user_id":127,"name":"Nephi","steam_id":76561198031525122,"connected_time":198000000000,"state":"active","ping":80},{"user_id":73,"name":"jaytheking05","steam_id":76561198856419769,"connected_time":4554000000000,"state":"active","ping":70},{"user_id":114,"name":"carrot cake","steam_id":76561198055174915,"connected_time":714000000000,"state":"active","ping":65},{"user_id":120,"name":"alibi","steam_id":76561198079490000,"connected_time":600000000000,"state":"active","ping":166},{"user_id":113,"name":"leeroy","steam_id":76561198226418600,"connected_time":1552000000000,"state":"active","ping":81},{"user_id":110,"name":"Buddy_boi_man","steam_id":76561199158344783,"connected_time":2064000000000,"state":"active","ping":70},{"user_id":123,"name":"werecat","steam_id":76561198005091213,"connected_time":513000000000,"state":"active","ping":58},{"user_id":109,"name":"mansteam905","steam_id":76561199488421021,"connected_time":2319000000000,"state":"active","ping":92},{"user_id":125,"name":"Yam Jazzy Jim","steam_id":76561198000788950,"connected_time":423000000000,"state":"active","ping":69},{"user_id":104,"name":"doorlarkeded","steam_id":76561199439227968,"connected_time":2835000000000,"state":"active","ping":78},{"user_id":107,"name":"Rick Assley","steam_id":76561198365019199,"connected_time":2766000000000,"state":"active","ping":70},{"user_id":79,"name":"CyborgHexapus4","steam_id":76561198160335724,"connected_time":4457000000000,"state":"active","ping":122},{"user_id":122,"name":"dannytheboy","steam_id":76561198033042412,"connected_time":587000000000,"state":"active","ping":47},{"user_id":93,"name":"PhantomGamerModz","steam_id":76561198425172210,"connected_time":4099000000000,"state":"active","ping":66},{"user_id":129,"name":"Boxcars","steam_id":76561198120978767,"connected_time":16000000000,"state":"active","ping":120},{"user_id":98,"name":"fish (2:3)","steam_id":76561198134331073,"connected_time":3502000000000,"state":"active","ping":110}]},{"server_id":38,"name":"Uncletopia | Chicago | 7 | Stopwatch","name_short":"chi-7","host":"chi-2.us.uncletopia.com","port":27035,"enabled":true,"region":"us-central","cc":"us","latitude":41.881832,"longitude":-87.62318,"reserved":0,"last_update":"0001-01-01T00:00:00Z","name_a2s":"Uncletopia | Chicago | 7 | Stopwatch","protocol":17,"map":"pl_badwater","folder":"tf","game":"Team Fortress","app_id":440,"player_count":0,"max_players":24,"Bots":0,"server_type":"Dedicated","server_os":"Linux","password":true,"vac":true,"version":"7961495","steam_id":85568392924866364,"keywords":["nocrits","nodmgspread","payload","uncletopia"],"game_id":440,"stv_port":27036,"stv_name":"Uncletopia | Chicago | 7 | Stopwatch | STV","players":null},{"server_id":39,"name":"Uncletopia | Chicago | 8 | Community","name_short":"chi-8","host":"chi-2.us.uncletopia.com","port":27045,"enabled":true,"region":"us-central","cc":"us","latitude":41.881832,"longitude":-87.62318,"reserved":0,"last_update":"0001-01-01T00:00:00Z","name_a2s":"Uncletopia | Chicago | 8 | Community","protocol":17,"map":"pl_pier","folder":"tf","game":"Team Fortress","app_id":440,"player_count":0,"max_players":24,"Bots":0,"server_type":"Dedicated","server_os":"Linux","password":true,"vac":true,"version":"7961495","steam_id":85568392924866365,"keywords":["nocrits","nodmgspread","payload","uncletopia"],"game_id":440,"stv_port":27046,"stv_name":"Uncletopia | Chicago | 8 | Community | STV","players":null},{"server_id":8,"name":"Uncletopia | Dallas | 1 | All Maps","name_short":"dal-1","host":"dal-1.us.uncletopia.com","port":27015,"enabled":true,"region":"us-central","cc":"us","latitude":32.779167,"longitude":-96.80889,"reserved":0,"last_update":"0001-01-01T00:00:00Z","name_a2s":"Uncletopia | Dallas | 1 | All Maps","protocol":17,"map":"pl_barnblitz","folder":"tf","game":"Team Fortress","app_id":440,"player_count":23,"max_players":24,"Bots":0,"server_type":"Dedicated","server_os":"Linux","password":true,"vac":true,"version":"7961495","steam_id":85568392924469986,"keywords":["nocrits","nodmgspread","payload","uncletopia"],"game_id":440,"stv_port":27016,"stv_name":"Uncletopia | Dallas | 1 | All Maps | STV","players":[{"user_id":310,"name":"vastrobotmax","steam_id":76561198417110724,"connected_time":993000000000,"state":"active","ping":102},{"user_id":296,"name":"iluvtoust","steam_id":76561198869269207,"connected_time":1543000000000,"state":"active","ping":52},{"user_id":313,"name":"puffer","steam_id":76561199049164456,"connected_time":866000000000,"state":"active","ping":108},{"user_id":325,"name":"meat gun","steam_id":76561198029276785,"connected_time":279000000000,"state":"active","ping":47},{"user_id":308,"name":"sheep","steam_id":76561198994761483,"connected_time":1139000000000,"state":"active","ping":108},{"user_id":311,"name":"The Nikocado Enjoyer","steam_id":76561198263154374,"connected_time":942000000000,"state":"active","ping":89},{"user_id":326,"name":"Butt Cheese Wanky","steam_id":76561198006569710,"connected_time":217000000000,"state":"active","ping":102},{"user_id":327,"name":"Serenue","steam_id":76561199040361250,"connected_time":200000000000,"state":"active","ping":101},{"user_id":297,"name":"d5","steam_id":76561199339997328,"connected_time":1538000000000,"state":"active","ping":54},{"user_id":294,"name":"squarg","steam_id":76561198857911015,"connected_time":1818000000000,"state":"active","ping":62},{"user_id":320,"name":"squidward crying with max volum","steam_id":76561199202638631,"connected_time":504000000000,"state":"active","ping":98},{"user_id":292,"name":"CadenLCheese","steam_id":76561199105517435,"connected_time":1957000000000,"state":"active","ping":105},{"user_id":324,"name":"tsz","steam_id":76561199246231090,"connected_time":338000000000,"state":"active","ping":81},{"user_id":314,"name":"Horrowes","steam_id":76561198318446417,"connected_time":765000000000,"state":"active","ping":95},{"user_id":328,"name":"healing goblin (real)","steam_id":76561198411292601,"connected_time":175000000000,"state":"active","ping":105},{"user_id":291,"name":"♩Karmralsei♩","steam_id":76561199453410299,"connected_time":2007000000000,"state":"active","ping":88},{"user_id":302,"name":"Talented","steam_id":76561198800259660,"connected_time":1249000000000,"state":"active","ping":70},{"user_id":268,"name":"???","steam_id":76561198200155343,"connected_time":3299000000000,"state":"active","ping":47},{"user_id":329,"name":"plutonium isotope","steam_id":76561198319442494,"connected_time":164000000000,"state":"active","ping":85},{"user_id":305,"name":"get scrongled, idiot","steam_id":76561198115874625,"connected_time":1208000000000,"state":"active","ping":94},{"user_id":271,"name":"AKK0","steam_id":76561199063194145,"connected_time":3110000000000,"state":"active","ping":66},{"user_id":317,"name":"UnforeseenCabbages","steam_id":76561198079386608,"connected_time":729000000000,"state":"active","ping":72},{"user_id":323,"name":"walrus","steam_id":76561198057853319,"connected_time":402000000000,"state":"active","ping":89}]},{"server_id":108,"name":"Uncletopia | Dallas | 2 | All Maps","name_short":"dal-2","host":"dal-1.us.uncletopia.com","port":27025,"enabled":true,"region":"us-central","cc":"us","latitude":32.779167,"longitude":-96.80889,"reserved":0,"last_update":"0001-01-01T00:00:00Z","name_a2s":"Uncletopia | Dallas | 2 | All Maps","protocol":17,"map":"koth_lakeside_final","folder":"tf","game":"Team Fortress","app_id":440,"player_count":23,"max_players":24,"Bots":0,"server_type":"Dedicated","server_os":"Linux","password":true,"vac":true,"version":"7961495","steam_id":85568392924469988,"keywords":["cp","nocrits","nodmgspread","uncletopia"],"game_id":440,"stv_port":27026,"stv_name":"Uncletopia | Dallas | 2 | All Maps | STV","players":[{"user_id":288,"name":"bhop","steam_id":76561198064885639,"connected_time":1776000000000,"state":"active","ping":99},{"user_id":282,"name":"Zoltar985","steam_id":76561198339273313,"connected_time":2185000000000,"state":"active","ping":70},{"user_id":155,"name":"Tabby!!!!","steam_id":76561198018288153,"connected_time":11516000000000,"state":"active","ping":64},{"user_id":302,"name":"Bee_Pirate","steam_id":76561199000599111,"connected_time":1014000000000,"state":"active","ping":68},{"user_id":260,"name":"BitPieStudios","steam_id":76561198059216393,"connected_time":3509000000000,"state":"active","ping":85},{"user_id":294,"name":"CyMeryy","steam_id":76561197984986540,"connected_time":1632000000000,"state":"active","ping":69},{"user_id":306,"name":"[funyun] Gabagool? Ova heeeere","steam_id":76561198035649208,"connected_time":830000000000,"state":"active","ping":97},{"user_id":307,"name":"Angelmaster","steam_id":76561198815474379,"connected_time":727000000000,"state":"active","ping":78},{"user_id":300,"name":"pyrotechnic","steam_id":76561198043558709,"connected_time":1369000000000,"state":"active","ping":105},{"user_id":304,"name":"Alkimia","steam_id":76561198385763137,"connected_time":915000000000,"state":"active","ping":114},{"user_id":259,"name":"Trapilicious","steam_id":76561198061430457,"connected_time":3534000000000,"state":"active","ping":48},{"user_id":305,"name":"C4K3","steam_id":76561197996963285,"connected_time":901000000000,"state":"active","ping":69},{"user_id":308,"name":"Lrd shwag","steam_id":76561198841016072,"connected_time":509000000000,"state":"active","ping":110},{"user_id":229,"name":"baedeker","steam_id":76561199081837220,"connected_time":5365000000000,"state":"active","ping":72},{"user_id":292,"name":"Sergeant Joker LFT","steam_id":76561198854616604,"connected_time":1702000000000,"state":"active","ping":90},{"user_id":104,"name":"SSS GRADE MADNESS!!!!!","steam_id":76561199064456633,"connected_time":12823000000000,"state":"active","ping":64},{"user_id":295,"name":"Major Woody","steam_id":76561198835541533,"connected_time":1616000000000,"state":"active","ping":63},{"user_id":298,"name":"mokely","steam_id":76561198076483785,"connected_time":1485000000000,"state":"active","ping":44},{"user_id":299,"name":"Luggy","steam_id":76561198070559361,"connected_time":1474000000000,"state":"active","ping":61},{"user_id":286,"name":"AshleyJazzley","steam_id":76561198273509423,"connected_time":1973000000000,"state":"active","ping":113},{"user_id":281,"name":"Tenki","steam_id":76561198796459347,"connected_time":2207000000000,"state":"active","ping":82},{"user_id":287,"name":"zfasty","steam_id":76561198866750128,"connected_time":1950000000000,"state":"active","ping":54},{"user_id":293,"name":"RokkitFrog","steam_id":76561198046465850,"connected_time":1698000000000,"state":"active","ping":51}]},{"server_id":404,"name":"Uncletopia | Dallas | 3 | All Maps","name_short":"dal-3","host":"dal-1.us.uncletopia.com","port":27035,"enabled":true,"region":"us-central","cc":"us","latitude":32.779167,"longitude":-96.80889,"reserved":0,"last_update":"0001-01-01T00:00:00Z","name_a2s":"Uncletopia | Dallas | 3 | All Maps","protocol":17,"map":"ctf_2fort","folder":"tf","game":"Team Fortress","app_id":440,"player_count":23,"max_players":24,"Bots":0,"server_type":"Dedicated","server_os":"Linux","password":true,"vac":true,"version":"7961495","steam_id":85568392924515219,"keywords":["ctf","nocrits","nodmgspread","uncletopia"],"game_id":440,"stv_port":27036,"stv_name":"Uncletopia | Dallas | 3 | All Maps | STV","players":[{"user_id":120,"name":"garf","steam_id":76561198451939128,"connected_time":2448000000000,"state":"active","ping":88},{"user_id":140,"name":"TheRatBoi","steam_id":76561199123032506,"connected_time":1188000000000,"state":"active","ping":93},{"user_id":69,"name":"The Gremlin","steam_id":76561198419066993,"connected_time":6441000000000,"state":"active","ping":118},{"user_id":141,"name":"DJ_Smooth_Killa Games","steam_id":76561199051362337,"connected_time":1142000000000,"state":"active","ping":68},{"user_id":24,"name":"asm_ghost","steam_id":76561199205363547,"connected_time":8959000000000,"state":"active","ping":109},{"user_id":142,"name":"minesert","steam_id":76561198372489883,"connected_time":1132000000000,"state":"active","ping":89},{"user_id":143,"name":"GothicRogue48","steam_id":76561199246864422,"connected_time":1127000000000,"state":"active","ping":98},{"user_id":145,"name":"He Come Down","steam_id":76561198232500756,"connected_time":1021000000000,"state":"active","ping":60},{"user_id":98,"name":"Burny Sanders","steam_id":76561197961879048,"connected_time":5190000000000,"state":"active","ping":45},{"user_id":136,"name":"Grand Piano Tuna","steam_id":76561198135137213,"connected_time":1917000000000,"state":"active","ping":50},{"user_id":138,"name":"Universe Man","steam_id":76561197997710655,"connected_time":1511000000000,"state":"active","ping":89},{"user_id":147,"name":"BrehCat","steam_id":76561198157735917,"connected_time":995000000000,"state":"active","ping":60},{"user_id":148,"name":"Mephein","steam_id":76561198189391623,"connected_time":961000000000,"state":"active","ping":68},{"user_id":153,"name":"Chafn","steam_id":76561197969386702,"connected_time":657000000000,"state":"active","ping":89},{"user_id":155,"name":"Humwrecker","steam_id":76561199003607331,"connected_time":560000000000,"state":"active","ping":84},{"user_id":150,"name":"GlitchNoodles","steam_id":76561199009135766,"connected_time":931000000000,"state":"active","ping":71},{"user_id":157,"name":"Dinosaur","steam_id":76561199079626189,"connected_time":437000000000,"state":"active","ping":75},{"user_id":126,"name":"Zana","steam_id":76561198075908156,"connected_time":2311000000000,"state":"active","ping":112},{"user_id":151,"name":"Blitzoetic","steam_id":76561198053239412,"connected_time":929000000000,"state":"active","ping":90},{"user_id":93,"name":"R8 Me M8 8/8","steam_id":76561198025280917,"connected_time":5314000000000,"state":"active","ping":85},{"user_id":156,"name":"THE man is EPIC","steam_id":76561198085410777,"connected_time":490000000000,"state":"active","ping":112},{"user_id":158,"name":"Rob","steam_id":76561199187786660,"connected_time":201000000000,"state":"active","ping":64},{"user_id":135,"name":"catfish from toontown","steam_id":76561198060070002,"connected_time":1953000000000,"state":"active","ping":60}]},{"server_id":405,"name":"Uncletopia | Dallas | 4 | Community","name_short":"dal-4","host":"dal-1.us.uncletopia.com","port":27045,"enabled":true,"region":"us-central","cc":"us","latitude":32.779167,"longitude":-96.80889,"reserved":0,"last_update":"0001-01-01T00:00:00Z","name_a2s":"Uncletopia | Dallas | 4 | Community","protocol":17,"map":"workshop/koth_slaughter_rc1.ugc1712845210","folder":"tf","game":"Team Fortress","app_id":440,"player_count":0,"max_players":24,"Bots":0,"server_type":"Dedicated","server_os":"Linux","password":true,"vac":true,"version":"7961495","steam_id":85568392924515220,"keywords":["cp","nocrits","nodmgspread","uncletopia"],"game_id":440,"stv_port":27046,"stv_name":"Uncletopia | Dallas | 4 | Community | STV","players":null},{"server_id":5,"name":"Uncletopia | Frankfurt | 1 | All Maps","name_short":"frk-1","host":"frk-1.de.uncletopia.com","port":27015,"enabled":true,"region":"eu","cc":"de","latitude":50.110924,"longitude":8.682127,"reserved":0,"last_update":"0001-01-01T00:00:00Z","name_a2s":"Uncletopia | Frankfurt | 1 | All Maps","protocol":17,"map":"koth_king","folder":"tf","game":"Team Fortress","app_id":440,"player_count":24,"max_players":24,"Bots":0,"server_type":"Dedicated","server_os":"Linux","password":true,"vac":true,"version":"7961495","steam_id":85568392924469989,"keywords":["cp","nocrits","nodmgspread","uncletopia"],"game_id":440,"stv_port":27016,"stv_name":"Uncletopia | Frankfurt | 1 | All Maps | STV","players":[{"user_id":680,"name":"=OKB= P4NTH3R","steam_id":76561197999204603,"connected_time":832000000000,"state":"active","ping":64},{"user_id":690,"name":"Khrinde","steam_id":76561198036744526,"connected_time":538000000000,"state":"active","ping":93},{"user_id":681,"name":"Leeroy Jenkins","steam_id":76561198137210227,"connected_time":829000000000,"state":"active","ping":65},{"user_id":591,"name":"CiVillain","steam_id":76561198059617732,"connected_time":5534000000000,"state":"active","ping":91},{"user_id":666,"name":"EL ZORRO","steam_id":76561198066879518,"connected_time":1588000000000,"state":"active","ping":101},{"user_id":656,"name":"Dr Zoidcrab","steam_id":76561198023709882,"connected_time":2440000000000,"state":"active","ping":73},{"user_id":684,"name":"WasserGurke","steam_id":76561198372482746,"connected_time":776000000000,"state":"active","ping":59},{"user_id":668,"name":"TheWinter","steam_id":76561198285640556,"connected_time":1527000000000,"state":"active","ping":74},{"user_id":654,"name":"Pathetic","steam_id":76561198081807049,"connected_time":2516000000000,"state":"active","ping":74},{"user_id":688,"name":"jonh","steam_id":76561198261853441,"connected_time":600000000000,"state":"active","ping":59},{"user_id":693,"name":"DOME","steam_id":76561198085155381,"connected_time":204000000000,"state":"active","ping":68},{"user_id":691,"name":"Khvicha Kvaraskhelia","steam_id":76561198985309519,"connected_time":480000000000,"state":"active","ping":77},{"user_id":659,"name":"Gen","steam_id":76561198021775885,"connected_time":2291000000000,"state":"active","ping":58},{"user_id":682,"name":"Nder05","steam_id":76561198962836840,"connected_time":787000000000,"state":"active","ping":68},{"user_id":687,"name":"개새]키야","steam_id":76561198190451031,"connected_time":677000000000,"state":"active","ping":46},{"user_id":683,"name":"Skyrider of Spaceways","steam_id":76561197991678236,"connected_time":784000000000,"state":"active","ping":139},{"user_id":679,"name":"peeka","steam_id":76561198221122068,"connected_time":962000000000,"state":"active","ping":61},{"user_id":646,"name":"Vershal Smershal","steam_id":76561198116223995,"connected_time":2620000000000,"state":"active","ping":60},{"user_id":644,"name":"Dynamix","steam_id":76561198043528565,"connected_time":2643000000000,"state":"active","ping":49},{"user_id":686,"name":"Fidacha","steam_id":76561198003060881,"connected_time":700000000000,"state":"active","ping":60},{"user_id":650,"name":"doug walker's trans awakening","steam_id":76561198190073005,"connected_time":2612000000000,"state":"active","ping":57},{"user_id":692,"name":"freeze9","steam_id":76561198062856371,"connected_time":222000000000,"state":"active","ping":100},{"user_id":694,"name":"Adam","steam_id":76561198259467867,"connected_time":197000000000,"state":"active","ping":74},{"user_id":653,"name":"agent youppii","steam_id":76561198055264447,"connected_time":2601000000000,"state":"active","ping":71}]},{"server_id":110,"name":"Uncletopia | Frankfurt | 2 | All Maps","name_short":"frk-2","host":"frk-1.de.uncletopia.com","port":27025,"enabled":true,"region":"eu","cc":"de","latitude":50.110924,"longitude":8.682127,"reserved":0,"last_update":"0001-01-01T00:00:00Z","name_a2s":"Uncletopia | Frankfurt | 2 | All Maps","protocol":17,"map":"pl_badwater","folder":"tf","game":"Team Fortress","app_id":440,"player_count":24,"max_players":24,"Bots":0,"server_type":"Dedicated","server_os":"Linux","password":true,"vac":true,"version":"7961495","steam_id":85568392924469990,"keywords":["nocrits","nodmgspread","payload","uncletopia"],"game_id":440,"stv_port":27026,"stv_name":"Uncletopia | Frankfurt | 2 | All Maps | STV","players":[{"user_id":614,"name":"Keith","steam_id":76561197988849295,"connected_time":287000000000,"state":"active","ping":68},{"user_id":577,"name":"N","steam_id":76561198176593895,"connected_time":1715000000000,"state":"active","ping":60},{"user_id":584,"name":"Guy who did a thing","steam_id":76561199229531332,"connected_time":1375000000000,"state":"active","ping":165},{"user_id":590,"name":"Reimu","steam_id":76561198101532240,"connected_time":1079000000000,"state":"active","ping":70},{"user_id":598,"name":"A Pigeon","steam_id":76561198114090555,"connected_time":674000000000,"state":"active","ping":64},{"user_id":604,"name":"Cosmic Gamer","steam_id":76561198027357981,"connected_time":465000000000,"state":"active","ping":88},{"user_id":606,"name":"Dani","steam_id":76561198211627920,"connected_time":434000000000,"state":"active","ping":75},{"user_id":599,"name":"Liko","steam_id":76561197994660517,"connected_time":673000000000,"state":"active","ping":75},{"user_id":526,"name":"Dozer","steam_id":76561197998742338,"connected_time":5691000000000,"state":"active","ping":67},{"user_id":594,"name":"lawn","steam_id":76561198001243486,"connected_time":835000000000,"state":"active","ping":51},{"user_id":607,"name":"Fabric","steam_id":76561198118742661,"connected_time":433000000000,"state":"active","ping":94},{"user_id":602,"name":"man in da club","steam_id":76561198090580368,"connected_time":564000000000,"state":"active","ping":64},{"user_id":608,"name":"Vendedor de sacos do LIDL","steam_id":76561198301838757,"connected_time":430000000000,"state":"active","ping":86},{"user_id":581,"name":"fl1p","steam_id":76561198148565659,"connected_time":1634000000000,"state":"active","ping":80},{"user_id":549,"name":"Accident","steam_id":76561198115160396,"connected_time":3794000000000,"state":"active","ping":70},{"user_id":609,"name":"kilo","steam_id":76561198015641339,"connected_time":414000000000,"state":"active","ping":74},{"user_id":615,"name":"thia","steam_id":76561198186366599,"connected_time":261000000000,"state":"active","ping":84},{"user_id":566,"name":"niremmar","steam_id":76561198031915349,"connected_time":3060000000000,"state":"active","ping":53},{"user_id":586,"name":"Constropic","steam_id":76561199433555557,"connected_time":1352000000000,"state":"active","ping":155},{"user_id":612,"name":"Futaro","steam_id":76561198084534929,"connected_time":358000000000,"state":"active","ping":64},{"user_id":588,"name":"Hildreth","steam_id":76561197995254867,"connected_time":1300000000000,"state":"active","ping":63},{"user_id":582,"name":"_Starlight_","steam_id":76561197993885738,"connected_time":1622000000000,"state":"active","ping":87},{"user_id":613,"name":"My left foot itches","steam_id":76561198078411001,"connected_time":322000000000,"state":"active","ping":81},{"user_id":617,"name":"luma","steam_id":76561198081649669,"connected_time":176000000000,"state":"active","ping":65}]},{"server_id":308,"name":"Uncletopia | Frankfurt | 3 | All Maps","name_short":"frk-3","host":"frk-1.de.uncletopia.com","port":27035,"enabled":true,"region":"eu","cc":"de","latitude":50.110924,"longitude":8.682127,"reserved":0,"last_update":"0001-01-01T00:00:00Z","name_a2s":"Uncletopia | Frankfurt | 3 | All Maps","protocol":17,"map":"pl_pier","folder":"tf","game":"Team Fortress","app_id":440,"player_count":24,"max_players":24,"Bots":0,"server_type":"Dedicated","server_os":"Linux","password":true,"vac":true,"version":"7961495","steam_id":85568392924504274,"keywords":["nocrits","nodmgspread","payload","uncletopia"],"game_id":440,"stv_port":27036,"stv_name":"Uncletopia | Frankfurt | 3 | All Maps | STV","players":[{"user_id":606,"name":"Mister","steam_id":76561199049647854,"connected_time":5851000000000,"state":"active","ping":47},{"user_id":668,"name":"Alibi","steam_id":76561198061845595,"connected_time":191000000000,"state":"active","ping":62},{"user_id":644,"name":"S. Krypt","steam_id":76561199387501738,"connected_time":2959000000000,"state":"active","ping":66},{"user_id":645,"name":"MR BUBBLES","steam_id":76561198019005259,"connected_time":2735000000000,"state":"active","ping":104},{"user_id":617,"name":"LordTrap.exe","steam_id":76561198318089716,"connected_time":5413000000000,"state":"active","ping":61},{"user_id":667,"name":"Silvio Dante","steam_id":76561198963804772,"connected_time":540000000000,"state":"active","ping":91},{"user_id":666,"name":"Saul Badman","steam_id":76561199013233409,"connected_time":1183000000000,"state":"active","ping":72},{"user_id":648,"name":"Ender_DragonYT... GGDROP.COM","steam_id":76561198946735113,"connected_time":2440000000000,"state":"active","ping":74},{"user_id":629,"name":"pootis sentry","steam_id":76561199225363633,"connected_time":3924000000000,"state":"active","ping":122},{"user_id":618,"name":"mr.resetti","steam_id":76561198974520642,"connected_time":5408000000000,"state":"active","ping":65},{"user_id":647,"name":"Ahhok","steam_id":76561198197609818,"connected_time":2675000000000,"state":"active","ping":83},{"user_id":598,"name":"Qwerty","steam_id":76561198023525894,"connected_time":6540000000000,"state":"active","ping":77},{"user_id":632,"name":"Rebeliondog","steam_id":76561198056815609,"connected_time":3678000000000,"state":"active","ping":65},{"user_id":665,"name":"Relic","steam_id":76561199499093258,"connected_time":1208000000000,"state":"active","ping":56},{"user_id":643,"name":"MIGHTY PISS","steam_id":76561198226378616,"connected_time":3010000000000,"state":"active","ping":86},{"user_id":657,"name":"typicalcrimson","steam_id":76561198295439747,"connected_time":1782000000000,"state":"active","ping":82},{"user_id":669,"name":"Sultan Mohammad Süleyman II.","steam_id":76561198124568025,"connected_time":170000000000,"state":"active","ping":60},{"user_id":658,"name":"Larry Penus","steam_id":76561198207546233,"connected_time":1739000000000,"state":"active","ping":54},{"user_id":652,"name":"murderwow","steam_id":76561198024566944,"connected_time":2411000000000,"state":"active","ping":94},{"user_id":660,"name":"Hellheim_Prime","steam_id":76561198379799377,"connected_time":1609000000000,"state":"active","ping":91},{"user_id":653,"name":"sphere","steam_id":76561197971059842,"connected_time":2395000000000,"state":"active","ping":57},{"user_id":655,"name":"Gaxkang","steam_id":76561198125768571,"connected_time":2359000000000,"state":"active","ping":72},{"user_id":670,"name":"Adamkarz","steam_id":76561198796428403,"connected_time":124000000000,"state":"active","ping":93},{"user_id":642,"name":"The Lady","steam_id":76561198029895809,"connected_time":3128000000000,"state":"active","ping":76}]},{"server_id":309,"name":"Uncletopia | Frankfurt | 4 | All Maps","name_short":"frk-4","host":"frk-1.de.uncletopia.com","port":27045,"enabled":true,"region":"eu","cc":"de","latitude":50.110924,"longitude":8.682127,"reserved":0,"last_update":"0001-01-01T00:00:00Z","name_a2s":"Uncletopia | Frankfurt | 4 | All Maps","protocol":17,"map":"pl_borneo","folder":"tf","game":"Team Fortress","app_id":440,"player_count":24,"max_players":24,"Bots":0,"server_type":"Dedicated","server_os":"Linux","password":true,"vac":true,"version":"7961495","steam_id":85568392924504275,"keywords":["nocrits","nodmgspread","payload","uncletopia"],"game_id":440,"stv_port":27046,"stv_name":"Uncletopia | Frankfurt | 4 | All Maps | STV","players":[{"user_id":538,"name":"Caruzon - Obismal","steam_id":76561198036211170,"connected_time":2377000000000,"state":"active","ping":73},{"user_id":595,"name":"aaaaaaaaaaaaaaaaaaaaaaaaaaaaaaa","steam_id":76561198347020945,"connected_time":360000000000,"state":"active","ping":79},{"user_id":554,"name":"Happy Broccol","steam_id":76561198180667795,"connected_time":1940000000000,"state":"active","ping":73},{"user_id":516,"name":"Macci - Obismal","steam_id":76561198050485404,"connected_time":4619000000000,"state":"active","ping":73},{"user_id":492,"name":"Dr.eggmans Warcrime Lawyer","steam_id":76561198057707263,"connected_time":5377000000000,"state":"active","ping":60},{"user_id":545,"name":"Dirocks","steam_id":76561198138494815,"connected_time":2037000000000,"state":"active","ping":76},{"user_id":594,"name":"Ott","steam_id":76561198276464481,"connected_time":426000000000,"state":"active","ping":68},{"user_id":561,"name":"Der Herr Doktor","steam_id":76561198119476089,"connected_time":1151000000000,"state":"active","ping":107},{"user_id":566,"name":"corro","steam_id":76561197982510441,"connected_time":1075000000000,"state":"active","ping":45},{"user_id":562,"name":"Sunshine Moon","steam_id":76561198022604491,"connected_time":1139000000000,"state":"active","ping":100},{"user_id":527,"name":"Violent_Raccoons","steam_id":76561199006002337,"connected_time":4012000000000,"state":"active","ping":66},{"user_id":558,"name":"Chipsy","steam_id":76561198271813588,"connected_time":1351000000000,"state":"active","ping":74},{"user_id":569,"name":"Jimmy Poppadopolos","steam_id":76561198044825612,"connected_time":1032000000000,"state":"active","ping":55},{"user_id":543,"name":"hgvgdwa","steam_id":76561198156499356,"connected_time":2127000000000,"state":"active","ping":60},{"user_id":572,"name":"highest noon","steam_id":76561199103959197,"connected_time":977000000000,"state":"active","ping":93},{"user_id":579,"name":"tjuvjakt","steam_id":76561198214848887,"connected_time":794000000000,"state":"active","ping":68},{"user_id":556,"name":"(≖ᴗ≖✿)","steam_id":76561198095560087,"connected_time":1616000000000,"state":"active","ping":64},{"user_id":547,"name":"twitch.tv/fiscal_2","steam_id":76561198028610297,"connected_time":2018000000000,"state":"active","ping":79},{"user_id":550,"name":"Noner_","steam_id":76561198071526138,"connected_time":1990000000000,"state":"active","ping":77},{"user_id":517,"name":"BigDikNRJ - Obismal","steam_id":76561198055309521,"connected_time":4616000000000,"state":"active","ping":61},{"user_id":551,"name":"twitch.tv/zepudim2","steam_id":76561198122413439,"connected_time":1978000000000,"state":"active","ping":90},{"user_id":570,"name":"R8N - Obismal","steam_id":76561198007482714,"connected_time":1025000000000,"state":"active","ping":75},{"user_id":568,"name":"Dommy","steam_id":76561197990864747,"connected_time":1041000000000,"state":"active","ping":57},{"user_id":567,"name":"randompixel","steam_id":76561198003941207,"connected_time":1066000000000,"state":"active","ping":73}]},{"server_id":310,"name":"Uncletopia | Frankfurt | 5 | All Maps","name_short":"frk-5","host":"frk-1.de.uncletopia.com","port":27055,"enabled":true,"region":"eu","cc":"de","latitude":50.110924,"longitude":8.682127,"reserved":0,"last_update":"0001-01-01T00:00:00Z","name_a2s":"Uncletopia | Frankfurt | 5 | All Maps","protocol":17,"map":"cp_dustbowl","folder":"tf","game":"Team Fortress","app_id":440,"player_count":24,"max_players":24,"Bots":0,"server_type":"Dedicated","server_os":"Linux","password":true,"vac":true,"version":"7961495","steam_id":85568392924504277,"keywords":["cp","nocrits","nodmgspread","uncletopia"],"game_id":440,"stv_port":27056,"stv_name":"Uncletopia | Frankfurt | 5 | All Maps | STV","players":[{"user_id":831,"name":"Suetolog","steam_id":76561199053090212,"connected_time":1197000000000,"state":"active","ping":47},{"user_id":849,"name":"Qwertuss","steam_id":76561198026305366,"connected_time":589000000000,"state":"active","ping":61},{"user_id":819,"name":"Zirif","steam_id":76561198116200959,"connected_time":2468000000000,"state":"active","ping":59},{"user_id":778,"name":"Fat Scout","steam_id":76561199025316887,"connected_time":5240000000000,"state":"active","ping":85},{"user_id":833,"name":"pierogi","steam_id":76561198718760200,"connected_time":1096000000000,"state":"active","ping":61},{"user_id":848,"name":"Flohr","steam_id":76561198191948841,"connected_time":636000000000,"state":"active","ping":53},{"user_id":812,"name":"Dude™","steam_id":76561198082099161,"connected_time":2762000000000,"state":"active","ping":81},{"user_id":838,"name":"Noo-Noo","steam_id":76561198060242978,"connected_time":918000000000,"state":"active","ping":52},{"user_id":837,"name":"horrors within my comprehension","steam_id":76561198363841749,"connected_time":952000000000,"state":"active","ping":62},{"user_id":825,"name":"finbar","steam_id":76561198056812396,"connected_time":1707000000000,"state":"active","ping":74},{"user_id":813,"name":"Nuuskis","steam_id":76561198084042012,"connected_time":2761000000000,"state":"active","ping":82},{"user_id":821,"name":"metodmiha","steam_id":76561199111498575,"connected_time":1959000000000,"state":"active","ping":75},{"user_id":850,"name":"GM","steam_id":76561198014733498,"connected_time":562000000000,"state":"active","ping":135},{"user_id":815,"name":"chmiel156","steam_id":76561198079226529,"connected_time":2758000000000,"state":"active","ping":70},{"user_id":843,"name":"Wii Bar","steam_id":76561198040251261,"connected_time":761000000000,"state":"active","ping":75},{"user_id":851,"name":"czajnik","steam_id":76561198840758149,"connected_time":142000000000,"state":"active","ping":75},{"user_id":844,"name":"Silver","steam_id":76561198175238807,"connected_time":719000000000,"state":"active","ping":78},{"user_id":829,"name":"Memper","steam_id":76561198066700614,"connected_time":1417000000000,"state":"active","ping":85},{"user_id":845,"name":"DemantoR","steam_id":76561199370081729,"connected_time":715000000000,"state":"active","ping":84},{"user_id":846,"name":"Ozzie","steam_id":76561197992915315,"connected_time":711000000000,"state":"active","ping":76},{"user_id":797,"name":"smiley","steam_id":76561198042245117,"connected_time":4028000000000,"state":"active","ping":69},{"user_id":755,"name":"Vonacht","steam_id":76561198016033944,"connected_time":7198000000000,"state":"active","ping":64},{"user_id":847,"name":"Vulgar Sexist","steam_id":76561198030598279,"connected_time":708000000000,"state":"active","ping":121},{"user_id":756,"name":"zazuza","steam_id":76561198049820905,"connected_time":7197000000000,"state":"active","ping":61}]},{"server_id":311,"name":"Uncletopia | Frankfurt | 6 | All Maps","name_short":"frk-6","host":"frk-1.de.uncletopia.com","port":27065,"enabled":true,"region":"eu","cc":"de","latitude":50.110924,"longitude":8.682127,"reserved":0,"last_update":"0001-01-01T00:00:00Z","name_a2s":"Uncletopia | Frankfurt | 6 | All Maps","protocol":17,"map":"pl_barnblitz","folder":"tf","game":"Team Fortress","app_id":440,"player_count":24,"max_players":24,"Bots":0,"server_type":"Dedicated","server_os":"Linux","password":true,"vac":true,"version":"7961495","steam_id":85568392924504278,"keywords":["nocrits","nodmgspread","payload","uncletopia"],"game_id":440,"stv_port":27066,"stv_name":"Uncletopia | Frankfurt | 6 | All Maps | STV","players":[{"user_id":621,"name":"frank","steam_id":76561198137710815,"connected_time":4023000000000,"state":"active","ping":65},{"user_id":644,"name":"Elsuedi","steam_id":76561198074722832,"connected_time":2238000000000,"state":"active","ping":55},{"user_id":643,"name":"Frögg-Kät","steam_id":76561198263561004,"connected_time":2308000000000,"state":"active","ping":61},{"user_id":649,"name":"marty","steam_id":76561198082934864,"connected_time":1542000000000,"state":"active","ping":88},{"user_id":635,"name":"Lemon","steam_id":76561198188535947,"connected_time":2846000000000,"state":"active","ping":85},{"user_id":634,"name":"Mister Spuds","steam_id":76561198000878240,"connected_time":3024000000000,"state":"active","ping":66},{"user_id":609,"name":"ran is running","steam_id":76561199443185667,"connected_time":4521000000000,"state":"active","ping":133},{"user_id":650,"name":"the cart is not movin lads","steam_id":76561199184578185,"connected_time":1422000000000,"state":"active","ping":65},{"user_id":657,"name":"ScaryTree","steam_id":76561199384362833,"connected_time":354000000000,"state":"active","ping":63},{"user_id":588,"name":"denimchicken","steam_id":76561197989061982,"connected_time":6343000000000,"state":"active","ping":80},{"user_id":591,"name":"Lartay","steam_id":76561198015277868,"connected_time":6008000000000,"state":"active","ping":55},{"user_id":653,"name":"1# autistic beast","steam_id":76561198451638173,"connected_time":797000000000,"state":"active","ping":67},{"user_id":531,"name":"CzechMate #SaveTF2","steam_id":76561198012687703,"connected_time":10060000000000,"state":"active","ping":50},{"user_id":658,"name":"Yuval™ ❤Lennox","steam_id":76561198069144388,"connected_time":320000000000,"state":"active","ping":114},{"user_id":602,"name":"Lord of Birds","steam_id":76561198268952995,"connected_time":4763000000000,"state":"active","ping":73},{"user_id":590,"name":"CT-9904","steam_id":76561199386703896,"connected_time":6108000000000,"state":"active","ping":66},{"user_id":604,"name":"\u003cGNGWD\u003e CrocAsaurus","steam_id":76561198213982408,"connected_time":4758000000000,"state":"active","ping":63},{"user_id":640,"name":"Endi","steam_id":76561198914938199,"connected_time":2636000000000,"state":"active","ping":92},{"user_id":654,"name":"hananamanna","steam_id":76561198006570285,"connected_time":785000000000,"state":"active","ping":106},{"user_id":651,"name":"Pats (Gifted items Collector)","steam_id":76561198418538887,"connected_time":865000000000,"state":"active","ping":87},{"user_id":648,"name":"Huskai","steam_id":76561198141512362,"connected_time":1622000000000,"state":"active","ping":45},{"user_id":575,"name":"Geit","steam_id":76561197998342021,"connected_time":7365000000000,"state":"active","ping":46},{"user_id":659,"name":"Xiqui","steam_id":76561198818386611,"connected_time":230000000000,"state":"active","ping":86},{"user_id":660,"name":"TidB","steam_id":76561198055342304,"connected_time":61000000000,"state":"active","ping":52}]},{"server_id":23,"name":"Uncletopia | Frankfurt | 7 | Stopwatch","name_short":"frk-7","host":"frk-1.de.uncletopia.com","port":27075,"enabled":true,"region":"eu","cc":"de","latitude":50.110924,"longitude":8.682127,"reserved":0,"last_update":"0001-01-01T00:00:00Z","name_a2s":"Uncletopia | Frankfurt | 7 | Stopwatch","protocol":17,"map":"cp_snakewater_final1","folder":"tf","game":"Team Fortress","app_id":440,"player_count":24,"max_players":24,"Bots":0,"server_type":"Dedicated","server_os":"Linux","password":true,"vac":true,"version":"7961495","steam_id":85568392924742827,"keywords":["cp","nocrits","nodmgspread","uncletopia"],"game_id":440,"stv_port":27076,"stv_name":"Uncletopia | Frankfurt | 7 | Stopwatch | STV","players":[{"user_id":575,"name":"Takyon","steam_id":76561198980555595,"connected_time":411000000000,"state":"active","ping":58},{"user_id":576,"name":"sewer","steam_id":76561198267556683,"connected_time":393000000000,"state":"active","ping":61},{"user_id":554,"name":"lisivi","steam_id":76561198365503306,"connected_time":2471000000000,"state":"active","ping":53},{"user_id":577,"name":"Indomitable Truck-sama","steam_id":76561198826861582,"connected_time":324000000000,"state":"active","ping":90},{"user_id":557,"name":"fifrok","steam_id":76561198799267621,"connected_time":2198000000000,"state":"active","ping":72},{"user_id":578,"name":"edward cullen from twilight","steam_id":76561198038827937,"connected_time":292000000000,"state":"active","ping":68},{"user_id":558,"name":"Ptyś Pogromca","steam_id":76561199004413101,"connected_time":2186000000000,"state":"active","ping":115},{"user_id":548,"name":"ant753","steam_id":76561198103458889,"connected_time":2924000000000,"state":"active","ping":66},{"user_id":494,"name":"Birchly","steam_id":76561198140011785,"connected_time":5794000000000,"state":"active","ping":61},{"user_id":549,"name":"LaZe","steam_id":76561198202191400,"connected_time":2831000000000,"state":"active","ping":74},{"user_id":504,"name":"Fat Pigeon","steam_id":76561198817940142,"connected_time":5257000000000,"state":"active","ping":54},{"user_id":560,"name":"prophits","steam_id":76561198011854314,"connected_time":1678000000000,"state":"active","ping":75},{"user_id":564,"name":"dirhs","steam_id":76561198383867611,"connected_time":1384000000000,"state":"active","ping":60},{"user_id":509,"name":"vi","steam_id":76561198303147966,"connected_time":5134000000000,"state":"active","ping":60},{"user_id":502,"name":"Team Red Rocket","steam_id":76561198091064959,"connected_time":5556000000000,"state":"active","ping":67},{"user_id":567,"name":"[O\u0026O]YaboiDucki","steam_id":76561198195976589,"connected_time":1077000000000,"state":"active","ping":87},{"user_id":568,"name":"g19","steam_id":76561198159769052,"connected_time":1067000000000,"state":"active","ping":60},{"user_id":580,"name":"sloppy transgirl toppy","steam_id":76561198057092208,"connected_time":201000000000,"state":"active","ping":68},{"user_id":581,"name":"Guildy","steam_id":76561198015604164,"connected_time":199000000000,"state":"active","ping":65},{"user_id":587,"name":"Magnum Carlos","steam_id":76561197986026985,"connected_time":18000000000,"state":"active","ping":46},{"user_id":583,"name":"Odin","steam_id":76561198087800030,"connected_time":151000000000,"state":"active","ping":46},{"user_id":539,"name":"Rock..","steam_id":76561198004641963,"connected_time":4154000000000,"state":"active","ping":75},{"user_id":584,"name":"kide","steam_id":76561199471029815,"connected_time":127000000000,"state":"active","ping":166},{"user_id":585,"name":"Cosmetic brain","steam_id":76561198055936410,"connected_time":123000000000,"state":"active","ping":87}]},{"server_id":24,"name":"Uncletopia | Frankfurt | 8 | Community","name_short":"frk-8","host":"frk-1.de.uncletopia.com","port":27085,"enabled":true,"region":"eu","cc":"de","latitude":50.110924,"longitude":8.682127,"reserved":0,"last_update":"0001-01-01T00:00:00Z","name_a2s":"Uncletopia | Frankfurt | 8 | Community","protocol":17,"map":"workshop/cp_fulgur_rc2a.ugc2068252300","folder":"tf","game":"Team Fortress","app_id":440,"player_count":0,"max_players":24,"Bots":0,"server_type":"Dedicated","server_os":"Linux","password":true,"vac":true,"version":"7961495","steam_id":85568392924742828,"keywords":["cp","nocrits","nodmgspread","uncletopia"],"game_id":440,"stv_port":27086,"stv_name":"Uncletopia | Frankfurt | 8 | Community | STV","players":null},{"server_id":202,"name":"Uncletopia | Hong Kong | 1 | All Maps","name_short":"hgk-1","host":"hgk-1.hk.uncletopia.com","port":27015,"enabled":true,"region":"asia","cc":"hk","latitude":22.302711,"longitude":114.177216,"reserved":0,"last_update":"0001-01-01T00:00:00Z","name_a2s":"Uncletopia | Hong Kong | 1 | All Maps","protocol":17,"map":"cp_altitude","folder":"tf","game":"Team Fortress","app_id":440,"player_count":0,"max_players":24,"Bots":0,"server_type":"Dedicated","server_os":"Linux","password":true,"vac":true,"version":"7961495","steam_id":85568392924494504,"keywords":["cp","nocrits","nodmgspread","uncletopia"],"game_id":440,"stv_port":27016,"stv_name":"Uncletopia | Hong Kong | 1 | All Maps | STV","players":null},{"server_id":1,"name":"Uncletopia | Los Angeles | 1 | All Maps","name_short":"lax-1","host":"lax-1.us.uncletopia.com","port":27015,"enabled":true,"region":"us-west","cc":"us","latitude":33.94279,"longitude":-118.41004,"reserved":0,"last_update":"0001-01-01T00:00:00Z","name_a2s":"Uncletopia | Los Angeles | 1 | All Maps","protocol":17,"map":"koth_lakeside_final","folder":"tf","game":"Team Fortress","app_id":440,"player_count":0,"max_players":24,"Bots":0,"server_type":"Dedicated","server_os":"Linux","password":true,"vac":true,"version":"7961495","steam_id":85568392924469991,"keywords":["cp","nocrits","nodmgspread","uncletopia"],"game_id":440,"stv_port":27016,"stv_name":"Uncletopia | Los Angeles | 1 | All Maps | STV","players":null},{"server_id":112,"name":"Uncletopia | Los Angeles | 2 | All Maps","name_short":"lax-2","host":"lax-1.us.uncletopia.com","port":27025,"enabled":true,"region":"us-west","cc":"us","latitude":33.94279,"longitude":-118.41004,"reserved":0,"last_update":"0001-01-01T00:00:00Z","name_a2s":"Uncletopia | Los Angeles | 2 | All Maps","protocol":17,"map":"koth_highpass","folder":"tf","game":"Team Fortress","app_id":440,"player_count":0,"max_players":24,"Bots":0,"server_type":"Dedicated","server_os":"Linux","password":true,"vac":true,"version":"7961495","steam_id":85568392924469992,"keywords":["cp","nocrits","nodmgspread","uncletopia"],"game_id":440,"stv_port":27026,"stv_name":"Uncletopia | Los Angeles | 2 | All Maps | STV","players":null},{"server_id":324,"name":"Uncletopia | Los Angeles | 3 | All Maps","name_short":"lax-3","host":"lax-1.us.uncletopia.com","port":27035,"enabled":true,"region":"us-west","cc":"us","latitude":33.94279,"longitude":-118.41004,"reserved":0,"last_update":"0001-01-01T00:00:00Z","name_a2s":"Uncletopia | Los Angeles | 3 | All Maps","protocol":17,"map":"pl_upward","folder":"tf","game":"Team Fortress","app_id":440,"player_count":21,"max_players":24,"Bots":0,"server_type":"Dedicated","server_os":"Linux","password":true,"vac":true,"version":"7961495","steam_id":85568392924510198,"keywords":["nocrits","nodmgspread","payload","uncletopia"],"game_id":440,"stv_port":27036,"stv_name":"Uncletopia | Los Angeles | 3 | All Maps | STV","players":[{"user_id":15,"name":"wizerd","steam_id":76561198342480009,"connected_time":1917000000000,"state":"spawning","ping":116},{"user_id":12,"name":"cielael","steam_id":76561198043971956,"connected_time":2102000000000,"state":"spawning","ping":82},{"user_id":24,"name":"Rocktra_","steam_id":76561198173272943,"connected_time":1404000000000,"state":"spawning","ping":65},{"user_id":13,"name":"hoOmIN","steam_id":76561198334947079,"connected_time":1967000000000,"state":"spawning","ping":70},{"user_id":14,"name":"heck","steam_id":76561198315694520,"connected_time":1961000000000,"state":"spawning","ping":81},{"user_id":22,"name":"♥ur :3 medic gf♥ (51ref/hr)","steam_id":76561198816778484,"connected_time":1453000000000,"state":"spawning","ping":128},{"user_id":17,"name":"noproblem82","steam_id":76561198370431307,"connected_time":1834000000000,"state":"spawning","ping":52},{"user_id":18,"name":"Brody Yukin","steam_id":76561198084712019,"connected_time":1789000000000,"state":"spawning","ping":93},{"user_id":36,"name":"lol","steam_id":76561198026491738,"connected_time":1151000000000,"state":"spawning","ping":116},{"user_id":38,"name":"NASA PEEPO","steam_id":76561198024982267,"connected_time":1073000000000,"state":"spawning","ping":75},{"user_id":48,"name":"philio2010","steam_id":76561199086384636,"connected_time":514000000000,"state":"spawning","ping":75},{"user_id":27,"name":"hyaz, +rep.","steam_id":76561199100342013,"connected_time":1250000000000,"state":"spawning","ping":93},{"user_id":53,"name":"Bl0ckM4n","steam_id":76561199016413171,"connected_time":266000000000,"state":"spawning","ping":109},{"user_id":30,"name":"lshot23432","steam_id":76561199122349101,"connected_time":1231000000000,"state":"spawning","ping":144},{"user_id":37,"name":"no vc no c","steam_id":76561197989503095,"connected_time":1129000000000,"state":"spawning","ping":268},{"user_id":54,"name":"corcilidile 🐊","steam_id":76561199271544694,"connected_time":260000000000,"state":"spawning","ping":83},{"user_id":49,"name":"Birdman743","steam_id":76561198799636748,"connected_time":416000000000,"state":"spawning","ping":95},{"user_id":55,"name":"Ethanol Buttchugger","steam_id":76561199127590316,"connected_time":52000000000,"state":"spawning","ping":80},{"user_id":43,"name":"exx","steam_id":76561198090552145,"connected_time":968000000000,"state":"spawning","ping":84},{"user_id":41,"name":"OutgoingBlur","steam_id":76561199087497070,"connected_time":1040000000000,"state":"spawning","ping":135},{"user_id":42,"name":"Bowling Alley Strike Animation","steam_id":76561198378587138,"connected_time":1032000000000,"state":"spawning","ping":84}]},{"server_id":25,"name":"Uncletopia | Los Angeles | 4 | Stopwatch","name_short":"lax-4","host":"lax-1.us.uncletopia.com","port":27045,"enabled":true,"region":"us-west","cc":"us","latitude":33.94279,"longitude":-118.41004,"reserved":0,"last_update":"0001-01-01T00:00:00Z","name_a2s":"Uncletopia | Los Angeles | 4 | Stopwatch","protocol":17,"map":"pl_barnblitz","folder":"tf","game":"Team Fortress","app_id":440,"player_count":0,"max_players":24,"Bots":0,"server_type":"Dedicated","server_os":"Linux","password":true,"vac":true,"version":"7961495","steam_id":85568392924510199,"keywords":["nocrits","nodmgspread","payload","uncletopia"],"game_id":440,"stv_port":27046,"stv_name":"Uncletopia | Los Angeles | 4 | Stopwatch | STV","players":null},{"server_id":11,"name":"Uncletopia | London | 1 | All Maps","name_short":"lon-1","host":"lon-1.uk.uncletopia.com","port":27015,"enabled":true,"region":"eu","cc":"gb","latitude":51.509865,"longitude":-0.118092,"reserved":0,"last_update":"0001-01-01T00:00:00Z","name_a2s":"Uncletopia | London | 1 | All Maps","protocol":17,"map":"cp_sunshine","folder":"tf","game":"Team Fortress","app_id":440,"player_count":24,"max_players":24,"Bots":0,"server_type":"Dedicated","server_os":"Linux","password":true,"vac":true,"version":"7961495","steam_id":85568392924367362,"keywords":["cp","nocrits","nodmgspread","uncletopia"],"game_id":440,"stv_port":27016,"stv_name":"Uncletopia | London | 1 | All Maps | STV","players":[{"user_id":430,"name":"Trans Femtress 2","steam_id":76561198014056212,"connected_time":5634000000000,"state":"active","ping":75},{"user_id":414,"name":"getpost","steam_id":76561198260064876,"connected_time":7586000000000,"state":"active","ping":96},{"user_id":458,"name":"whimsy.","steam_id":76561198878171763,"connected_time":2392000000000,"state":"spawning","ping":47},{"user_id":457,"name":"SOPHIIAA","steam_id":76561198443798981,"connected_time":2410000000000,"state":"active","ping":86},{"user_id":454,"name":"hmscole09","steam_id":76561198811362788,"connected_time":3076000000000,"state":"active","ping":78},{"user_id":475,"name":"CRASH","steam_id":76561198125498315,"connected_time":123000000000,"state":"active","ping":48},{"user_id":464,"name":"Nutty Dark^^","steam_id":76561198036241064,"connected_time":1840000000000,"state":"active","ping":64},{"user_id":408,"name":"Finkaksu Devourer of Sour Candy","steam_id":76561198201389163,"connected_time":7786000000000,"state":"active","ping":70},{"user_id":472,"name":"Aaron","steam_id":76561197990046953,"connected_time":147000000000,"state":"active","ping":47},{"user_id":377,"name":"god's eepiest girl","steam_id":76561198128327529,"connected_time":10601000000000,"state":"active","ping":54},{"user_id":474,"name":"Bobirulez","steam_id":76561198009125458,"connected_time":137000000000,"state":"active","ping":76},{"user_id":476,"name":"Testy","steam_id":76561198169996602,"connected_time":120000000000,"state":"active","ping":64},{"user_id":455,"name":"Clown :o)","steam_id":76561198074657015,"connected_time":2704000000000,"state":"active","ping":58},{"user_id":442,"name":"Minimi","steam_id":76561198873850443,"connected_time":4007000000000,"state":"active","ping":48},{"user_id":427,"name":"❤aura❤","steam_id":76561198066258544,"connected_time":6371000000000,"state":"active","ping":56},{"user_id":456,"name":"Fwebbie","steam_id":76561199006875621,"connected_time":2465000000000,"state":"active","ping":53},{"user_id":363,"name":"goff","steam_id":76561198118989010,"connected_time":11336000000000,"state":"active","ping":46},{"user_id":439,"name":"impossible whopper eater","steam_id":76561198058641805,"connected_time":4775000000000,"state":"active","ping":47},{"user_id":470,"name":"Purps","steam_id":76561198053886680,"connected_time":157000000000,"state":"active","ping":39},{"user_id":441,"name":"Anri Okita's Massive Milkers","steam_id":76561199186352720,"connected_time":4178000000000,"state":"active","ping":62},{"user_id":444,"name":"Pinkchup","steam_id":76561198106802803,"connected_time":3988000000000,"state":"active","ping":76},{"user_id":451,"name":"♥ඞlilyඞ♥","steam_id":76561198049840460,"connected_time":3209000000000,"state":"active","ping":61},{"user_id":467,"name":"beebo","steam_id":76561199120277007,"connected_time":1212000000000,"state":"active","ping":211},{"user_id":424,"name":"gnarly business","steam_id":76561198832688767,"connected_time":6489000000000,"state":"active","ping":43}]},{"server_id":114,"name":"Uncletopia | London | 2 | All Maps","name_short":"lon-2","host":"lon-1.uk.uncletopia.com","port":27025,"enabled":true,"region":"eu","cc":"gb","latitude":51.509865,"longitude":-0.118092,"reserved":0,"last_update":"0001-01-01T00:00:00Z","name_a2s":"Uncletopia | London | 2 | All Maps","protocol":17,"map":"cp_altitude","folder":"tf","game":"Team Fortress","app_id":440,"player_count":0,"max_players":24,"Bots":0,"server_type":"Dedicated","server_os":"Linux","password":true,"vac":true,"version":"7961495","steam_id":85568392924470941,"keywords":["cp","nocrits","nodmgspread","uncletopia"],"game_id":440,"stv_port":27026,"stv_name":"Uncletopia | London | 2 | All Maps | STV","players":null},{"server_id":320,"name":"Uncletopia | London | 3 | All Maps","name_short":"lon-3","host":"lon-1.uk.uncletopia.com","port":27035,"enabled":true,"region":"eu","cc":"gb","latitude":51.509865,"longitude":-0.118092,"reserved":0,"last_update":"0001-01-01T00:00:00Z","name_a2s":"Uncletopia | London | 3 | All Maps","protocol":17,"map":"koth_viaduct","folder":"tf","game":"Team Fortress","app_id":440,"player_count":24,"max_players":24,"Bots":0,"server_type":"Dedicated","server_os":"Linux","password":true,"vac":true,"version":"7961495","steam_id":85568392924510192,"keywords":["cp","nocrits","nodmgspread","uncletopia"],"game_id":440,"stv_port":27036,"stv_name":"Uncletopia | London | 3 | All Maps | STV","players":[{"user_id":705,"name":"Adwulf","steam_id":76561198045489942,"connected_time":151000000000,"state":"active","ping":37},{"user_id":664,"name":"Nox Equites","steam_id":76561198115438449,"connected_time":3110000000000,"state":"active","ping":85},{"user_id":685,"name":"ExtraFlames","steam_id":76561199136146246,"connected_time":1497000000000,"state":"active","ping":56},{"user_id":682,"name":"Just washed","steam_id":76561199030160932,"connected_time":1849000000000,"state":"active","ping":155},{"user_id":683,"name":"=flashpoint=","steam_id":76561197976774456,"connected_time":1667000000000,"state":"active","ping":42},{"user_id":692,"name":"Pvt. Prinny","steam_id":76561198030278562,"connected_time":1217000000000,"state":"active","ping":46},{"user_id":699,"name":"Gety0","steam_id":76561198044387185,"connected_time":411000000000,"state":"active","ping":90},{"user_id":706,"name":"31","steam_id":76561198070639180,"connected_time":98000000000,"state":"active","ping":74},{"user_id":693,"name":"Dr. Peppino Spaghetti","steam_id":76561199121285443,"connected_time":967000000000,"state":"active","ping":117},{"user_id":701,"name":"GoblinGaming","steam_id":76561198360395476,"connected_time":278000000000,"state":"active","ping":36},{"user_id":663,"name":"Thobias18","steam_id":76561198232561380,"connected_time":3166000000000,"state":"active","ping":111},{"user_id":658,"name":"moocow916","steam_id":76561198040954339,"connected_time":3829000000000,"state":"active","ping":35},{"user_id":641,"name":"PeskyPlumber","steam_id":76561198241999094,"connected_time":5305000000000,"state":"active","ping":43},{"user_id":649,"name":"los pollos hermanos","steam_id":76561198988867951,"connected_time":4710000000000,"state":"active","ping":62},{"user_id":675,"name":"sv_MrGibbs","steam_id":76561198114071972,"connected_time":2031000000000,"state":"active","ping":46},{"user_id":657,"name":"omnibombulator","steam_id":76561198025858897,"connected_time":4267000000000,"state":"active","ping":50},{"user_id":645,"name":"mfw0071","steam_id":76561198111713446,"connected_time":5159000000000,"state":"active","ping":52},{"user_id":670,"name":"MaypulSoyrup","steam_id":76561199213966821,"connected_time":2890000000000,"state":"active","ping":73},{"user_id":695,"name":"thatCerv","steam_id":76561198037798308,"connected_time":823000000000,"state":"active","ping":59},{"user_id":698,"name":"gaming (official)","steam_id":76561198106012909,"connected_time":589000000000,"state":"active","ping":84},{"user_id":703,"name":"Prox","steam_id":76561198351490981,"connected_time":215000000000,"state":"active","ping":42},{"user_id":700,"name":"C3il_def.0","steam_id":76561198446759372,"connected_time":292000000000,"state":"active","ping":92},{"user_id":707,"name":"Scottishwolf12","steam_id":76561199263476623,"connected_time":48000000000,"state":"active","ping":77},{"user_id":694,"name":"v0ddo","steam_id":76561198092745537,"connected_time":850000000000,"state":"active","ping":45}]},{"server_id":321,"name":"Uncletopia | London | 4 | All Maps","name_short":"lon-4","host":"lon-1.uk.uncletopia.com","port":27045,"enabled":true,"region":"eu","cc":"gb","latitude":51.509865,"longitude":-0.118092,"reserved":0,"last_update":"0001-01-01T00:00:00Z","name_a2s":"Uncletopia | London | 4 | All Maps","protocol":17,"map":"cp_dustbowl","folder":"tf","game":"Team Fortress","app_id":440,"player_count":23,"max_players":24,"Bots":0,"server_type":"Dedicated","server_os":"Linux","password":true,"vac":true,"version":"7961495","steam_id":85568392924510193,"keywords":["cp","nocrits","nodmgspread","uncletopia"],"game_id":440,"stv_port":27046,"stv_name":"Uncletopia | London | 4 | All Maps | STV","players":[{"user_id":385,"name":"Przemomalin","steam_id":76561197987528170,"connected_time":2314000000000,"state":"active","ping":94},{"user_id":394,"name":"Amandus","steam_id":76561198036281079,"connected_time":1086000000000,"state":"active","ping":60},{"user_id":395,"name":"binhuwu","steam_id":76561198079200985,"connected_time":1084000000000,"state":"active","ping":57},{"user_id":407,"name":"BOZZO","steam_id":76561198044210844,"connected_time":147000000000,"state":"active","ping":72},{"user_id":379,"name":"Gregsticles","steam_id":76561198805480191,"connected_time":2589000000000,"state":"active","ping":42},{"user_id":380,"name":"siriusplay116","steam_id":76561199403847433,"connected_time":2525000000000,"state":"active","ping":60},{"user_id":400,"name":"King Sans","steam_id":76561198294198517,"connected_time":993000000000,"state":"active","ping":115},{"user_id":403,"name":"Kanny","steam_id":76561198058810184,"connected_time":879000000000,"state":"active","ping":48},{"user_id":401,"name":"MinerJoe","steam_id":76561198152965734,"connected_time":960000000000,"state":"active","ping":61},{"user_id":402,"name":"Sad","steam_id":76561198186704095,"connected_time":941000000000,"state":"active","ping":55},{"user_id":386,"name":"Fifibat","steam_id":76561198132981027,"connected_time":2313000000000,"state":"active","ping":95},{"user_id":387,"name":"Ｌｕｎｄｅｒｓ儚","steam_id":76561198001599722,"connected_time":2265000000000,"state":"active","ping":91},{"user_id":388,"name":"❤G a n K","steam_id":76561199125995565,"connected_time":2231000000000,"state":"active","ping":65},{"user_id":397,"name":"Crimson","steam_id":76561197987552332,"connected_time":1067000000000,"state":"active","ping":58},{"user_id":406,"name":"Batters🌸","steam_id":76561198927992205,"connected_time":398000000000,"state":"active","ping":49},{"user_id":390,"name":"simeswipe","steam_id":76561198188471097,"connected_time":2148000000000,"state":"active","ping":81},{"user_id":392,"name":"CrangSign","steam_id":76561198370580355,"connected_time":1122000000000,"state":"active","ping":49},{"user_id":367,"name":"cowböy","steam_id":76561198048990716,"connected_time":3298000000000,"state":"active","ping":102},{"user_id":398,"name":"TPD16","steam_id":76561198354138834,"connected_time":1049000000000,"state":"active","ping":63},{"user_id":405,"name":"Lunaria","steam_id":76561198175428545,"connected_time":416000000000,"state":"active","ping":66},{"user_id":383,"name":"Zonddey","steam_id":76561198134885222,"connected_time":2460000000000,"state":"active","ping":102},{"user_id":384,"name":"jerkwaterberg","steam_id":76561198134165667,"connected_time":2445000000000,"state":"active","ping":49},{"user_id":399,"name":"Werjor","steam_id":76561198845777888,"connected_time":1037000000000,"state":"active","ping":45}]},{"server_id":21,"name":"Uncletopia | London | 5 | All Maps","name_short":"lon-5","host":"lon-1.uk.uncletopia.com","port":27055,"enabled":true,"region":"eu","cc":"gb","latitude":51.509865,"longitude":-0.118092,"reserved":0,"last_update":"0001-01-01T00:00:00Z","name_a2s":"Uncletopia | London | 5 | All Maps","protocol":17,"map":"pl_barnblitz","folder":"tf","game":"Team Fortress","app_id":440,"player_count":23,"max_players":24,"Bots":0,"server_type":"Dedicated","server_os":"Linux","password":true,"vac":true,"version":"7961495","steam_id":85568392924742829,"keywords":["nocrits","nodmgspread","payload","uncletopia"],"game_id":440,"stv_port":27056,"stv_name":"Uncletopia | London | 5 | All Maps | STV","players":[{"user_id":263,"name":"протыгаз","steam_id":76561198007822012,"connected_time":1330000000000,"state":"active","ping":75},{"user_id":282,"name":"Glitchas","steam_id":76561198883610618,"connected_time":513000000000,"state":"active","ping":101},{"user_id":200,"name":"♡ Cursed ♡","steam_id":76561199161458959,"connected_time":5505000000000,"state":"active","ping":173},{"user_id":264,"name":"SpicyBoy","steam_id":76561198307856007,"connected_time":1294000000000,"state":"active","ping":100},{"user_id":277,"name":"NeonNewt","steam_id":76561198066699212,"connected_time":636000000000,"state":"active","ping":53},{"user_id":246,"name":"Lappy","steam_id":76561198271783717,"connected_time":2139000000000,"state":"active","ping":68},{"user_id":252,"name":"RazingKain","steam_id":76561198271702102,"connected_time":1749000000000,"state":"active","ping":64},{"user_id":266,"name":"Loberless","steam_id":76561198277844777,"connected_time":1225000000000,"state":"active","ping":42},{"user_id":220,"name":"HoneyBe_","steam_id":76561198288930154,"connected_time":4400000000000,"state":"active","ping":58},{"user_id":248,"name":"Mr Wafflez72","steam_id":76561198098692698,"connected_time":2031000000000,"state":"active","ping":67},{"user_id":279,"name":"Special Agent Big Smoke","steam_id":76561198154468827,"connected_time":622000000000,"state":"active","ping":75},{"user_id":253,"name":"C++, Git and Linux Enjoyer","steam_id":76561198277310442,"connected_time":1740000000000,"state":"active","ping":86},{"user_id":254,"name":"jjbros68","steam_id":76561198193427089,"connected_time":1645000000000,"state":"active","ping":57},{"user_id":257,"name":"Bepis","steam_id":76561198139719533,"connected_time":1555000000000,"state":"active","ping":61},{"user_id":265,"name":"Narvhalø","steam_id":76561198147495474,"connected_time":1284000000000,"state":"active","ping":42},{"user_id":258,"name":"Oak","steam_id":76561198067315672,"connected_time":1544000000000,"state":"active","ping":44},{"user_id":273,"name":"{BVG}Sir Marsi","steam_id":76561199045288878,"connected_time":1052000000000,"state":"active","ping":104},{"user_id":268,"name":"Hayds Gaming [TER] [TTN]","steam_id":76561199461851882,"connected_time":1203000000000,"state":"active","ping":63},{"user_id":284,"name":"pepper","steam_id":76561198852650589,"connected_time":46000000000,"state":"active","ping":72},{"user_id":177,"name":"seajaws","steam_id":76561199003247054,"connected_time":7408000000000,"state":"active","ping":72},{"user_id":280,"name":"Sinj","steam_id":76561198173218318,"connected_time":619000000000,"state":"active","ping":44},{"user_id":272,"name":"OutOfDucks","steam_id":76561198166376227,"connected_time":1098000000000,"state":"active","ping":55},{"user_id":271,"name":"Nincom Poop","steam_id":76561198212368827,"connected_time":1186000000000,"state":"active","ping":76}]},{"server_id":22,"name":"Uncletopia | London | 6 | All Maps","name_short":"lon-6","host":"lon-1.uk.uncletopia.com","port":27065,"enabled":true,"region":"eu","cc":"gb","latitude":51.509865,"longitude":-0.118092,"reserved":0,"last_update":"0001-01-01T00:00:00Z","name_a2s":"Uncletopia | London | 6 | All Maps","protocol":17,"map":"pl_frontier_final","folder":"tf","game":"Team Fortress","app_id":440,"player_count":23,"max_players":24,"Bots":0,"server_type":"Dedicated","server_os":"Linux","password":true,"vac":true,"version":"7961495","steam_id":85568392924742830,"keywords":["nocrits","nodmgspread","payload","uncletopia"],"game_id":440,"stv_port":27066,"stv_name":"Uncletopia | London | 6 | All Maps | STV","players":[{"user_id":465,"name":"Margaret Thatcher","steam_id":76561198124463930,"connected_time":1662000000000,"state":"active","ping":38},{"user_id":466,"name":"TheBeardedM1G","steam_id":76561198040208946,"connected_time":1639000000000,"state":"active","ping":44},{"user_id":419,"name":"irritable vowel syndrome","steam_id":76561198117033273,"connected_time":5364000000000,"state":"active","ping":52},{"user_id":373,"name":"A Monster in Paris","steam_id":76561199067658590,"connected_time":7717000000000,"state":"active","ping":128},{"user_id":454,"name":"Demicore","steam_id":76561197976922136,"connected_time":2486000000000,"state":"active","ping":70},{"user_id":490,"name":"[FP] Rune","steam_id":76561198030842879,"connected_time":127000000000,"state":"active","ping":38},{"user_id":442,"name":"Locke","steam_id":76561198339408300,"connected_time":3122000000000,"state":"active","ping":53},{"user_id":474,"name":"Real (Real)","steam_id":76561198323425034,"connected_time":1240000000000,"state":"active","ping":61},{"user_id":402,"name":"Scout","steam_id":76561198992898803,"connected_time":6073000000000,"state":"active","ping":56},{"user_id":470,"name":"Ano","steam_id":76561198075054392,"connected_time":1335000000000,"state":"active","ping":68},{"user_id":445,"name":"Texan texting","steam_id":76561198833868695,"connected_time":3033000000000,"state":"active","ping":162},{"user_id":471,"name":"FROG IndigoJones","steam_id":76561198050284262,"connected_time":1310000000000,"state":"active","ping":44},{"user_id":480,"name":"Vastly Rigged","steam_id":76561198212991935,"connected_time":989000000000,"state":"active","ping":94},{"user_id":488,"name":"Gregger","steam_id":76561198179654605,"connected_time":443000000000,"state":"active","ping":54},{"user_id":394,"name":"Nonok","steam_id":76561199480685498,"connected_time":6123000000000,"state":"active","ping":67},{"user_id":491,"name":"Chat Noir","steam_id":76561198069513598,"connected_time":36000000000,"state":"spawning","ping":51},{"user_id":492,"name":"Gerald Sprinter","steam_id":76561198110773463,"connected_time":30000000000,"state":"spawning","ping":87},{"user_id":475,"name":"Hurbalerb","steam_id":76561198175683646,"connected_time":1234000000000,"state":"active","ping":66},{"user_id":476,"name":"BLÅHAJ","steam_id":76561197996473698,"connected_time":1229000000000,"state":"active","ping":61},{"user_id":458,"name":"(MAC) [BN] Crazyking","steam_id":76561198001668616,"connected_time":2298000000000,"state":"active","ping":64},{"user_id":493,"name":"koffei","steam_id":76561198065683178,"connected_time":22000000000,"state":"active","ping":55},{"user_id":459,"name":"heavy sings (real)","steam_id":76561199023804405,"connected_time":2297000000000,"state":"active","ping":73},{"user_id":485,"name":"ROX","steam_id":76561198272289320,"connected_time":808000000000,"state":"active","ping":59}]},{"server_id":40,"name":"Uncletopia | London | 7 | Stopwatch","name_short":"lon-7","host":"lon-1.uk.uncletopia.com","port":27075,"enabled":true,"region":"eu","cc":"gb","latitude":51.509865,"longitude":-0.118092,"reserved":0,"last_update":"0001-01-01T00:00:00Z","name_a2s":"Uncletopia | London | 7 | Stopwatch","protocol":17,"map":"workshop/koth_ramjam_rc1.ugc459778887","folder":"tf","game":"Team Fortress","app_id":440,"player_count":1,"max_players":24,"Bots":0,"server_type":"Dedicated","server_os":"Linux","password":true,"vac":true,"version":"7961495","steam_id":85568392924964314,"keywords":["cp","nocrits","nodmgspread","uncletopia"],"game_id":440,"stv_port":27076,"stv_name":"Uncletopia | London | 7 | Stopwatch | STV","players":[{"user_id":12,"name":"♥ Cirno ♥","steam_id":76561198834982738,"connected_time":12000000000,"state":"spawning","ping":112}]},{"server_id":41,"name":"Uncletopia | London | 8 | Community","name_short":"lon-8","host":"lon-1.uk.uncletopia.com","port":27085,"enabled":true,"region":"eu","cc":"gb","latitude":51.509865,"longitude":-0.118092,"reserved":0,"last_update":"0001-01-01T00:00:00Z","name_a2s":"Uncletopia | London | 8 | Community","protocol":17,"map":"workshop/cp_reckoner_rc6.ugc674719999","folder":"tf","game":"Team Fortress","app_id":440,"player_count":0,"max_players":24,"Bots":0,"server_type":"Dedicated","server_os":"Linux","password":true,"vac":true,"version":"7961495","steam_id":85568392924964315,"keywords":["cp","nocrits","nodmgspread","uncletopia"],"game_id":440,"stv_port":27086,"stv_name":"Uncletopia | London | 8 | Community | STV","players":null},{"server_id":300,"name":"Uncletopia | Montréal | 1 | One Thousand Uncles","name_short":"mtl-1","host":"mtl-1.ca.uncletopia.com","port":27015,"enabled":true,"region":"us-east","cc":"ca","latitude":45.50889,"longitude":-73.56167,"reserved":0,"last_update":"0001-01-01T00:00:00Z","name_a2s":"","protocol":0,"map":"","folder":"","game":"","app_id":0,"player_count":8,"max_players":0,"Bots":0,"server_type":"","server_os":"","password":false,"vac":false,"version":"","steam_id":0,"keywords":null,"game_id":0,"stv_port":0,"stv_name":"","players":[{"user_id":273,"name":"thomas \"tommy\" pigskin sr.","steam_id":76561199056802747,"connected_time":20000000000,"state":"active","ping":77},{"user_id":251,"name":"Kapiix","steam_id":76561198218715973,"connected_time":1484000000000,"state":"active","ping":42},{"user_id":252,"name":"5oc","steam_id":76561199196300397,"connected_time":1193000000000,"state":"active","ping":102},{"user_id":216,"name":"petitjayd22","steam_id":76561199389238003,"connected_time":2476000000000,"state":"active","ping":31},{"user_id":271,"name":"Strange Festive Femboy","steam_id":76561198050385093,"connected_time":402000000000,"state":"active","ping":58},{"user_id":272,"name":"BIGMOOD","steam_id":76561199086966716,"connected_time":73000000000,"state":"active","ping":111},{"user_id":189,"name":"DrMisteryous2","steam_id":76561198336307012,"connected_time":4963000000000,"state":"active","ping":165},{"user_id":168,"name":"Opera","steam_id":76561198023557977,"connected_time":7874000000000,"state":"active","ping":82}]},{"server_id":301,"name":"Uncletopia | Montréal | 2 | One Thousand Uncles","name_short":"mtl-2","host":"mtl-1.ca.uncletopia.com","port":27025,"enabled":true,"region":"us-east","cc":"ca","latitude":45.50889,"longitude":-73.56167,"reserved":0,"last_update":"0001-01-01T00:00:00Z","name_a2s":"","protocol":0,"map":"","folder":"","game":"","app_id":0,"player_count":10,"max_players":0,"Bots":0,"server_type":"","server_os":"","password":false,"vac":false,"version":"","steam_id":0,"keywords":null,"game_id":0,"stv_port":0,"stv_name":"","players":[{"user_id":164,"name":"DjFloppy","steam_id":76561198212014625,"connected_time":2358000000000,"state":"active","ping":112},{"user_id":198,"name":"neo :)","steam_id":76561199092954930,"connected_time":111000000000,"state":"active","ping":48},{"user_id":199,"name":"Lucas096br","steam_id":76561198350760997,"connected_time":13000000000,"state":"spawning","ping":209},{"user_id":170,"name":"BreadBread06","steam_id":76561198196914050,"connected_time":1393000000000,"state":"active","ping":100},{"user_id":171,"name":"RedDragon2014","steam_id":76561198327354219,"connected_time":1388000000000,"state":"active","ping":56},{"user_id":176,"name":"ConnorWRM","steam_id":76561199350333302,"connected_time":1118000000000,"state":"active","ping":122},{"user_id":165,"name":"Lots0","steam_id":76561198043143145,"connected_time":2041000000000,"state":"active","ping":95},{"user_id":162,"name":"Valoxi","steam_id":76561197995042938,"connected_time":2911000000000,"state":"active","ping":128},{"user_id":163,"name":"judesro","steam_id":76561198352244888,"connected_time":2849000000000,"state":"active","ping":40},{"user_id":166,"name":"schizophrenic pyro","steam_id":76561198805603832,"connected_time":1978000000000,"state":"active","ping":44}]},{"server_id":302,"name":"Uncletopia | Montréal | 3 | One Thousand Uncles","name_short":"mtl-3","host":"mtl-1.ca.uncletopia.com","port":27035,"enabled":true,"region":"us-east","cc":"ca","latitude":45.50889,"longitude":-73.56167,"reserved":0,"last_update":"0001-01-01T00:00:00Z","name_a2s":"","protocol":0,"map":"","folder":"","game":"","app_id":0,"player_count":0,"max_players":0,"Bots":0,"server_type":"","server_os":"","password":false,"vac":false,"version":"","steam_id":0,"keywords":null,"game_id":0,"stv_port":0,"stv_name":"","players":null},{"server_id":13,"name":"Uncletopia | New York City | 1 | All Maps","name_short":"nyc-1","host":"nyc-1.us.uncletopia.com","port":27015,"enabled":true,"region":"us-east","cc":"us","latitude":40.73061,"longitude":-73.93524,"reserved":0,"last_update":"0001-01-01T00:00:00Z","name_a2s":"Uncletopia | New York City | 1 | All Maps","protocol":17,"map":"pl_goldrush","folder":"tf","game":"Team Fortress","app_id":440,"player_count":24,"max_players":24,"Bots":0,"server_type":"Dedicated","server_os":"Linux","password":true,"vac":true,"version":"7961495","steam_id":85568392924469993,"keywords":["nocrits","nodmgspread","payload","uncletopia"],"game_id":440,"stv_port":27016,"stv_name":"Uncletopia | New York City | 1 | All Maps | STV","players":[{"user_id":381,"name":"Mooseanator 3000","steam_id":76561198060821243,"connected_time":1526000000000,"state":"active","ping":70},{"user_id":364,"name":"Necron","steam_id":76561197970864818,"connected_time":2469000000000,"state":"active","ping":85},{"user_id":397,"name":"Drake the Pixel","steam_id":76561198131824401,"connected_time":234000000000,"state":"active","ping":43},{"user_id":316,"name":"Hunt0rb","steam_id":76561198120527608,"connected_time":4717000000000,"state":"active","ping":80},{"user_id":396,"name":"DuckKey","steam_id":76561198904477889,"connected_time":372000000000,"state":"active","ping":40},{"user_id":363,"name":"Cloud","steam_id":76561198954987128,"connected_time":2530000000000,"state":"active","ping":72},{"user_id":379,"name":"DeadSea","steam_id":76561198060532840,"connected_time":1571000000000,"state":"active","ping":81},{"user_id":369,"name":"flange","steam_id":76561198040182692,"connected_time":2372000000000,"state":"active","ping":107},{"user_id":382,"name":"Tree45","steam_id":76561198143698408,"connected_time":1453000000000,"state":"active","ping":69},{"user_id":347,"name":"feleven","steam_id":76561198853721046,"connected_time":3400000000000,"state":"active","ping":55},{"user_id":322,"name":"tacofever","steam_id":76561198010966507,"connected_time":4493000000000,"state":"active","ping":115},{"user_id":388,"name":"Raven","steam_id":76561198112988615,"connected_time":1132000000000,"state":"active","ping":64},{"user_id":324,"name":"bobbymcbobington","steam_id":76561199089411172,"connected_time":4435000000000,"state":"active","ping":125},{"user_id":374,"name":"Kraftlos","steam_id":76561198074350350,"connected_time":1967000000000,"state":"active","ping":56},{"user_id":367,"name":"wakeyfield","steam_id":76561198045675356,"connected_time":2429000000000,"state":"active","ping":69},{"user_id":386,"name":"Maron Tickles","steam_id":76561199125982967,"connected_time":1427000000000,"state":"active","ping":73},{"user_id":394,"name":"Good Seed","steam_id":76561198013443319,"connected_time":665000000000,"state":"active","ping":57},{"user_id":345,"name":"ottergauze","steam_id":76561198050523315,"connected_time":3505000000000,"state":"active","ping":125},{"user_id":393,"name":"shadow6","steam_id":76561197979807910,"connected_time":860000000000,"state":"active","ping":121},{"user_id":398,"name":"Monty","steam_id":76561197993567253,"connected_time":98000000000,"state":"active","ping":114},{"user_id":384,"name":"Cassini","steam_id":76561198318526294,"connected_time":1450000000000,"state":"active","ping":56},{"user_id":355,"name":"leer.","steam_id":76561198864458303,"connected_time":3217000000000,"state":"active","ping":56},{"user_id":361,"name":"Bigsumoslammer","steam_id":76561198044505076,"connected_time":2765000000000,"state":"active","ping":43},{"user_id":343,"name":"Xavi","steam_id":76561198337783795,"connected_time":3701000000000,"state":"active","ping":58}]},{"server_id":14,"name":"Uncletopia | New York City | 2 | All Maps","name_short":"nyc-2","host":"nyc-1.us.uncletopia.com","port":27025,"enabled":true,"region":"us-east","cc":"us","latitude":40.73061,"longitude":-73.93524,"reserved":0,"last_update":"0001-01-01T00:00:00Z","name_a2s":"Uncletopia | New York City | 2 | All Maps","protocol":17,"map":"pl_frontier_final","folder":"tf","game":"Team Fortress","app_id":440,"player_count":24,"max_players":24,"Bots":0,"server_type":"Dedicated","server_os":"Linux","password":true,"vac":true,"version":"7961495","steam_id":85568392924469994,"keywords":["nocrits","nodmgspread","payload","uncletopia"],"game_id":440,"stv_port":27026,"stv_name":"Uncletopia | New York City | 2 | All Maps | STV","players":[{"user_id":267,"name":"Bananaman","steam_id":76561198859221895,"connected_time":459000000000,"state":"active","ping":69},{"user_id":247,"name":"Reiner","steam_id":76561199201762178,"connected_time":1415000000000,"state":"active","ping":85},{"user_id":268,"name":"9c","steam_id":76561198315632083,"connected_time":459000000000,"state":"active","ping":145},{"user_id":242,"name":"BungusBillingsly","steam_id":76561198157542591,"connected_time":1663000000000,"state":"active","ping":69},{"user_id":272,"name":"Dieu-Sama","steam_id":76561198002075862,"connected_time":383000000000,"state":"active","ping":73},{"user_id":248,"name":"St4r_K1ll3r","steam_id":76561198853157301,"connected_time":1413000000000,"state":"active","ping":70},{"user_id":269,"name":"Lex Fridman","steam_id":76561198353840477,"connected_time":443000000000,"state":"active","ping":71},{"user_id":250,"name":"hapi bananuh","steam_id":76561198091547092,"connected_time":1405000000000,"state":"active","ping":54},{"user_id":251,"name":"sillylokisparkles","steam_id":76561198872251615,"connected_time":1382000000000,"state":"active","ping":75},{"user_id":275,"name":"Unholy","steam_id":76561198058312481,"connected_time":247000000000,"state":"active","ping":55},{"user_id":264,"name":"[CCP] franc | montuga;com","steam_id":76561198417807155,"connected_time":653000000000,"state":"active","ping":45},{"user_id":254,"name":"astrobob911","steam_id":76561199099110654,"connected_time":1351000000000,"state":"active","ping":71},{"user_id":270,"name":"aeronsucks","steam_id":76561198058289334,"connected_time":407000000000,"state":"active","ping":85},{"user_id":241,"name":"The Angel of Death","steam_id":76561198026079349,"connected_time":1811000000000,"state":"active","ping":129},{"user_id":276,"name":"Nirik","steam_id":76561198191189053,"connected_time":152000000000,"state":"active","ping":46},{"user_id":274,"name":"BOT","steam_id":76561199455249068,"connected_time":343000000000,"state":"active","ping":71},{"user_id":221,"name":"pafijohn","steam_id":76561198002535190,"connected_time":3905000000000,"state":"active","ping":107},{"user_id":178,"name":"Wahooka","steam_id":76561197962240925,"connected_time":6294000000000,"state":"active","ping":46},{"user_id":227,"name":"Mum","steam_id":76561198059209643,"connected_time":3386000000000,"state":"active","ping":111},{"user_id":233,"name":"Digit","steam_id":76561198156589157,"connected_time":3102000000000,"state":"active","ping":65},{"user_id":261,"name":"FoxKid5674","steam_id":76561198973761123,"connected_time":1135000000000,"state":"active","ping":134},{"user_id":244,"name":"saurhead","steam_id":76561198132937722,"connected_time":1601000000000,"state":"active","ping":52},{"user_id":191,"name":"RyInc","steam_id":76561198874261643,"connected_time":5370000000000,"state":"active","ping":61},{"user_id":258,"name":"t.tv/FamilyGuyFunnyMoments277","steam_id":76561198416047580,"connected_time":1321000000000,"state":"active","ping":73}]},{"server_id":15,"name":"Uncletopia | New York City | 3 | Stopwatch","name_short":"nyc-3","host":"nyc-1.us.uncletopia.com","port":27035,"enabled":true,"region":"us-east","cc":"us","latitude":40.73061,"longitude":-73.93524,"reserved":0,"last_update":"0001-01-01T00:00:00Z","name_a2s":"Uncletopia | New York City | 3 | Stopwatch","protocol":17,"map":"workshop/koth_bagel_rc6.ugc2514036946","folder":"tf","game":"Team Fortress","app_id":440,"player_count":0,"max_players":24,"Bots":0,"server_type":"Dedicated","server_os":"Linux","password":true,"vac":true,"version":"7961495","steam_id":85568392924742820,"keywords":["cp","nocrits","nodmgspread","uncletopia"],"game_id":440,"stv_port":27036,"stv_name":"Uncletopia | New York City | 3 | Stopwatch | STV","players":null},{"server_id":16,"name":"Uncletopia | New York City | 4 | Community","name_short":"nyc-4","host":"nyc-1.us.uncletopia.com","port":27045,"enabled":true,"region":"us-east","cc":"us","latitude":40.73061,"longitude":-73.93524,"reserved":0,"last_update":"0001-01-01T00:00:00Z","name_a2s":"Uncletopia | New York City | 4 | Community","protocol":17,"map":"workshop/cp_glassworks_rc7a.ugc454118349","folder":"tf","game":"Team Fortress","app_id":440,"player_count":0,"max_players":24,"Bots":0,"server_type":"Dedicated","server_os":"Linux","password":true,"vac":true,"version":"7961495","steam_id":85568392924742821,"keywords":["cp","nocrits","nodmgspread","uncletopia"],"game_id":440,"stv_port":27046,"stv_name":"Uncletopia | New York City | 4 | Community | STV","players":null},{"server_id":142,"name":"Uncletopia | São Paulo | 1 | All Maps","name_short":"sao-1","host":"sao-1.br.uncletopia.com","port":27015,"enabled":true,"region":"sa","cc":"br","latitude":-23.533773,"longitude":-46.62529,"reserved":0,"last_update":"0001-01-01T00:00:00Z","name_a2s":"Uncletopia | São Paulo | 1 | All Maps","protocol":17,"map":"cp_altitude","folder":"tf","game":"Team Fortress","app_id":440,"player_count":0,"max_players":24,"Bots":0,"server_type":"Dedicated","server_os":"Linux","password":true,"vac":true,"version":"7961495","steam_id":85568392924469996,"keywords":["cp","nocrits","nodmgspread","uncletopia"],"game_id":440,"stv_port":27016,"stv_name":"Uncletopia | São Paulo | 1 | All Maps | STV","players":null},{"server_id":143,"name":"Uncletopia | São Paulo | 2 | Community","name_short":"sao-2","host":"sao-2.br.uncletopia.com","port":27015,"enabled":true,"region":"sa","cc":"br","latitude":-23.533773,"longitude":-46.62529,"reserved":0,"last_update":"0001-01-01T00:00:00Z","name_a2s":"Uncletopia | São Paulo | 2 | Community","protocol":17,"map":"workshop/cp_bruhstbowl_b6.ugc2878604990","folder":"tf","game":"Team Fortress","app_id":440,"player_count":0,"max_players":24,"Bots":0,"server_type":"Dedicated","server_os":"Linux","password":true,"vac":true,"version":"7961495","steam_id":85568392924485349,"keywords":["cp","nocrits","nodmgspread","uncletopia"],"game_id":440,"stv_port":27016,"stv_name":"Uncletopia | São Paulo | 2 | Community | STV","players":null},{"server_id":7,"name":"Uncletopia | Seattle | 1 | All Maps","name_short":"sea-1","host":"sea-1.us.uncletopia.com","port":27015,"enabled":true,"region":"us-west","cc":"us","latitude":47.608013,"longitude":-122.33517,"reserved":0,"last_update":"0001-01-01T00:00:00Z","name_a2s":"Uncletopia | Seattle | 1 | All Maps","protocol":17,"map":"cp_gullywash_final1","folder":"tf","game":"Team Fortress","app_id":440,"player_count":24,"max_players":24,"Bots":0,"server_type":"Dedicated","server_os":"Linux","password":true,"vac":true,"version":"7961495","steam_id":85568392924469997,"keywords":["cp","nocrits","nodmgspread","uncletopia"],"game_id":440,"stv_port":27016,"stv_name":"Uncletopia | Seattle | 1 | All Maps | STV","players":[{"user_id":314,"name":"assassincrazy18","steam_id":76561199465661561,"connected_time":2371000000000,"state":"active","ping":46},{"user_id":279,"name":"Fh","steam_id":76561198000903511,"connected_time":5454000000000,"state":"active","ping":67},{"user_id":313,"name":"MeowthWins","steam_id":76561198124085329,"connected_time":2649000000000,"state":"active","ping":66},{"user_id":274,"name":"Cosmo","steam_id":76561199085643398,"connected_time":5502000000000,"state":"active","ping":78},{"user_id":303,"name":"evilOlive","steam_id":76561198106222025,"connected_time":3878000000000,"state":"active","ping":84},{"user_id":276,"name":"Pneumo.","steam_id":76561197987911883,"connected_time":5478000000000,"state":"active","ping":55},{"user_id":293,"name":"Melly","steam_id":76561198045867175,"connected_time":4342000000000,"state":"active","ping":63},{"user_id":319,"name":"Cheezbeargur","steam_id":76561198164702899,"connected_time":1015000000000,"state":"active","ping":62},{"user_id":260,"name":"Darkgigglemonster","steam_id":76561198870649125,"connected_time":7189000000000,"state":"active","ping":83},{"user_id":300,"name":"Batso","steam_id":76561198106589452,"connected_time":4087000000000,"state":"active","ping":80},{"user_id":321,"name":"amaz","steam_id":76561198386233160,"connected_time":991000000000,"state":"active","ping":119},{"user_id":310,"name":"DaddyGalaxy","steam_id":76561198139697796,"connected_time":2755000000000,"state":"active","ping":58},{"user_id":315,"name":"zinnk","steam_id":76561198092081825,"connected_time":2003000000000,"state":"active","ping":60},{"user_id":262,"name":"Peppy","steam_id":76561198866629645,"connected_time":7176000000000,"state":"active","ping":64},{"user_id":307,"name":"♂ boss of this gym ♂","steam_id":76561198027102212,"connected_time":3042000000000,"state":"active","ping":54},{"user_id":318,"name":"slushy :))","steam_id":76561198135281802,"connected_time":1285000000000,"state":"active","ping":44},{"user_id":130,"name":"YOU WHAT?!","steam_id":76561198418679471,"connected_time":20948000000000,"state":"active","ping":108},{"user_id":259,"name":"sudoku_fiend","steam_id":76561198152029104,"connected_time":7207000000000,"state":"active","ping":87},{"user_id":304,"name":"Spectre","steam_id":76561198037535169,"connected_time":3515000000000,"state":"active","ping":74},{"user_id":320,"name":"lavender","steam_id":76561199069518286,"connected_time":1011000000000,"state":"active","ping":71},{"user_id":323,"name":"qck","steam_id":76561198075447647,"connected_time":613000000000,"state":"active","ping":46},{"user_id":301,"name":"Whyamidoingthisaaaa","steam_id":76561199168837342,"connected_time":4072000000000,"state":"active","ping":106},{"user_id":322,"name":"Quigi","steam_id":76561198144645874,"connected_time":935000000000,"state":"active","ping":84},{"user_id":287,"name":"Gm_Sweet","steam_id":76561199445091548,"connected_time":4851000000000,"state":"active","ping":59}]},{"server_id":119,"name":"Uncletopia | Seattle | 2 | All Maps","name_short":"sea-2","host":"sea-1.us.uncletopia.com","port":27025,"enabled":true,"region":"us-west","cc":"us","latitude":47.608013,"longitude":-122.33517,"reserved":0,"last_update":"0001-01-01T00:00:00Z","name_a2s":"Uncletopia | Seattle | 2 | All Maps","protocol":17,"map":"cp_steel","folder":"tf","game":"Team Fortress","app_id":440,"player_count":24,"max_players":24,"Bots":0,"server_type":"Dedicated","server_os":"Linux","password":true,"vac":true,"version":"7961495","steam_id":85568392924469998,"keywords":["cp","nocrits","nodmgspread","uncletopia"],"game_id":440,"stv_port":27026,"stv_name":"Uncletopia | Seattle | 2 | All Maps | STV","players":[{"user_id":79,"name":"Noah1k","steam_id":76561199428633514,"connected_time":3643000000000,"state":"active","ping":47},{"user_id":126,"name":"Keamy","steam_id":76561199471434875,"connected_time":1145000000000,"state":"active","ping":44},{"user_id":69,"name":"ORANGE","steam_id":76561198000401769,"connected_time":4802000000000,"state":"active","ping":45},{"user_id":127,"name":"SoldMyKidneyForCollege","steam_id":76561198096329559,"connected_time":995000000000,"state":"active","ping":61},{"user_id":137,"name":"Spam The Alien","steam_id":76561199122290968,"connected_time":258000000000,"state":"active","ping":55},{"user_id":141,"name":"Greskrendtregk","steam_id":76561197969553142,"connected_time":205000000000,"state":"active","ping":49},{"user_id":133,"name":"jayeskae","steam_id":76561198144220801,"connected_time":394000000000,"state":"active","ping":45},{"user_id":139,"name":"Sudsen","steam_id":76561198370603787,"connected_time":211000000000,"state":"active","ping":95},{"user_id":108,"name":"MisterMcBones","steam_id":76561198301885443,"connected_time":2406000000000,"state":"active","ping":78},{"user_id":136,"name":"BlazedBunny","steam_id":76561198243610560,"connected_time":332000000000,"state":"active","ping":62},{"user_id":118,"name":"Spare(8)Ball","steam_id":76561197982432995,"connected_time":1700000000000,"state":"active","ping":74},{"user_id":116,"name":"resh!","steam_id":76561198066619792,"connected_time":1982000000000,"state":"active","ping":75},{"user_id":119,"name":"MrYadaization","steam_id":76561198050770818,"connected_time":1697000000000,"state":"active","ping":52},{"user_id":125,"name":"wmjledger","steam_id":76561198443046861,"connected_time":1307000000000,"state":"active","ping":46},{"user_id":135,"name":"Sassy","steam_id":76561197977382238,"connected_time":378000000000,"state":"active","ping":67},{"user_id":82,"name":"ArjayTheWeenie","steam_id":76561198275999294,"connected_time":3625000000000,"state":"active","ping":47},{"user_id":121,"name":"Jeeby","steam_id":76561198080299839,"connected_time":1605000000000,"state":"active","ping":66},{"user_id":84,"name":"Nassu","steam_id":76561198147367577,"connected_time":3605000000000,"state":"active","ping":113},{"user_id":130,"name":"Dimple","steam_id":76561198980324190,"connected_time":584000000000,"state":"active","ping":57},{"user_id":65,"name":"verd","steam_id":76561198012001217,"connected_time":5310000000000,"state":"active","ping":119},{"user_id":140,"name":"GamerPuff","steam_id":76561198364506859,"connected_time":207000000000,"state":"active","ping":111},{"user_id":142,"name":"MrQuack","steam_id":76561198873049714,"connected_time":175000000000,"state":"active","ping":77},{"user_id":143,"name":"Random Person","steam_id":76561198990531385,"connected_time":173000000000,"state":"active","ping":64},{"user_id":131,"name":"havarti gaming","steam_id":76561198069895678,"connected_time":584000000000,"state":"active","ping":61}]},{"server_id":406,"name":"Uncletopia | Seattle | 3 | Stopwatch","name_short":"sea-3","host":"sea-1.us.uncletopia.com","port":27035,"enabled":true,"region":"us-west","cc":"us","latitude":47.608013,"longitude":-122.33517,"reserved":0,"last_update":"0001-01-01T00:00:00Z","name_a2s":"Uncletopia | Seattle | 3 | Stopwatch","protocol":17,"map":"workshop/pl_summercoast_rc8e.ugc1761528829","folder":"tf","game":"Team Fortress","app_id":440,"player_count":0,"max_players":24,"Bots":0,"server_type":"Dedicated","server_os":"Linux","password":true,"vac":true,"version":"7961495","steam_id":85568392924515217,"keywords":["nocrits","nodmgspread","payload","uncletopia"],"game_id":440,"stv_port":27036,"stv_name":"Uncletopia | Seattle | 3 | Stopwatch | STV","players":null},{"server_id":17,"name":"Uncletopia | San Francisco | 1 | All Maps","name_short":"sfo-1","host":"sfo-1.us.uncletopia.com","port":27015,"enabled":true,"region":"us-west","cc":"us","latitude":37.77397,"longitude":-122.4313,"reserved":0,"last_update":"0001-01-01T00:00:00Z","name_a2s":"Uncletopia | San Francisco | 1 | All Maps","protocol":17,"map":"koth_cascade","folder":"tf","game":"Team Fortress","app_id":440,"player_count":0,"max_players":24,"Bots":0,"server_type":"Dedicated","server_os":"Linux","password":true,"vac":true,"version":"7961495","steam_id":85568392924469999,"keywords":["cp","nocrits","nodmgspread","uncletopia"],"game_id":440,"stv_port":27016,"stv_name":"Uncletopia | San Francisco | 1 | All Maps | STV","players":null},{"server_id":18,"name":"Uncletopia | San Francisco | 2 | All Maps","name_short":"sfo-2","host":"sfo-1.us.uncletopia.com","port":27025,"enabled":true,"region":"us-west","cc":"us","latitude":37.77397,"longitude":-122.4313,"reserved":0,"last_update":"0001-01-01T00:00:00Z","name_a2s":"Uncletopia | San Francisco | 2 | All Maps","protocol":17,"map":"pl_barnblitz","folder":"tf","game":"Team Fortress","app_id":440,"player_count":0,"max_players":24,"Bots":0,"server_type":"Dedicated","server_os":"Linux","password":true,"vac":true,"version":"7961495","steam_id":85568392924470000,"keywords":["nocrits","nodmgspread","payload","uncletopia"],"game_id":440,"stv_port":27026,"stv_name":"Uncletopia | San Francisco | 2 | All Maps | STV","players":null},{"server_id":19,"name":"Uncletopia | San Francisco | 3 | Stopwatch","name_short":"sfo-3","host":"sfo-1.us.uncletopia.com","port":27035,"enabled":true,"region":"us-west","cc":"us","latitude":37.77397,"longitude":-122.4313,"reserved":0,"last_update":"0001-01-01T00:00:00Z","name_a2s":"Uncletopia | San Francisco | 3 | Stopwatch","protocol":17,"map":"pl_upward","folder":"tf","game":"Team Fortress","app_id":440,"player_count":0,"max_players":24,"Bots":0,"server_type":"Dedicated","server_os":"Linux","password":true,"vac":true,"version":"7961495","steam_id":85568392924742824,"keywords":["nocrits","nodmgspread","payload","uncletopia"],"game_id":440,"stv_port":27036,"stv_name":"Uncletopia | San Francisco | 3 | Stopwatch | STV","players":null},{"server_id":20,"name":"Uncletopia | San Francisco | 4 | Community","name_short":"sfo-4","host":"sfo-1.us.uncletopia.com","port":27045,"enabled":true,"region":"us-west","cc":"us","latitude":37.77397,"longitude":-122.4313,"reserved":0,"last_update":"0001-01-01T00:00:00Z","name_a2s":"Uncletopia | San Francisco | 4 | Community","protocol":17,"map":"pl_pier","folder":"tf","game":"Team Fortress","app_id":440,"player_count":0,"max_players":24,"Bots":0,"server_type":"Dedicated","server_os":"Linux","password":true,"vac":true,"version":"7961495","steam_id":85568392924742826,"keywords":["nocrits","nodmgspread","payload","uncletopia"],"game_id":440,"stv_port":27046,"stv_name":"Uncletopia | San Francisco | 4 | Community | STV","players":null},{"server_id":141,"name":"Uncletopia | Sydney | 1 | All Maps","name_short":"syd-1","host":"syd-1.au.uncletopia.com","port":27015,"enabled":true,"region":"au","cc":"au","latitude":-33.865143,"longitude":151.2099,"reserved":0,"last_update":"0001-01-01T00:00:00Z","name_a2s":"Uncletopia | Sydney | 1 | All Maps","protocol":17,"map":"koth_viaduct","folder":"tf","game":"Team Fortress","app_id":440,"player_count":0,"max_players":24,"Bots":0,"server_type":"Dedicated","server_os":"Linux","password":true,"vac":true,"version":"7961495","steam_id":85568392924470001,"keywords":["cp","nocrits","nodmgspread","uncletopia"],"game_id":440,"stv_port":27016,"stv_name":"Uncletopia | Sydney | 1 | All Maps | STV","players":null},{"server_id":123,"name":"Uncletopia | Sydney | 2 | All Maps","name_short":"syd-2","host":"syd-1.au.uncletopia.com","port":27025,"enabled":true,"region":"au","cc":"au","latitude":-33.865143,"longitude":151.2099,"reserved":0,"last_update":"0001-01-01T00:00:00Z","name_a2s":"Uncletopia | Sydney | 2 | All Maps","protocol":17,"map":"koth_lakeside_final","folder":"tf","game":"Team Fortress","app_id":440,"player_count":0,"max_players":24,"Bots":0,"server_type":"Dedicated","server_os":"Linux","password":true,"vac":true,"version":"7961495","steam_id":85568392924470002,"keywords":["cp","nocrits","nodmgspread","uncletopia"],"game_id":440,"stv_port":27026,"stv_name":"Uncletopia | Sydney | 2 | All Maps | STV","players":null},{"server_id":395,"name":"Uncletopia | Sydney | 3 | All Maps","name_short":"syd-3","host":"syd-1.au.uncletopia.com","port":27035,"enabled":true,"region":"au","cc":"au","latitude":-33.865143,"longitude":151.2099,"reserved":0,"last_update":"0001-01-01T00:00:00Z","name_a2s":"Uncletopia | Sydney | 3 | All Maps","protocol":17,"map":"pl_frontier_final","folder":"tf","game":"Team Fortress","app_id":440,"player_count":0,"max_players":24,"Bots":0,"server_type":"Dedicated","server_os":"Linux","password":true,"vac":true,"version":"7961495","steam_id":85568392925194467,"keywords":["nocrits","nodmgspread","payload","uncletopia"],"game_id":440,"stv_port":27036,"stv_name":"Uncletopia | Sydney | 3 | All Maps | STV","players":null},{"server_id":396,"name":"Uncletopia | Sydney | 4 | All Maps","name_short":"syd-4","host":"syd-1.au.uncletopia.com","port":27045,"enabled":true,"region":"au","cc":"au","latitude":-33.865143,"longitude":151.2099,"reserved":0,"last_update":"0001-01-01T00:00:00Z","name_a2s":"Uncletopia | Sydney | 4 | All Maps","protocol":17,"map":"cp_process_final","folder":"tf","game":"Team Fortress","app_id":440,"player_count":0,"max_players":24,"Bots":0,"server_type":"Dedicated","server_os":"Linux","password":true,"vac":true,"version":"7961495","steam_id":85568392925397958,"keywords":["cp","nocrits","nodmgspread","uncletopia"],"game_id":440,"stv_port":27046,"stv_name":"Uncletopia | Sydney | 4 | All Maps | STV","players":null},{"server_id":58,"name":"Uncletopia | Sydney | 5 | Stopwatch","name_short":"syd-5","host":"syd-1.au.uncletopia.com","port":27055,"enabled":true,"region":"au","cc":"au","latitude":-33.865143,"longitude":151.2099,"reserved":0,"last_update":"0001-01-01T00:00:00Z","name_a2s":"Uncletopia | Sydney | 5 | Stopwatch","protocol":17,"map":"pl_frontier_final","folder":"tf","game":"Team Fortress","app_id":440,"player_count":0,"max_players":24,"Bots":0,"server_type":"Dedicated","server_os":"Linux","password":true,"vac":true,"version":"7961495","steam_id":85568392925397959,"keywords":["nocrits","nodmgspread","payload","uncletopia"],"game_id":440,"stv_port":27056,"stv_name":"Uncletopia | Sydney | 5 | Stopwatch | STV","players":null},{"server_id":59,"name":"Uncletopia | Sydney | 6 | Community","name_short":"syd-6","host":"syd-1.au.uncletopia.com","port":27065,"enabled":true,"region":"au","cc":"au","latitude":-33.865143,"longitude":151.2099,"reserved":0,"last_update":"0001-01-01T00:00:00Z","name_a2s":"Uncletopia | Sydney | 6 | Community","protocol":17,"map":"cp_sunshine","folder":"tf","game":"Team Fortress","app_id":440,"player_count":0,"max_players":24,"Bots":0,"server_type":"Dedicated","server_os":"Linux","password":true,"vac":true,"version":"7961495","steam_id":85568392925397960,"keywords":["cp","nocrits","nodmgspread","uncletopia"],"game_id":440,"stv_port":27066,"stv_name":"Uncletopia | Sydney | 6 | Community | STV","players":null},{"server_id":49,"name":"Uncletopia | Warsaw | 1 | One Thousand Uncles","name_short":"waw-1","host":"waw-1.pl.uncletopia.com","port":27015,"enabled":true,"region":"eu","cc":"pl","latitude":52.2297,"longitude":21.017532,"reserved":0,"last_update":"0001-01-01T00:00:00Z","name_a2s":"Uncletopia | Warsaw | 1 | One Thousand Uncles","protocol":17,"map":"pl_barnblitz","folder":"tf","game":"Team Fortress","app_id":440,"player_count":22,"max_players":32,"Bots":16,"server_type":"Dedicated","server_os":"Linux","password":true,"vac":true,"version":"7961495","steam_id":85568392925397850,"keywords":["alltalk","bots","danepve","increased_maxplayers","nocrits","norespawntime","payload","uncletopia"],"game_id":440,"stv_port":0,"stv_name":"","players":[{"user_id":276,"name":"klim01112010","steam_id":76561199401455959,"connected_time":1335000000000,"state":"active","ping":57},{"user_id":277,"name":"Benzo Fury","steam_id":76561198025259336,"connected_time":1329000000000,"state":"active","ping":75},{"user_id":227,"name":"El Wiwi","steam_id":76561198134378108,"connected_time":5402000000000,"state":"active","ping":91},{"user_id":295,"name":"joachym","steam_id":76561198428579761,"connected_time":997000000000,"state":"active","ping":64},{"user_id":219,"name":"nelipa84","steam_id":76561199259397833,"connected_time":7549000000000,"state":"active","ping":49},{"user_id":259,"name":"[HK]我係香港人","steam_id":76561198165376815,"connected_time":4188000000000,"state":"active","ping":87}]},{"server_id":50,"name":"Uncletopia | Warsaw | 2 | One Thousand Uncles","name_short":"waw-2","host":"waw-1.pl.uncletopia.com","port":27025,"enabled":true,"region":"eu","cc":"pl","latitude":52.2297,"longitude":21.017532,"reserved":0,"last_update":"0001-01-01T00:00:00Z","name_a2s":"Uncletopia | Warsaw | 2 | One Thousand Uncles","protocol":17,"map":"cp_dustbowl","folder":"tf","game":"Team Fortress","app_id":440,"player_count":18,"max_players":32,"Bots":16,"server_type":"Dedicated","server_os":"Linux","password":true,"vac":true,"version":"7961495","steam_id":85568392925397851,"keywords":["alltalk","bots","cp","danepve","increased_maxplayers","nocrits","norespawntime","uncletopia"],"game_id":440,"stv_port":0,"stv_name":"","players":[{"user_id":400,"name":"C.E.O. of stab industry","steam_id":76561198242840202,"connected_time":2130000000000,"state":"active","ping":72},{"user_id":419,"name":"Brozy","steam_id":76561199014951849,"connected_time":453000000000,"state":"active","ping":135}]},{"server_id":51,"name":"Uncletopia | Warsaw | 3 | All Maps","name_short":"waw-3","host":"waw-1.pl.uncletopia.com","port":27035,"enabled":true,"region":"eu","cc":"pl","latitude":52.2297,"longitude":21.017532,"reserved":0,"last_update":"0001-01-01T00:00:00Z","name_a2s":"Uncletopia | Warsaw | 3 | All Maps","protocol":17,"map":"koth_highpass","folder":"tf","game":"Team Fortress","app_id":440,"player_count":0,"max_players":24,"Bots":0,"server_type":"Dedicated","server_os":"Linux","password":true,"vac":true,"version":"7961495","steam_id":85568392925397852,"keywords":["cp","nocrits","nodmgspread","uncletopia"],"game_id":440,"stv_port":27036,"stv_name":"Uncletopia | Warsaw | 3 | All Maps | STV","players":null},{"server_id":52,"name":"Uncletopia | Warsaw | 4 | All Maps","name_short":"waw-4","host":"waw-1.pl.uncletopia.com","port":27045,"enabled":true,"region":"eu","cc":"pl","latitude":52.2297,"longitude":21.017532,"reserved":0,"last_update":"0001-01-01T00:00:00Z","name_a2s":"Uncletopia | Warsaw | 4 | All Maps","protocol":17,"map":"koth_highpass","folder":"tf","game":"Team Fortress","app_id":440,"player_count":0,"max_players":24,"Bots":0,"server_type":"Dedicated","server_os":"Linux","password":true,"vac":true,"version":"7961495","steam_id":85568392925397853,"keywords":["cp","nocrits","nodmgspread","uncletopia"],"game_id":440,"stv_port":27046,"stv_name":"Uncletopia | Warsaw | 4 | All Maps | STV","players":null},{"server_id":53,"name":"Uncletopia | Warsaw | 5 | Stopwatch","name_short":"waw-5","host":"waw-1.pl.uncletopia.com","port":27055,"enabled":true,"region":"eu","cc":"pl","latitude":52.2297,"longitude":21.017532,"reserved":0,"last_update":"0001-01-01T00:00:00Z","name_a2s":"Uncletopia | Warsaw | 5 | Stopwatch","protocol":17,"map":"pl_upward","folder":"tf","game":"Team Fortress","app_id":440,"player_count":0,"max_players":24,"Bots":0,"server_type":"Dedicated","server_os":"Linux","password":true,"vac":true,"version":"7961495","steam_id":85568392925397854,"keywords":["nocrits","nodmgspread","payload","uncletopia"],"game_id":440,"stv_port":27056,"stv_name":"Uncletopia | Warsaw | 5 | Stopwatch | STV","players":null},{"server_id":54,"name":"Uncletopia | Warsaw | 6 | Community","name_short":"waw-6","host":"waw-1.pl.uncletopia.com","port":27065,"enabled":true,"region":"eu","cc":"pl","latitude":52.2297,"longitude":21.017532,"reserved":0,"last_update":"0001-01-01T00:00:00Z","name_a2s":"Uncletopia | Warsaw | 6 | Community","protocol":17,"map":"workshop/cp_hazyfort_rc6.ugc1365963729","folder":"tf","game":"Team Fortress","app_id":440,"player_count":0,"max_players":24,"Bots":0,"server_type":"Dedicated","server_os":"Linux","password":true,"vac":true,"version":"7961495","steam_id":85568392925397856,"keywords":["cp","nocrits","nodmgspread","uncletopia"],"game_id":440,"stv_port":27066,"stv_name":"Uncletopia | Warsaw | 6 | Community | STV","players":null}]}