{"status":true,"message":"","result":[{"server_id":9,"name":"Uncletopia | Atlanta | 1 | All Maps","name_short":"atl-1","host":"atl-1.us.uncletopia.com","port":27015,"enabled":true,"region":"us-east","cc":"us","latitude":33.753746,"longitude":-84.38633,"reserved":0,"last_update":"0001-01-01T00:00:00Z","name_a2s":"Uncletopia | Atlanta | 1 | All Maps","protocol":17,"map":"cp_dustbowl","folder":"tf","game":"Team Fortress","app_id":440,"player_count":24,"max_players":24,"Bots":0,"server_type":"Dedicated","server_os":"Linux","password":true,"vac":true,"version":"7961495","steam_id":85568392924469982,"keywords":["cp","nocrits","nodmgspread","uncletopia"],"game_id":440,"stv_port":27016,"stv_name":"Uncletopia | Atlanta | 1 | All Maps | STV","players":null},{"server_id":104,"name":"Uncletopia | Atlanta | 2 | All Maps","name_short":"atl-2","host":"atl-1.us.uncletopia.com","port":27025,"enabled":true,"region":"us-east","cc":"us","latitude":33.753746,"longitude":-84.38633,"reserved":0,"last_update":"0001-01-01T00:00:00Z","name_a2s":"Uncletopia | Atlanta | 2 | All Maps","protocol":17,"map":"koth_cascade","folder":"tf","game":"Team Fortress","app_id":440,"player_count":0,"max_players":24,"Bots":0,"server_type":"Dedicated","server_os":"Linux","password":true,"vac":true,"version":"7961495","steam_id":85568392924469983,"keywords":["cp","nocrits","nodmgspread","uncletopia"],"game_id":440,"stv_port":27026,"stv_name":"Uncletopia | Atlanta | 2 | All Maps | STV","players":null},{"server_id":400,"name":"Uncletopia | Atlanta | 3 | Stopwatch","name_short":"atl-3","host":"atl-1.us.uncletopia.com","port":27035,"enabled":true,"region":"us-east","cc":"us","latitude":33.753746,"longitude":-84.38633,"reserved":0,"last_update":"0001-01-01T00:00:00Z","name_a2s":"Uncletopia | Atlanta | 3 | Stopwatch","protocol":17,"map":"koth_clearcut_b15","folder":"tf","game":"Team Fortress","app_id":440,"player_count":0,"max_players":24,"Bots":0,"server_type":"Dedicated","server_os":"Linux","password":true,"vac":true,"version":"7961495","steam_id":85568392924515187,"keywords":["cp","nocrits","nodmgspread","uncletopia"],"game_id":440,"stv_port":27036,"stv_name":"Uncletopia | Atlanta | 3 | Stopwatch | STV","players":null},{"server_id":401,"name":"Uncletopia | Atlanta | 4 | Community","name_short":"atl-4","host":"atl-1.us.uncletopia.com","port":27045,"enabled":true,"region":"us-east","cc":"us","latitude":33.753746,"longitude":-84.38633,"reserved":0,"last_update":"0001-01-01T00:00:00Z","name_a2s":"Uncletopia | Atlanta | 4 | Community","protocol":17,"map":"koth_trenchfoot_b1a","folder":"tf","game":"Team Fortress","app_id":440,"player_count":0,"max_players":24,"Bots":0,"server_type":"Dedicated","server_os":"Linux","password":true,"vac":true,"version":"7961495","steam_id":85568392924515188,"keywords":["cp","nocrits","nodmgspread","uncletopia"],"game_id":440,"stv_port":27046,"stv_name":"Uncletopia | Atlanta | 4 | Community | STV","players":null},{"server_id":2,"name":"Uncletopia | Chicago | 1 | All Maps","name_short":"chi-1","host":"chi-1.us.uncletopia.com","port":27015,"enabled":true,"region":"us-central","cc":"us","latitude":41.881832,"longitude":-87.62318,"reserved":0,"last_update":"0001-01-01T00:00:00Z","name_a2s":"Uncletopia | Chicago | 1 | All Maps","protocol":17,"map":"cp_dustbowl","folder":"tf","game":"Team Fortress","app_id":440,"player_count":24,"max_players":24,"Bots":0,"server_type":"Dedicated","server_os":"Linux","password":true,"vac":true,"version":"7961495","steam_id":85568392924469984,"keywords":["cp","nocrits","nodmgspread","uncletopia"],"game_id":440,"stv_port":27016,"stv_name":"Uncletopia | Chicago | 1 | All Maps | STV","players":[{"user_id":13,"name":"Forehead","steam_id":76561198124151399,"connected_time":8893000000000,"state":"active","ping":70},{"user_id":122,"name":"LerN","steam_id":76561198083463877,"connected_time":2012000000000,"state":"active","ping":50},{"user_id":137,"name":"gretchling","steam_id":76561198046111695,"connected_time":702000000000,"state":"active","ping":62},{"user_id":74,"name":"Raz","steam_id":76561198879521002,"connected_time":4470000000000,"state":"active","ping":66},{"user_id":70,"name":"debin","steam_id":76561198070711217,"connected_time":4503000000000,"state":"active","ping":52},{"user_id":138,"name":"Bostonstapler","steam_id":76561197996334971,"connected_time":599000000000,"state":"active","ping":61},{"user_id":131,"name":"Cdesmondd","steam_id":76561198072774462,"connected_time":1132000000000,"state":"active","ping":62},{"user_id":76,"name":"uweh","steam_id":76561198113707813,"connected_time":4461000000000,"state":"active","ping":79},{"user_id":136,"name":"loscemo","steam_id":76561197994884609,"connected_time":854000000000,"state":"active","ping":68},{"user_id":111,"name":"cumscumscumscumscumscumscumscum","steam_id":76561198057861378,"connected_time":2221000000000,"state":"active","ping":74},{"user_id":115,"name":"Milkmur","steam_id":76561198210043821,"connected_time":2192000000000,"state":"active","ping":70},{"user_id":133,"name":"ZamblargoAT","steam_id":76561198295713840,"connected_time":1053000000000,"state":"active","ping":73},{"user_id":95,"name":"krueger","steam_id":76561198268654031,"connected_time":3337000000000,"state":"active","ping":51},{"user_id":126,"name":"fractaldunes","steam_id":76561198118102935,"connected_time":1502000000000,"state":"active","ping":59},{"user_id":129,"name":"The Nikocado Enjoyer","steam_id":76561198263154374,"connected_time":1404000000000,"state":"active","ping":69},{"user_id":100,"name":"6t26j","steam_id":76561198278282836,"connected_time":3260000000000,"state":"active","ping":54},{"user_id":127,"name":"cvb dgffugrwa tzgsd","steam_id":76561198304661367,"connected_time":1409000000000,"state":"active","ping":76},{"user_id":134,"name":"Bussy Bandit","steam_id":76561198034028769,"connected_time":871000000000,"state":"active","ping":63},{"user_id":92,"name":"Orange Joe","steam_id":76561198082208637,"connected_time":3541000000000,"state":"active","ping":87},{"user_id":123,"name":"Vitzenhauzer","steam_id":76561198116449787,"connected_time":1850000000000,"state":"active","ping":67},{"user_id":60,"name":"Mango","steam_id":76561198156746320,"connected_time":5865000000000,"state":"active","ping":47},{"user_id":124,"name":"She Pegs Me","steam_id":76561198099770390,"connected_time":1842000000000,"state":"active","ping":47},{"user_id":110,"name":"thecal","steam_id":76561198307893384,"connected_time":2335000000000,"state":"active","ping":56},{"user_id":132,"name":"sawrik","steam_id":76561198018808213,"connected_time":1132000000000,"state":"active","ping":71}]},{"server_id":106,"name":"Uncletopia | Chicago | 2 | All Maps","name_short":"chi-2","host":"chi-1.us.uncletopia.com","port":27025,"enabled":true,"region":"us-central","cc":"us","latitude":41.881832,"longitude":-87.62318,"reserved":0,"last_update":"0001-01-01T00:00:00Z","name_a2s":"Uncletopia | Chicago | 2 | All Maps","protocol":17,"map":"pl_badwater","folder":"tf","game":"Team Fortress","app_id":440,"player_count":24,"max_players":24,"Bots":0,"server_type":"Dedicated","server_os":"Linux","password":true,"vac":true,"version":"7961495","steam_id":85568392924469985,"keywords":["nocrits","nodmgspread","payload","uncletopia"],"game_id":440,"stv_port":27026,"stv_name":"Uncletopia | Chicago | 2 | All Maps | STV","players":[{"user_id":285,"name":"Þú lýsir upp allan geiminn","steam_id":76561197999657118,"connected_time":5992000000000,"state":"active","ping":85},{"user_id":311,"name":"otcu","steam_id":76561198339644583,"connected_time":4198000000000,"state":"active","ping":54},{"user_id":341,"name":"shnowshner","steam_id":76561198066450438,"connected_time":2807000000000,"state":"active","ping":70},{"user_id":299,"name":"Doctor_Redstone","steam_id":76561198061947161,"connected_time":4480000000000,"state":"active","ping":71},{"user_id":300,"name":"Visual Depression","steam_id":76561198825918366,"connected_time":4466000000000,"state":"active","ping":99},{"user_id":353,"name":"has entered the chat","steam_id":76561198078798799,"connected_time":1272000000000,"state":"active","ping":168},{"user_id":321,"name":"William Wallace","steam_id":76561199343316814,"connected_time":3395000000000,"state":"active","ping":74},{"user_id":325,"name":"Ghoulenoir","steam_id":76561198074314573,"connected_time":3350000000000,"state":"active","ping":48},{"user_id":369,"name":"krill your shelf","steam_id":76561198233984300,"connected_time":46000000000,"state":"active","ping":55},{"user_id":362,"name":"Skysteele","steam_id":76561198164536662,"connected_time":548000000000,"state":"active","ping":90},{"user_id":318,"name":"Gaiduk","steam_id":76561198112323877,"connected_time":3679000000000,"state":"active","ping":76},{"user_id":357,"name":"KATSURB","steam_id":76561199172118456,"connected_time":788000000000,"state":"active","ping":60},{"user_id":365,"name":"The Jar","steam_id":76561198146013385,"connected_time":412000000000,"state":"active","ping":73},{"user_id":313,"name":"MR SKELTAL","steam_id":76561198031089598,"connected_time":4189000000000,"state":"active","ping":61},{"user_id":335,"name":"DivineBanana","steam_id":76561198026529731,"connected_time":2972000000000,"state":"active","ping":90},{"user_id":340,"name":"div?","steam_id":76561198413930183,"connected_time":2836000000000,"state":"active","ping":61},{"user_id":312,"name":"Pendrive","steam_id":76561199427354854,"connected_time":4198000000000,"state":"active","ping":181},{"user_id":327,"name":"GammaTheDynamo","steam_id":76561198855140905,"connected_time":3298000000000,"state":"active","ping":75},{"user_id":328,"name":"Foolish Samurai","steam_id":76561198080887661,"connected_time":3280000000000,"state":"active","ping":69},{"user_id":354,"name":"Horrific Necktie","steam_id":76561197999439391,"connected_time":1024000000000,"state":"active","ping":78},{"user_id":356,"name":"Cowbo #enablecrits","steam_id":76561198081220016,"connected_time":825000000000,"state":"active","ping":58},{"user_id":355,"name":"anonion","steam_id":76561198056477584,"connected_time":918000000000,"state":"active","ping":79},{"user_id":350,"name":"Octto","steam_id":76561198070124921,"connected_time":1901000000000,"state":"active","ping":55},{"user_id":368,"name":"Joculatrix","steam_id":76561198012795457,"connected_time":96000000000,"state":"active","ping":75}]},{"server_id":402,"name":"Uncletopia | Chicago | 3 | All Maps","name_short":"chi-3","host":"chi-1.us.uncletopia.com","port":27035,"enabled":true,"region":"us-central","cc":"us","latitude":41.881832,"longitude":-87.62318,"reserved":0,"last_update":"0001-01-01T00:00:00Z","name_a2s":"Uncletopia | Chicago | 3 | All Maps","protocol":17,"map":"pl_frontier_final","folder":"tf","game":"Team Fortress","app_id":440,"player_count":0,"max_players":24,"Bots":0,"server_type":"Dedicated","server_os":"Linux","password":true,"vac":true,"version":"7961495","steam_id":85568392924515191,"keywords":["nocrits","nodmgspread","payload","uncletopia"],"game_id":440,"stv_port":27036,"stv_name":"Uncletopia | Chicago | 3 | All Maps | STV","players":null},{"server_id":403,"name":"Uncletopia | Chicago | 4 | All Maps","name_short":"chi-4","host":"chi-1.us.uncletopia.com","port":27045,"enabled":true,"region":"us-central","cc":"us","latitude":41.881832,"longitude":-87.62318,"reserved":0,"last_update":"0001-01-01T00:00:00Z","name_a2s":"Uncletopia | Chicago | 4 | All Maps","protocol":17,"map":"koth_cascade","folder":"tf","game":"Team Fortress","app_id":440,"player_count":0,"max_players":24,"Bots":0,"server_type":"Dedicated","server_os":"Linux","password":true,"vac":true,"version":"7961495","steam_id":85568392924515193,"keywords":["cp","nocrits","nodmgspread","uncletopia"],"game_id":440,"stv_port":27046,"stv_name":"Uncletopia | Chicago | 4 | All Maps | STV","players":null},{"server_id":36,"name":"Uncletopia | Chicago | 5 | All Maps","name_short":"chi-5","host":"chi-2.us.uncletopia.com","port":27015,"enabled":true,"region":"us-central","cc":"us","latitude":41.881832,"longitude":-87.62318,"reserved":0,"last_update":"0001-01-01T00:00:00Z","name_a2s":"Uncletopia | Chicago | 5 | All Maps","protocol":17,"map":"koth_viaduct","folder":"tf","game":"Team Fortress","app_id":440,"player_count":0,"max_players":24,"Bots":0,"server_type":"Dedicated","server_os":"Linux","password":true,"vac":true,"version":"7961495","steam_id":85568392924866362,"keywords":["cp","nocrits","nodmgspread","uncletopia"],"game_id":440,"stv_port":27016,"stv_name":"Uncletopia | Chicago | 5 | All Maps | STV","players":null},{"server_id":37,"name":"Uncletopia | Chicago | 6 | All Maps","name_short":"chi-6","host":"chi-2.us.uncletopia.com","port":27025,"enabled":true,"region":"us-central","cc":"us","latitude":41.881832,"longitude":-87.62318,"reserved":0,"last_update":"0001-01-01T00:00:00Z","name_a2s":"Uncletopia | Chicago | 6 | All Maps","protocol":17,"map":"cp_sunshine","folder":"tf","game":"Team Fortress","app_id":440,"player_count":7,"max_players":24,"Bots":0,"server_type":"Dedicated","server_os":"Linux","password":true,"vac":true,"version":"7961495","steam_id":85568392924866363,"keywords":["cp","nocrits","nodmgspread","uncletopia"],"game_id":440,"stv_port":27026,"stv_name":"Uncletopia | Chicago | 6 | All Maps | STV","players":[{"user_id":8,"name":"Medic's Bodacious Boobs","steam_id":76561198257038275,"connected_time":318000000000,"state":"active","ping":73},{"user_id":9,"name":"dogboy","steam_id":76561198211477235,"connected_time":301000000000,"state":"active","ping":62},{"user_id":10,"name":"Nottonyhawk","steam_id":76561198093254419,"connected_time":194000000000,"state":"active","ping":60},{"user_id":14,"name":"a rock","steam_id":76561198812545837,"connected_time":109000000000,"state":"active","ping":184},{"user_id":12,"name":"Kaikie","steam_id":76561198327199539,"connected_time":181000000000,"state":"active","ping":158},{"user_id":13,"name":"ok","steam_id":76561199074875663,"connected_time":117000000000,"state":"active","ping":75},{"user_id":15,"name":"a crystal lizard","steam_id":76561197997661928,"connected_time":68000000000,"state":"active","ping":65}]},{"server_id":38,"name":"Uncletopia | Chicago | 7 | Stopwatch","name_short":"chi-7","host":"chi-2.us.uncletopia.com","port":27035,"enabled":true,"region":"us-central","cc":"us","latitude":41.881832,"longitude":-87.62318,"reserved":0,"last_update":"0001-01-01T00:00:00Z","name_a2s":"Uncletopia | Chicago | 7 | Stopwatch","protocol":17,"map":"pl_badwater","folder":"tf","game":"Team Fortress","app_id":440,"player_count":0,"max_players":24,"Bots":0,"server_type":"Dedicated","server_os":"Linux","password":true,"vac":true,"version":"7961495","steam_id":85568392924866364,"keywords":["nocrits","nodmgspread","payload","uncletopia"],"game_id":440,"stv_port":27036,"stv_name":"Uncletopia | Chicago | 7 | Stopwatch | STV","players":null},{"server_id":39,"name":"Uncletopia | Chicago | 8 | Community","name_short":"chi-8","host":"chi-2.us.uncletopia.com","port":27045,"enabled":true,"region":"us-central","cc":"us","latitude":41.881832,"longitude":-87.62318,"reserved":0,"last_update":"0001-01-01T00:00:00Z","name_a2s":"Uncletopia | Chicago | 8 | Community","protocol":17,"map":"pl_pier","folder":"tf","game":"Team Fortress","app_id":440,"player_count":0,"max_players":24,"Bots":0,"server_type":"Dedicated","server_os":"Linux","password":true,"vac":true,"version":"7961495","steam_id":85568392924866365,"keywords":["nocrits","nodmgspread","payload","uncletopia"],"game_id":440,"stv_port":27046,"stv_name":"Uncletopia | Chicago | 8 | Community | STV","players":null},{"server_id":8,"name":"Uncletopia | Dallas | 1 | All Maps","name_short":"dal-1","host":"dal-1.us.uncletopia.com","port":27015,"enabled":true,"region":"us-central","cc":"us","latitude":32.779167,"longitude":-96.80889,"reserved":0,"last_update":"0001-01-01T00:00:00Z","name_a2s":"Uncletopia | Dallas | 1 | All Maps","protocol":17,"map":"cp_dustbowl","folder":"tf","game":"Team Fortress","app_id":440,"player_count":24,"max_players":24,"Bots":0,"server_type":"Dedicated","server_os":"Linux","password":true,"vac":true,"version":"7961495","steam_id":85568392924469986,"keywords":["cp","nocrits","nodmgspread","uncletopia"],"game_id":440,"stv_port":27016,"stv_name":"Uncletopia | Dallas | 1 | All Maps | STV","players":[{"user_id":166,"name":"MerlinTheWizard","steam_id":76561198171472393,"connected_time":1434000000000,"state":"active","ping":72},{"user_id":176,"name":"owl","steam_id":76561198088403016,"connected_time":52000000000,"state":"active","ping":181},{"user_id":168,"name":"new york city pizza rat","steam_id":76561198202589758,"connected_time":1395000000000,"state":"active","ping":75},{"user_id":173,"name":"ZaffreIndigo","steam_id":76561198046724290,"connected_time":1179000000000,"state":"active","ping":80},{"user_id":163,"name":"Carl, Good to see you","steam_id":76561198070574075,"connected_time":1453000000000,"state":"active","ping":76},{"user_id":174,"name":"Prime72","steam_id":76561198345733164,"connected_time":787000000000,"state":"active","ping":68},{"user_id":153,"name":"tydogzilla","steam_id":76561198054254518,"connected_time":2990000000000,"state":"active","ping":105},{"user_id":169,"name":"dailydiamond","steam_id":76561199123582502,"connected_time":1341000000000,"state":"active","ping":99},{"user_id":157,"name":"Plimki","steam_id":76561199019877748,"connected_time":2456000000000,"state":"active","ping":105},{"user_id":175,"name":"Riff III","steam_id":76561198066921423,"connected_time":784000000000,"state":"active","ping":69},{"user_id":161,"name":"dobby","steam_id":76561198012274834,"connected_time":1468000000000,"state":"active","ping":69},{"user_id":19,"name":"Bippums","steam_id":76561198366406729,"connected_time":12801000000000,"state":"active","ping":88},{"user_id":143,"name":"mkl","steam_id":76561197986401685,"connected_time":3323000000000,"state":"active","ping":55},{"user_id":21,"name":"woke moralist","steam_id":76561198301021031,"connected_time":12775000000000,"state":"active","ping":88},{"user_id":165,"name":"Clow","steam_id":76561198857195734,"connected_time":1437000000000,"state":"active","ping":100},{"user_id":170,"name":"Kanye Asada","steam_id":76561198186678831,"connected_time":1313000000000,"state":"active","ping":87},{"user_id":167,"name":"gooch_masta","steam_id":76561198151578423,"connected_time":1431000000000,"state":"active","ping":92},{"user_id":172,"name":"Galactic","steam_id":76561198983561772,"connected_time":1254000000000,"state":"active","ping":84},{"user_id":93,"name":"Gen-E","steam_id":76561199497800989,"connected_time":8530000000000,"state":"active","ping":89},{"user_id":154,"name":"Withered Bonnie (Real)","steam_id":76561198423310113,"connected_time":2817000000000,"state":"active","ping":57},{"user_id":171,"name":"K2f","steam_id":76561198049600563,"connected_time":1296000000000,"state":"active","ping":72},{"user_id":177,"name":"zoggers","steam_id":76561198124806458,"connected_time":4000000000,"state":"spawning","ping":44},{"user_id":152,"name":"the keebler","steam_id":76561199486326945,"connected_time":3021000000000,"state":"active","ping":82},{"user_id":162,"name":"Jeramosa","steam_id":76561198811000094,"connected_time":1468000000000,"state":"active","ping":72}]},{"server_id":108,"name":"Uncletopia | Dallas | 2 | All Maps","name_short":"dal-2","host":"dal-1.us.uncletopia.com","port":27025,"enabled":true,"region":"us-central","cc":"us","latitude":32.779167,"longitude":-96.80889,"reserved":0,"last_update":"0001-01-01T00:00:00Z","name_a2s":"Uncletopia | Dallas | 2 | All Maps","protocol":17,"map":"pl_swiftwater_final1","folder":"tf","game":"Team Fortress","app_id":440,"player_count":24,"max_players":24,"Bots":0,"server_type":"Dedicated","server_os":"Linux","password":true,"vac":true,"version":"7961495","steam_id":85568392924469988,"keywords":["nocrits","nodmgspread","payload","uncletopia"],"game_id":440,"stv_port":27026,"stv_name":"Uncletopia | Dallas | 2 | All Maps | STV","players":[{"user_id":374,"name":"kermitcreeper(ZAZA)","steam_id":76561199222829972,"connected_time":2144000000000,"state":"active","ping":62},{"user_id":354,"name":"SanitysEdge","steam_id":76561198130732813,"connected_time":3957000000000,"state":"active","ping":78},{"user_id":350,"name":"Nylus","steam_id":76561198026623489,"connected_time":4468000000000,"state":"active","ping":173},{"user_id":324,"name":"BatMatt","steam_id":76561198045910433,"connected_time":6012000000000,"state":"active","ping":55},{"user_id":376,"name":"bruh","steam_id":76561198305505479,"connected_time":1979000000000,"state":"active","ping":50},{"user_id":410,"name":"Doctor Emerald(Bison Emperor)","steam_id":76561199123003872,"connected_time":630000000000,"state":"active","ping":91},{"user_id":409,"name":"Kc","steam_id":76561198210734407,"connected_time":988000000000,"state":"active","ping":75},{"user_id":293,"name":"denzell05","steam_id":76561198086987061,"connected_time":7791000000000,"state":"active","ping":86},{"user_id":299,"name":"cyborgjo2147","steam_id":76561199184761439,"connected_time":7551000000000,"state":"active","ping":81},{"user_id":414,"name":"TastyWheat","steam_id":76561198855061918,"connected_time":577000000000,"state":"active","ping":101},{"user_id":418,"name":"Tommy Provolone","steam_id":76561198170062377,"connected_time":515000000000,"state":"active","ping":68},{"user_id":201,"name":"DragonJimmy","steam_id":76561198272966565,"connected_time":15618000000000,"state":"active","ping":79},{"user_id":413,"name":"envy","steam_id":76561198099470277,"connected_time":589000000000,"state":"active","ping":87},{"user_id":327,"name":"JoanitoBananas","steam_id":76561198942953101,"connected_time":5944000000000,"state":"active","ping":127},{"user_id":415,"name":"Greasy Guavas","steam_id":76561198089650428,"connected_time":575000000000,"state":"active","ping":69},{"user_id":351,"name":"HooHay","steam_id":76561199350870177,"connected_time":4421000000000,"state":"active","ping":88},{"user_id":372,"name":"spunch bub","steam_id":76561198326658210,"connected_time":2350000000000,"state":"active","ping":74},{"user_id":416,"name":"kazoo2","steam_id":76561198260473504,"connected_time":557000000000,"state":"active","ping":66},{"user_id":265,"name":"Unusual Scout","steam_id":76561198379574232,"connected_time":10513000000000,"state":"active","ping":59},{"user_id":419,"name":"njokuani","steam_id":76561199061380038,"connected_time":210000000000,"state":"active","ping":75},{"user_id":377,"name":"Captain Malarkey","steam_id":76561198869924281,"connected_time":1687000000000,"state":"active","ping":78},{"user_id":404,"name":"Neptune˖⁺｡˚⋆˙♥","steam_id":76561199054203198,"connected_time":1105000000000,"state":"active","ping":94},{"user_id":408,"name":"FrostNova","steam_id":76561198348354629,"connected_time":1046000000000,"state":"active","ping":76},{"user_id":421,"name":"Fishin Scout","steam_id":76561198062308579,"connected_time":156000000000,"state":"active","ping":161}]},{"server_id":404,"name":"Uncletopia | Dallas | 3 | All Maps","name_short":"dal-3","host":"dal-1.us.uncletopia.com","port":27035,"enabled":true,"region":"us-central","cc":"us","latitude":32.779167,"longitude":-96.80889,"reserved":0,"last_update":"0001-01-01T00:00:00Z","name_a2s":"Uncletopia | Dallas | 3 | All Maps","protocol":17,"map":"cp_snakewater_final1","folder":"tf","game":"Team Fortress","app_id":440,"player_count":0,"max_players":24,"Bots":0,"server_type":"Dedicated","server_os":"Linux","password":true,"vac":true,"version":"7961495","steam_id":85568392924515219,"keywords":["cp","nocrits","nodmgspread","uncletopia"],"game_id":440,"stv_port":27036,"stv_name":"Uncletopia | Dallas | 3 | All Maps | STV","players":null},{"server_id":405,"name":"Uncletopia | Dallas | 4 | Community","name_short":"dal-4","host":"dal-1.us.uncletopia.com","port":27045,"enabled":true,"region":"us-central","cc":"us","latitude":32.779167,"longitude":-96.80889,"reserved":0,"last_update":"0001-01-01T00:00:00Z","name_a2s":"Uncletopia | Dallas | 4 | Community","protocol":17,"map":"pl_pier","folder":"tf","game":"Team Fortress","app_id":440,"player_count":0,"max_players":24,"Bots":0,"server_type":"Dedicated","server_os":"Linux","password":true,"vac":true,"version":"7961495","steam_id":85568392924515220,"keywords":["nocrits","nodmgspread","payload","uncletopia"],"game_id":440,"stv_port":27046,"stv_name":"Uncletopia | Dallas | 4 | Community | STV","players":null},{"server_id":5,"name":"Uncletopia | Frankfurt | 1 | All Maps","name_short":"frk-1","host":"frk-1.de.uncletopia.com","port":27015,"enabled":true,"region":"eu","cc":"de","latitude":50.110924,"longitude":8.682127,"reserved":0,"last_update":"0001-01-01T00:00:00Z","name_a2s":"Uncletopia | Frankfurt | 1 | All Maps","protocol":17,"map":"plr_hightower","folder":"tf","game":"Team Fortress","app_id":440,"player_count":24,"max_players":24,"Bots":0,"server_type":"Dedicated","server_os":"Linux","password":true,"vac":true,"version":"7961495","steam_id":85568392924469989,"keywords":["nocrits","nodmgspread","payload","uncletopia"],"game_id":440,"stv_port":27016,"stv_name":"Uncletopia | Frankfurt | 1 | All Maps | STV","players":[{"user_id":483,"name":"ais","steam_id":76561198040543390,"connected_time":668000000000,"state":"active","ping":75},{"user_id":481,"name":"Ozzak","steam_id":76561198353664262,"connected_time":1013000000000,"state":"active","ping":45},{"user_id":458,"name":"Brisket \u003c3","steam_id":76561198047291354,"connected_time":3376000000000,"state":"active","ping":135},{"user_id":475,"name":"Excessive Clownery","steam_id":76561198130404188,"connected_time":1459000000000,"state":"active","ping":68},{"user_id":486,"name":"patmat","steam_id":76561198869110531,"connected_time":369000000000,"state":"active","ping":59},{"user_id":451,"name":"Safe Joint","steam_id":76561198017799687,"connected_time":3778000000000,"state":"active","ping":115},{"user_id":433,"name":"KESO","steam_id":76561198000391945,"connected_time":4850000000000,"state":"active","ping":60},{"user_id":449,"name":"Kleptofilen","steam_id":76561198003405040,"connected_time":4133000000000,"state":"active","ping":74},{"user_id":434,"name":"I am dating your grandmother","steam_id":76561198268159433,"connected_time":4832000000000,"state":"active","ping":99},{"user_id":474,"name":"please do not the cat","steam_id":76561198089003514,"connected_time":1514000000000,"state":"active","ping":45},{"user_id":453,"name":"sloppy transgirl toppy","steam_id":76561198057092208,"connected_time":3459000000000,"state":"active","ping":60},{"user_id":472,"name":"bambozeld","steam_id":76561199066947702,"connected_time":1570000000000,"state":"active","ping":70},{"user_id":479,"name":"Garoseth","steam_id":76561197961387454,"connected_time":1315000000000,"state":"active","ping":56},{"user_id":437,"name":"lyudmilakh","steam_id":76561198362779878,"connected_time":4758000000000,"state":"active","ping":87},{"user_id":484,"name":"ThatKetos","steam_id":76561198989682540,"connected_time":413000000000,"state":"active","ping":45},{"user_id":402,"name":"LeGerooo","steam_id":76561199110422160,"connected_time":7157000000000,"state":"active","ping":88},{"user_id":460,"name":"TheShadowScribe","steam_id":76561199037525945,"connected_time":3075000000000,"state":"active","ping":97},{"user_id":469,"name":"booba","steam_id":76561198158018284,"connected_time":1971000000000,"state":"active","ping":56},{"user_id":468,"name":"Artemis","steam_id":76561198199091801,"connected_time":2057000000000,"state":"active","ping":49},{"user_id":485,"name":"skippy","steam_id":76561198171958773,"connected_time":399000000000,"state":"active","ping":65},{"user_id":477,"name":"badrobot","steam_id":76561198322878356,"connected_time":1367000000000,"state":"active","ping":100},{"user_id":470,"name":"midlpsyzl47","steam_id":76561199475972637,"connected_time":1904000000000,"state":"active","ping":72},{"user_id":443,"name":"zazuza","steam_id":76561198049820905,"connected_time":4700000000000,"state":"active","ping":62},{"user_id":444,"name":"Vonacht","steam_id":76561198016033944,"connected_time":4699000000000,"state":"active","ping":60}]},{"server_id":110,"name":"Uncletopia | Frankfurt | 2 | All Maps","name_short":"frk-2","host":"frk-1.de.uncletopia.com","port":27025,"enabled":true,"region":"eu","cc":"de","latitude":50.110924,"longitude":8.682127,"reserved":0,"last_update":"0001-01-01T00:00:00Z","name_a2s":"Uncletopia | Frankfurt | 2 | All Maps","protocol":17,"map":"pl_upward","folder":"tf","game":"Team Fortress","app_id":440,"player_count":24,"max_players":24,"Bots":0,"server_type":"Dedicated","server_os":"Linux","password":true,"vac":true,"version":"7961495","steam_id":85568392924469990,"keywords":["nocrits","nodmgspread","payload","uncletopia"],"game_id":440,"stv_port":27026,"stv_name":"Uncletopia | Frankfurt | 2 | All Maps | STV","players":[{"user_id":524,"name":"Economic crisis","steam_id":76561198063562843,"connected_time":2611000000000,"state":"active","ping":58},{"user_id":346,"name":"Ketich","steam_id":76561198021772703,"connected_time":12669000000000,"state":"active","ping":72},{"user_id":552,"name":"calum92","steam_id":76561197992188760,"connected_time":1077000000000,"state":"active","ping":83},{"user_id":528,"name":"GigaСhad Pyro","steam_id":76561198140742485,"connected_time":2496000000000,"state":"active","ping":94},{"user_id":542,"name":"coldary","steam_id":76561198158968852,"connected_time":1587000000000,"state":"active","ping":70},{"user_id":489,"name":"tensh1","steam_id":76561198282471866,"connected_time":4664000000000,"state":"active","ping":106},{"user_id":540,"name":"Arigato Gozaimasu!","steam_id":76561198052342856,"connected_time":1787000000000,"state":"active","ping":66},{"user_id":547,"name":"MrClyde","steam_id":76561198132627420,"connected_time":1238000000000,"state":"active","ping":60},{"user_id":555,"name":"meth addict","steam_id":76561198005764743,"connected_time":376000000000,"state":"active","ping":53},{"user_id":501,"name":"benjaminmarkMLP","steam_id":76561198920361202,"connected_time":4507000000000,"state":"active","ping":143},{"user_id":482,"name":"else1","steam_id":76561197996558319,"connected_time":5112000000000,"state":"active","ping":75},{"user_id":548,"name":"hardway","steam_id":76561198272529254,"connected_time":1210000000000,"state":"active","ping":50},{"user_id":504,"name":"Jewix","steam_id":76561198063457899,"connected_time":4415000000000,"state":"active","ping":64},{"user_id":553,"name":"who is spikey mike?","steam_id":76561199169534004,"connected_time":1074000000000,"state":"active","ping":50},{"user_id":546,"name":"jovi_","steam_id":76561198449280552,"connected_time":1257000000000,"state":"active","ping":71},{"user_id":549,"name":"3igen3ggy","steam_id":76561197989548015,"connected_time":1189000000000,"state":"active","ping":66},{"user_id":554,"name":"nejby","steam_id":76561198124832334,"connected_time":939000000000,"state":"active","ping":57},{"user_id":492,"name":"Cosmic Gamer","steam_id":76561198027357981,"connected_time":4623000000000,"state":"active","ping":93},{"user_id":451,"name":"ABC555ABC666ABC555","steam_id":76561197995676953,"connected_time":6335000000000,"state":"active","ping":49},{"user_id":521,"name":"Will - no sound","steam_id":76561198173329977,"connected_time":2799000000000,"state":"active","ping":63},{"user_id":556,"name":"LOBZIK","steam_id":76561198114830120,"connected_time":268000000000,"state":"active","ping":77},{"user_id":538,"name":"Arsonist","steam_id":76561199087953833,"connected_time":1881000000000,"state":"active","ping":107},{"user_id":550,"name":"how about you get a job","steam_id":76561199061646193,"connected_time":1186000000000,"state":"active","ping":87},{"user_id":530,"name":"12345_0098","steam_id":76561199108021499,"connected_time":2476000000000,"state":"active","ping":104}]},{"server_id":308,"name":"Uncletopia | Frankfurt | 3 | All Maps","name_short":"frk-3","host":"frk-1.de.uncletopia.com","port":27035,"enabled":true,"region":"eu","cc":"de","latitude":50.110924,"longitude":8.682127,"reserved":0,"last_update":"0001-01-01T00:00:00Z","name_a2s":"Uncletopia | Frankfurt | 3 | All Maps","protocol":17,"map":"pl_badwater","folder":"tf","game":"Team Fortress","app_id":440,"player_count":24,"max_players":24,"Bots":0,"server_type":"Dedicated","server_os":"Linux","password":true,"vac":true,"version":"7961495","steam_id":85568392924504274,"keywords":["nocrits","nodmgspread","payload","uncletopia"],"game_id":440,"stv_port":27036,"stv_name":"Uncletopia | Frankfurt | 3 | All Maps | STV","players":[{"user_id":278,"name":"Al Bin","steam_id":76561198000761545,"connected_time":382000000000,"state":"active","ping":119},{"user_id":250,"name":"Erection Man","steam_id":76561198021714542,"connected_time":2198000000000,"state":"active","ping":60},{"user_id":263,"name":"perry the platypus","steam_id":76561199379159771,"connected_time":1867000000000,"state":"active","ping":219},{"user_id":276,"name":"or win","steam_id":76561198056238137,"connected_time":395000000000,"state":"active","ping":70},{"user_id":275,"name":"Gioni","steam_id":76561198395912581,"connected_time":722000000000,"state":"active","ping":124},{"user_id":269,"name":"Mischail","steam_id":76561198016127010,"connected_time":1351000000000,"state":"active","ping":67},{"user_id":262,"name":"Cardamine","steam_id":76561198100619314,"connected_time":1999000000000,"state":"active","ping":67},{"user_id":279,"name":"G O R E F R I E N D","steam_id":76561197989403556,"connected_time":378000000000,"state":"active","ping":82},{"user_id":230,"name":"hhhhhh","steam_id":76561198031982574,"connected_time":3741000000000,"state":"active","ping":47},{"user_id":272,"name":"Coramari Derifey","steam_id":76561198092035222,"connected_time":1057000000000,"state":"active","ping":100},{"user_id":284,"name":"rockwell","steam_id":76561197964339912,"connected_time":238000000000,"state":"active","ping":64},{"user_id":282,"name":"Carrot (real)","steam_id":76561198139404261,"connected_time":348000000000,"state":"active","ping":56},{"user_id":248,"name":"F4.exe","steam_id":76561198278822807,"connected_time":2226000000000,"state":"active","ping":61},{"user_id":225,"name":"Archive","steam_id":76561198071255385,"connected_time":4036000000000,"state":"active","ping":94},{"user_id":280,"name":"Walking Chopstick","steam_id":76561197995684708,"connected_time":377000000000,"state":"active","ping":76},{"user_id":283,"name":"Nittugai","steam_id":76561198067366462,"connected_time":302000000000,"state":"active","ping":60},{"user_id":264,"name":"Foo.","steam_id":76561198000013666,"connected_time":1866000000000,"state":"active","ping":59},{"user_id":260,"name":"༼ ຈل͜ຈ༽","steam_id":76561198027166144,"connected_time":2028000000000,"state":"active","ping":79},{"user_id":246,"name":"elmstJP ₪ F4.exe","steam_id":76561197997909480,"connected_time":2278000000000,"state":"active","ping":70},{"user_id":281,"name":"bin","steam_id":76561198085163975,"connected_time":365000000000,"state":"active","ping":62},{"user_id":270,"name":"Ω","steam_id":76561199088570961,"connected_time":1282000000000,"state":"active","ping":108},{"user_id":265,"name":"neophyte78","steam_id":76561198010009076,"connected_time":1676000000000,"state":"active","ping":61},{"user_id":274,"name":"Archie","steam_id":76561198073498063,"connected_time":731000000000,"state":"active","ping":63},{"user_id":231,"name":"Lucan","steam_id":76561198219195135,"connected_time":3688000000000,"state":"active","ping":55}]},{"server_id":309,"name":"Uncletopia | Frankfurt | 4 | All Maps","name_short":"frk-4","host":"frk-1.de.uncletopia.com","port":27045,"enabled":true,"region":"eu","cc":"de","latitude":50.110924,"longitude":8.682127,"reserved":0,"last_update":"0001-01-01T00:00:00Z","name_a2s":"Uncletopia | Frankfurt | 4 | All Maps","protocol":17,"map":"pl_upward","folder":"tf","game":"Team Fortress","app_id":440,"player_count":24,"max_players":24,"Bots":0,"server_type":"Dedicated","server_os":"Linux","password":true,"vac":true,"version":"7961495","steam_id":85568392924504275,"keywords":["nocrits","nodmgspread","payload","uncletopia"],"game_id":440,"stv_port":27046,"stv_name":"Uncletopia | Frankfurt | 4 | All Maps | STV","players":[{"user_id":302,"name":"MargoulGetron","steam_id":76561198020551698,"connected_time":1300000000000,"state":"active","ping":54},{"user_id":314,"name":"FrameTrash","steam_id":76561199167260122,"connected_time":387000000000,"state":"active","ping":177},{"user_id":310,"name":"shoras","steam_id":76561198019680159,"connected_time":546000000000,"state":"active","ping":82},{"user_id":248,"name":"Grimm","steam_id":76561198044684227,"connected_time":5656000000000,"state":"active","ping":60},{"user_id":290,"name":"xavier","steam_id":76561198076494034,"connected_time":1799000000000,"state":"active","ping":54},{"user_id":309,"name":"Arri","steam_id":76561198042039330,"connected_time":712000000000,"state":"active","ping":58},{"user_id":289,"name":"Pilaarius","steam_id":76561198120273212,"connected_time":2109000000000,"state":"active","ping":169},{"user_id":296,"name":"Vectillion","steam_id":76561198074292454,"connected_time":1680000000000,"state":"active","ping":73},{"user_id":312,"name":"Winthworth","steam_id":76561198344675206,"connected_time":455000000000,"state":"active","ping":57},{"user_id":315,"name":"Ade","steam_id":76561198974207724,"connected_time":379000000000,"state":"active","ping":97},{"user_id":325,"name":"Ignot","steam_id":76561198235896754,"connected_time":202000000000,"state":"active","ping":75},{"user_id":316,"name":"Dr. Livesey","steam_id":76561198071049943,"connected_time":356000000000,"state":"active","ping":66},{"user_id":209,"name":"DwarfInYou","steam_id":76561198966341795,"connected_time":7207000000000,"state":"active","ping":55},{"user_id":317,"name":"Ganasti","steam_id":76561198382925185,"connected_time":340000000000,"state":"active","ping":103},{"user_id":324,"name":"I am on the TF2 Scoreboard...","steam_id":76561198043850884,"connected_time":237000000000,"state":"active","ping":375},{"user_id":319,"name":"bum","steam_id":76561198067678158,"connected_time":330000000000,"state":"active","ping":59},{"user_id":304,"name":"Ricey","steam_id":76561198832961307,"connected_time":1274000000000,"state":"active","ping":126},{"user_id":286,"name":"Bajas","steam_id":76561198179339326,"connected_time":2868000000000,"state":"active","ping":75},{"user_id":243,"name":"sokige","steam_id":76561198167112371,"connected_time":5780000000000,"state":"active","ping":89},{"user_id":326,"name":"fynta","steam_id":76561198315371425,"connected_time":187000000000,"state":"active","ping":47},{"user_id":327,"name":"♬ ᴛᴇᴋɪᴛ ♬","steam_id":76561198111704722,"connected_time":107000000000,"state":"active","ping":75},{"user_id":300,"name":"Stan Álvarez (Satan)","steam_id":76561198045538223,"connected_time":1388000000000,"state":"active","ping":55},{"user_id":301,"name":"What If We Kissed In Cockpit","steam_id":76561197988085026,"connected_time":1385000000000,"state":"active","ping":63},{"user_id":321,"name":"Woman (Real)","steam_id":76561199151823932,"connected_time":302000000000,"state":"active","ping":77}]},{"server_id":310,"name":"Uncletopia | Frankfurt | 5 | All Maps","name_short":"frk-5","host":"frk-1.de.uncletopia.com","port":27055,"enabled":true,"region":"eu","cc":"de","latitude":50.110924,"longitude":8.682127,"reserved":0,"last_update":"0001-01-01T00:00:00Z","name_a2s":"Uncletopia | Frankfurt | 5 | All Maps","protocol":17,"map":"pl_barnblitz","folder":"tf","game":"Team Fortress","app_id":440,"player_count":24,"max_players":24,"Bots":0,"server_type":"Dedicated","server_os":"Linux","password":true,"vac":true,"version":"7961495","steam_id":85568392924504277,"keywords":["nocrits","nodmgspread","payload","uncletopia"],"game_id":440,"stv_port":27056,"stv_name":"Uncletopia | Frankfurt | 5 | All Maps | STV","players":[{"user_id":34,"name":"cuddle","steam_id":76561198805181599,"connected_time":2225000000000,"state":"active","ping":66},{"user_id":67,"name":"ToniGAM3S","steam_id":76561198128605351,"connected_time":390000000000,"state":"active","ping":59},{"user_id":27,"name":"realguy","steam_id":76561198821743257,"connected_time":2572000000000,"state":"active","ping":78},{"user_id":73,"name":"roLab","steam_id":76561198002416756,"connected_time":147000000000,"state":"active","ping":86},{"user_id":55,"name":"Voltaic","steam_id":76561198024306879,"connected_time":865000000000,"state":"active","ping":69},{"user_id":28,"name":"Hexagon","steam_id":76561198151205758,"connected_time":2421000000000,"state":"active","ping":58},{"user_id":65,"name":"I Don't Know","steam_id":76561198841011430,"connected_time":411000000000,"state":"active","ping":67},{"user_id":56,"name":"Prince Flip","steam_id":76561198023462157,"connected_time":811000000000,"state":"active","ping":97},{"user_id":60,"name":"squareky","steam_id":76561198433980384,"connected_time":685000000000,"state":"active","ping":65},{"user_id":32,"name":"Dictatorial Karelian","steam_id":76561198196736457,"connected_time":2364000000000,"state":"active","ping":75},{"user_id":71,"name":"UltraCaustic","steam_id":76561198843328797,"connected_time":253000000000,"state":"active","ping":79},{"user_id":57,"name":"Tohtori gerhard (official)","steam_id":76561198835081622,"connected_time":811000000000,"state":"active","ping":101},{"user_id":37,"name":"kite_76000000 | #save tf2","steam_id":76561199230921247,"connected_time":2012000000000,"state":"active","ping":62},{"user_id":74,"name":"Бергман","steam_id":76561198282010599,"connected_time":135000000000,"state":"active","ping":63},{"user_id":68,"name":"SaltyCupcakes","steam_id":76561198256386417,"connected_time":385000000000,"state":"active","ping":59},{"user_id":41,"name":"breknas","steam_id":76561198844852761,"connected_time":1825000000000,"state":"active","ping":70},{"user_id":62,"name":"Dark Wizart","steam_id":76561198377689439,"connected_time":462000000000,"state":"active","ping":61},{"user_id":69,"name":"heavyweaponsguy","steam_id":76561198137778097,"connected_time":328000000000,"state":"active","ping":48},{"user_id":44,"name":"Lexi","steam_id":76561199091291455,"connected_time":1739000000000,"state":"active","ping":66},{"user_id":64,"name":"Toasty5050","steam_id":76561198073540881,"connected_time":433000000000,"state":"active","ping":47},{"user_id":70,"name":"Kiraycon","steam_id":76561198157459465,"connected_time":310000000000,"state":"active","ping":45},{"user_id":51,"name":"[P-roc] Cmm Bert","steam_id":76561198016658674,"connected_time":1458000000000,"state":"active","ping":75},{"user_id":61,"name":"Rimx","steam_id":76561198053034840,"connected_time":682000000000,"state":"active","ping":94},{"user_id":58,"name":"Rock..","steam_id":76561198004641963,"connected_time":776000000000,"state":"active","ping":77}]},{"server_id":311,"name":"Uncletopia | Frankfurt | 6 | All Maps","name_short":"frk-6","host":"frk-1.de.uncletopia.com","port":27065,"enabled":true,"region":"eu","cc":"de","latitude":50.110924,"longitude":8.682127,"reserved":0,"last_update":"0001-01-01T00:00:00Z","name_a2s":"Uncletopia | Frankfurt | 6 | All Maps","protocol":17,"map":"plr_hightower","folder":"tf","game":"Team Fortress","app_id":440,"player_count":23,"max_players":24,"Bots":0,"server_type":"Dedicated","server_os":"Linux","password":true,"vac":true,"version":"7961495","steam_id":85568392924504278,"keywords":["nocrits","nodmgspread","payload","uncletopia"],"game_id":440,"stv_port":27066,"stv_name":"Uncletopia | Frankfurt | 6 | All Maps | STV","players":[{"user_id":224,"name":"Danger_665","steam_id":76561199075064273,"connected_time":4160000000000,"state":"active","ping":96},{"user_id":279,"name":"Banana khan (F2P)","steam_id":76561198992414056,"connected_time":341000000000,"state":"active","ping":178},{"user_id":230,"name":"shr1mple","steam_id":76561198173537027,"connected_time":3621000000000,"state":"active","ping":33},{"user_id":249,"name":"tealoverr.190","steam_id":76561199028497703,"connected_time":1272000000000,"state":"active","ping":96},{"user_id":264,"name":"Rohnus","steam_id":76561198074049934,"connected_time":784000000000,"state":"active","ping":68},{"user_id":265,"name":"RemRem","steam_id":76561199005155029,"connected_time":762000000000,"state":"active","ping":82},{"user_id":280,"name":"JackButNotBlack","steam_id":76561198199196931,"connected_time":281000000000,"state":"active","ping":70},{"user_id":252,"name":"capslocked","steam_id":76561198095960796,"connected_time":1167000000000,"state":"active","ping":51},{"user_id":214,"name":"Spetse","steam_id":76561197990649972,"connected_time":4792000000000,"state":"active","ping":89},{"user_id":255,"name":"Pipp Petals2014","steam_id":76561198147668373,"connected_time":1032000000000,"state":"active","ping":47},{"user_id":278,"name":"COLAN","steam_id":76561198111255418,"connected_time":524000000000,"state":"active","ping":53},{"user_id":256,"name":"Chicoboi","steam_id":76561198109855177,"connected_time":1012000000000,"state":"active","ping":68},{"user_id":268,"name":"why rum gone","steam_id":76561198158484784,"connected_time":658000000000,"state":"active","ping":59},{"user_id":192,"name":"chair 2.0","steam_id":76561199233470150,"connected_time":6244000000000,"state":"active","ping":47},{"user_id":243,"name":"Confused1221","steam_id":76561199061802741,"connected_time":2002000000000,"state":"active","ping":63},{"user_id":269,"name":"laza","steam_id":76561199074095198,"connected_time":654000000000,"state":"active","ping":131},{"user_id":260,"name":"I I","steam_id":76561199101935057,"connected_time":944000000000,"state":"active","ping":91},{"user_id":270,"name":"endlesshills","steam_id":76561198081908373,"connected_time":646000000000,"state":"active","ping":56},{"user_id":281,"name":"Kelsc","steam_id":76561197974567147,"connected_time":277000000000,"state":"active","ping":89},{"user_id":277,"name":"MrRoAndrei","steam_id":76561198205282000,"connected_time":529000000000,"state":"active","ping":89},{"user_id":285,"name":"KingPotatoChips","steam_id":76561198035156465,"connected_time":61000000000,"state":"active","ping":89},{"user_id":274,"name":"FZStick","steam_id":76561198086617223,"connected_time":588000000000,"state":"active","ping":62},{"user_id":284,"name":"Sorry","steam_id":76561198040722720,"connected_time":159000000000,"state":"active","ping":145}]},{"server_id":23,"name":"Uncletopia | Frankfurt | 7 | Stopwatch","name_short":"frk-7","host":"frk-1.de.uncletopia.com","port":27075,"enabled":true,"region":"eu","cc":"de","latitude":50.110924,"longitude":8.682127,"reserved":0,"last_update":"0001-01-01T00:00:00Z","name_a2s":"Uncletopia | Frankfurt | 7 | Stopwatch","protocol":17,"map":"workshop/pl_barnblitz_pro7.ugc582280235","folder":"tf","game":"Team Fortress","app_id":440,"player_count":0,"max_players":24,"Bots":0,"server_type":"Dedicated","server_os":"Linux","password":true,"vac":true,"version":"7961495","steam_id":85568392924742827,"keywords":["nocrits","nodmgspread","payload","uncletopia"],"game_id":440,"stv_port":27076,"stv_name":"Uncletopia | Frankfurt | 7 | Stopwatch | STV","players":null},{"server_id":24,"name":"Uncletopia | Frankfurt | 8 | Community","name_short":"frk-8","host":"frk-1.de.uncletopia.com","port":27085,"enabled":true,"region":"eu","cc":"de","latitude":50.110924,"longitude":8.682127,"reserved":0,"last_update":"0001-01-01T00:00:00Z","name_a2s":"Uncletopia | Frankfurt | 8 | Community","protocol":17,"map":"workshop/koth_ramjam_rc1.ugc459778887","folder":"tf","game":"Team Fortress","app_id":440,"player_count":0,"max_players":24,"Bots":0,"server_type":"Dedicated","server_os":"Linux","password":true,"vac":true,"version":"7961495","steam_id":85568392924742828,"keywords":["cp","nocrits","nodmgspread","uncletopia"],"game_id":440,"stv_port":27086,"stv_name":"Uncletopia | Frankfurt | 8 | Community | STV","players":null},{"server_id":202,"name":"Uncletopia | Hong Kong | 1 | All Maps","name_short":"hgk-1","host":"hgk-1.hk.uncletopia.com","port":27015,"enabled":true,"region":"asia","cc":"hk","latitude":22.302711,"longitude":114.177216,"reserved":0,"last_update":"0001-01-01T00:00:00Z","name_a2s":"Uncletopia | Hong Kong | 1 | All Maps","protocol":17,"map":"koth_cascade","folder":"tf","game":"Team Fortress","app_id":440,"player_count":5,"max_players":24,"Bots":0,"server_type":"Dedicated","server_os":"Linux","password":true,"vac":true,"version":"7961495","steam_id":85568392924494504,"keywords":["cp","nocrits","nodmgspread","uncletopia"],"game_id":440,"stv_port":27016,"stv_name":"Uncletopia | Hong Kong | 1 | All Maps | STV","players":[{"user_id":564,"name":"Ham","steam_id":76561198354938886,"connected_time":643000000000,"state":"active","ping":82},{"user_id":556,"name":"Mugen","steam_id":76561198241447874,"connected_time":1594000000000,"state":"active","ping":150},{"user_id":557,"name":"sheep man shaun","steam_id":76561198994349483,"connected_time":1578000000000,"state":"active","ping":206},{"user_id":559,"name":"Shaso1008","steam_id":76561198111957006,"connected_time":950000000000,"state":"active","ping":217},{"user_id":530,"name":"senseless","steam_id":76561198074413124,"connected_time":4476000000000,"state":"active","ping":99}]},{"server_id":1,"name":"Uncletopia | Los Angeles | 1 | All Maps","name_short":"lax-1","host":"lax-1.us.uncletopia.com","port":27015,"enabled":true,"region":"us-west","cc":"us","latitude":33.94279,"longitude":-118.41004,"reserved":0,"last_update":"0001-01-01T00:00:00Z","name_a2s":"Uncletopia | Los Angeles | 1 | All Maps","protocol":17,"map":"koth_cascade","folder":"tf","game":"Team Fortress","app_id":440,"player_count":0,"max_players":24,"Bots":0,"server_type":"Dedicated","server_os":"Linux","password":true,"vac":true,"version":"7961495","steam_id":85568392924469991,"keywords":["cp","nocrits","nodmgspread","uncletopia"],"game_id":440,"stv_port":27016,"stv_name":"Uncletopia | Los Angeles | 1 | All Maps | STV","players":null},{"server_id":112,"name":"Uncletopia | Los Angeles | 2 | All Maps","name_short":"lax-2","host":"lax-1.us.uncletopia.com","port":27025,"enabled":true,"region":"us-west","cc":"us","latitude":33.94279,"longitude":-118.41004,"reserved":0,"last_update":"0001-01-01T00:00:00Z","name_a2s":"Uncletopia | Los Angeles | 2 | All Maps","protocol":17,"map":"koth_lakeside_final","folder":"tf","game":"Team Fortress","app_id":440,"player_count":0,"max_players":24,"Bots":0,"server_type":"Dedicated","server_os":"Linux","password":true,"vac":true,"version":"7961495","steam_id":85568392924469992,"keywords":["cp","nocrits","nodmgspread","uncletopia"],"game_id":440,"stv_port":27026,"stv_name":"Uncletopia | Los Angeles | 2 | All Maps | STV","players":null},{"server_id":324,"name":"Uncletopia | Los Angeles | 3 | All Maps","name_short":"lax-3","host":"lax-1.us.uncletopia.com","port":27035,"enabled":true,"region":"us-west","cc":"us","latitude":33.94279,"longitude":-118.41004,"reserved":0,"last_update":"0001-01-01T00:00:00Z","name_a2s":"Uncletopia | Los Angeles | 3 | All Maps","protocol":17,"map":"pl_barnblitz","folder":"tf","game":"Team Fortress","app_id":440,"player_count":0,"max_players":24,"Bots":0,"server_type":"Dedicated","server_os":"Linux","password":true,"vac":true,"version":"7961495","steam_id":85568392924510198,"keywords":["nocrits","nodmgspread","payload","uncletopia"],"game_id":440,"stv_port":27036,"stv_name":"Uncletopia | Los Angeles | 3 | All Maps | STV","players":null},{"server_id":25,"name":"Uncletopia | Los Angeles | 4 | Stopwatch","name_short":"lax-4","host":"lax-1.us.uncletopia.com","port":27045,"enabled":true,"region":"us-west","cc":"us","latitude":33.94279,"longitude":-118.41004,"reserved":0,"last_update":"0001-01-01T00:00:00Z","name_a2s":"Uncletopia | Los Angeles | 4 | Stopwatch","protocol":17,"map":"pl_barnblitz","folder":"tf","game":"Team Fortress","app_id":440,"player_count":0,"max_players":24,"Bots":0,"server_type":"Dedicated","server_os":"Linux","password":true,"vac":true,"version":"7961495","steam_id":85568392924510199,"keywords":["nocrits","nodmgspread","payload","uncletopia"],"game_id":440,"stv_port":27046,"stv_name":"Uncletopia | Los Angeles | 4 | Stopwatch | STV","players":null},{"server_id":11,"name":"Uncletopia | London | 1 | All Maps","name_short":"lon-1","host":"lon-1.uk.uncletopia.com","port":27015,"enabled":true,"region":"eu","cc":"gb","latitude":51.509865,"longitude":-0.118092,"reserved":0,"last_update":"0001-01-01T00:00:00Z","name_a2s":"Uncletopia | London | 1 | All Maps","protocol":17,"map":"pl_pier","folder":"tf","game":"Team Fortress","app_id":440,"player_count":24,"max_players":24,"Bots":0,"server_type":"Dedicated","server_os":"Linux","password":true,"vac":true,"version":"7961495","steam_id":85568392924367362,"keywords":["nocrits","nodmgspread","payload","uncletopia"],"game_id":440,"stv_port":27016,"stv_name":"Uncletopia | London | 1 | All Maps | STV","players":[{"user_id":556,"name":"kisutyty :3","steam_id":76561198723244199,"connected_time":2764000000000,"state":"active","ping":75},{"user_id":569,"name":"halow","steam_id":76561198061505163,"connected_time":2136000000000,"state":"active","ping":111},{"user_id":588,"name":"Son Goku","steam_id":76561199383437138,"connected_time":1378000000000,"state":"active","ping":125},{"user_id":598,"name":"OMacMacca","steam_id":76561198152547448,"connected_time":551000000000,"state":"active","ping":67},{"user_id":550,"name":"jermany","steam_id":76561198126599355,"connected_time":3613000000000,"state":"active","ping":56},{"user_id":570,"name":"[503. ]captain swiftfingers","steam_id":76561198043684517,"connected_time":1989000000000,"state":"active","ping":47},{"user_id":577,"name":"Abit","steam_id":76561198032786948,"connected_time":1746000000000,"state":"active","ping":69},{"user_id":592,"name":"epic gamer moment","steam_id":76561198299515070,"connected_time":905000000000,"state":"active","ping":88},{"user_id":596,"name":"Blar","steam_id":76561198042438229,"connected_time":574000000000,"state":"active","ping":57},{"user_id":599,"name":"FoOzTV","steam_id":76561197998636728,"connected_time":161000000000,"state":"active","ping":71},{"user_id":578,"name":"Mister_fLeXsS","steam_id":76561198075613556,"connected_time":1731000000000,"state":"active","ping":102},{"user_id":584,"name":"W","steam_id":76561198273623211,"connected_time":1504000000000,"state":"active","ping":91},{"user_id":559,"name":"nappo","steam_id":76561198060105180,"connected_time":2750000000000,"state":"active","ping":78},{"user_id":554,"name":"breakfast burrito","steam_id":76561198148606969,"connected_time":2765000000000,"state":"active","ping":87},{"user_id":499,"name":"shooer!","steam_id":76561198110531281,"connected_time":8387000000000,"state":"active","ping":71},{"user_id":595,"name":"eon","steam_id":76561197971360276,"connected_time":765000000000,"state":"active","ping":76},{"user_id":597,"name":"flappi","steam_id":76561198072892783,"connected_time":564000000000,"state":"active","ping":65},{"user_id":591,"name":"Pantroglodytestherapy","steam_id":76561198236015392,"connected_time":926000000000,"state":"active","ping":118},{"user_id":526,"name":"Slifer the BIG SHOT","steam_id":76561198062255803,"connected_time":6559000000000,"state":"active","ping":67},{"user_id":580,"name":"Vanilla Autismotron","steam_id":76561198278604277,"connected_time":1724000000000,"state":"active","ping":55},{"user_id":543,"name":"INDIEFRAME","steam_id":76561199086092220,"connected_time":4661000000000,"state":"active","ping":80},{"user_id":563,"name":"Rx07","steam_id":76561199013720618,"connected_time":2461000000000,"state":"active","ping":95},{"user_id":594,"name":"Mircoxi","steam_id":76561199407632710,"connected_time":873000000000,"state":"active","ping":63},{"user_id":587,"name":"Ježek :)","steam_id":76561198127703483,"connected_time":1407000000000,"state":"active","ping":69}]},{"server_id":114,"name":"Uncletopia | London | 2 | All Maps","name_short":"lon-2","host":"lon-1.uk.uncletopia.com","port":27025,"enabled":true,"region":"eu","cc":"gb","latitude":51.509865,"longitude":-0.118092,"reserved":0,"last_update":"0001-01-01T00:00:00Z","name_a2s":"Uncletopia | London | 2 | All Maps","protocol":17,"map":"pl_pier","folder":"tf","game":"Team Fortress","app_id":440,"player_count":24,"max_players":24,"Bots":0,"server_type":"Dedicated","server_os":"Linux","password":true,"vac":true,"version":"7961495","steam_id":85568392924470941,"keywords":["nocrits","nodmgspread","payload","uncletopia"],"game_id":440,"stv_port":27026,"stv_name":"Uncletopia | London | 2 | All Maps | STV","players":[{"user_id":496,"name":"greezelag","steam_id":76561198053015949,"connected_time":565000000000,"state":"active","ping":76},{"user_id":377,"name":"saywoo","steam_id":76561198904469197,"connected_time":10461000000000,"state":"active","ping":69},{"user_id":505,"name":"Nova","steam_id":76561198415791639,"connected_time":127000000000,"state":"active","ping":54},{"user_id":497,"name":"xiiski","steam_id":76561198152387747,"connected_time":563000000000,"state":"active","ping":96},{"user_id":491,"name":"ANGHENFILOD","steam_id":76561199492622823,"connected_time":918000000000,"state":"active","ping":40},{"user_id":454,"name":"Ynss","steam_id":76561198021472798,"connected_time":4098000000000,"state":"active","ping":58},{"user_id":498,"name":"Saul Badsex","steam_id":76561198173218318,"connected_time":534000000000,"state":"active","ping":50},{"user_id":482,"name":"3L","steam_id":76561198007208996,"connected_time":1459000000000,"state":"active","ping":49},{"user_id":501,"name":"speancer","steam_id":76561198260705251,"connected_time":520000000000,"state":"active","ping":89},{"user_id":461,"name":"PAN Dan","steam_id":76561198259233354,"connected_time":3870000000000,"state":"active","ping":67},{"user_id":477,"name":"gx71","steam_id":76561198035112358,"connected_time":1749000000000,"state":"active","ping":45},{"user_id":492,"name":"sork","steam_id":76561198082446459,"connected_time":906000000000,"state":"active","ping":75},{"user_id":484,"name":"limbicsystem","steam_id":76561198025612680,"connected_time":1429000000000,"state":"active","ping":56},{"user_id":485,"name":"ba-loo-loo","steam_id":76561198965894854,"connected_time":1424000000000,"state":"active","ping":56},{"user_id":486,"name":"Aeinzalot","steam_id":76561198195288449,"connected_time":1385000000000,"state":"active","ping":58},{"user_id":490,"name":"Not Steven","steam_id":76561198051881261,"connected_time":1211000000000,"state":"active","ping":31},{"user_id":493,"name":"Mx. Mourning","steam_id":76561199010673891,"connected_time":837000000000,"state":"active","ping":144},{"user_id":499,"name":"Owie!!!","steam_id":76561198215391429,"connected_time":532000000000,"state":"active","ping":45},{"user_id":504,"name":"Gimble","steam_id":76561198964372777,"connected_time":145000000000,"state":"active","ping":55},{"user_id":463,"name":"hooty","steam_id":76561199043415746,"connected_time":3867000000000,"state":"active","ping":79},{"user_id":502,"name":"Nithle","steam_id":76561198025372740,"connected_time":387000000000,"state":"active","ping":31},{"user_id":453,"name":"c1v","steam_id":76561199085624224,"connected_time":4327000000000,"state":"active","ping":68},{"user_id":441,"name":"Ascended Noob","steam_id":76561198079411460,"connected_time":4732000000000,"state":"active","ping":54},{"user_id":481,"name":"Ullr","steam_id":76561198140547483,"connected_time":1470000000000,"state":"active","ping":44}]},{"server_id":320,"name":"Uncletopia | London | 3 | All Maps","name_short":"lon-3","host":"lon-1.uk.uncletopia.com","port":27035,"enabled":true,"region":"eu","cc":"gb","latitude":51.509865,"longitude":-0.118092,"reserved":0,"last_update":"0001-01-01T00:00:00Z","name_a2s":"Uncletopia | London | 3 | All Maps","protocol":17,"map":"pl_pier","folder":"tf","game":"Team Fortress","app_id":440,"player_count":24,"max_players":24,"Bots":0,"server_type":"Dedicated","server_os":"Linux","password":true,"vac":true,"version":"7961495","steam_id":85568392924510192,"keywords":["nocrits","nodmgspread","payload","uncletopia"],"game_id":440,"stv_port":27036,"stv_name":"Uncletopia | London | 3 | All Maps | STV","players":[{"user_id":375,"name":"Gugu gaga","steam_id":76561198161822358,"connected_time":3859000000000,"state":"active","ping":75},{"user_id":387,"name":"Kernel Panic","steam_id":76561198215811047,"connected_time":3227000000000,"state":"active","ping":42},{"user_id":392,"name":"N . E . ㊉ . N","steam_id":76561198074131777,"connected_time":3197000000000,"state":"active","ping":60},{"user_id":411,"name":"Tekky☻","steam_id":76561197990987315,"connected_time":936000000000,"state":"active","ping":56},{"user_id":322,"name":"howabe","steam_id":76561197996486818,"connected_time":5540000000000,"state":"active","ping":61},{"user_id":368,"name":"loser","steam_id":76561199042470246,"connected_time":4318000000000,"state":"active","ping":68},{"user_id":402,"name":"Der ewige Boomer","steam_id":76561198254812703,"connected_time":1135000000000,"state":"active","ping":77},{"user_id":416,"name":"pavo","steam_id":76561198302710873,"connected_time":227000000000,"state":"active","ping":79},{"user_id":403,"name":"MR.BLOTTO","steam_id":76561198067920111,"connected_time":1126000000000,"state":"active","ping":56},{"user_id":405,"name":"Maks","steam_id":76561198315278876,"connected_time":1092000000000,"state":"active","ping":49},{"user_id":401,"name":"Luma","steam_id":76561198298242445,"connected_time":1235000000000,"state":"active","ping":45},{"user_id":394,"name":"Bob_Tostas","steam_id":76561198249006560,"connected_time":3006000000000,"state":"active","ping":81},{"user_id":409,"name":"Fidacha","steam_id":76561198003060881,"connected_time":1061000000000,"state":"active","ping":72},{"user_id":417,"name":"veto vuyisio","steam_id":76561199101145470,"connected_time":36000000000,"state":"active","ping":79},{"user_id":397,"name":"ShawnDawn2","steam_id":76561198165013522,"connected_time":2637000000000,"state":"active","ping":32},{"user_id":319,"name":":3","steam_id":76561198169471853,"connected_time":5690000000000,"state":"active","ping":40},{"user_id":406,"name":"Zoey Cakes","steam_id":76561198080247936,"connected_time":1082000000000,"state":"active","ping":162},{"user_id":415,"name":"TomNoSocks","steam_id":76561198114071046,"connected_time":310000000000,"state":"active","ping":80},{"user_id":370,"name":"MrMoopne","steam_id":76561198207282400,"connected_time":4098000000000,"state":"active","ping":48},{"user_id":414,"name":"meta1","steam_id":76561198087824752,"connected_time":590000000000,"state":"active","ping":44},{"user_id":286,"name":"jill sandwich","steam_id":76561198075068529,"connected_time":8792000000000,"state":"active","ping":66},{"user_id":400,"name":"Omori","steam_id":76561199067021788,"connected_time":1630000000000,"state":"active","ping":99},{"user_id":381,"name":"Eltonius","steam_id":76561198157560715,"connected_time":3746000000000,"state":"active","ping":85},{"user_id":390,"name":"Bun","steam_id":76561197989239999,"connected_time":3222000000000,"state":"active","ping":67}]},{"server_id":321,"name":"Uncletopia | London | 4 | All Maps","name_short":"lon-4","host":"lon-1.uk.uncletopia.com","port":27045,"enabled":true,"region":"eu","cc":"gb","latitude":51.509865,"longitude":-0.118092,"reserved":0,"last_update":"0001-01-01T00:00:00Z","name_a2s":"Uncletopia | London | 4 | All Maps","protocol":17,"map":"cp_process_final","folder":"tf","game":"Team Fortress","app_id":440,"player_count":24,"max_players":24,"Bots":0,"server_type":"Dedicated","server_os":"Linux","password":true,"vac":true,"version":"7961495","steam_id":85568392924510193,"keywords":["cp","nocrits","nodmgspread","uncletopia"],"game_id":440,"stv_port":27046,"stv_name":"Uncletopia | London | 4 | All Maps | STV","players":[{"user_id":134,"name":"Malinok","steam_id":76561198025681131,"connected_time":2477000000000,"state":"active","ping":167},{"user_id":119,"name":"Welder","steam_id":76561198355300561,"connected_time":3691000000000,"state":"active","ping":69},{"user_id":120,"name":"Luuk","steam_id":76561198088266026,"connected_time":3680000000000,"state":"active","ping":45},{"user_id":23,"name":"Caruzon - Obismal","steam_id":76561198036211170,"connected_time":11340000000000,"state":"active","ping":81},{"user_id":155,"name":"parema","steam_id":76561198146477608,"connected_time":1099000000000,"state":"active","ping":75},{"user_id":156,"name":"Bobirulez","steam_id":76561198009125458,"connected_time":1077000000000,"state":"active","ping":76},{"user_id":148,"name":"m4tty_flesh","steam_id":76561198079718317,"connected_time":1773000000000,"state":"active","ping":65},{"user_id":109,"name":"baby's first domination","steam_id":76561198325898181,"connected_time":4523000000000,"state":"active","ping":65},{"user_id":136,"name":"CL! Joonstoons","steam_id":76561198328082426,"connected_time":2462000000000,"state":"active","ping":40},{"user_id":161,"name":"SneaK","steam_id":76561198280344773,"connected_time":619000000000,"state":"active","ping":99},{"user_id":143,"name":"CL! Meterora","steam_id":76561198092422131,"connected_time":2017000000000,"state":"active","ping":55},{"user_id":149,"name":"★Lily","steam_id":76561198014774371,"connected_time":1382000000000,"state":"active","ping":45},{"user_id":150,"name":"David \"Crash\" Murphy","steam_id":76561198292845505,"connected_time":1288000000000,"state":"active","ping":100},{"user_id":93,"name":"Nugget","steam_id":76561198338916407,"connected_time":6246000000000,"state":"active","ping":71},{"user_id":157,"name":"weshanus","steam_id":76561198035380064,"connected_time":976000000000,"state":"active","ping":56},{"user_id":159,"name":"Macci - Obismal","steam_id":76561198050485404,"connected_time":677000000000,"state":"active","ping":80},{"user_id":111,"name":"Locke","steam_id":76561198339408300,"connected_time":4497000000000,"state":"active","ping":72},{"user_id":153,"name":"DarkRage","steam_id":76561198042267927,"connected_time":1238000000000,"state":"active","ping":88},{"user_id":137,"name":"CL! Hallowasniet","steam_id":76561198168485956,"connected_time":2395000000000,"state":"active","ping":67},{"user_id":163,"name":"tiia","steam_id":76561198046196005,"connected_time":598000000000,"state":"active","ping":52},{"user_id":166,"name":"grim reaper god","steam_id":76561199394194512,"connected_time":272000000000,"state":"active","ping":59},{"user_id":154,"name":"SuntanPikachu","steam_id":76561198121242476,"connected_time":1175000000000,"state":"active","ping":57},{"user_id":144,"name":"CL! Angry the lime","steam_id":76561199012566222,"connected_time":1869000000000,"state":"active","ping":59},{"user_id":165,"name":"I am [XXL]FrEnZy","steam_id":76561198321318862,"connected_time":347000000000,"state":"active","ping":87}]},{"server_id":21,"name":"Uncletopia | London | 5 | All Maps","name_short":"lon-5","host":"lon-1.uk.uncletopia.com","port":27055,"enabled":true,"region":"eu","cc":"gb","latitude":51.509865,"longitude":-0.118092,"reserved":0,"last_update":"0001-01-01T00:00:00Z","name_a2s":"Uncletopia | London | 5 | All Maps","protocol":17,"map":"pl_badwater","folder":"tf","game":"Team Fortress","app_id":440,"player_count":24,"max_players":24,"Bots":0,"server_type":"Dedicated","server_os":"Linux","password":true,"vac":true,"version":"7961495","steam_id":85568392924742829,"keywords":["nocrits","nodmgspread","payload","uncletopia"],"game_id":440,"stv_port":27056,"stv_name":"Uncletopia | London | 5 | All Maps | STV","players":[{"user_id":90,"name":"quickfast","steam_id":76561199438900919,"connected_time":904000000000,"state":"active","ping":42},{"user_id":19,"name":"Gentlemann Co.","steam_id":76561197997142921,"connected_time":4461000000000,"state":"active","ping":60},{"user_id":104,"name":"Sand","steam_id":76561198103761268,"connected_time":160000000000,"state":"active","ping":60},{"user_id":89,"name":"clunk","steam_id":76561198836460767,"connected_time":957000000000,"state":"active","ping":63},{"user_id":23,"name":"Weegad Wobus","steam_id":76561199429562693,"connected_time":3902000000000,"state":"active","ping":70},{"user_id":88,"name":"Watermelon","steam_id":76561198078349914,"connected_time":970000000000,"state":"active","ping":46},{"user_id":25,"name":"Kenny_killer_69","steam_id":76561199465207725,"connected_time":3838000000000,"state":"active","ping":70},{"user_id":91,"name":"Maximilian1359","steam_id":76561198152439608,"connected_time":891000000000,"state":"active","ping":63},{"user_id":92,"name":"MIKA","steam_id":76561198312451814,"connected_time":888000000000,"state":"active","ping":60},{"user_id":96,"name":"YARrICk.«+»","steam_id":76561197990126485,"connected_time":749000000000,"state":"active","ping":61},{"user_id":86,"name":"Creative","steam_id":76561198835034247,"connected_time":987000000000,"state":"active","ping":90},{"user_id":51,"name":"race car driver jerry","steam_id":76561198054047446,"connected_time":2872000000000,"state":"active","ping":72},{"user_id":49,"name":"Tá prátaí go maith","steam_id":76561198372536459,"connected_time":2931000000000,"state":"active","ping":60},{"user_id":85,"name":"hud_saytext_time 0","steam_id":76561198010327228,"connected_time":996000000000,"state":"active","ping":76},{"user_id":99,"name":"Mantra","steam_id":76561198058505094,"connected_time":607000000000,"state":"active","ping":103},{"user_id":67,"name":"fence_","steam_id":76561198150386379,"connected_time":2708000000000,"state":"active","ping":47},{"user_id":74,"name":"Cypher","steam_id":76561197996967254,"connected_time":2094000000000,"state":"active","ping":66},{"user_id":80,"name":"Berb","steam_id":76561198193911899,"connected_time":1092000000000,"state":"active","ping":161},{"user_id":48,"name":"Tyber","steam_id":76561198125886061,"connected_time":2935000000000,"state":"active","ping":80},{"user_id":72,"name":"Someone","steam_id":76561199030195879,"connected_time":2297000000000,"state":"active","ping":52},{"user_id":76,"name":"FloatingEmpire3","steam_id":76561198809514696,"connected_time":2067000000000,"state":"active","ping":67},{"user_id":78,"name":"CRAZED MERC","steam_id":76561198198345466,"connected_time":1432000000000,"state":"active","ping":37},{"user_id":102,"name":"Jack","steam_id":76561198079575891,"connected_time":342000000000,"state":"active","ping":45},{"user_id":103,"name":"虾扯蛋.Lonely","steam_id":76561198022989560,"connected_time":341000000000,"state":"active","ping":51}]},{"server_id":22,"name":"Uncletopia | London | 6 | All Maps","name_short":"lon-6","host":"lon-1.uk.uncletopia.com","port":27065,"enabled":true,"region":"eu","cc":"gb","latitude":51.509865,"longitude":-0.118092,"reserved":0,"last_update":"0001-01-01T00:00:00Z","name_a2s":"Uncletopia | London | 6 | All Maps","protocol":17,"map":"pl_badwater","folder":"tf","game":"Team Fortress","app_id":440,"player_count":24,"max_players":24,"Bots":0,"server_type":"Dedicated","server_os":"Linux","password":true,"vac":true,"version":"7961495","steam_id":85568392924742830,"keywords":["nocrits","nodmgspread","payload","uncletopia"],"game_id":440,"stv_port":27066,"stv_name":"Uncletopia | London | 6 | All Maps | STV","players":[{"user_id":396,"name":"rets_","steam_id":76561198061551392,"connected_time":827000000000,"state":"active","ping":59},{"user_id":402,"name":"Jeck","steam_id":76561198062397514,"connected_time":221000000000,"state":"active","ping":46},{"user_id":372,"name":"BeefHammer","steam_id":76561198078426223,"connected_time":2030000000000,"state":"active","ping":90},{"user_id":394,"name":"WonderOfU","steam_id":76561199172036471,"connected_time":1059000000000,"state":"active","ping":57},{"user_id":397,"name":"abi the epic","steam_id":76561199273122478,"connected_time":746000000000,"state":"active","ping":101},{"user_id":374,"name":"Milk","steam_id":76561198125876588,"connected_time":1982000000000,"state":"active","ping":41},{"user_id":210,"name":"bitkomet","steam_id":76561198058232147,"connected_time":15057000000000,"state":"active","ping":76},{"user_id":403,"name":"glorpis","steam_id":76561199225333422,"connected_time":215000000000,"state":"active","ping":46},{"user_id":335,"name":"soap lore 26","steam_id":76561198058879767,"connected_time":5185000000000,"state":"active","ping":43},{"user_id":388,"name":"Discord Mawd","steam_id":76561198974756301,"connected_time":1381000000000,"state":"active","ping":157},{"user_id":377,"name":"A simple berry picker","steam_id":76561198091969871,"connected_time":1907000000000,"state":"active","ping":76},{"user_id":345,"name":"GGlut","steam_id":76561198034281473,"connected_time":4315000000000,"state":"active","ping":46},{"user_id":399,"name":"Jezal dan Luthar","steam_id":76561198989449047,"connected_time":492000000000,"state":"active","ping":144},{"user_id":404,"name":"piper","steam_id":76561198112687349,"connected_time":209000000000,"state":"active","ping":46},{"user_id":405,"name":"Portal2Player","steam_id":76561198062870114,"connected_time":202000000000,"state":"active","ping":153},{"user_id":400,"name":"Xeno","steam_id":76561198975556646,"connected_time":388000000000,"state":"active","ping":62},{"user_id":391,"name":"stupid","steam_id":76561198116168271,"connected_time":1327000000000,"state":"active","ping":75},{"user_id":406,"name":"Youssef S Ahmed","steam_id":76561199435139103,"connected_time":194000000000,"state":"active","ping":111},{"user_id":401,"name":"Barb","steam_id":76561199119176199,"connected_time":358000000000,"state":"active","ping":90},{"user_id":407,"name":"boxama","steam_id":76561198040721321,"connected_time":187000000000,"state":"active","ping":46},{"user_id":379,"name":"CrowbarWarrior","steam_id":76561198044077015,"connected_time":1864000000000,"state":"active","ping":71},{"user_id":392,"name":"w presser","steam_id":76561197994600818,"connected_time":1307000000000,"state":"active","ping":40},{"user_id":395,"name":"ha,burger","steam_id":76561199093584225,"connected_time":927000000000,"state":"active","ping":72},{"user_id":393,"name":"SʟɪᴘEɴOʀ","steam_id":76561197967931911,"connected_time":1306000000000,"state":"active","ping":98}]},{"server_id":40,"name":"Uncletopia | London | 7 | Stopwatch","name_short":"lon-7","host":"lon-1.uk.uncletopia.com","port":27075,"enabled":true,"region":"eu","cc":"gb","latitude":51.509865,"longitude":-0.118092,"reserved":0,"last_update":"0001-01-01T00:00:00Z","name_a2s":"Uncletopia | London | 7 | Stopwatch","protocol":17,"map":"cp_snakewater_final1","folder":"tf","game":"Team Fortress","app_id":440,"player_count":0,"max_players":24,"Bots":0,"server_type":"Dedicated","server_os":"Linux","password":true,"vac":true,"version":"7961495","steam_id":85568392924964314,"keywords":["cp","nocrits","nodmgspread","uncletopia"],"game_id":440,"stv_port":27076,"stv_name":"Uncletopia | London | 7 | Stopwatch | STV","players":null},{"server_id":41,"name":"Uncletopia | London | 8 | Community","name_short":"lon-8","host":"lon-1.uk.uncletopia.com","port":27085,"enabled":true,"region":"eu","cc":"gb","latitude":51.509865,"longitude":-0.118092,"reserved":0,"last_update":"0001-01-01T00:00:00Z","name_a2s":"Uncletopia | London | 8 | Community","protocol":17,"map":"workshop/cp_coilblaze_rc7.ugc1272700588","folder":"tf","game":"Team Fortress","app_id":440,"player_count":1,"max_players":24,"Bots":0,"server_type":"Dedicated","server_os":"Linux","password":true,"vac":true,"version":"7961495","steam_id":85568392924964315,"keywords":["cp","nocrits","nodmgspread","uncletopia"],"game_id":440,"stv_port":27086,"stv_name":"Uncletopia | London | 8 | Community | STV","players":[{"user_id":22,"name":"Mangal_","steam_id":76561198076089589,"connected_time":681000000000,"state":"active","ping":105}]},{"server_id":300,"name":"Uncletopia | Montréal | 1 | One Thousand Uncles","name_short":"mtl-1","host":"mtl-1.ca.uncletopia.com","port":27015,"enabled":true,"region":"us-east","cc":"ca","latitude":45.50889,"longitude":-73.56167,"reserved":0,"last_update":"0001-01-01T00:00:00Z","name_a2s":"","protocol":0,"map":"","folder":"","game":"","app_id":0,"player_count":8,"max_players":0,"Bots":0,"server_type":"","server_os":"","password":false,"vac":false,"version":"","steam_id":0,"keywords":null,"game_id":0,"stv_port":0,"stv_name":"","players":[{"user_id":53,"name":"Congcrab","steam_id":76561198078687685,"connected_time":6886000000000,"state":"active","ping":89},{"user_id":108,"name":"Dennis Reynolds","steam_id":76561197960371259,"connected_time":1113000000000,"state":"active","ping":82},{"user_id":71,"name":"ThatGirlWithaK","steam_id":76561198317602350,"connected_time":5805000000000,"state":"active","ping":89},{"user_id":73,"name":"็Periculosum PhD in Funny","steam_id":76561198123370914,"connected_time":5365000000000,"state":"active","ping":74},{"user_id":112,"name":"bdkaine1","steam_id":76561198133545467,"connected_time":212000000000,"state":"active","ping":62},{"user_id":83,"name":"NamelessBear™","steam_id":76561198014564006,"connected_time":2549000000000,"state":"active","ping":52},{"user_id":113,"name":"Chet Dingus","steam_id":76561198205181788,"connected_time":189000000000,"state":"active","ping":98},{"user_id":111,"name":"caberknight tf2  (f2p-ish)","steam_id":76561199273882768,"connected_time":567000000000,"state":"active","ping":54}]},{"server_id":301,"name":"Uncletopia | Montréal | 2 | One Thousand Uncles","name_short":"mtl-2","host":"mtl-1.ca.uncletopia.com","port":27025,"enabled":true,"region":"us-east","cc":"ca","latitude":45.50889,"longitude":-73.56167,"reserved":0,"last_update":"0001-01-01T00:00:00Z","name_a2s":"","protocol":0,"map":"","folder":"","game":"","app_id":0,"player_count":0,"max_players":0,"Bots":0,"server_type":"","server_os":"","password":false,"vac":false,"version":"","steam_id":0,"keywords":null,"game_id":0,"stv_port":0,"stv_name":"","players":null},{"server_id":302,"name":"Uncletopia | Montréal | 3 | One Thousand Uncles","name_short":"mtl-3","host":"mtl-1.ca.uncletopia.com","port":27035,"enabled":true,"region":"us-east","cc":"ca","latitude":45.50889,"longitude":-73.56167,"reserved":0,"last_update":"0001-01-01T00:00:00Z","name_a2s":"","protocol":0,"map":"","folder":"","game":"","app_id":0,"player_count":0,"max_players":0,"Bots":0,"server_type":"","server_os":"","password":false,"vac":false,"version":"","steam_id":0,"keywords":null,"game_id":0,"stv_port":0,"stv_name":"","players":null},{"server_id":13,"name":"Uncletopia | New York City | 1 | All Maps","name_short":"nyc-1","host":"nyc-1.us.uncletopia.com","port":27015,"enabled":true,"region":"us-east","cc":"us","latitude":40.73061,"longitude":-73.93524,"reserved":0,"last_update":"0001-01-01T00:00:00Z","name_a2s":"Uncletopia | New York City | 1 | All Maps","protocol":17,"map":"pl_upward","folder":"tf","game":"Team Fortress","app_id":440,"player_count":24,"max_players":24,"Bots":0,"server_type":"Dedicated","server_os":"Linux","password":true,"vac":true,"version":"7961495","steam_id":85568392924469993,"keywords":["nocrits","nodmgspread","payload","uncletopia"],"game_id":440,"stv_port":27016,"stv_name":"Uncletopia | New York City | 1 | All Maps | STV","players":[{"user_id":98,"name":"Hazeyboi","steam_id":76561198130687838,"connected_time":7132000000000,"state":"active","ping":81},{"user_id":110,"name":"xXBongRipper420Xx","steam_id":76561198199344313,"connected_time":5068000000000,"state":"active","ping":132},{"user_id":112,"name":"DiscoTraveler","steam_id":76561199240168088,"connected_time":5013000000000,"state":"active","ping":50},{"user_id":126,"name":"GummybearKillr","steam_id":76561198031235750,"connected_time":3813000000000,"state":"active","ping":56},{"user_id":166,"name":"Willy","steam_id":76561198046508940,"connected_time":309000000000,"state":"active","ping":49},{"user_id":144,"name":"-W3E- grim10465","steam_id":76561198045698581,"connected_time":2485000000000,"state":"active","ping":44},{"user_id":107,"name":"taigaxx","steam_id":76561198202669250,"connected_time":6672000000000,"state":"active","ping":63},{"user_id":130,"name":"Sodemo","steam_id":76561198074987146,"connected_time":3228000000000,"state":"active","ping":69},{"user_id":85,"name":"DerpyNate","steam_id":76561198100249037,"connected_time":8652000000000,"state":"active","ping":60},{"user_id":152,"name":"ndvr","steam_id":76561199379200102,"connected_time":1598000000000,"state":"active","ping":47},{"user_id":164,"name":"Bee_Pirate","steam_id":76561199000599111,"connected_time":505000000000,"state":"active","ping":62},{"user_id":146,"name":"Frank Forearms.","steam_id":76561198225910596,"connected_time":2383000000000,"state":"active","ping":70},{"user_id":132,"name":"Jesus Christ","steam_id":76561198124789046,"connected_time":3215000000000,"state":"active","ping":84},{"user_id":153,"name":"Goozrat","steam_id":76561198399281848,"connected_time":1582000000000,"state":"active","ping":70},{"user_id":167,"name":"Gobl1n","steam_id":76561198808610991,"connected_time":295000000000,"state":"active","ping":85},{"user_id":157,"name":"fish","steam_id":76561198303575607,"connected_time":1220000000000,"state":"active","ping":76},{"user_id":148,"name":"the12xu","steam_id":76561198197086561,"connected_time":2230000000000,"state":"active","ping":66},{"user_id":54,"name":"Rornir","steam_id":76561198081829615,"connected_time":12719000000000,"state":"active","ping":60},{"user_id":168,"name":"CreateADebate","steam_id":76561198115760035,"connected_time":35000000000,"state":"active","ping":63},{"user_id":160,"name":"Tristen0808","steam_id":76561198154235444,"connected_time":788000000000,"state":"active","ping":70},{"user_id":158,"name":"[CTC] kooldan","steam_id":76561198136593625,"connected_time":1187000000000,"state":"active","ping":76},{"user_id":159,"name":"Timothy Grunclebottoms","steam_id":76561198871450477,"connected_time":1056000000000,"state":"active","ping":71},{"user_id":123,"name":"DankMemes4EV3R","steam_id":76561199012294783,"connected_time":4178000000000,"state":"active","ping":75},{"user_id":151,"name":"BreadFish","steam_id":76561198834556559,"connected_time":1858000000000,"state":"active","ping":72}]},{"server_id":14,"name":"Uncletopia | New York City | 2 | All Maps","name_short":"nyc-2","host":"nyc-1.us.uncletopia.com","port":27025,"enabled":true,"region":"us-east","cc":"us","latitude":40.73061,"longitude":-73.93524,"reserved":0,"last_update":"0001-01-01T00:00:00Z","name_a2s":"Uncletopia | New York City | 2 | All Maps","protocol":17,"map":"pl_barnblitz","folder":"tf","game":"Team Fortress","app_id":440,"player_count":24,"max_players":24,"Bots":0,"server_type":"Dedicated","server_os":"Linux","password":true,"vac":true,"version":"7961495","steam_id":85568392924469994,"keywords":["nocrits","nodmgspread","payload","uncletopia"],"game_id":440,"stv_port":27026,"stv_name":"Uncletopia | New York City | 2 | All Maps | STV","players":[{"user_id":176,"name":"DemonFox","steam_id":76561198109261266,"connected_time":265000000000,"state":"active","ping":146},{"user_id":56,"name":"John Fortnite","steam_id":76561198076608253,"connected_time":7505000000000,"state":"active","ping":88},{"user_id":161,"name":"Just PYE","steam_id":76561199439622967,"connected_time":1338000000000,"state":"active","ping":84},{"user_id":177,"name":"ADRIEN BRODY","steam_id":76561198009299473,"connected_time":262000000000,"state":"active","ping":56},{"user_id":129,"name":"Primal","steam_id":76561197983118203,"connected_time":3268000000000,"state":"active","ping":56},{"user_id":158,"name":"Ballistic","steam_id":76561197992355477,"connected_time":1789000000000,"state":"active","ping":57},{"user_id":174,"name":"Bug","steam_id":76561198090785579,"connected_time":291000000000,"state":"active","ping":75},{"user_id":167,"name":"Try Gardening","steam_id":76561198120311340,"connected_time":1061000000000,"state":"active","ping":66},{"user_id":162,"name":"Gingledoof","steam_id":76561198092697194,"connected_time":1276000000000,"state":"active","ping":97},{"user_id":119,"name":"PaD_Ding","steam_id":76561198831202965,"connected_time":4258000000000,"state":"active","ping":145},{"user_id":170,"name":"Draconis","steam_id":76561198151381256,"connected_time":824000000000,"state":"active","ping":67},{"user_id":173,"name":"Brawns","steam_id":76561198045190199,"connected_time":298000000000,"state":"active","ping":59},{"user_id":132,"name":"Der Krieger105","steam_id":76561197978384609,"connected_time":3222000000000,"state":"active","ping":64},{"user_id":169,"name":"Lia_Rein","steam_id":76561198151569597,"connected_time":1021000000000,"state":"active","ping":131},{"user_id":159,"name":"oopsboom24","steam_id":76561199105248648,"connected_time":1704000000000,"state":"active","ping":87},{"user_id":171,"name":"Park","steam_id":76561198057222814,"connected_time":542000000000,"state":"active","ping":50},{"user_id":172,"name":"Skelly.","steam_id":76561198090517841,"connected_time":349000000000,"state":"active","ping":40},{"user_id":165,"name":"DJ Sheeve","steam_id":76561198095910139,"connected_time":1254000000000,"state":"active","ping":86},{"user_id":103,"name":"chiswola","steam_id":76561198046920142,"connected_time":5263000000000,"state":"active","ping":91},{"user_id":155,"name":"gIBBY","steam_id":76561198080099598,"connected_time":2000000000000,"state":"active","ping":44},{"user_id":139,"name":"Skysillade","steam_id":76561198175485754,"connected_time":2606000000000,"state":"active","ping":74},{"user_id":136,"name":"rice white","steam_id":76561198320732910,"connected_time":3129000000000,"state":"active","ping":61},{"user_id":175,"name":"Kos, or some say Kosm","steam_id":76561197998833309,"connected_time":290000000000,"state":"active","ping":76},{"user_id":111,"name":"az","steam_id":76561198090531755,"connected_time":5037000000000,"state":"active","ping":88}]},{"server_id":15,"name":"Uncletopia | New York City | 3 | Stopwatch","name_short":"nyc-3","host":"nyc-1.us.uncletopia.com","port":27035,"enabled":true,"region":"us-east","cc":"us","latitude":40.73061,"longitude":-73.93524,"reserved":0,"last_update":"0001-01-01T00:00:00Z","name_a2s":"Uncletopia | New York City | 3 | Stopwatch","protocol":17,"map":"workshop/koth_ramjam_rc1.ugc459778887","folder":"tf","game":"Team Fortress","app_id":440,"player_count":0,"max_players":24,"Bots":0,"server_type":"Dedicated","server_os":"Linux","password":true,"vac":true,"version":"7961495","steam_id":85568392924742820,"keywords":["cp","nocrits","nodmgspread","uncletopia"],"game_id":440,"stv_port":27036,"stv_name":"Uncletopia | New York City | 3 | Stopwatch | STV","players":null},{"server_id":16,"name":"Uncletopia | New York City | 4 | Community","name_short":"nyc-4","host":"nyc-1.us.uncletopia.com","port":27045,"enabled":true,"region":"us-east","cc":"us","latitude":40.73061,"longitude":-73.93524,"reserved":0,"last_update":"0001-01-01T00:00:00Z","name_a2s":"Uncletopia | New York City | 4 | Community","protocol":17,"map":"cp_altitude","folder":"tf","game":"Team Fortress","app_id":440,"player_count":0,"max_players":24,"Bots":0,"server_type":"Dedicated","server_os":"Linux","password":true,"vac":true,"version":"7961495","steam_id":85568392924742821,"keywords":["cp","nocrits","nodmgspread","uncletopia"],"game_id":440,"stv_port":27046,"stv_name":"Uncletopia | New York City | 4 | Community | STV","players":null},{"server_id":142,"name":"Uncletopia | São Paulo | 1 | All Maps","name_short":"sao-1","host":"sao-1.br.uncletopia.com","port":27015,"enabled":true,"region":"sa","cc":"br","latitude":-23.533773,"longitude":-46.62529,"reserved":0,"last_update":"0001-01-01T00:00:00Z","name_a2s":"Uncletopia | São Paulo | 1 | All Maps","protocol":17,"map":"pl_snowycoast","folder":"tf","game":"Team Fortress","app_id":440,"player_count":0,"max_players":24,"Bots":0,"server_type":"Dedicated","server_os":"Linux","password":true,"vac":true,"version":"7961495","steam_id":85568392924469996,"keywords":["nocrits","nodmgspread","payload","uncletopia"],"game_id":440,"stv_port":27016,"stv_name":"Uncletopia | São Paulo | 1 | All Maps | STV","players":null},{"server_id":143,"name":"Uncletopia | São Paulo | 2 | Community","name_short":"sao-2","host":"sao-2.br.uncletopia.com","port":27015,"enabled":true,"region":"sa","cc":"br","latitude":-23.533773,"longitude":-46.62529,"reserved":0,"last_update":"0001-01-01T00:00:00Z","name_a2s":"Uncletopia | São Paulo | 2 | Community","protocol":17,"map":"workshop/cp_mannbase_rc2a.ugc1900737467","folder":"tf","game":"Team Fortress","app_id":440,"player_count":0,"max_players":24,"Bots":0,"server_type":"Dedicated","server_os":"Linux","password":true,"vac":true,"version":"7961495","steam_id":85568392924485349,"keywords":["cp","nocrits","nodmgspread","uncletopia"],"game_id":440,"stv_port":27016,"stv_name":"Uncletopia | São Paulo | 2 | Community | STV","players":null},{"server_id":7,"name":"Uncletopia | Seattle | 1 | All Maps","name_short":"sea-1","host":"sea-1.us.uncletopia.com","port":27015,"enabled":true,"region":"us-west","cc":"us","latitude":47.608013,"longitude":-122.33517,"reserved":0,"last_update":"0001-01-01T00:00:00Z","name_a2s":"Uncletopia | Seattle | 1 | All Maps","protocol":17,"map":"koth_viaduct","folder":"tf","game":"Team Fortress","app_id":440,"player_count":24,"max_players":24,"Bots":0,"server_type":"Dedicated","server_os":"Linux","password":true,"vac":true,"version":"7961495","steam_id":85568392924469997,"keywords":["cp","nocrits","nodmgspread","uncletopia"],"game_id":440,"stv_port":27016,"stv_name":"Uncletopia | Seattle | 1 | All Maps | STV","players":[{"user_id":213,"name":"NANI","steam_id":76561198880986922,"connected_time":138000000000,"state":"active","ping":58},{"user_id":173,"name":"The Child","steam_id":76561198173557213,"connected_time":3784000000000,"state":"active","ping":60},{"user_id":181,"name":"darkelaine227","steam_id":76561198097330521,"connected_time":2962000000000,"state":"active","ping":113},{"user_id":200,"name":"notkadenk","steam_id":76561198837454396,"connected_time":1550000000000,"state":"active","ping":45},{"user_id":163,"name":"Winter the Witchie","steam_id":76561198151971178,"connected_time":4638000000000,"state":"active","ping":113},{"user_id":199,"name":"Tyth","steam_id":76561198062543298,"connected_time":1645000000000,"state":"active","ping":43},{"user_id":193,"name":"UserLeft","steam_id":76561197998297379,"connected_time":2568000000000,"state":"active","ping":64},{"user_id":137,"name":"Waltuh White","steam_id":76561198964210411,"connected_time":7111000000000,"state":"active","ping":76},{"user_id":204,"name":"GlingGlop95","steam_id":76561198386865528,"connected_time":1006000000000,"state":"active","ping":134},{"user_id":206,"name":"Synergy","steam_id":76561198098630198,"connected_time":963000000000,"state":"active","ping":45},{"user_id":211,"name":"2 Point Tom","steam_id":76561198087617008,"connected_time":273000000000,"state":"active","ping":53},{"user_id":196,"name":"joyeuxnoelle","steam_id":76561198062423120,"connected_time":1989000000000,"state":"active","ping":114},{"user_id":207,"name":"Kid named download","steam_id":76561199192074448,"connected_time":881000000000,"state":"active","ping":121},{"user_id":215,"name":"SirKnight5067","steam_id":76561198377306047,"connected_time":102000000000,"state":"active","ping":103},{"user_id":214,"name":"Cousin Balki","steam_id":76561198070496395,"connected_time":138000000000,"state":"active","ping":111},{"user_id":91,"name":"sonicboom14","steam_id":76561198866558393,"connected_time":12958000000000,"state":"active","ping":79},{"user_id":160,"name":"Arkus","steam_id":76561199092478198,"connected_time":5038000000000,"state":"active","ping":45},{"user_id":205,"name":"Shirm","steam_id":76561198068455981,"connected_time":1005000000000,"state":"active","ping":82},{"user_id":194,"name":"RC","steam_id":76561198048127881,"connected_time":2402000000000,"state":"active","ping":75},{"user_id":209,"name":"Jazz Hands","steam_id":76561199225708271,"connected_time":521000000000,"state":"active","ping":53},{"user_id":180,"name":"aisu","steam_id":76561198043768507,"connected_time":3390000000000,"state":"active","ping":96},{"user_id":187,"name":"SLEEPY-Class NHP","steam_id":76561198064583865,"connected_time":2778000000000,"state":"active","ping":104},{"user_id":189,"name":"FizzleWizard","steam_id":76561198045990868,"connected_time":2776000000000,"state":"active","ping":120},{"user_id":198,"name":"BEHELIT","steam_id":76561198881144114,"connected_time":1791000000000,"state":"active","ping":51}]},{"server_id":119,"name":"Uncletopia | Seattle | 2 | All Maps","name_short":"sea-2","host":"sea-1.us.uncletopia.com","port":27025,"enabled":true,"region":"us-west","cc":"us","latitude":47.608013,"longitude":-122.33517,"reserved":0,"last_update":"0001-01-01T00:00:00Z","name_a2s":"Uncletopia | Seattle | 2 | All Maps","protocol":17,"map":"ctf_2fort","folder":"tf","game":"Team Fortress","app_id":440,"player_count":21,"max_players":24,"Bots":0,"server_type":"Dedicated","server_os":"Linux","password":true,"vac":true,"version":"7961495","steam_id":85568392924469998,"keywords":["ctf","nocrits","nodmgspread","uncletopia"],"game_id":440,"stv_port":27026,"stv_name":"Uncletopia | Seattle | 2 | All Maps | STV","players":[{"user_id":192,"name":"Lo-Pan","steam_id":76561198085670133,"connected_time":861000000000,"state":"active","ping":102},{"user_id":190,"name":"soltuno","steam_id":76561198074430565,"connected_time":1066000000000,"state":"active","ping":79},{"user_id":203,"name":"Stradier","steam_id":76561198139457953,"connected_time":30000000000,"state":"spawning","ping":84},{"user_id":166,"name":"Future Tusk","steam_id":76561198199635217,"connected_time":2473000000000,"state":"active","ping":75},{"user_id":195,"name":"Gluppo","steam_id":76561198060016004,"connected_time":366000000000,"state":"active","ping":100},{"user_id":196,"name":"Shopkeeper","steam_id":76561198105888756,"connected_time":352000000000,"state":"active","ping":76},{"user_id":148,"name":"breathing meat donut","steam_id":76561198123566649,"connected_time":3981000000000,"state":"active","ping":103},{"user_id":194,"name":"Lili","steam_id":76561199488457138,"connected_time":444000000000,"state":"active","ping":46},{"user_id":197,"name":"Blitzy","steam_id":76561198149472890,"connected_time":345000000000,"state":"active","ping":61},{"user_id":184,"name":"D.T. Katze","steam_id":76561198002280813,"connected_time":1534000000000,"state":"active","ping":113},{"user_id":198,"name":"🅜🅔🅔🅚🅢🅣🅔\ufffd\ufffd\ufffd","steam_id":76561197999748343,"connected_time":344000000000,"state":"active","ping":90},{"user_id":137,"name":"Rally Racer","steam_id":76561198044613715,"connected_time":4512000000000,"state":"active","ping":45},{"user_id":117,"name":"ShadowSoul","steam_id":76561198259225072,"connected_time":5963000000000,"state":"active","ping":96},{"user_id":199,"name":"Klone","steam_id":76561198854485605,"connected_time":340000000000,"state":"active","ping":112},{"user_id":111,"name":"krill your shelfd","steam_id":76561198293556549,"connected_time":6289000000000,"state":"active","ping":50},{"user_id":201,"name":"Joeyy #1Team","steam_id":76561198284576866,"connected_time":267000000000,"state":"active","ping":61},{"user_id":187,"name":"Tommy Pickles (Very Cool)","steam_id":76561198391261463,"connected_time":1369000000000,"state":"active","ping":93},{"user_id":175,"name":"The Foolish Samurai","steam_id":76561198094494945,"connected_time":1923000000000,"state":"active","ping":103},{"user_id":172,"name":"for the love of god help me","steam_id":76561198017605637,"connected_time":2025000000000,"state":"active","ping":94},{"user_id":200,"name":"Sooper Smert","steam_id":76561198047958540,"connected_time":300000000000,"state":"active","ping":105},{"user_id":158,"name":"nescoceo","steam_id":76561198040801160,"connected_time":3353000000000,"state":"active","ping":75}]},{"server_id":406,"name":"Uncletopia | Seattle | 3 | Stopwatch","name_short":"sea-3","host":"sea-1.us.uncletopia.com","port":27035,"enabled":true,"region":"us-west","cc":"us","latitude":47.608013,"longitude":-122.33517,"reserved":0,"last_update":"0001-01-01T00:00:00Z","name_a2s":"Uncletopia | Seattle | 3 | Stopwatch","protocol":17,"map":"workshop/koth_clearcut_b15.ugc2107050255","folder":"tf","game":"Team Fortress","app_id":440,"player_count":0,"max_players":24,"Bots":0,"server_type":"Dedicated","server_os":"Linux","password":true,"vac":true,"version":"7961495","steam_id":85568392924515217,"keywords":["cp","nocrits","nodmgspread","uncletopia"],"game_id":440,"stv_port":27036,"stv_name":"Uncletopia | Seattle | 3 | Stopwatch | STV","players":null},{"server_id":17,"name":"Uncletopia | San Francisco | 1 | All Maps","name_short":"sfo-1","host":"sfo-1.us.uncletopia.com","port":27015,"enabled":true,"region":"us-west","cc":"us","latitude":37.77397,"longitude":-122.4313,"reserved":0,"last_update":"0001-01-01T00:00:00Z","name_a2s":"Uncletopia | San Francisco | 1 | All Maps","protocol":17,"map":"koth_cascade","folder":"tf","game":"Team Fortress","app_id":440,"player_count":0,"max_players":24,"Bots":0,"server_type":"Dedicated","server_os":"Linux","password":true,"vac":true,"version":"7961495","steam_id":85568392924469999,"keywords":["cp","nocrits","nodmgspread","uncletopia"],"game_id":440,"stv_port":27016,"stv_name":"Uncletopia | San Francisco | 1 | All Maps | STV","players":null},{"server_id":18,"name":"Uncletopia | San Francisco | 2 | All Maps","name_short":"sfo-2","host":"sfo-1.us.uncletopia.com","port":27025,"enabled":true,"region":"us-west","cc":"us","latitude":37.77397,"longitude":-122.4313,"reserved":0,"last_update":"0001-01-01T00:00:00Z","name_a2s":"Uncletopia | San Francisco | 2 | All Maps","protocol":17,"map":"pl_frontier_final","folder":"tf","game":"Team Fortress","app_id":440,"player_count":0,"max_players":24,"Bots":0,"server_type":"Dedicated","server_os":"Linux","password":true,"vac":true,"version":"7961495","steam_id":85568392924470000,"keywords":["nocrits","nodmgspread","payload","uncletopia"],"game_id":440,"stv_port":27026,"stv_name":"Uncletopia | San Francisco | 2 | All Maps | STV","players":null},{"server_id":19,"name":"Uncletopia | San Francisco | 3 | Stopwatch","name_short":"sfo-3","host":"sfo-1.us.uncletopia.com","port":27035,"enabled":true,"region":"us-west","cc":"us","latitude":37.77397,"longitude":-122.4313,"reserved":0,"last_update":"0001-01-01T00:00:00Z","name_a2s":"Uncletopia | San Francisco | 3 | Stopwatch","protocol":17,"map":"pl_pier","folder":"tf","game":"Team Fortress","app_id":440,"player_count":0,"max_players":24,"Bots":0,"server_type":"Dedicated","server_os":"Linux","password":true,"vac":true,"version":"7961495","steam_id":85568392924742824,"keywords":["nocrits","nodmgspread","payload","uncletopia"],"game_id":440,"stv_port":27036,"stv_name":"Uncletopia | San Francisco | 3 | Stopwatch | STV","players":null},{"server_id":20,"name":"Uncletopia | San Francisco | 4 | Community","name_short":"sfo-4","host":"sfo-1.us.uncletopia.com","port":27045,"enabled":true,"region":"us-west","cc":"us","latitude":37.77397,"longitude":-122.4313,"reserved":0,"last_update":"0001-01-01T00:00:00Z","name_a2s":"Uncletopia | San Francisco | 4 | Community","protocol":17,"map":"pl_pier","folder":"tf","game":"Team Fortress","app_id":440,"player_count":0,"max_players":24,"Bots":0,"server_type":"Dedicated","server_os":"Linux","password":true,"vac":true,"version":"7961495","steam_id":85568392924742826,"keywords":["nocrits","nodmgspread","payload","uncletopia"],"game_id":440,"stv_port":27046,"stv_name":"Uncletopia | San Francisco | 4 | Community | STV","players":null},{"server_id":141,"name":"Uncletopia | Sydney | 1 | All Maps","name_short":"syd-1","host":"syd-1.au.uncletopia.com","port":27015,"enabled":true,"region":"au","cc":"au","latitude":-33.865143,"longitude":151.2099,"reserved":0,"last_update":"0001-01-01T00:00:00Z","name_a2s":"Uncletopia | Sydney | 1 | All Maps","protocol":17,"map":"cp_altitude","folder":"tf","game":"Team Fortress","app_id":440,"player_count":0,"max_players":24,"Bots":0,"server_type":"Dedicated","server_os":"Linux","password":true,"vac":true,"version":"7961495","steam_id":85568392924470001,"keywords":["cp","nocrits","nodmgspread","uncletopia"],"game_id":440,"stv_port":27016,"stv_name":"Uncletopia | Sydney | 1 | All Maps | STV","players":null},{"server_id":123,"name":"Uncletopia | Sydney | 2 | All Maps","name_short":"syd-2","host":"syd-1.au.uncletopia.com","port":27025,"enabled":true,"region":"au","cc":"au","latitude":-33.865143,"longitude":151.2099,"reserved":0,"last_update":"0001-01-01T00:00:00Z","name_a2s":"Uncletopia | Sydney | 2 | All Maps","protocol":17,"map":"koth_viaduct","folder":"tf","game":"Team Fortress","app_id":440,"player_count":0,"max_players":24,"Bots":0,"server_type":"Dedicated","server_os":"Linux","password":true,"vac":true,"version":"7961495","steam_id":85568392924470002,"keywords":["cp","nocrits","nodmgspread","uncletopia"],"game_id":440,"stv_port":27026,"stv_name":"Uncletopia | Sydney | 2 | All Maps | STV","players":null},{"server_id":395,"name":"Uncletopia | Sydney | 3 | All Maps","name_short":"syd-3","host":"syd-1.au.uncletopia.com","port":27035,"enabled":true,"region":"au","cc":"au","latitude":-33.865143,"longitude":151.2099,"reserved":0,"last_update":"0001-01-01T00:00:00Z","name_a2s":"Uncletopia | Sydney | 3 | All Maps","protocol":17,"map":"pl_snowycoast","folder":"tf","game":"Team Fortress","app_id":440,"player_count":0,"max_players":24,"Bots":0,"server_type":"Dedicated","server_os":"Linux","password":true,"vac":true,"version":"7961495","steam_id":85568392925194467,"keywords":["nocrits","nodmgspread","payload","uncletopia"],"game_id":440,"stv_port":27036,"stv_name":"Uncletopia | Sydney | 3 | All Maps | STV","players":null},{"server_id":396,"name":"Uncletopia | Sydney | 4 | All Maps","name_short":"syd-4","host":"syd-1.au.uncletopia.com","port":27045,"enabled":true,"region":"au","cc":"au","latitude":-33.865143,"longitude":151.2099,"reserved":0,"last_update":"0001-01-01T00:00:00Z","name_a2s":"Uncletopia | Sydney | 4 | All Maps","protocol":17,"map":"koth_cascade","folder":"tf","game":"Team Fortress","app_id":440,"player_count":0,"max_players":24,"Bots":0,"server_type":"Dedicated","server_os":"Linux","password":true,"vac":true,"version":"7961495","steam_id":85568392925397958,"keywords":["cp","nocrits","nodmgspread","uncletopia"],"game_id":440,"stv_port":27046,"stv_name":"Uncletopia | Sydney | 4 | All Maps | STV","players":null},{"server_id":58,"name":"Uncletopia | Sydney | 5 | Stopwatch","name_short":"syd-5","host":"syd-1.au.uncletopia.com","port":27055,"enabled":true,"region":"au","cc":"au","latitude":-33.865143,"longitude":151.2099,"reserved":0,"last_update":"0001-01-01T00:00:00Z","name_a2s":"Uncletopia | Sydney | 5 | Stopwatch","protocol":17,"map":"workshop/pl_summercoast_rc8e.ugc1761528829","folder":"tf","game":"Team Fortress","app_id":440,"player_count":0,"max_players":24,"Bots":0,"server_type":"Dedicated","server_os":"Linux","password":true,"vac":true,"version":"7961495","steam_id":85568392925397959,"keywords":["nocrits","nodmgspread","payload","uncletopia"],"game_id":440,"stv_port":27056,"stv_name":"Uncletopia | Sydney | 5 | Stopwatch | STV","players":null},{"server_id":59,"name":"Uncletopia | Sydney | 6 | Community","name_short":"syd-6","host":"syd-1.au.uncletopia.com","port":27065,"enabled":true,"region":"au","cc":"au","latitude":-33.865143,"longitude":151.2099,"reserved":0,"last_update":"0001-01-01T00:00:00Z","name_a2s":"Uncletopia | Sydney | 6 | Community","protocol":17,"map":"workshop/koth_trenchfoot_b1a.ugc731436616","folder":"tf","game":"Team Fortress","app_id":440,"player_count":0,"max_players":24,"Bots":0,"server_type":"Dedicated","server_os":"Linux","password":true,"vac":true,"version":"7961495","steam_id":85568392925397960,"keywords":["cp","nocrits","nodmgspread","uncletopia"],"game_id":440,"stv_port":27066,"stv_name":"Uncletopia | Sydney | 6 | Community | STV","players":null},{"server_id":49,"name":"Uncletopia | Warsaw | 1 | One Thousand Uncles","name_short":"waw-1","host":"waw-1.pl.uncletopia.com","port":27015,"enabled":true,"region":"eu","cc":"pl","latitude":52.2297,"longitude":21.017532,"reserved":0,"last_update":"0001-01-01T00:00:00Z","name_a2s":"Uncletopia | Warsaw | 1 | One Thousand Uncles","protocol":17,"map":"cp_mercenarypark","folder":"tf","game":"Team Fortress","app_id":440,"player_count":0,"max_players":32,"Bots":0,"server_type":"Dedicated","server_os":"Linux","password":true,"vac":true,"version":"7961495","steam_id":85568392925397850,"keywords":["alltalk","cp","danepve","increased_maxplayers","nocrits","norespawntime","uncletopia"],"game_id":440,"stv_port":0,"stv_name":"","players":null},{"server_id":50,"name":"Uncletopia | Warsaw | 2 | One Thousand Uncles","name_short":"waw-2","host":"waw-1.pl.uncletopia.com","port":27025,"enabled":true,"region":"eu","cc":"pl","latitude":52.2297,"longitude":21.017532,"reserved":0,"last_update":"0001-01-01T00:00:00Z","name_a2s":"Uncletopia | Warsaw | 2 | One Thousand Uncles","protocol":17,"map":"pl_upward","folder":"tf","game":"Team Fortress","app_id":440,"player_count":31,"max_players":32,"Bots":16,"server_type":"Dedicated","server_os":"Linux","password":true,"vac":true,"version":"7961495","steam_id":85568392925397851,"keywords":["alltalk","bots","danepve","increased_maxplayers","nocrits","norespawntime","payload","uncletopia"],"game_id":440,"stv_port":0,"stv_name":"","players":[{"user_id":560,"name":"Ječmen","steam_id":76561198051617968,"connected_time":427000000000,"state":"active","ping":388},{"user_id":491,"name":"dank pank","steam_id":76561198995052713,"connected_time":5790000000000,"state":"active","ping":97},{"user_id":548,"name":"pakin157","steam_id":76561198035125667,"connected_time":1339000000000,"state":"active","ping":41},{"user_id":580,"name":"NikoHam","steam_id":76561198985961493,"connected_time":107000000000,"state":"active","ping":56},{"user_id":578,"name":"-MK","steam_id":76561198209595811,"connected_time":241000000000,"state":"active","ping":107},{"user_id":449,"name":"BUCKET:\\soldier\\Desktop\\","steam_id":76561199047240319,"connected_time":8147000000000,"state":"active","ping":106},{"user_id":523,"name":"Samuel L. Jackson","steam_id":76561198130427881,"connected_time":3955000000000,"state":"active","ping":180},{"user_id":537,"name":"Kornel","steam_id":76561199000320652,"connected_time":2694000000000,"state":"active","ping":71},{"user_id":538,"name":"xc","steam_id":76561198086304421,"connected_time":2584000000000,"state":"active","ping":82},{"user_id":540,"name":"0scr_","steam_id":76561198042631352,"connected_time":2438000000000,"state":"active","ping":81},{"user_id":581,"name":"SpazHero","steam_id":76561198021130008,"connected_time":74000000000,"state":"active","ping":186},{"user_id":582,"name":"MuscleMan (REAL)","steam_id":76561199085161032,"connected_time":70000000000,"state":"active","ping":43},{"user_id":583,"name":"Eggcracker","steam_id":76561199274850641,"connected_time":63000000000,"state":"active","ping":92},{"user_id":526,"name":"tirr0j","steam_id":76561198061949211,"connected_time":3446000000000,"state":"active","ping":72},{"user_id":585,"name":"Owenter","steam_id":76561198083201886,"connected_time":47000000000,"state":"active","ping":72}]},{"server_id":51,"name":"Uncletopia | Warsaw | 3 | All Maps","name_short":"waw-3","host":"waw-1.pl.uncletopia.com","port":27035,"enabled":true,"region":"eu","cc":"pl","latitude":52.2297,"longitude":21.017532,"reserved":0,"last_update":"0001-01-01T00:00:00Z","name_a2s":"Uncletopia | Warsaw | 3 | All Maps","protocol":17,"map":"cp_dustbowl","folder":"tf","game":"Team Fortress","app_id":440,"player_count":0,"max_players":24,"Bots":0,"server_type":"Dedicated","server_os":"Linux","password":true,"vac":true,"version":"7961495","steam_id":85568392925397852,"keywords":["cp","nocrits","nodmgspread","uncletopia"],"game_id":440,"stv_port":27036,"stv_name":"Uncletopia | Warsaw | 3 | All Maps | STV","players":null},{"server_id":52,"name":"Uncletopia | Warsaw | 4 | All Maps","name_short":"waw-4","host":"waw-1.pl.uncletopia.com","port":27045,"enabled":true,"region":"eu","cc":"pl","latitude":52.2297,"longitude":21.017532,"reserved":0,"last_update":"0001-01-01T00:00:00Z","name_a2s":"Uncletopia | Warsaw | 4 | All Maps","protocol":17,"map":"pl_pier","folder":"tf","game":"Team Fortress","app_id":440,"player_count":0,"max_players":24,"Bots":0,"server_type":"Dedicated","server_os":"Linux","password":true,"vac":true,"version":"7961495","steam_id":85568392925397853,"keywords":["nocrits","nodmgspread","payload","uncletopia"],"game_id":440,"stv_port":27046,"stv_name":"Uncletopia | Warsaw | 4 | All Maps | STV","players":null},{"server_id":53,"name":"Uncletopia | Warsaw | 5 | Stopwatch","name_short":"waw-5","host":"waw-1.pl.uncletopia.com","port":27055,"enabled":true,"region":"eu","cc":"pl","latitude":52.2297,"longitude":21.017532,"reserved":0,"last_update":"0001-01-01T00:00:00Z","name_a2s":"Uncletopia | Warsaw | 5 | Stopwatch","protocol":17,"map":"pl_swiftwater_final1","folder":"tf","game":"Team Fortress","app_id":440,"player_count":0,"max_players":24,"Bots":0,"server_type":"Dedicated","server_os":"Linux","password":true,"vac":true,"version":"7961495","steam_id":85568392925397854,"keywords":["nocrits","nodmgspread","payload","uncletopia"],"game_id":440,"stv_port":27056,"stv_name":"Uncletopia | Warsaw | 5 | Stopwatch | STV","players":null},{"server_id":54,"name":"Uncletopia | Warsaw | 6 | Community","name_short":"waw-6","host":"waw-1.pl.uncletopia.com","port":27065,"enabled":true,"region":"eu","cc":"pl","latitude":52.2297,"longitude":21.017532,"reserved":0,"last_update":"0001-01-01T00:00:00Z","name_a2s":"Uncletopia | Warsaw | 6 | Community","protocol":17,"map":"workshop/pl_badwater_pro_v12.ugc2142942074","folder":"tf","game":"Team Fortress","app_id":440,"player_count":0,"max_players":24,"Bots":0,"server_type":"Dedicated","server_os":"Linux","password":true,"vac":true,"version":"7961495","steam_id":85568392925397856,"keywords":["nocrits","nodmgspread","payload","uncletopia"],"game_id":440,"stv_port":27066,"stv_name":"Uncletopia | Warsaw | 6 | Community | STV","players":null}]}