{"status":true,"message":"","result":[{"server_id":9,"name":"Uncletopia | Atlanta | 1 | All Maps","name_short":"atl-1","host":"atl-1.us.uncletopia.com","port":27015,"enabled":true,"region":"us-east","cc":"us","latitude":33.753746,"longitude":-84.38633,"reserved":0,"last_update":"0001-01-01T00:00:00Z","name_a2s":"Uncletopia | Atlanta | 1 | All Maps","protocol":17,"map":"koth_cascade","folder":"tf","game":"Team Fortress","app_id":440,"player_count":24,"max_players":24,"Bots":0,"server_type":"Dedicated","server_os":"Linux","password":true,"vac":true,"version":"7757534","steam_id":85568392924469982,"keywords":["cp","nocrits","nodmgspread","uncletopia"],"game_id":440,"stv_port":27016,"stv_name":"Uncletopia | Atlanta | 1 | All Maps | STV","players":[{"user_id":85,"name":"VPratt","steam_id":76561198351195424,"connected_time":3366000000000,"state":"active","ping":106},{"user_id":122,"name":"heimdall","steam_id":76561198069380992,"connected_time":158000000000,"state":"active","ping":75},{"user_id":27,"name":"Doctor Bear  ï ‚Ä¢·¥•‚Ä¢ î","steam_id":76561197968103161,"connected_time":5885000000000,"state":"active","ping":79},{"user_id":118,"name":"Thotimus Begonimus","steam_id":76561197970275938,"connected_time":352000000000,"state":"active","ping":43},{"user_id":120,"name":"JadeSpade","steam_id":76561199208079738,"connected_time":315000000000,"state":"active","ping":68},{"user_id":119,"name":"A_Malebolgia","steam_id":76561198097722818,"connected_time":332000000000,"state":"active","ping":87},{"user_id":113,"name":"CheesySpectre","steam_id":76561198332606276,"connected_time":1338000000000,"state":"active","ping":83},{"user_id":75,"name":"That70sDog","steam_id":76561198119396142,"connected_time":3689000000000,"state":"active","ping":78},{"user_id":33,"name":"sylvia","steam_id":76561198217119457,"connected_time":5409000000000,"state":"active","ping":106},{"user_id":98,"name":"hyuck","steam_id":76561198319990195,"connected_time":2415000000000,"state":"active","ping":85},{"user_id":106,"name":"CATS","steam_id":76561198043405364,"connected_time":1603000000000,"state":"active","ping":71},{"user_id":123,"name":"Daisy ‚ùã","steam_id":76561198042144492,"connected_time":0,"state":"spawning","ping":0},{"user_id":110,"name":"Bart Harley Jarvis","steam_id":76561199215811448,"connected_time":1459000000000,"state":"active","ping":89},{"user_id":101,"name":"pearly","steam_id":76561198017274978,"connected_time":2331000000000,"state":"active","ping":109},{"user_id":96,"name":"Viokik","steam_id":76561198408846602,"connected_time":2437000000000,"state":"active","ping":68},{"user_id":82,"name":"stonk scout","steam_id":76561199072907445,"connected_time":3403000000000,"state":"active","ping":99},{"user_id":83,"name":"LACTAID","steam_id":76561198276585202,"connected_time":3387000000000,"state":"active","ping":106},{"user_id":108,"name":"blu rio\u003c3 | they/them","steam_id":76561198299175965,"connected_time":1499000000000,"state":"active","ping":57},{"user_id":121,"name":"GiddyCanada","steam_id":76561198329295909,"connected_time":311000000000,"state":"active","ping":90},{"user_id":105,"name":"bred","steam_id":76561198063116981,"connected_time":1613000000000,"state":"active","ping":75},{"user_id":116,"name":"gorilla gamer","steam_id":76561198067760818,"connected_time":533000000000,"state":"active","ping":72},{"user_id":97,"name":"[TF2Apples] Intense Green Apple","steam_id":76561198803561622,"connected_time":2431000000000,"state":"active","ping":86},{"user_id":107,"name":"zulious","steam_id":76561198041620617,"connected_time":1598000000000,"state":"active","ping":63},{"user_id":100,"name":"Cryo_Dave","steam_id":76561198796748347,"connected_time":2371000000000,"state":"active","ping":116}]},{"server_id":400,"name":"Uncletopia | Atlanta | 3 | Community","name_short":"atl-3","host":"atl-1.us.uncletopia.com","port":27035,"enabled":true,"region":"us-east","cc":"us","latitude":33.753746,"longitude":-84.38633,"reserved":0,"last_update":"0001-01-01T00:00:00Z","name_a2s":"Uncletopia | Atlanta | 3 | Community","protocol":17,"map":"workshop/pl_eruption_b9a.ugc2807898013","folder":"tf","game":"Team Fortress","app_id":440,"player_count":0,"max_players":24,"Bots":0,"server_type":"Dedicated","server_os":"Linux","password":true,"vac":true,"version":"7757534","steam_id":85568392924515187,"keywords":["nocrits","nodmgspread","payload","uncletopia"],"game_id":440,"stv_port":27036,"stv_name":"Uncletopia | Atlanta | 3 | Community | STV","players":null},{"server_id":401,"name":"Uncletopia | Atlanta | 4 | No Payload","name_short":"atl-4","host":"atl-1.us.uncletopia.com","port":27045,"enabled":true,"region":"us-east","cc":"us","latitude":33.753746,"longitude":-84.38633,"reserved":0,"last_update":"0001-01-01T00:00:00Z","name_a2s":"","protocol":0,"map":"","folder":"","game":"","app_id":0,"player_count":0,"max_players":0,"Bots":0,"server_type":"","server_os":"","password":false,"vac":false,"version":"","steam_id":0,"keywords":null,"game_id":0,"stv_port":0,"stv_name":"","players":null},{"server_id":2,"name":"Uncletopia | Chicago | 1 | All Maps","name_short":"chi-1","host":"chi-1.us.uncletopia.com","port":27015,"enabled":true,"region":"us-central","cc":"us","latitude":41.881832,"longitude":-87.62318,"reserved":0,"last_update":"0001-01-01T00:00:00Z","name_a2s":"Uncletopia | Chicago | 1 | All Maps","protocol":17,"map":"pl_borneo","folder":"tf","game":"Team Fortress","app_id":440,"player_count":23,"max_players":24,"Bots":0,"server_type":"Dedicated","server_os":"Linux","password":true,"vac":true,"version":"7757534","steam_id":85568392924469984,"keywords":["nocrits","nodmgspread","payload","uncletopia"],"game_id":440,"stv_port":27016,"stv_name":"Uncletopia | Chicago | 1 | All Maps | STV","players":[{"user_id":323,"name":"rlty","steam_id":76561198009395055,"connected_time":851000000000,"state":"active","ping":60},{"user_id":186,"name":"Wingz","steam_id":76561198135885865,"connected_time":10444000000000,"state":"active","ping":39},{"user_id":326,"name":"Recursive Gamer","steam_id":76561198042102952,"connected_time":56000000000,"state":"active","ping":65},{"user_id":327,"name":"Animal Slices","steam_id":76561198137545511,"connected_time":30000000000,"state":"active","ping":47},{"user_id":309,"name":"paul blart","steam_id":76561198068558572,"connected_time":2547000000000,"state":"active","ping":75},{"user_id":311,"name":"[slug]","steam_id":76561197989592178,"connected_time":2430000000000,"state":"active","ping":60},{"user_id":274,"name":"Ghost5x1","steam_id":76561198117418164,"connected_time":4190000000000,"state":"active","ping":82},{"user_id":312,"name":"flappyflap2","steam_id":76561198285048973,"connected_time":1748000000000,"state":"active","ping":61},{"user_id":305,"name":"chen","steam_id":76561198278879575,"connected_time":2646000000000,"state":"active","ping":64},{"user_id":302,"name":"A Rhino with Coronavirus","steam_id":76561197999451366,"connected_time":3059000000000,"state":"active","ping":72},{"user_id":319,"name":"Bocchi the Rock","steam_id":76561198025668771,"connected_time":1264000000000,"state":"active","ping":122},{"user_id":328,"name":"'LaxAttack","steam_id":76561198044129346,"connected_time":10000000000,"state":"spawning","ping":70},{"user_id":317,"name":"Gabinator32","steam_id":76561198872467183,"connected_time":1336000000000,"state":"active","ping":45},{"user_id":329,"name":"plastiquemonk","steam_id":76561198126035719,"connected_time":1000000000,"state":"spawning","ping":71},{"user_id":322,"name":"rabscootle","steam_id":76561198045619076,"connected_time":1048000000000,"state":"active","ping":46},{"user_id":308,"name":"POOTISPOOTISPOOTIS","steam_id":76561198047844129,"connected_time":2570000000000,"state":"active","ping":66},{"user_id":297,"name":"Eggcracker","steam_id":76561199274850641,"connected_time":3359000000000,"state":"active","ping":155},{"user_id":290,"name":"CalThePal","steam_id":76561198084842126,"connected_time":3709000000000,"state":"active","ping":131},{"user_id":324,"name":"Gary Budussy","steam_id":76561197969793969,"connected_time":620000000000,"state":"active","ping":49},{"user_id":318,"name":"chef!","steam_id":76561198086960878,"connected_time":1334000000000,"state":"active","ping":57},{"user_id":300,"name":"women fish me","steam_id":76561198153245906,"connected_time":3198000000000,"state":"active","ping":57},{"user_id":301,"name":"hoboways","steam_id":76561198168035195,"connected_time":3198000000000,"state":"active","ping":88},{"user_id":241,"name":"Ademar","steam_id":76561199391802581,"connected_time":7310000000000,"state":"active","ping":125}]},{"server_id":106,"name":"Uncletopia | Chicago | 2 | All Maps","name_short":"chi-2","host":"chi-1.us.uncletopia.com","port":27025,"enabled":true,"region":"us-central","cc":"us","latitude":41.881832,"longitude":-87.62318,"reserved":0,"last_update":"0001-01-01T00:00:00Z","name_a2s":"Uncletopia | Chicago | 2 | All Maps","protocol":17,"map":"koth_viaduct","folder":"tf","game":"Team Fortress","app_id":440,"player_count":0,"max_players":24,"Bots":0,"server_type":"Dedicated","server_os":"Linux","password":true,"vac":true,"version":"7757534","steam_id":85568392924469985,"keywords":["cp","nocrits","nodmgspread","uncletopia"],"game_id":440,"stv_port":27026,"stv_name":"Uncletopia | Chicago | 2 | All Maps | STV","players":null},{"server_id":402,"name":"Uncletopia | Chicago | 3 | All Maps","name_short":"chi-3","host":"chi-1.us.uncletopia.com","port":27035,"enabled":true,"region":"us-central","cc":"us","latitude":41.881832,"longitude":-87.62318,"reserved":0,"last_update":"0001-01-01T00:00:00Z","name_a2s":"Uncletopia | Chicago | 3 | All Maps","protocol":17,"map":"koth_lakeside_final","folder":"tf","game":"Team Fortress","app_id":440,"player_count":0,"max_players":24,"Bots":0,"server_type":"Dedicated","server_os":"Linux","password":true,"vac":true,"version":"7757534","steam_id":85568392924515191,"keywords":["cp","nocrits","nodmgspread","uncletopia"],"game_id":440,"stv_port":27036,"stv_name":"Uncletopia | Chicago | 3 | All Maps | STV","players":null},{"server_id":403,"name":"Uncletopia | Chicago | 4 | All Maps","name_short":"chi-4","host":"chi-1.us.uncletopia.com","port":27045,"enabled":true,"region":"us-central","cc":"us","latitude":41.881832,"longitude":-87.62318,"reserved":0,"last_update":"0001-01-01T00:00:00Z","name_a2s":"Uncletopia | Chicago | 4 | All Maps","protocol":17,"map":"pl_pier","folder":"tf","game":"Team Fortress","app_id":440,"player_count":23,"max_players":24,"Bots":0,"server_type":"Dedicated","server_os":"Linux","password":true,"vac":true,"version":"7757534","steam_id":85568392924515193,"keywords":["nocrits","nodmgspread","payload","uncletopia"],"game_id":440,"stv_port":27046,"stv_name":"Uncletopia | Chicago | 4 | All Maps | STV","players":[{"user_id":4,"name":"volta","steam_id":76561199214283884,"connected_time":2604000000000,"state":"active","ping":100},{"user_id":5,"name":"Lightatex","steam_id":76561199068097196,"connected_time":2600000000000,"state":"active","ping":54},{"user_id":48,"name":"Whoa","steam_id":76561197970353496,"connected_time":66000000000,"state":"active","ping":71},{"user_id":7,"name":"Amoxacin","steam_id":76561198171121818,"connected_time":2502000000000,"state":"active","ping":57},{"user_id":11,"name":"ShadBad","steam_id":76561198248287390,"connected_time":2163000000000,"state":"active","ping":99},{"user_id":15,"name":"Dottie","steam_id":76561198282046179,"connected_time":1588000000000,"state":"active","ping":94},{"user_id":16,"name":"Rex","steam_id":76561198138365053,"connected_time":1511000000000,"state":"active","ping":121},{"user_id":36,"name":"Tusk","steam_id":76561199066977033,"connected_time":1056000000000,"state":"active","ping":71},{"user_id":18,"name":"Blorgus_J_Blart","steam_id":76561198430926135,"connected_time":1451000000000,"state":"active","ping":73},{"user_id":39,"name":"Furry Saul Goodman","steam_id":76561198069580305,"connected_time":862000000000,"state":"active","ping":56},{"user_id":20,"name":"Mug Moment Gaming","steam_id":76561198233098136,"connected_time":1404000000000,"state":"active","ping":72},{"user_id":49,"name":"defs98","steam_id":76561198134813102,"connected_time":65000000000,"state":"active","ping":54},{"user_id":37,"name":"Johnny Lawrence #JohnnyMaxxing","steam_id":76561199367141671,"connected_time":1044000000000,"state":"active","ping":60},{"user_id":23,"name":"PrestoForte","steam_id":76561198143609476,"connected_time":1302000000000,"state":"active","ping":62},{"user_id":24,"name":"P√ºtii SpenepS","steam_id":76561198029318657,"connected_time":1270000000000,"state":"active","ping":56},{"user_id":26,"name":"Demoman With One Joke","steam_id":76561197993467034,"connected_time":1254000000000,"state":"active","ping":45},{"user_id":42,"name":"King Of The Chill","steam_id":76561197971394640,"connected_time":766000000000,"state":"active","ping":100},{"user_id":50,"name":"Peasuper Plant","steam_id":76561199367860917,"connected_time":54000000000,"state":"active","ping":116},{"user_id":43,"name":"Herr Doktor","steam_id":76561198025473302,"connected_time":565000000000,"state":"active","ping":87},{"user_id":44,"name":"Derpydude2002 #SaveTf2","steam_id":76561198811719519,"connected_time":514000000000,"state":"active","ping":85},{"user_id":41,"name":"Mr.Kevin120","steam_id":76561199186919096,"connected_time":840000000000,"state":"active","ping":79},{"user_id":45,"name":"G6 1920","steam_id":76561198111669774,"connected_time":405000000000,"state":"active","ping":45},{"user_id":46,"name":"carrion goat she/it","steam_id":76561198262064871,"connected_time":403000000000,"state":"active","ping":62}]},{"server_id":36,"name":"Uncletopia | Chicago | 5 | All Maps","name_short":"chi-5","host":"chi-2.us.uncletopia.com","port":27015,"enabled":true,"region":"us-central","cc":"us","latitude":41.881832,"longitude":-87.62318,"reserved":0,"last_update":"0001-01-01T00:00:00Z","name_a2s":"Uncletopia | Chicago | 5 | All Maps","protocol":17,"map":"koth_cascade","folder":"tf","game":"Team Fortress","app_id":440,"player_count":0,"max_players":24,"Bots":0,"server_type":"Dedicated","server_os":"Linux","password":true,"vac":true,"version":"7757534","steam_id":85568392924866362,"keywords":["cp","nocrits","nodmgspread","uncletopia"],"game_id":440,"stv_port":27016,"stv_name":"Uncletopia | Chicago | 5 | All Maps | STV","players":null},{"server_id":37,"name":"Uncletopia | Chicago | 6 | All Maps","name_short":"chi-6","host":"chi-2.us.uncletopia.com","port":27025,"enabled":true,"region":"us-central","cc":"us","latitude":41.881832,"longitude":-87.62318,"reserved":0,"last_update":"0001-01-01T00:00:00Z","name_a2s":"Uncletopia | Chicago | 6 | All Maps","protocol":17,"map":"cp_egypt_final","folder":"tf","game":"Team Fortress","app_id":440,"player_count":24,"max_players":24,"Bots":0,"server_type":"Dedicated","server_os":"Linux","password":true,"vac":true,"version":"7757534","steam_id":85568392924866363,"keywords":["cp","nocrits","nodmgspread","uncletopia"],"game_id":440,"stv_port":27026,"stv_name":"Uncletopia | Chicago | 6 | All Maps | STV","players":[{"user_id":310,"name":"AlaNo","steam_id":76561198133099582,"connected_time":1207000000000,"state":"active","ping":103},{"user_id":318,"name":"CrustLord","steam_id":76561198421700807,"connected_time":507000000000,"state":"active","ping":77},{"user_id":209,"name":"DistantJragon","steam_id":76561198117563641,"connected_time":4857000000000,"state":"active","ping":48},{"user_id":319,"name":"Aunty Frazzle","steam_id":76561198145596626,"connected_time":471000000000,"state":"active","ping":110},{"user_id":316,"name":"cotton candy thief","steam_id":76561198058998371,"connected_time":527000000000,"state":"active","ping":65},{"user_id":263,"name":"Ironaka","steam_id":76561198029993183,"connected_time":2050000000000,"state":"active","ping":87},{"user_id":248,"name":"Live Bait","steam_id":76561198010481328,"connected_time":3090000000000,"state":"active","ping":158},{"user_id":260,"name":"barker bill","steam_id":76561198018451994,"connected_time":2658000000000,"state":"active","ping":84},{"user_id":326,"name":"Ceiling Man","steam_id":76561198003959902,"connected_time":70000000000,"state":"active","ping":60},{"user_id":320,"name":"paddington_bear_rulez25","steam_id":76561199230125550,"connected_time":425000000000,"state":"active","ping":66},{"user_id":315,"name":"Rein","steam_id":76561198300340427,"connected_time":602000000000,"state":"active","ping":62},{"user_id":266,"name":"Mara Roo","steam_id":76561198279341789,"connected_time":1982000000000,"state":"active","ping":102},{"user_id":243,"name":"Royce","steam_id":76561198034168235,"connected_time":3251000000000,"state":"active","ping":64},{"user_id":291,"name":"awak","steam_id":76561198092135570,"connected_time":1613000000000,"state":"active","ping":60},{"user_id":321,"name":"Jhon Xina","steam_id":76561198411174051,"connected_time":425000000000,"state":"active","ping":90},{"user_id":325,"name":"Lingrahso","steam_id":76561198219193412,"connected_time":124000000000,"state":"active","ping":104},{"user_id":251,"name":"Kritzburgh","steam_id":76561198149466938,"connected_time":3018000000000,"state":"active","ping":62},{"user_id":234,"name":"oogies","steam_id":76561198170050361,"connected_time":4001000000000,"state":"active","ping":62},{"user_id":314,"name":"ChickenLittle2005","steam_id":76561199455029597,"connected_time":875000000000,"state":"active","ping":52},{"user_id":324,"name":"gretchling","steam_id":76561198046111695,"connected_time":172000000000,"state":"active","ping":61},{"user_id":323,"name":"Hombre Lobo","steam_id":76561198074810309,"connected_time":189000000000,"state":"active","ping":106},{"user_id":262,"name":"sebjzy","steam_id":76561198009959034,"connected_time":2279000000000,"state":"active","ping":77},{"user_id":317,"name":"The_Quiet_One","steam_id":76561198132476501,"connected_time":526000000000,"state":"active","ping":44},{"user_id":276,"name":"vibro","steam_id":76561197974443479,"connected_time":1787000000000,"state":"active","ping":76}]},{"server_id":38,"name":"Uncletopia | Chicago | 7 | Stopwatch Beta","name_short":"chi-7","host":"chi-2.us.uncletopia.com","port":27035,"enabled":true,"region":"us-central","cc":"us","latitude":41.881832,"longitude":-87.62318,"reserved":0,"last_update":"0001-01-01T00:00:00Z","name_a2s":"Uncletopia | Chicago | 7 | Stopwatch Beta","protocol":17,"map":"workshop/koth_product_final.ugc454272353","folder":"tf","game":"Team Fortress","app_id":440,"player_count":0,"max_players":24,"Bots":0,"server_type":"Dedicated","server_os":"Linux","password":true,"vac":true,"version":"7757534","steam_id":85568392924866364,"keywords":["cp","nocrits","nodmgspread","uncletopia"],"game_id":440,"stv_port":27036,"stv_name":"Uncletopia | Chicago | 7 | Stopwatch Beta | STV","players":null},{"server_id":39,"name":"Uncletopia | Chicago | 8 | Community","name_short":"chi-8","host":"chi-2.us.uncletopia.com","port":27045,"enabled":true,"region":"us-central","cc":"us","latitude":41.881832,"longitude":-87.62318,"reserved":0,"last_update":"0001-01-01T00:00:00Z","name_a2s":"Uncletopia | Chicago | 8 | Community","protocol":17,"map":"pl_barnblitz","folder":"tf","game":"Team Fortress","app_id":440,"player_count":0,"max_players":24,"Bots":0,"server_type":"Dedicated","server_os":"Linux","password":true,"vac":true,"version":"7757534","steam_id":85568392924866365,"keywords":["nocrits","nodmgspread","payload","uncletopia"],"game_id":440,"stv_port":27046,"stv_name":"Uncletopia | Chicago | 8 | Community | STV","players":null},{"server_id":8,"name":"Uncletopia | Dallas | 1 | All Maps","name_short":"dal-1","host":"dal-1.us.uncletopia.com","port":27015,"enabled":true,"region":"us-central","cc":"us","latitude":32.779167,"longitude":-96.80889,"reserved":0,"last_update":"0001-01-01T00:00:00Z","name_a2s":"Uncletopia | Dallas | 1 | All Maps","protocol":17,"map":"koth_cascade","folder":"tf","game":"Team Fortress","app_id":440,"player_count":0,"max_players":24,"Bots":0,"server_type":"Dedicated","server_os":"Linux","password":true,"vac":true,"version":"7757534","steam_id":85568392924469986,"keywords":["cp","nocrits","nodmgspread","uncletopia"],"game_id":440,"stv_port":27016,"stv_name":"Uncletopia | Dallas | 1 | All Maps | STV","players":null},{"server_id":108,"name":"Uncletopia | Dallas | 2 | All Maps","name_short":"dal-2","host":"dal-1.us.uncletopia.com","port":27025,"enabled":true,"region":"us-central","cc":"us","latitude":32.779167,"longitude":-96.80889,"reserved":0,"last_update":"0001-01-01T00:00:00Z","name_a2s":"Uncletopia | Dallas | 2 | All Maps","protocol":17,"map":"cp_altitude","folder":"tf","game":"Team Fortress","app_id":440,"player_count":2,"max_players":24,"Bots":0,"server_type":"Dedicated","server_os":"Linux","password":true,"vac":true,"version":"7757534","steam_id":85568392924469988,"keywords":["cp","nocrits","nodmgspread","uncletopia"],"game_id":440,"stv_port":27026,"stv_name":"Uncletopia | Dallas | 2 | All Maps | STV","players":[{"user_id":6,"name":"EtherealApparitionInvestigator","steam_id":76561198093538786,"connected_time":63000000000,"state":"active","ping":44},{"user_id":5,"name":"Tritium","steam_id":76561198043305626,"connected_time":510000000000,"state":"active","ping":85}]},{"server_id":5,"name":"Uncletopia | Frankfurt | 1 | All Maps","name_short":"frk-1","host":"frk-1.de.uncletopia.com","port":27015,"enabled":true,"region":"eu","cc":"de","latitude":50.110924,"longitude":8.682127,"reserved":0,"last_update":"0001-01-01T00:00:00Z","name_a2s":"Uncletopia | Frankfurt | 1 | All Maps","protocol":17,"map":"pl_pier","folder":"tf","game":"Team Fortress","app_id":440,"player_count":24,"max_players":24,"Bots":0,"server_type":"Dedicated","server_os":"Linux","password":true,"vac":true,"version":"7757534","steam_id":85568392924469989,"keywords":["nocrits","nodmgspread","payload","uncletopia"],"game_id":440,"stv_port":27016,"stv_name":"Uncletopia | Frankfurt | 1 | All Maps | STV","players":[{"user_id":227,"name":"McMaggot","steam_id":76561199097750260,"connected_time":1668000000000,"state":"active","ping":120},{"user_id":232,"name":"taffy‚òÆ","steam_id":76561198407578495,"connected_time":1325000000000,"state":"active","ping":115},{"user_id":249,"name":"lobzade","steam_id":76561198195685370,"connected_time":349000000000,"state":"active","ping":54},{"user_id":210,"name":"Carry Krypl","steam_id":76561198136938121,"connected_time":2565000000000,"state":"active","ping":57},{"user_id":234,"name":"Pyrolander","steam_id":76561198050785450,"connected_time":1210000000000,"state":"active","ping":55},{"user_id":209,"name":"crouds","steam_id":76561198094204545,"connected_time":2683000000000,"state":"active","ping":75},{"user_id":251,"name":"Tlad2","steam_id":76561198854897667,"connected_time":300000000000,"state":"active","ping":77},{"user_id":26,"name":"alex.difoux","steam_id":76561198370369778,"connected_time":16705000000000,"state":"active","ping":72},{"user_id":214,"name":"Big Trader","steam_id":76561197992364667,"connected_time":2381000000000,"state":"active","ping":82},{"user_id":215,"name":"Frontline Mann","steam_id":76561198118064038,"connected_time":2381000000000,"state":"active","ping":51},{"user_id":250,"name":"flange","steam_id":76561198040182692,"connected_time":319000000000,"state":"active","ping":50},{"user_id":253,"name":"ex stacy","steam_id":76561198271949990,"connected_time":132000000000,"state":"active","ping":113},{"user_id":235,"name":"EdSuedi","steam_id":76561199387956486,"connected_time":972000000000,"state":"active","ping":58},{"user_id":244,"name":"ChaosMaster","steam_id":76561198360983155,"connected_time":369000000000,"state":"active","ping":76},{"user_id":196,"name":"PLUTO","steam_id":76561198312436128,"connected_time":5496000000000,"state":"active","ping":129},{"user_id":240,"name":"Matznmilian","steam_id":76561198024358403,"connected_time":608000000000,"state":"active","ping":68},{"user_id":241,"name":"bottom","steam_id":76561198055363505,"connected_time":463000000000,"state":"active","ping":80},{"user_id":200,"name":"luma","steam_id":76561198081649669,"connected_time":4488000000000,"state":"active","ping":62},{"user_id":246,"name":"Bones","steam_id":76561198065081225,"connected_time":365000000000,"state":"active","ping":57},{"user_id":199,"name":"Serton‚ôù","steam_id":76561198011061126,"connected_time":4608000000000,"state":"active","ping":87},{"user_id":229,"name":"VIN WEASEL","steam_id":76561198014387066,"connected_time":1510000000000,"state":"active","ping":43},{"user_id":224,"name":"chr","steam_id":76561198073016365,"connected_time":1950000000000,"state":"active","ping":86},{"user_id":238,"name":"Soerlssoelss√∂en","steam_id":76561197993060585,"connected_time":857000000000,"state":"active","ping":77},{"user_id":248,"name":"Pabs :D","steam_id":76561198000016962,"connected_time":354000000000,"state":"active","ping":60}]},{"server_id":110,"name":"Uncletopia | Frankfurt | 2 | All Maps","name_short":"frk-2","host":"frk-1.de.uncletopia.com","port":27025,"enabled":true,"region":"eu","cc":"de","latitude":50.110924,"longitude":8.682127,"reserved":0,"last_update":"0001-01-01T00:00:00Z","name_a2s":"Uncletopia | Frankfurt | 2 | All Maps","protocol":17,"map":"pl_upward","folder":"tf","game":"Team Fortress","app_id":440,"player_count":24,"max_players":24,"Bots":0,"server_type":"Dedicated","server_os":"Linux","password":true,"vac":true,"version":"7757534","steam_id":85568392924469990,"keywords":["nocrits","nodmgspread","payload","uncletopia"],"game_id":440,"stv_port":27026,"stv_name":"Uncletopia | Frankfurt | 2 | All Maps | STV","players":[{"user_id":433,"name":"adijuice","steam_id":76561198187079875,"connected_time":576000000000,"state":"active","ping":94},{"user_id":425,"name":"Alexei","steam_id":76561197987169026,"connected_time":910000000000,"state":"active","ping":58},{"user_id":442,"name":"JohkupohkuXD","steam_id":76561198391108762,"connected_time":11000000000,"state":"spawning","ping":74},{"user_id":402,"name":"Dedarrict","steam_id":76561198286179783,"connected_time":2711000000000,"state":"active","ping":86},{"user_id":399,"name":"AndLogin","steam_id":76561198108601962,"connected_time":2814000000000,"state":"active","ping":101},{"user_id":436,"name":"dafydd","steam_id":76561198052200325,"connected_time":372000000000,"state":"active","ping":76},{"user_id":340,"name":"Dolcelatte","steam_id":76561198038501770,"connected_time":7017000000000,"state":"active","ping":47},{"user_id":438,"name":"Taez","steam_id":76561198261820803,"connected_time":332000000000,"state":"active","ping":69},{"user_id":403,"name":"Vitamin Weee","steam_id":76561199183937747,"connected_time":2682000000000,"state":"active","ping":83},{"user_id":419,"name":"Dr. Cox","steam_id":76561198246629218,"connected_time":1483000000000,"state":"active","ping":95},{"user_id":440,"name":"gamma","steam_id":76561198204290247,"connected_time":305000000000,"state":"active","ping":2339},{"user_id":429,"name":"Jay.k","steam_id":76561198079387590,"connected_time":684000000000,"state":"active","ping":76},{"user_id":412,"name":"Gordon Birdman","steam_id":76561198013382324,"connected_time":1660000000000,"state":"active","ping":62},{"user_id":441,"name":"TJ1212","steam_id":76561199013575313,"connected_time":225000000000,"state":"active","ping":77},{"user_id":431,"name":"TV","steam_id":76561198177326926,"connected_time":678000000000,"state":"active","ping":176},{"user_id":406,"name":"Leszy","steam_id":76561198372172135,"connected_time":2580000000000,"state":"active","ping":65},{"user_id":408,"name":"Gabys","steam_id":76561198282892553,"connected_time":2399000000000,"state":"active","ping":109},{"user_id":410,"name":"nox","steam_id":76561198287360892,"connected_time":2271000000000,"state":"active","ping":68},{"user_id":374,"name":"Milosz52","steam_id":76561199060940204,"connected_time":3858000000000,"state":"active","ping":84},{"user_id":426,"name":"L3men","steam_id":76561198315192969,"connected_time":895000000000,"state":"active","ping":53},{"user_id":369,"name":"VolcanicArts","steam_id":76561198063453246,"connected_time":4414000000000,"state":"active","ping":69},{"user_id":365,"name":"Mor'du","steam_id":76561198274105878,"connected_time":4910000000000,"state":"active","ping":88},{"user_id":393,"name":"Prim","steam_id":76561198043191342,"connected_time":3355000000000,"state":"active","ping":69},{"user_id":398,"name":"KajaStorm","steam_id":76561199215842872,"connected_time":2843000000000,"state":"active","ping":132}]},{"server_id":308,"name":"Uncletopia | Frankfurt | 3 | All Maps","name_short":"frk-3","host":"frk-1.de.uncletopia.com","port":27035,"enabled":true,"region":"eu","cc":"de","latitude":50.110924,"longitude":8.682127,"reserved":0,"last_update":"0001-01-01T00:00:00Z","name_a2s":"Uncletopia | Frankfurt | 3 | All Maps","protocol":17,"map":"cp_process_final","folder":"tf","game":"Team Fortress","app_id":440,"player_count":24,"max_players":24,"Bots":0,"server_type":"Dedicated","server_os":"Linux","password":true,"vac":true,"version":"7757534","steam_id":85568392924504274,"keywords":["cp","nocrits","nodmgspread","uncletopia"],"game_id":440,"stv_port":27036,"stv_name":"Uncletopia | Frankfurt | 3 | All Maps | STV","players":[{"user_id":101,"name":"raime","steam_id":76561198024903775,"connected_time":2680000000000,"state":"active","ping":98},{"user_id":90,"name":"Udinese Dion","steam_id":76561198067931573,"connected_time":4240000000000,"state":"active","ping":43},{"user_id":129,"name":"lolmurphyy","steam_id":76561198143068715,"connected_time":1317000000000,"state":"active","ping":56},{"user_id":128,"name":"makiverem","steam_id":76561198425866216,"connected_time":1320000000000,"state":"active","ping":88},{"user_id":141,"name":"BlinkedUp","steam_id":76561198249985618,"connected_time":878000000000,"state":"active","ping":59},{"user_id":147,"name":"Michael","steam_id":76561198003146906,"connected_time":54000000000,"state":"active","ping":60},{"user_id":98,"name":"üåº HugeE","steam_id":76561198245495152,"connected_time":2846000000000,"state":"active","ping":62},{"user_id":74,"name":"Vinbing","steam_id":76561198140834992,"connected_time":5323000000000,"state":"active","ping":71},{"user_id":140,"name":"sperm inspector","steam_id":76561198087602641,"connected_time":925000000000,"state":"active","ping":45},{"user_id":123,"name":"nyanezt","steam_id":76561198253734265,"connected_time":1958000000000,"state":"active","ping":90},{"user_id":131,"name":"James","steam_id":76561198138558005,"connected_time":1305000000000,"state":"active","ping":62},{"user_id":135,"name":"E-why","steam_id":76561198063270899,"connected_time":1038000000000,"state":"active","ping":56},{"user_id":110,"name":"lyudmilakh","steam_id":76561198362779878,"connected_time":2405000000000,"state":"active","ping":90},{"user_id":136,"name":"BROOMSTER","steam_id":76561198344833818,"connected_time":1015000000000,"state":"active","ping":76},{"user_id":93,"name":"Just Navlis","steam_id":76561198090479609,"connected_time":3506000000000,"state":"active","ping":46},{"user_id":121,"name":"kar≈çshi","steam_id":76561197976345859,"connected_time":1996000000000,"state":"active","ping":70},{"user_id":137,"name":"thekoolest88","steam_id":76561199022415672,"connected_time":1012000000000,"state":"active","ping":145},{"user_id":146,"name":"cof","steam_id":76561199128417805,"connected_time":95000000000,"state":"active","ping":71},{"user_id":89,"name":"flopper","steam_id":76561198121400010,"connected_time":4333000000000,"state":"active","ping":159},{"user_id":142,"name":"Giovine Killjoy","steam_id":76561198059375315,"connected_time":798000000000,"state":"active","ping":64},{"user_id":144,"name":"WasserGurke","steam_id":76561198372482746,"connected_time":526000000000,"state":"active","ping":124},{"user_id":61,"name":"BRUCE BEE EDITION","steam_id":76561198083063005,"connected_time":5756000000000,"state":"active","ping":51},{"user_id":114,"name":"*^.^*","steam_id":76561198343506483,"connected_time":2348000000000,"state":"active","ping":91},{"user_id":148,"name":"Empty Head Full Stomach","steam_id":76561198808819694,"connected_time":41000000000,"state":"active","ping":45}]},{"server_id":309,"name":"Uncletopia | Frankfurt | 4 | All Maps","name_short":"frk-4","host":"frk-1.de.uncletopia.com","port":27045,"enabled":true,"region":"eu","cc":"de","latitude":50.110924,"longitude":8.682127,"reserved":0,"last_update":"0001-01-01T00:00:00Z","name_a2s":"Uncletopia | Frankfurt | 4 | All Maps","protocol":17,"map":"cp_sunshine","folder":"tf","game":"Team Fortress","app_id":440,"player_count":24,"max_players":24,"Bots":0,"server_type":"Dedicated","server_os":"Linux","password":true,"vac":true,"version":"7757534","steam_id":85568392924504275,"keywords":["cp","nocrits","nodmgspread","uncletopia"],"game_id":440,"stv_port":27046,"stv_name":"Uncletopia | Frankfurt | 4 | All Maps | STV","players":[{"user_id":61,"name":"Meki","steam_id":76561198108279631,"connected_time":412000000000,"state":"active","ping":70},{"user_id":15,"name":"Solid","steam_id":76561198357049292,"connected_time":2866000000000,"state":"active","ping":92},{"user_id":54,"name":"Tasque Manager","steam_id":76561198301728644,"connected_time":876000000000,"state":"active","ping":69},{"user_id":21,"name":"SHADESAVE","steam_id":76561198034881430,"connected_time":2005000000000,"state":"active","ping":136},{"user_id":19,"name":"Allereinan","steam_id":76561198342239906,"connected_time":2142000000000,"state":"active","ping":112},{"user_id":47,"name":"4thPillarman","steam_id":76561198951951430,"connected_time":1023000000000,"state":"active","ping":175},{"user_id":62,"name":"Brinier","steam_id":76561199012604288,"connected_time":399000000000,"state":"active","ping":61},{"user_id":23,"name":"Parapluie","steam_id":76561197971640301,"connected_time":1960000000000,"state":"active","ping":56},{"user_id":58,"name":"SpeddyMeddy","steam_id":76561197999693825,"connected_time":819000000000,"state":"active","ping":63},{"user_id":26,"name":"f√©nix","steam_id":76561198083199151,"connected_time":1699000000000,"state":"active","ping":62},{"user_id":63,"name":"miev","steam_id":76561198078278737,"connected_time":154000000000,"state":"active","ping":79},{"user_id":28,"name":"skille","steam_id":76561198005794325,"connected_time":1620000000000,"state":"active","ping":66},{"user_id":48,"name":"Paul B√§umer","steam_id":76561198308302932,"connected_time":986000000000,"state":"active","ping":105},{"user_id":30,"name":"antlionguard","steam_id":76561198072747143,"connected_time":1481000000000,"state":"active","ping":91},{"user_id":31,"name":"CRAZY VIKING","steam_id":76561198061440669,"connected_time":1474000000000,"state":"active","ping":69},{"user_id":60,"name":"Osmo","steam_id":76561199286764992,"connected_time":647000000000,"state":"active","ping":65},{"user_id":33,"name":"burger","steam_id":76561198071674964,"connected_time":1456000000000,"state":"active","ping":65},{"user_id":50,"name":"freestrider","steam_id":76561199094927658,"connected_time":934000000000,"state":"active","ping":109},{"user_id":35,"name":"good tea, nice house","steam_id":76561198041995133,"connected_time":1427000000000,"state":"active","ping":72},{"user_id":36,"name":"skittish maiden","steam_id":76561198096856475,"connected_time":1423000000000,"state":"active","ping":45},{"user_id":64,"name":"Yessirskiii","steam_id":76561198179324075,"connected_time":15000000000,"state":"active","ping":73},{"user_id":44,"name":"WICKED BARSIK","steam_id":76561198120927230,"connected_time":1194000000000,"state":"active","ping":106},{"user_id":40,"name":"The Mask","steam_id":76561198040009439,"connected_time":1389000000000,"state":"active","ping":72},{"user_id":57,"name":"Tanza -","steam_id":76561197961335217,"connected_time":853000000000,"state":"active","ping":69}]},{"server_id":310,"name":"Uncletopia | Frankfurt | 5 | All Maps","name_short":"frk-5","host":"frk-1.de.uncletopia.com","port":27055,"enabled":true,"region":"eu","cc":"de","latitude":50.110924,"longitude":8.682127,"reserved":0,"last_update":"0001-01-01T00:00:00Z","name_a2s":"Uncletopia | Frankfurt | 5 | All Maps","protocol":17,"map":"pl_frontier_final","folder":"tf","game":"Team Fortress","app_id":440,"player_count":13,"max_players":24,"Bots":0,"server_type":"Dedicated","server_os":"Linux","password":true,"vac":true,"version":"7757534","steam_id":85568392924504277,"keywords":["nocrits","nodmgspread","payload","uncletopia"],"game_id":440,"stv_port":27056,"stv_name":"Uncletopia | Frankfurt | 5 | All Maps | STV","players":[{"user_id":16,"name":"Toast","steam_id":76561198073226265,"connected_time":265000000000,"state":"active","ping":89},{"user_id":17,"name":"wilburtino [IE]","steam_id":76561198025353307,"connected_time":211000000000,"state":"active","ping":55},{"user_id":15,"name":"JoueurFran√ßais","steam_id":76561198108081068,"connected_time":688000000000,"state":"active","ping":56},{"user_id":18,"name":"ShadowWasUhOh","steam_id":76561198400361935,"connected_time":208000000000,"state":"active","ping":151},{"user_id":14,"name":"Artock","steam_id":76561198808599713,"connected_time":898000000000,"state":"active","ping":91},{"user_id":19,"name":"MOnster How should i feel?","steam_id":76561198531978435,"connected_time":128000000000,"state":"active","ping":73},{"user_id":20,"name":"DoctorProfessor Grandrof","steam_id":76561198036088735,"connected_time":125000000000,"state":"active","ping":69},{"user_id":24,"name":"Phiphler","steam_id":76561197994055715,"connected_time":62000000000,"state":"active","ping":62},{"user_id":22,"name":"sai69","steam_id":76561199090528019,"connected_time":77000000000,"state":"active","ping":54},{"user_id":23,"name":"KatTheCookiCat","steam_id":76561199054643392,"connected_time":72000000000,"state":"active","ping":48},{"user_id":25,"name":"D3m0no","steam_id":76561198183267067,"connected_time":57000000000,"state":"active","ping":59},{"user_id":26,"name":"Explodingrayman","steam_id":76561198185783005,"connected_time":20000000000,"state":"spawning","ping":185},{"user_id":27,"name":"Ruth(-less bitch)","steam_id":76561198150006573,"connected_time":10000000000,"state":"active","ping":67}]},{"server_id":311,"name":"Uncletopia | Frankfurt | 6 | All Maps","name_short":"frk-6","host":"frk-1.de.uncletopia.com","port":27065,"enabled":true,"region":"eu","cc":"de","latitude":50.110924,"longitude":8.682127,"reserved":0,"last_update":"0001-01-01T00:00:00Z","name_a2s":"Uncletopia | Frankfurt | 6 | All Maps","protocol":17,"map":"koth_viaduct","folder":"tf","game":"Team Fortress","app_id":440,"player_count":3,"max_players":24,"Bots":0,"server_type":"Dedicated","server_os":"Linux","password":true,"vac":true,"version":"7757534","steam_id":85568392924504278,"keywords":["cp","nocrits","nodmgspread","uncletopia"],"game_id":440,"stv_port":27066,"stv_name":"Uncletopia | Frankfurt | 6 | All Maps | STV","players":[{"user_id":27,"name":"Skelli","steam_id":76561198066933519,"connected_time":789000000000,"state":"active","ping":116},{"user_id":29,"name":"B0B","steam_id":76561199222523175,"connected_time":164000000000,"state":"active","ping":60},{"user_id":30,"name":"fried","steam_id":76561198307522022,"connected_time":13000000000,"state":"active","ping":47}]},{"server_id":23,"name":"Uncletopia | Frankfurt | 7 | Stopwatch Beta","name_short":"frk-7","host":"frk-1.de.uncletopia.com","port":27075,"enabled":true,"region":"eu","cc":"de","latitude":50.110924,"longitude":8.682127,"reserved":0,"last_update":"0001-01-01T00:00:00Z","name_a2s":"Uncletopia | Frankfurt | 7 | Stopwatch Beta","protocol":17,"map":"pl_frontier_final","folder":"tf","game":"Team Fortress","app_id":440,"player_count":0,"max_players":24,"Bots":0,"server_type":"Dedicated","server_os":"Linux","password":true,"vac":true,"version":"7757534","steam_id":85568392924742827,"keywords":["nocrits","nodmgspread","payload","uncletopia"],"game_id":440,"stv_port":27076,"stv_name":"Uncletopia | Frankfurt | 7 | Stopwatch Beta | STV","players":null},{"server_id":24,"name":"Uncletopia | Frankfurt | 8 | Community","name_short":"frk-8","host":"frk-1.de.uncletopia.com","port":27085,"enabled":true,"region":"eu","cc":"de","latitude":50.110924,"longitude":8.682127,"reserved":0,"last_update":"0001-01-01T00:00:00Z","name_a2s":"Uncletopia | Frankfurt | 8 | Community","protocol":17,"map":"workshop/cp_mannbase_rc2a.ugc1900737467","folder":"tf","game":"Team Fortress","app_id":440,"player_count":0,"max_players":24,"Bots":0,"server_type":"Dedicated","server_os":"Linux","password":true,"vac":true,"version":"7757534","steam_id":85568392924742828,"keywords":["cp","nocrits","nodmgspread","uncletopia"],"game_id":440,"stv_port":27086,"stv_name":"Uncletopia | Frankfurt | 8 | Community | STV","players":null},{"server_id":202,"name":"Uncletopia | Hong Kong | 1 | All Maps","name_short":"hgk-1","host":"hgk-1.hk.uncletopia.com","port":27015,"enabled":true,"region":"asia","cc":"hk","latitude":22.302711,"longitude":114.177216,"reserved":0,"last_update":"0001-01-01T00:00:00Z","name_a2s":"Uncletopia | Hong Kong | 1 | All Maps","protocol":17,"map":"koth_viaduct","folder":"tf","game":"Team Fortress","app_id":440,"player_count":0,"max_players":24,"Bots":0,"server_type":"Dedicated","server_os":"Linux","password":true,"vac":true,"version":"7757534","steam_id":85568392924494504,"keywords":["cp","nocrits","nodmgspread","uncletopia"],"game_id":440,"stv_port":27016,"stv_name":"Uncletopia | Hong Kong | 1 | All Maps | STV","players":null},{"server_id":1,"name":"Uncletopia | Los Angeles | 1 | All Maps","name_short":"lax-1","host":"lax-1.us.uncletopia.com","port":27015,"enabled":true,"region":"us-west","cc":"us","latitude":33.94279,"longitude":-118.41004,"reserved":0,"last_update":"0001-01-01T00:00:00Z","name_a2s":"Uncletopia | Los Angeles | 1 | All Maps","protocol":17,"map":"pl_borneo","folder":"tf","game":"Team Fortress","app_id":440,"player_count":0,"max_players":24,"Bots":0,"server_type":"Dedicated","server_os":"Linux","password":true,"vac":true,"version":"7757534","steam_id":85568392924469991,"keywords":["nocrits","nodmgspread","payload","uncletopia"],"game_id":440,"stv_port":27016,"stv_name":"Uncletopia | Los Angeles | 1 | All Maps | STV","players":null},{"server_id":112,"name":"Uncletopia | Los Angeles | 2 | All Maps","name_short":"lax-2","host":"lax-1.us.uncletopia.com","port":27025,"enabled":true,"region":"us-west","cc":"us","latitude":33.94279,"longitude":-118.41004,"reserved":0,"last_update":"0001-01-01T00:00:00Z","name_a2s":"Uncletopia | Los Angeles | 2 | All Maps","protocol":17,"map":"koth_cascade","folder":"tf","game":"Team Fortress","app_id":440,"player_count":0,"max_players":24,"Bots":0,"server_type":"Dedicated","server_os":"Linux","password":true,"vac":true,"version":"7757534","steam_id":85568392924469992,"keywords":["cp","nocrits","nodmgspread","uncletopia"],"game_id":440,"stv_port":27026,"stv_name":"Uncletopia | Los Angeles | 2 | All Maps | STV","players":null},{"server_id":324,"name":"Uncletopia | Los Angeles | 3 | All Maps","name_short":"lax-3","host":"lax-1.us.uncletopia.com","port":27035,"enabled":true,"region":"us-west","cc":"us","latitude":33.94279,"longitude":-118.41004,"reserved":0,"last_update":"0001-01-01T00:00:00Z","name_a2s":"Uncletopia | Los Angeles | 3 | All Maps","protocol":17,"map":"pl_pier","folder":"tf","game":"Team Fortress","app_id":440,"player_count":0,"max_players":24,"Bots":0,"server_type":"Dedicated","server_os":"Linux","password":true,"vac":true,"version":"7757534","steam_id":85568392924510198,"keywords":["nocrits","nodmgspread","payload","uncletopia"],"game_id":440,"stv_port":27036,"stv_name":"Uncletopia | Los Angeles | 3 | All Maps | STV","players":null},{"server_id":25,"name":"Uncletopia | Los Angeles | 4 | Stopwatch Beta","name_short":"lax-4","host":"lax-1.us.uncletopia.com","port":27045,"enabled":true,"region":"us-west","cc":"us","latitude":33.94279,"longitude":-118.41004,"reserved":0,"last_update":"0001-01-01T00:00:00Z","name_a2s":"Uncletopia | Los Angeles | 4 | Stopwatch Beta","protocol":17,"map":"pl_frontier_final","folder":"tf","game":"Team Fortress","app_id":440,"player_count":0,"max_players":24,"Bots":0,"server_type":"Dedicated","server_os":"Linux","password":true,"vac":true,"version":"7757534","steam_id":85568392924510199,"keywords":["nocrits","nodmgspread","payload","uncletopia"],"game_id":440,"stv_port":27046,"stv_name":"Uncletopia | Los Angeles | 4 | Stopwatch Beta | STV","players":null},{"server_id":11,"name":"Uncletopia | London | 1 | All Maps","name_short":"lon-1","host":"lon-1.uk.uncletopia.com","port":27015,"enabled":true,"region":"eu","cc":"gb","latitude":51.509865,"longitude":-0.118092,"reserved":0,"last_update":"0001-01-01T00:00:00Z","name_a2s":"Uncletopia | London | 1 | All Maps","protocol":17,"map":"koth_viaduct","folder":"tf","game":"Team Fortress","app_id":440,"player_count":23,"max_players":24,"Bots":0,"server_type":"Dedicated","server_os":"Linux","password":true,"vac":true,"version":"7757534","steam_id":85568392924367362,"keywords":["cp","nocrits","nodmgspread","uncletopia"],"game_id":440,"stv_port":27016,"stv_name":"Uncletopia | London | 1 | All Maps | STV","players":[{"user_id":528,"name":"Sebtacular","steam_id":76561198334284616,"connected_time":454000000000,"state":"active","ping":61},{"user_id":508,"name":"ciliorkun18","steam_id":76561198228942500,"connected_time":1719000000000,"state":"active","ping":91},{"user_id":516,"name":"Yxel","steam_id":76561198123982890,"connected_time":1145000000000,"state":"active","ping":61},{"user_id":537,"name":"KFC Enjoyer","steam_id":76561198840259819,"connected_time":19000000000,"state":"active","ping":58},{"user_id":525,"name":"kreeekz","steam_id":76561198014431602,"connected_time":744000000000,"state":"active","ping":76},{"user_id":491,"name":"Acxsa","steam_id":76561198098979449,"connected_time":2744000000000,"state":"active","ping":80},{"user_id":506,"name":"Numroth","steam_id":76561198001100167,"connected_time":1915000000000,"state":"active","ping":83},{"user_id":535,"name":"Bone","steam_id":76561198073117364,"connected_time":44000000000,"state":"connecting","ping":118},{"user_id":495,"name":"Cheese pizza connoisseur","steam_id":76561199062160061,"connected_time":2682000000000,"state":"active","ping":52},{"user_id":533,"name":"Lovelessvaccuum","steam_id":76561198079555422,"connected_time":101000000000,"state":"active","ping":36},{"user_id":534,"name":"Dominus.","steam_id":76561199065917088,"connected_time":46000000000,"state":"active","ping":73},{"user_id":536,"name":"Gaem Geck","steam_id":76561198057966907,"connected_time":41000000000,"state":"active","ping":67},{"user_id":521,"name":"Vikep'S","steam_id":76561199002274689,"connected_time":951000000000,"state":"active","ping":90},{"user_id":538,"name":"cheezus","steam_id":76561198891046692,"connected_time":14000000000,"state":"spawning","ping":74},{"user_id":512,"name":"walking plane","steam_id":76561198146779559,"connected_time":1635000000000,"state":"active","ping":100},{"user_id":513,"name":"Penis Contortionist","steam_id":76561198073663784,"connected_time":1616000000000,"state":"active","ping":34},{"user_id":522,"name":"Nag","steam_id":76561197970488206,"connected_time":865000000000,"state":"active","ping":74},{"user_id":503,"name":"Live Laugh Love","steam_id":76561198996719116,"connected_time":2077000000000,"state":"active","ping":61},{"user_id":539,"name":"Zhongding Construction Group Lt","steam_id":76561198065915748,"connected_time":11000000000,"state":"spawning","ping":44},{"user_id":515,"name":"Joseph Stalin","steam_id":76561198033199746,"connected_time":1453000000000,"state":"active","ping":46},{"user_id":523,"name":"eXo(T)","steam_id":76561198839841843,"connected_time":827000000000,"state":"active","ping":62},{"user_id":504,"name":"Frazzle","steam_id":76561198262577951,"connected_time":2000000000000,"state":"active","ping":62},{"user_id":527,"name":"B0r–µ–∞l","steam_id":76561198268369013,"connected_time":479000000000,"state":"active","ping":87}]},{"server_id":114,"name":"Uncletopia | London | 2 | All Maps","name_short":"lon-2","host":"lon-1.uk.uncletopia.com","port":27025,"enabled":true,"region":"eu","cc":"gb","latitude":51.509865,"longitude":-0.118092,"reserved":0,"last_update":"0001-01-01T00:00:00Z","name_a2s":"Uncletopia | London | 2 | All Maps","protocol":17,"map":"pl_barnblitz","folder":"tf","game":"Team Fortress","app_id":440,"player_count":24,"max_players":24,"Bots":0,"server_type":"Dedicated","server_os":"Linux","password":true,"vac":true,"version":"7757534","steam_id":85568392924470941,"keywords":["nocrits","nodmgspread","payload","uncletopia"],"game_id":440,"stv_port":27026,"stv_name":"Uncletopia | London | 2 | All Maps | STV","players":[{"user_id":299,"name":"WolfmanCZ","steam_id":76561199157141414,"connected_time":1212000000000,"state":"active","ping":82},{"user_id":275,"name":"medicinal man","steam_id":76561198202668788,"connected_time":2266000000000,"state":"active","ping":62},{"user_id":305,"name":"foo","steam_id":76561198042000263,"connected_time":898000000000,"state":"active","ping":71},{"user_id":250,"name":"ikc159","steam_id":76561198020559026,"connected_time":3859000000000,"state":"active","ping":59},{"user_id":226,"name":"MelvinIsANiceBoy","steam_id":76561198178415634,"connected_time":5050000000000,"state":"active","ping":54},{"user_id":225,"name":"Harpenden, Harpenden, Harpenden","steam_id":76561198118138546,"connected_time":5064000000000,"state":"active","ping":44},{"user_id":279,"name":"Scutchy","steam_id":76561198104431220,"connected_time":1948000000000,"state":"active","ping":68},{"user_id":285,"name":"EastmoreRandoms.","steam_id":76561198048921203,"connected_time":1878000000000,"state":"active","ping":65},{"user_id":184,"name":"Sgreff","steam_id":76561198036304365,"connected_time":8646000000000,"state":"active","ping":45},{"user_id":281,"name":"Icaras","steam_id":76561198416724843,"connected_time":1945000000000,"state":"active","ping":41},{"user_id":282,"name":"tqla","steam_id":76561198073092585,"connected_time":1934000000000,"state":"active","ping":112},{"user_id":288,"name":"FairlyFatFungus","steam_id":76561199152828854,"connected_time":1840000000000,"state":"active","ping":51},{"user_id":284,"name":"Purplenoogie","steam_id":76561198081872160,"connected_time":1892000000000,"state":"active","ping":42},{"user_id":286,"name":"PK Blizzard","steam_id":76561198039836567,"connected_time":1870000000000,"state":"active","ping":39},{"user_id":290,"name":"Skaza","steam_id":76561198010292540,"connected_time":1799000000000,"state":"active","ping":86},{"user_id":206,"name":"pansexual","steam_id":76561198047778351,"connected_time":7322000000000,"state":"active","ping":45},{"user_id":300,"name":"Bounter","steam_id":76561198072614188,"connected_time":1165000000000,"state":"active","ping":78},{"user_id":163,"name":"Syd","steam_id":76561198020515027,"connected_time":9831000000000,"state":"active","ping":91},{"user_id":221,"name":"manKe","steam_id":76561198008564860,"connected_time":5198000000000,"state":"active","ping":57},{"user_id":307,"name":"CarBombEnthusiast","steam_id":76561199448185434,"connected_time":425000000000,"state":"active","ping":73},{"user_id":304,"name":"radek","steam_id":76561197998883721,"connected_time":945000000000,"state":"active","ping":83},{"user_id":258,"name":"frosty","steam_id":76561198094560834,"connected_time":3480000000000,"state":"active","ping":50},{"user_id":298,"name":"Sipsu","steam_id":76561198059424107,"connected_time":1477000000000,"state":"active","ping":84},{"user_id":253,"name":"Malabar","steam_id":76561198026857959,"connected_time":3735000000000,"state":"active","ping":66}]},{"server_id":320,"name":"Uncletopia | London | 3 | All Maps","name_short":"lon-3","host":"lon-1.uk.uncletopia.com","port":27035,"enabled":true,"region":"eu","cc":"gb","latitude":51.509865,"longitude":-0.118092,"reserved":0,"last_update":"0001-01-01T00:00:00Z","name_a2s":"Uncletopia | London | 3 | All Maps","protocol":17,"map":"cp_powerhouse","folder":"tf","game":"Team Fortress","app_id":440,"player_count":25,"max_players":24,"Bots":0,"server_type":"Dedicated","server_os":"Linux","password":true,"vac":true,"version":"7757534","steam_id":85568392924510192,"keywords":["cp","nocrits","nodmgspread","uncletopia"],"game_id":440,"stv_port":27036,"stv_name":"Uncletopia | London | 3 | All Maps | STV","players":[{"user_id":494,"name":"Ar|es","steam_id":76561198819160313,"connected_time":914000000000,"state":"active","ping":93},{"user_id":487,"name":"Uncle Terry","steam_id":76561198396415736,"connected_time":1043000000000,"state":"active","ping":55},{"user_id":509,"name":"Egtu","steam_id":76561198013757235,"connected_time":729000000000,"state":"active","ping":71},{"user_id":495,"name":"Fofenho","steam_id":76561198436817109,"connected_time":908000000000,"state":"active","ping":46},{"user_id":514,"name":"Semtilion","steam_id":76561198107642445,"connected_time":430000000000,"state":"active","ping":102},{"user_id":462,"name":"SaltCan","steam_id":76561198059353990,"connected_time":2396000000000,"state":"active","ping":84},{"user_id":512,"name":"ivanmixo","steam_id":76561198160213989,"connected_time":674000000000,"state":"active","ping":72},{"user_id":518,"name":"Lovelessvaccuum","steam_id":76561198079555422,"connected_time":189000000000,"state":"connecting","ping":0},{"user_id":482,"name":"NeonNewt","steam_id":76561198066699212,"connected_time":1355000000000,"state":"active","ping":53},{"user_id":504,"name":"Arcweld","steam_id":76561198816060720,"connected_time":756000000000,"state":"active","ping":65},{"user_id":500,"name":"Soulman25 (FIN)","steam_id":76561198103611974,"connected_time":821000000000,"state":"active","ping":110},{"user_id":513,"name":"Dr. Funkenstein","steam_id":76561197977816210,"connected_time":441000000000,"state":"active","ping":56},{"user_id":503,"name":"Dingus","steam_id":76561198140514058,"connected_time":775000000000,"state":"active","ping":28},{"user_id":505,"name":"Don Quixote","steam_id":76561197999454313,"connected_time":754000000000,"state":"active","ping":81},{"user_id":463,"name":"OutOfDucks","steam_id":76561198166376227,"connected_time":2366000000000,"state":"active","ping":56},{"user_id":506,"name":"Ê¨†Á®éÂì•","steam_id":76561199118856462,"connected_time":754000000000,"state":"active","ping":54},{"user_id":489,"name":"wheelie bin","steam_id":76561198040040328,"connected_time":1034000000000,"state":"active","ping":57},{"user_id":490,"name":"GlitchyTrashCan","steam_id":76561198309789756,"connected_time":1033000000000,"state":"active","ping":74},{"user_id":460,"name":"the meme lord","steam_id":76561198279369377,"connected_time":2573000000000,"state":"active","ping":63},{"user_id":469,"name":"LOBZIK","steam_id":76561198114830120,"connected_time":1939000000000,"state":"active","ping":83},{"user_id":520,"name":"viktor610126","steam_id":76561198386462300,"connected_time":83000000000,"state":"active","ping":105},{"user_id":508,"name":"Scrample","steam_id":76561198040422830,"connected_time":743000000000,"state":"active","ping":44},{"user_id":435,"name":"surny","steam_id":76561198044355417,"connected_time":4286000000000,"state":"active","ping":61},{"user_id":511,"name":"joachym","steam_id":76561198428579761,"connected_time":687000000000,"state":"active","ping":76},{"user_id":517,"name":"Z6R","steam_id":76561198362864785,"connected_time":254000000000,"state":"active","ping":123}]},{"server_id":321,"name":"Uncletopia | London | 4 | All Maps","name_short":"lon-4","host":"lon-1.uk.uncletopia.com","port":27045,"enabled":true,"region":"eu","cc":"gb","latitude":51.509865,"longitude":-0.118092,"reserved":0,"last_update":"0001-01-01T00:00:00Z","name_a2s":"Uncletopia | London | 4 | All Maps","protocol":17,"map":"koth_viaduct","folder":"tf","game":"Team Fortress","app_id":440,"player_count":0,"max_players":24,"Bots":0,"server_type":"Dedicated","server_os":"Linux","password":true,"vac":true,"version":"7757534","steam_id":85568392924510193,"keywords":["cp","nocrits","nodmgspread","uncletopia"],"game_id":440,"stv_port":27046,"stv_name":"Uncletopia | London | 4 | All Maps | STV","players":null},{"server_id":21,"name":"Uncletopia | London | 5 | All Maps","name_short":"lon-5","host":"lon-1.uk.uncletopia.com","port":27055,"enabled":true,"region":"eu","cc":"gb","latitude":51.509865,"longitude":-0.118092,"reserved":0,"last_update":"0001-01-01T00:00:00Z","name_a2s":"Uncletopia | London | 5 | All Maps","protocol":17,"map":"pl_swiftwater_final1","folder":"tf","game":"Team Fortress","app_id":440,"player_count":21,"max_players":24,"Bots":0,"server_type":"Dedicated","server_os":"Linux","password":true,"vac":true,"version":"7757534","steam_id":85568392924742829,"keywords":["nocrits","nodmgspread","payload","uncletopia"],"game_id":440,"stv_port":27056,"stv_name":"Uncletopia | London | 5 | All Maps | STV","players":[{"user_id":138,"name":"Cazulas","steam_id":76561198027460283,"connected_time":317000000000,"state":"active","ping":67},{"user_id":133,"name":"=PB=","steam_id":76561197999146612,"connected_time":404000000000,"state":"active","ping":26},{"user_id":150,"name":"bonney","steam_id":76561198132995289,"connected_time":8000000000,"state":"active","ping":83},{"user_id":116,"name":"Chromatic","steam_id":76561198355976286,"connected_time":1127000000000,"state":"active","ping":61},{"user_id":101,"name":"nvmHastee","steam_id":76561199371458295,"connected_time":3095000000000,"state":"active","ping":84},{"user_id":122,"name":"this is a cat","steam_id":76561199407659065,"connected_time":662000000000,"state":"active","ping":136},{"user_id":124,"name":"Derpy Engineer HD","steam_id":76561198103184085,"connected_time":604000000000,"state":"active","ping":74},{"user_id":125,"name":"FlameTheGame","steam_id":76561198841108519,"connected_time":599000000000,"state":"active","ping":90},{"user_id":102,"name":"not drunk","steam_id":76561199184873889,"connected_time":2778000000000,"state":"active","ping":59},{"user_id":141,"name":"triangle","steam_id":76561198046838168,"connected_time":233000000000,"state":"active","ping":59},{"user_id":128,"name":"Spoingus","steam_id":76561198161402859,"connected_time":470000000000,"state":"active","ping":70},{"user_id":140,"name":"JohaTG","steam_id":76561198804468284,"connected_time":299000000000,"state":"active","ping":55},{"user_id":143,"name":"toe bias","steam_id":76561199084996146,"connected_time":217000000000,"state":"active","ping":54},{"user_id":131,"name":"Mr_Spappy","steam_id":76561199106707541,"connected_time":445000000000,"state":"active","ping":64},{"user_id":134,"name":"MatesThePlayer","steam_id":76561198066156449,"connected_time":380000000000,"state":"active","ping":63},{"user_id":136,"name":"Chill Spirit","steam_id":76561198845001725,"connected_time":344000000000,"state":"active","ping":59},{"user_id":137,"name":"The Ghost of Rizz-mas Past","steam_id":76561198119547399,"connected_time":326000000000,"state":"active","ping":66},{"user_id":139,"name":"Shovelhalfrusty","steam_id":76561198346447513,"connected_time":316000000000,"state":"active","ping":57},{"user_id":144,"name":"qwerez","steam_id":76561198364447229,"connected_time":193000000000,"state":"active","ping":88},{"user_id":145,"name":"Falcon","steam_id":76561199087192566,"connected_time":167000000000,"state":"active","ping":96},{"user_id":149,"name":"bykamouse23","steam_id":76561198817842937,"connected_time":83000000000,"state":"active","ping":113}]},{"server_id":22,"name":"Uncletopia | London | 6 | All Maps","name_short":"lon-6","host":"lon-1.uk.uncletopia.com","port":27065,"enabled":true,"region":"eu","cc":"gb","latitude":51.509865,"longitude":-0.118092,"reserved":0,"last_update":"0001-01-01T00:00:00Z","name_a2s":"Uncletopia | London | 6 | All Maps","protocol":17,"map":"pl_swiftwater_final1","folder":"tf","game":"Team Fortress","app_id":440,"player_count":24,"max_players":24,"Bots":0,"server_type":"Dedicated","server_os":"Linux","password":true,"vac":true,"version":"7757534","steam_id":85568392924742830,"keywords":["nocrits","nodmgspread","payload","uncletopia"],"game_id":440,"stv_port":27066,"stv_name":"Uncletopia | London | 6 | All Maps | STV","players":[{"user_id":285,"name":"true and honest gamer","steam_id":76561198388750592,"connected_time":4892000000000,"state":"active","ping":69},{"user_id":355,"name":"ant753","steam_id":76561198103458889,"connected_time":1151000000000,"state":"active","ping":61},{"user_id":366,"name":"Johnny Cockroach","steam_id":76561198049648277,"connected_time":841000000000,"state":"active","ping":105},{"user_id":334,"name":"Gin-Gi","steam_id":76561198108332859,"connected_time":2303000000000,"state":"active","ping":60},{"user_id":369,"name":"ALARM","steam_id":76561198120686521,"connected_time":635000000000,"state":"active","ping":64},{"user_id":367,"name":"DragonXP376","steam_id":76561198362877284,"connected_time":805000000000,"state":"active","ping":113},{"user_id":375,"name":"wicked","steam_id":76561198164376035,"connected_time":264000000000,"state":"active","ping":80},{"user_id":339,"name":"Mayor Wank from Wanker Town","steam_id":76561197998253588,"connected_time":2222000000000,"state":"active","ping":59},{"user_id":370,"name":"Wattseyy","steam_id":76561198248567360,"connected_time":619000000000,"state":"active","ping":42},{"user_id":348,"name":"UnusualBrit","steam_id":76561198255679838,"connected_time":1293000000000,"state":"active","ping":56},{"user_id":358,"name":"King_Cringe","steam_id":76561199018729971,"connected_time":1083000000000,"state":"active","ping":49},{"user_id":368,"name":"blue drink","steam_id":76561199260739414,"connected_time":691000000000,"state":"active","ping":154},{"user_id":362,"name":"Dominixk","steam_id":76561198995512625,"connected_time":1004000000000,"state":"active","ping":64},{"user_id":377,"name":"·òõ‚ÅêÃ§·ïê·ê∑ Catface","steam_id":76561198963378933,"connected_time":50000000000,"state":"active","ping":45},{"user_id":376,"name":"Ass Clappicus","steam_id":76561198851157897,"connected_time":87000000000,"state":"active","ping":60},{"user_id":360,"name":"loveless","steam_id":76561198142256651,"connected_time":1053000000000,"state":"active","ping":90},{"user_id":340,"name":"C0d3s","steam_id":76561198093907544,"connected_time":2196000000000,"state":"active","ping":99},{"user_id":352,"name":"Fancy","steam_id":76561198350658462,"connected_time":1238000000000,"state":"active","ping":76},{"user_id":311,"name":"Dedeil","steam_id":76561198254839532,"connected_time":3677000000000,"state":"active","ping":50},{"user_id":341,"name":"John Xina","steam_id":76561198030304391,"connected_time":2196000000000,"state":"active","ping":40},{"user_id":374,"name":"Aigan","steam_id":76561198130354707,"connected_time":266000000000,"state":"active","ping":93},{"user_id":342,"name":"Bat in a thousand","steam_id":76561198320506848,"connected_time":2180000000000,"state":"active","ping":31},{"user_id":371,"name":"sork","steam_id":76561198082446459,"connected_time":558000000000,"state":"active","ping":77},{"user_id":351,"name":"Codex","steam_id":76561198068748584,"connected_time":1253000000000,"state":"active","ping":49}]},{"server_id":40,"name":"Uncletopia | London | 7 | No Payload","name_short":"lon-7","host":"lon-1.uk.uncletopia.com","port":27075,"enabled":true,"region":"eu","cc":"gb","latitude":51.509865,"longitude":-0.118092,"reserved":0,"last_update":"0001-01-01T00:00:00Z","name_a2s":"Uncletopia | London | 7 | No Payload","protocol":17,"map":"koth_viaduct","folder":"tf","game":"Team Fortress","app_id":440,"player_count":1,"max_players":24,"Bots":0,"server_type":"Dedicated","server_os":"Linux","password":true,"vac":true,"version":"7757534","steam_id":85568392924964314,"keywords":["cp","nocrits","nodmgspread","uncletopia"],"game_id":440,"stv_port":27076,"stv_name":"Uncletopia | London | 7 | No Payload | STV","players":[{"user_id":71,"name":"yer_nerd","steam_id":76561199435454093,"connected_time":54000000000,"state":"active","ping":129}]},{"server_id":41,"name":"Uncletopia | London | 8 | Community","name_short":"lon-8","host":"lon-1.uk.uncletopia.com","port":27085,"enabled":true,"region":"eu","cc":"gb","latitude":51.509865,"longitude":-0.118092,"reserved":0,"last_update":"0001-01-01T00:00:00Z","name_a2s":"Uncletopia | London | 8 | Community","protocol":17,"map":"workshop/pl_boundary_final1.ugc456799153","folder":"tf","game":"Team Fortress","app_id":440,"player_count":24,"max_players":24,"Bots":0,"server_type":"Dedicated","server_os":"Linux","password":true,"vac":true,"version":"7757534","steam_id":85568392924964315,"keywords":["nocrits","nodmgspread","payload","uncletopia"],"game_id":440,"stv_port":27086,"stv_name":"Uncletopia | London | 8 | Community | STV","players":[{"user_id":52,"name":"Chris","steam_id":76561198018626828,"connected_time":2412000000000,"state":"active","ping":54},{"user_id":41,"name":"Tryrn","steam_id":76561198075487436,"connected_time":3071000000000,"state":"active","ping":83},{"user_id":53,"name":"htraB","steam_id":76561198043122677,"connected_time":2304000000000,"state":"active","ping":62},{"user_id":51,"name":"Fat Pigeon","steam_id":76561198817940142,"connected_time":2649000000000,"state":"active","ping":46},{"user_id":19,"name":"Piros","steam_id":76561198193785653,"connected_time":3938000000000,"state":"active","ping":84},{"user_id":20,"name":"The Dwarf Who Says Grudge a lot","steam_id":76561197963866545,"connected_time":3937000000000,"state":"active","ping":66},{"user_id":62,"name":"Guy with squares as username","steam_id":76561198269524918,"connected_time":667000000000,"state":"active","ping":56},{"user_id":25,"name":"Mr. Mundy","steam_id":76561198132008918,"connected_time":3564000000000,"state":"active","ping":88},{"user_id":65,"name":"Festive Erma","steam_id":76561198038718342,"connected_time":392000000000,"state":"active","ping":69},{"user_id":50,"name":"mumbler","steam_id":76561197970641239,"connected_time":2734000000000,"state":"active","ping":52},{"user_id":26,"name":"Nick","steam_id":76561198036109469,"connected_time":3508000000000,"state":"active","ping":88},{"user_id":66,"name":"Magica","steam_id":76561198965200359,"connected_time":24000000000,"state":"active","ping":87},{"user_id":30,"name":"bigwish | bmod.tf","steam_id":76561197997859723,"connected_time":3363000000000,"state":"active","ping":84},{"user_id":56,"name":"The Stig","steam_id":76561198103908668,"connected_time":1745000000000,"state":"active","ping":81},{"user_id":61,"name":"PizzaPete123","steam_id":76561198089478290,"connected_time":714000000000,"state":"active","ping":45},{"user_id":55,"name":"Welder","steam_id":76561198355300561,"connected_time":1776000000000,"state":"active","ping":69},{"user_id":49,"name":"Reverie","steam_id":76561198987005784,"connected_time":2832000000000,"state":"active","ping":122},{"user_id":64,"name":"Wuffington","steam_id":76561198033762881,"connected_time":624000000000,"state":"active","ping":46},{"user_id":37,"name":"Lychee","steam_id":76561198816888764,"connected_time":3196000000000,"state":"active","ping":56},{"user_id":39,"name":"Clitorina","steam_id":76561198077570815,"connected_time":3179000000000,"state":"active","ping":44},{"user_id":58,"name":"donal rump","steam_id":76561198136239861,"connected_time":1044000000000,"state":"active","ping":49},{"user_id":60,"name":"Keizer420","steam_id":76561198354567661,"connected_time":871000000000,"state":"active","ping":43},{"user_id":46,"name":"gagalak","steam_id":76561198089979108,"connected_time":2927000000000,"state":"active","ping":134},{"user_id":47,"name":"tf2 gaming","steam_id":76561199406973770,"connected_time":2872000000000,"state":"active","ping":55}]},{"server_id":300,"name":"Uncletopia | Montr√©al | 1 | All Maps","name_short":"mtl-1","host":"mtl-1.ca.uncletopia.com","port":27015,"enabled":true,"region":"us-east","cc":"ca","latitude":45.50889,"longitude":-73.56167,"reserved":0,"last_update":"0001-01-01T00:00:00Z","name_a2s":"Uncletopia | Montr√©al | 1 | All Maps","protocol":17,"map":"pl_snowycoast","folder":"tf","game":"Team Fortress","app_id":440,"player_count":0,"max_players":24,"Bots":0,"server_type":"Dedicated","server_os":"Linux","password":true,"vac":true,"version":"7757534","steam_id":85568392924500087,"keywords":["nocrits","nodmgspread","payload","uncletopia"],"game_id":440,"stv_port":27016,"stv_name":"Uncletopia | Montr√©al | 1 | All Maps | STV","players":null},{"server_id":301,"name":"Uncletopia | Montr√©al | 2 | All Maps","name_short":"mtl-2","host":"mtl-1.ca.uncletopia.com","port":27025,"enabled":true,"region":"us-east","cc":"ca","latitude":45.50889,"longitude":-73.56167,"reserved":0,"last_update":"0001-01-01T00:00:00Z","name_a2s":"Uncletopia | Montr√©al | 2 | All Maps","protocol":17,"map":"pl_snowycoast","folder":"tf","game":"Team Fortress","app_id":440,"player_count":0,"max_players":24,"Bots":0,"server_type":"Dedicated","server_os":"Linux","password":true,"vac":true,"version":"7757534","steam_id":85568392924500088,"keywords":["nocrits","nodmgspread","payload","uncletopia"],"game_id":440,"stv_port":27026,"stv_name":"Uncletopia | Montr√©al | 2 | All Maps | STV","players":null},{"server_id":302,"name":"Uncletopia | Montr√©al | 3 | All Maps","name_short":"mtl-3","host":"mtl-1.ca.uncletopia.com","port":27035,"enabled":true,"region":"us-east","cc":"ca","latitude":45.50889,"longitude":-73.56167,"reserved":0,"last_update":"0001-01-01T00:00:00Z","name_a2s":"Uncletopia | Montr√©al | 3 | All Maps","protocol":17,"map":"koth_highpass","folder":"tf","game":"Team Fortress","app_id":440,"player_count":0,"max_players":24,"Bots":0,"server_type":"Dedicated","server_os":"Linux","password":true,"vac":true,"version":"7757534","steam_id":85568392924500089,"keywords":["cp","nocrits","nodmgspread","uncletopia"],"game_id":440,"stv_port":27036,"stv_name":"Uncletopia | Montr√©al | 3 | All Maps | STV","players":null},{"server_id":303,"name":"Uncletopia | Montr√©al | 4 | No Payload","name_short":"mtl-4","host":"mtl-1.ca.uncletopia.com","port":27045,"enabled":true,"region":"us-east","cc":"ca","latitude":45.50889,"longitude":-73.56167,"reserved":0,"last_update":"0001-01-01T00:00:00Z","name_a2s":"Uncletopia | Montr√©al | 4 | No Payload","protocol":17,"map":"pl_borneo","folder":"tf","game":"Team Fortress","app_id":440,"player_count":0,"max_players":24,"Bots":0,"server_type":"Dedicated","server_os":"Linux","password":true,"vac":true,"version":"7757534","steam_id":85568392924500090,"keywords":["nocrits","nodmgspread","payload","uncletopia"],"game_id":440,"stv_port":27046,"stv_name":"Uncletopia | Montr√©al | 4 | No Payload | STV","players":null},{"server_id":13,"name":"Uncletopia | New York City | 1 | All Maps","name_short":"nyc-1","host":"nyc-1.us.uncletopia.com","port":27015,"enabled":true,"region":"us-east","cc":"us","latitude":40.73061,"longitude":-73.93524,"reserved":0,"last_update":"0001-01-01T00:00:00Z","name_a2s":"Uncletopia | New York City | 1 | All Maps","protocol":17,"map":"pl_borneo","folder":"tf","game":"Team Fortress","app_id":440,"player_count":24,"max_players":24,"Bots":0,"server_type":"Dedicated","server_os":"Linux","password":true,"vac":true,"version":"7757534","steam_id":85568392924469993,"keywords":["nocrits","nodmgspread","payload","uncletopia"],"game_id":440,"stv_port":27016,"stv_name":"Uncletopia | New York City | 1 | All Maps | STV","players":[{"user_id":159,"name":"ItzPunkz","steam_id":76561198971249072,"connected_time":474000000000,"state":"active","ping":48},{"user_id":160,"name":"whool","steam_id":76561198332704108,"connected_time":421000000000,"state":"active","ping":66},{"user_id":151,"name":"walker","steam_id":76561198031669769,"connected_time":1062000000000,"state":"active","ping":74},{"user_id":164,"name":"Lepo","steam_id":76561198383509659,"connected_time":296000000000,"state":"active","ping":114},{"user_id":149,"name":"ToxicRave","steam_id":76561198039435173,"connected_time":1226000000000,"state":"active","ping":73},{"user_id":161,"name":"Summer Sausage","steam_id":76561198031751662,"connected_time":393000000000,"state":"active","ping":77},{"user_id":162,"name":"smocc","steam_id":76561197993726746,"connected_time":355000000000,"state":"active","ping":49},{"user_id":163,"name":"Chaotic Rushu","steam_id":76561198170054407,"connected_time":342000000000,"state":"active","ping":73},{"user_id":105,"name":"M.L.JEW","steam_id":76561198997375055,"connected_time":4396000000000,"state":"active","ping":77},{"user_id":129,"name":"Old Sluggy","steam_id":76561198206517160,"connected_time":3113000000000,"state":"active","ping":85},{"user_id":170,"name":"yaldabaoth","steam_id":76561198084606869,"connected_time":216000000000,"state":"active","ping":57},{"user_id":166,"name":"Blargian Snagglebeast","steam_id":76561198115831507,"connected_time":273000000000,"state":"active","ping":67},{"user_id":171,"name":"Coffee with a Stranger","steam_id":76561198307422313,"connected_time":195000000000,"state":"active","ping":55},{"user_id":150,"name":"TheDarkTitan","steam_id":76561198304794068,"connected_time":1202000000000,"state":"active","ping":59},{"user_id":154,"name":"Justario","steam_id":76561198016095410,"connected_time":843000000000,"state":"active","ping":48},{"user_id":167,"name":"citrus","steam_id":76561198294606679,"connected_time":256000000000,"state":"active","ping":54},{"user_id":141,"name":"Walruse","steam_id":76561198083844586,"connected_time":1915000000000,"state":"active","ping":53},{"user_id":136,"name":"footoftheday","steam_id":76561198052712449,"connected_time":2100000000000,"state":"active","ping":74},{"user_id":147,"name":"Devoid","steam_id":76561198254039012,"connected_time":1249000000000,"state":"active","ping":46},{"user_id":89,"name":"RXKNephew","steam_id":76561199349244576,"connected_time":5837000000000,"state":"active","ping":97},{"user_id":168,"name":"John16Mark","steam_id":76561198119445407,"connected_time":251000000000,"state":"active","ping":103},{"user_id":157,"name":"Juno","steam_id":76561198419332926,"connected_time":544000000000,"state":"active","ping":58},{"user_id":145,"name":"jim (god)","steam_id":76561198206063791,"connected_time":1825000000000,"state":"active","ping":69},{"user_id":169,"name":"Chambersite","steam_id":76561198197022399,"connected_time":248000000000,"state":"active","ping":151}]},{"server_id":14,"name":"Uncletopia | New York City | 2 | All Maps","name_short":"nyc-2","host":"nyc-1.us.uncletopia.com","port":27025,"enabled":true,"region":"us-east","cc":"us","latitude":40.73061,"longitude":-73.93524,"reserved":0,"last_update":"0001-01-01T00:00:00Z","name_a2s":"Uncletopia | New York City | 2 | All Maps","protocol":17,"map":"pl_badwater","folder":"tf","game":"Team Fortress","app_id":440,"player_count":0,"max_players":24,"Bots":0,"server_type":"Dedicated","server_os":"Linux","password":true,"vac":true,"version":"7757534","steam_id":85568392924469994,"keywords":["nocrits","nodmgspread","payload","uncletopia"],"game_id":440,"stv_port":27026,"stv_name":"Uncletopia | New York City | 2 | All Maps | STV","players":null},{"server_id":15,"name":"Uncletopia | New York City | 3 | Stopwatch Beta","name_short":"nyc-3","host":"nyc-1.us.uncletopia.com","port":27035,"enabled":true,"region":"us-east","cc":"us","latitude":40.73061,"longitude":-73.93524,"reserved":0,"last_update":"0001-01-01T00:00:00Z","name_a2s":"Uncletopia | New York City | 3 | Stopwatch Beta","protocol":17,"map":"workshop/cp_process_f11.ugc2302948105","folder":"tf","game":"Team Fortress","app_id":440,"player_count":0,"max_players":24,"Bots":0,"server_type":"Dedicated","server_os":"Linux","password":true,"vac":true,"version":"7757534","steam_id":85568392924742820,"keywords":["cp","nocrits","nodmgspread","uncletopia"],"game_id":440,"stv_port":27036,"stv_name":"Uncletopia | New York City | 3 | Stopwatch Beta | STV","players":null},{"server_id":16,"name":"Uncletopia | New York City | 4 | Community","name_short":"nyc-4","host":"nyc-1.us.uncletopia.com","port":27045,"enabled":true,"region":"us-east","cc":"us","latitude":40.73061,"longitude":-73.93524,"reserved":0,"last_update":"0001-01-01T00:00:00Z","name_a2s":"Uncletopia | New York City | 4 | Community","protocol":17,"map":"workshop/cp_croissant_final.ugc458840209","folder":"tf","game":"Team Fortress","app_id":440,"player_count":0,"max_players":24,"Bots":0,"server_type":"Dedicated","server_os":"Linux","password":true,"vac":true,"version":"7757534","steam_id":85568392924742821,"keywords":["cp","nocrits","nodmgspread","uncletopia"],"game_id":440,"stv_port":27046,"stv_name":"Uncletopia | New York City | 4 | Community | STV","players":null},{"server_id":142,"name":"Uncletopia | S√£o Paulo | 1 | All Maps","name_short":"sao-1","host":"sao-1.br.uncletopia.com","port":27015,"enabled":true,"region":"sa","cc":"br","latitude":-23.533773,"longitude":-46.62529,"reserved":0,"last_update":"0001-01-01T00:00:00Z","name_a2s":"Uncletopia | S√£o Paulo | 1 | All Maps","protocol":17,"map":"koth_highpass","folder":"tf","game":"Team Fortress","app_id":440,"player_count":0,"max_players":24,"Bots":0,"server_type":"Dedicated","server_os":"Linux","password":true,"vac":true,"version":"7757534","steam_id":85568392924469996,"keywords":["cp","nocrits","nodmgspread","uncletopia"],"game_id":440,"stv_port":27016,"stv_name":"Uncletopia | S√£o Paulo | 1 | All Maps | STV","players":null},{"server_id":143,"name":"Uncletopia | S√£o Paulo | 2 | All Maps","name_short":"sao-2","host":"sao-2.br.uncletopia.com","port":27015,"enabled":true,"region":"sa","cc":"br","latitude":-23.533773,"longitude":-46.62529,"reserved":0,"last_update":"0001-01-01T00:00:00Z","name_a2s":"Uncletopia | S√£o Paulo | 2 | All Maps","protocol":17,"map":"pl_badwater","folder":"tf","game":"Team Fortress","app_id":440,"player_count":12,"max_players":24,"Bots":0,"server_type":"Dedicated","server_os":"Linux","password":true,"vac":true,"version":"7757534","steam_id":85568392924485349,"keywords":["nocrits","nodmgspread","payload","uncletopia"],"game_id":440,"stv_port":27016,"stv_name":"Uncletopia | S√£o Paulo | 2 | All Maps | STV","players":[{"user_id":39,"name":"O Grande Ratinho","steam_id":76561199082074514,"connected_time":3192000000000,"state":"active","ping":47},{"user_id":57,"name":"Sistema Nervoso Central","steam_id":76561198997384723,"connected_time":566000000000,"state":"active","ping":51},{"user_id":58,"name":"Pendrive","steam_id":76561199427354854,"connected_time":536000000000,"state":"active","ping":39},{"user_id":56,"name":"lumoxd","steam_id":76561199389788313,"connected_time":644000000000,"state":"active","ping":48},{"user_id":42,"name":"Dogginho","steam_id":76561198319813323,"connected_time":2447000000000,"state":"active","ping":45},{"user_id":60,"name":"December Gaming","steam_id":76561198308517365,"connected_time":297000000000,"state":"active","ping":136},{"user_id":45,"name":"AY|ErvilhaGamer_BR","steam_id":76561198379443561,"connected_time":2157000000000,"state":"active","ping":39},{"user_id":61,"name":"Jabulaaaaniiii","steam_id":76561198003380929,"connected_time":59000000000,"state":"active","ping":69},{"user_id":47,"name":"n.","steam_id":76561198963738808,"connected_time":2047000000000,"state":"active","ping":39},{"user_id":62,"name":"Death Comes Rippin'","steam_id":76561198072091472,"connected_time":56000000000,"state":"spawning","ping":59},{"user_id":63,"name":"SuCRiLioS","steam_id":76561198003234845,"connected_time":46000000000,"state":"active","ping":53},{"user_id":64,"name":"WarDogo","steam_id":76561198808708874,"connected_time":27000000000,"state":"active","ping":287}]},{"server_id":7,"name":"Uncletopia | Seattle | 1 | All Maps","name_short":"sea-1","host":"sea-1.us.uncletopia.com","port":27015,"enabled":true,"region":"us-west","cc":"us","latitude":47.608013,"longitude":-122.33517,"reserved":0,"last_update":"0001-01-01T00:00:00Z","name_a2s":"Uncletopia | Seattle | 1 | All Maps","protocol":17,"map":"pl_swiftwater_final1","folder":"tf","game":"Team Fortress","app_id":440,"player_count":24,"max_players":24,"Bots":0,"server_type":"Dedicated","server_os":"Linux","password":true,"vac":true,"version":"7757534","steam_id":85568392924469997,"keywords":["nocrits","nodmgspread","payload","uncletopia"],"game_id":440,"stv_port":27016,"stv_name":"Uncletopia | Seattle | 1 | All Maps | STV","players":[{"user_id":222,"name":"Furrio","steam_id":76561198174104607,"connected_time":1610000000000,"state":"active","ping":92},{"user_id":228,"name":"anal fiend","steam_id":76561198026844952,"connected_time":657000000000,"state":"active","ping":53},{"user_id":164,"name":"gaming is for girls","steam_id":76561198240344950,"connected_time":7028000000000,"state":"active","ping":88},{"user_id":215,"name":"Hayden Christensen","steam_id":76561198089313805,"connected_time":2155000000000,"state":"active","ping":89},{"user_id":216,"name":"Kopenich","steam_id":76561198066205245,"connected_time":2150000000000,"state":"active","ping":86},{"user_id":217,"name":"forktails","steam_id":76561198046185082,"connected_time":2148000000000,"state":"active","ping":110},{"user_id":238,"name":"Dezzithediscoduck","steam_id":76561198037043489,"connected_time":350000000000,"state":"active","ping":64},{"user_id":223,"name":"brothax","steam_id":76561197996713526,"connected_time":1405000000000,"state":"active","ping":116},{"user_id":230,"name":"dimmy","steam_id":76561198401788526,"connected_time":583000000000,"state":"active","ping":45},{"user_id":234,"name":"AmiableNebula","steam_id":76561198094306627,"connected_time":564000000000,"state":"active","ping":77},{"user_id":226,"name":"Rasputia","steam_id":76561198132051047,"connected_time":861000000000,"state":"active","ping":52},{"user_id":239,"name":"PersonWhoJustDiedMaybeIDontKnow","steam_id":76561199109564855,"connected_time":298000000000,"state":"active","ping":86},{"user_id":205,"name":"LILIUM","steam_id":76561198086591493,"connected_time":3175000000000,"state":"active","ping":87},{"user_id":232,"name":"Confirmed Bachelor","steam_id":76561198441041496,"connected_time":574000000000,"state":"active","ping":54},{"user_id":224,"name":"„Ä£dust„Ä£ -she/her-","steam_id":76561198045218909,"connected_time":1323000000000,"state":"active","ping":38},{"user_id":225,"name":"‚ù§Gothie‚ù§","steam_id":76561198166814648,"connected_time":963000000000,"state":"active","ping":69},{"user_id":213,"name":"Julien","steam_id":76561199389584938,"connected_time":2253000000000,"state":"active","ping":36},{"user_id":171,"name":"THE NUT","steam_id":76561198067813626,"connected_time":6779000000000,"state":"active","ping":44},{"user_id":229,"name":"El pandora","steam_id":76561198075490385,"connected_time":586000000000,"state":"active","ping":80},{"user_id":235,"name":"Shmebulock","steam_id":76561198046941925,"connected_time":534000000000,"state":"active","ping":107},{"user_id":181,"name":"\\m/ Cyfun (she/it)","steam_id":76561197960882221,"connected_time":5967000000000,"state":"active","ping":90},{"user_id":240,"name":"Raniel Dicciardo","steam_id":76561198053859538,"connected_time":216000000000,"state":"active","ping":85},{"user_id":212,"name":"oo","steam_id":76561198119626492,"connected_time":2503000000000,"state":"active","ping":103},{"user_id":233,"name":"Terrazzle","steam_id":76561197999850393,"connected_time":571000000000,"state":"active","ping":113}]},{"server_id":119,"name":"Uncletopia | Seattle | 2 | All Maps","name_short":"sea-2","host":"sea-1.us.uncletopia.com","port":27025,"enabled":true,"region":"us-west","cc":"us","latitude":47.608013,"longitude":-122.33517,"reserved":0,"last_update":"0001-01-01T00:00:00Z","name_a2s":"Uncletopia | Seattle | 2 | All Maps","protocol":17,"map":"koth_cascade","folder":"tf","game":"Team Fortress","app_id":440,"player_count":0,"max_players":24,"Bots":0,"server_type":"Dedicated","server_os":"Linux","password":true,"vac":true,"version":"7757534","steam_id":85568392924469998,"keywords":["cp","nocrits","nodmgspread","uncletopia"],"game_id":440,"stv_port":27026,"stv_name":"Uncletopia | Seattle | 2 | All Maps | STV","players":null},{"server_id":406,"name":"Uncletopia | Seattle | 3 | Stopwatch Beta","name_short":"sea-3","host":"sea-1.us.uncletopia.com","port":27035,"enabled":true,"region":"us-west","cc":"us","latitude":47.608013,"longitude":-122.33517,"reserved":0,"last_update":"0001-01-01T00:00:00Z","name_a2s":"Uncletopia | Seattle | 3 | Stopwatch Beta","protocol":17,"map":"pl_barnblitz","folder":"tf","game":"Team Fortress","app_id":440,"player_count":0,"max_players":24,"Bots":0,"server_type":"Dedicated","server_os":"Linux","password":true,"vac":true,"version":"7757534","steam_id":85568392924515217,"keywords":["nocrits","nodmgspread","payload","uncletopia"],"game_id":440,"stv_port":27036,"stv_name":"Uncletopia | Seattle | 3 | Stopwatch Beta | STV","players":null},{"server_id":17,"name":"Uncletopia | San Francisco | 1 | All Maps","name_short":"sfo-1","host":"sfo-1.us.uncletopia.com","port":27015,"enabled":true,"region":"us-west","cc":"us","latitude":37.77397,"longitude":-122.4313,"reserved":0,"last_update":"0001-01-01T00:00:00Z","name_a2s":"Uncletopia | San Francisco | 1 | All Maps","protocol":17,"map":"koth_lakeside_final","folder":"tf","game":"Team Fortress","app_id":440,"player_count":3,"max_players":24,"Bots":0,"server_type":"Dedicated","server_os":"Linux","password":true,"vac":true,"version":"7757534","steam_id":85568392924469999,"keywords":["cp","nocrits","nodmgspread","uncletopia"],"game_id":440,"stv_port":27016,"stv_name":"Uncletopia | San Francisco | 1 | All Maps | STV","players":[{"user_id":9,"name":"Wind Fucker","steam_id":76561198275362375,"connected_time":364000000000,"state":"active","ping":43},{"user_id":10,"name":"Doggo","steam_id":76561198313355373,"connected_time":152000000000,"state":"active","ping":76},{"user_id":11,"name":"Hero Smasher","steam_id":76561198150681669,"connected_time":116000000000,"state":"active","ping":39}]},{"server_id":18,"name":"Uncletopia | San Francisco | 2 | All Maps","name_short":"sfo-2","host":"sfo-1.us.uncletopia.com","port":27025,"enabled":true,"region":"us-west","cc":"us","latitude":37.77397,"longitude":-122.4313,"reserved":0,"last_update":"0001-01-01T00:00:00Z","name_a2s":"Uncletopia | San Francisco | 2 | All Maps","protocol":17,"map":"pl_pier","folder":"tf","game":"Team Fortress","app_id":440,"player_count":0,"max_players":24,"Bots":0,"server_type":"Dedicated","server_os":"Linux","password":true,"vac":true,"version":"7757534","steam_id":85568392924470000,"keywords":["nocrits","nodmgspread","payload","uncletopia"],"game_id":440,"stv_port":27026,"stv_name":"Uncletopia | San Francisco | 2 | All Maps | STV","players":null},{"server_id":19,"name":"Uncletopia | San Francisco | 3 | Stopwatch Beta","name_short":"sfo-3","host":"sfo-1.us.uncletopia.com","port":27035,"enabled":true,"region":"us-west","cc":"us","latitude":37.77397,"longitude":-122.4313,"reserved":0,"last_update":"0001-01-01T00:00:00Z","name_a2s":"Uncletopia | San Francisco | 3 | Stopwatch Beta","protocol":17,"map":"pl_borneo","folder":"tf","game":"Team Fortress","app_id":440,"player_count":0,"max_players":24,"Bots":0,"server_type":"Dedicated","server_os":"Linux","password":true,"vac":true,"version":"7757534","steam_id":85568392924742824,"keywords":["nocrits","nodmgspread","payload","uncletopia"],"game_id":440,"stv_port":27036,"stv_name":"Uncletopia | San Francisco | 3 | Stopwatch Beta | STV","players":null},{"server_id":20,"name":"Uncletopia | San Francisco | 4 | Community","name_short":"sfo-4","host":"sfo-1.us.uncletopia.com","port":27045,"enabled":true,"region":"us-west","cc":"us","latitude":37.77397,"longitude":-122.4313,"reserved":0,"last_update":"0001-01-01T00:00:00Z","name_a2s":"Uncletopia | San Francisco | 4 | Community","protocol":17,"map":"koth_highpass","folder":"tf","game":"Team Fortress","app_id":440,"player_count":0,"max_players":24,"Bots":0,"server_type":"Dedicated","server_os":"Linux","password":true,"vac":true,"version":"7757534","steam_id":85568392924742826,"keywords":["cp","nocrits","nodmgspread","uncletopia"],"game_id":440,"stv_port":27046,"stv_name":"Uncletopia | San Francisco | 4 | Community | STV","players":null},{"server_id":141,"name":"Uncletopia | Sydney | 1 | All Maps","name_short":"syd-1","host":"syd-1.au.uncletopia.com","port":27015,"enabled":true,"region":"au","cc":"au","latitude":-33.865143,"longitude":151.2099,"reserved":0,"last_update":"0001-01-01T00:00:00Z","name_a2s":"Uncletopia | Sydney | 1 | All Maps","protocol":17,"map":"pl_snowycoast","folder":"tf","game":"Team Fortress","app_id":440,"player_count":0,"max_players":24,"Bots":0,"server_type":"Dedicated","server_os":"Linux","password":true,"vac":true,"version":"7757534","steam_id":85568392924470001,"keywords":["nocrits","nodmgspread","payload","uncletopia"],"game_id":440,"stv_port":27016,"stv_name":"Uncletopia | Sydney | 1 | All Maps | STV","players":null},{"server_id":123,"name":"Uncletopia | Sydney | 2 | All Maps","name_short":"syd-2","host":"syd-1.au.uncletopia.com","port":27025,"enabled":true,"region":"au","cc":"au","latitude":-33.865143,"longitude":151.2099,"reserved":0,"last_update":"0001-01-01T00:00:00Z","name_a2s":"Uncletopia | Sydney | 2 | All Maps","protocol":17,"map":"koth_highpass","folder":"tf","game":"Team Fortress","app_id":440,"player_count":0,"max_players":24,"Bots":0,"server_type":"Dedicated","server_os":"Linux","password":true,"vac":true,"version":"7757534","steam_id":85568392924470002,"keywords":["cp","nocrits","nodmgspread","uncletopia"],"game_id":440,"stv_port":27026,"stv_name":"Uncletopia | Sydney | 2 | All Maps | STV","players":null},{"server_id":395,"name":"Uncletopia | Sydney | 3 | All Maps","name_short":"syd-3","host":"syd-1.au.uncletopia.com","port":27035,"enabled":true,"region":"au","cc":"au","latitude":-33.865143,"longitude":151.2099,"reserved":0,"last_update":"0001-01-01T00:00:00Z","name_a2s":"Uncletopia | Sydney | 3 | All Maps","protocol":17,"map":"pl_badwater","folder":"tf","game":"Team Fortress","app_id":440,"player_count":0,"max_players":24,"Bots":0,"server_type":"Dedicated","server_os":"Linux","password":true,"vac":true,"version":"7757534","steam_id":85568392925194467,"keywords":["nocrits","nodmgspread","payload","uncletopia"],"game_id":440,"stv_port":27036,"stv_name":"Uncletopia | Sydney | 3 | All Maps | STV","players":null},{"server_id":396,"name":"Uncletopia | Sydney | 4 | All Maps","name_short":"syd-4","host":"syd-1.au.uncletopia.com","port":27045,"enabled":true,"region":"au","cc":"au","latitude":-33.865143,"longitude":151.2099,"reserved":0,"last_update":"0001-01-01T00:00:00Z","name_a2s":"Uncletopia | Sydney | 4 | All Maps","protocol":17,"map":"koth_lakeside_final","folder":"tf","game":"Team Fortress","app_id":440,"player_count":0,"max_players":24,"Bots":0,"server_type":"Dedicated","server_os":"Linux","password":true,"vac":true,"version":"7757534","steam_id":85568392925397958,"keywords":["cp","nocrits","nodmgspread","uncletopia"],"game_id":440,"stv_port":27046,"stv_name":"Uncletopia | Sydney | 4 | All Maps | STV","players":null},{"server_id":58,"name":"Uncletopia | Sydney | 5 | Stopwatch Beta","name_short":"syd-5","host":"syd-1.au.uncletopia.com","port":27055,"enabled":true,"region":"au","cc":"au","latitude":-33.865143,"longitude":151.2099,"reserved":0,"last_update":"0001-01-01T00:00:00Z","name_a2s":"Uncletopia | Sydney | 5 | Stopwatch Beta","protocol":17,"map":"koth_highpass","folder":"tf","game":"Team Fortress","app_id":440,"player_count":0,"max_players":24,"Bots":0,"server_type":"Dedicated","server_os":"Linux","password":true,"vac":true,"version":"7757534","steam_id":85568392925397959,"keywords":["cp","nocrits","nodmgspread","uncletopia"],"game_id":440,"stv_port":27056,"stv_name":"Uncletopia | Sydney | 5 | Stopwatch Beta | STV","players":null},{"server_id":59,"name":"Uncletopia | Sydney | 6 | Community","name_short":"syd-6","host":"syd-1.au.uncletopia.com","port":27065,"enabled":true,"region":"au","cc":"au","latitude":-33.865143,"longitude":151.2099,"reserved":0,"last_update":"0001-01-01T00:00:00Z","name_a2s":"Uncletopia | Sydney | 6 | Community","protocol":17,"map":"workshop/pl_emerge_rc2.ugc888027758","folder":"tf","game":"Team Fortress","app_id":440,"player_count":0,"max_players":24,"Bots":0,"server_type":"Dedicated","server_os":"Linux","password":true,"vac":true,"version":"7757534","steam_id":85568392925397960,"keywords":["nocrits","nodmgspread","payload","uncletopia"],"game_id":440,"stv_port":27066,"stv_name":"Uncletopia | Sydney | 6 | Community | STV","players":null},{"server_id":49,"name":"Uncletopia | Warsaw | 1 | All Maps","name_short":"waw-1","host":"waw-1.pl.uncletopia.com","port":27015,"enabled":true,"region":"eu","cc":"pl","latitude":52.2297,"longitude":21.017532,"reserved":0,"last_update":"0001-01-01T00:00:00Z","name_a2s":"","protocol":0,"map":"","folder":"","game":"","app_id":0,"player_count":0,"max_players":0,"Bots":0,"server_type":"","server_os":"","password":false,"vac":false,"version":"","steam_id":0,"keywords":null,"game_id":0,"stv_port":0,"stv_name":"","players":null},{"server_id":50,"name":"Uncletopia | Warsaw | 2 | All Maps","name_short":"waw-2","host":"waw-1.pl.uncletopia.com","port":27025,"enabled":true,"region":"eu","cc":"pl","latitude":52.2297,"longitude":21.017532,"reserved":0,"last_update":"0001-01-01T00:00:00Z","name_a2s":"Uncletopia | Warsaw | 2 | All Maps","protocol":17,"map":"koth_lakeside_final","folder":"tf","game":"Team Fortress","app_id":440,"player_count":0,"max_players":24,"Bots":0,"server_type":"Dedicated","server_os":"Linux","password":true,"vac":true,"version":"7757534","steam_id":85568392925397851,"keywords":["cp","nocrits","nodmgspread","uncletopia"],"game_id":440,"stv_port":27026,"stv_name":"Uncletopia | Warsaw | 2 | All Maps | STV","players":null},{"server_id":51,"name":"Uncletopia | Warsaw | 3 | All Maps","name_short":"waw-3","host":"waw-1.pl.uncletopia.com","port":27035,"enabled":true,"region":"eu","cc":"pl","latitude":52.2297,"longitude":21.017532,"reserved":0,"last_update":"0001-01-01T00:00:00Z","name_a2s":"Uncletopia | Warsaw | 3 | All Maps","protocol":17,"map":"pl_swiftwater_final1","folder":"tf","game":"Team Fortress","app_id":440,"player_count":0,"max_players":24,"Bots":0,"server_type":"Dedicated","server_os":"Linux","password":true,"vac":true,"version":"7757534","steam_id":85568392925397852,"keywords":["nocrits","nodmgspread","payload","uncletopia"],"game_id":440,"stv_port":27036,"stv_name":"Uncletopia | Warsaw | 3 | All Maps | STV","players":null},{"server_id":52,"name":"Uncletopia | Warsaw | 4 | All Maps","name_short":"waw-4","host":"waw-1.pl.uncletopia.com","port":27045,"enabled":true,"region":"eu","cc":"pl","latitude":52.2297,"longitude":21.017532,"reserved":0,"last_update":"0001-01-01T00:00:00Z","name_a2s":"Uncletopia | Warsaw | 4 | All Maps","protocol":17,"map":"cp_dustbowl","folder":"tf","game":"Team Fortress","app_id":440,"player_count":0,"max_players":24,"Bots":0,"server_type":"Dedicated","server_os":"Linux","password":true,"vac":true,"version":"7757534","steam_id":85568392925397853,"keywords":["cp","nocrits","nodmgspread","uncletopia"],"game_id":440,"stv_port":27046,"stv_name":"Uncletopia | Warsaw | 4 | All Maps | STV","players":null},{"server_id":53,"name":"Uncletopia | Warsaw | 5 | Stopwatch Beta","name_short":"waw-5","host":"waw-1.pl.uncletopia.com","port":27055,"enabled":true,"region":"eu","cc":"pl","latitude":52.2297,"longitude":21.017532,"reserved":0,"last_update":"0001-01-01T00:00:00Z","name_a2s":"Uncletopia | Warsaw | 5 | Stopwatch Beta","protocol":17,"map":"pl_barnblitz","folder":"tf","game":"Team Fortress","app_id":440,"player_count":0,"max_players":24,"Bots":0,"server_type":"Dedicated","server_os":"Linux","password":true,"vac":true,"version":"7757534","steam_id":85568392925397854,"keywords":["nocrits","nodmgspread","payload","uncletopia"],"game_id":440,"stv_port":27056,"stv_name":"Uncletopia | Warsaw | 5 | Stopwatch Beta | STV","players":null},{"server_id":54,"name":"Uncletopia | Warsaw | 6 | Community","name_short":"waw-6","host":"waw-1.pl.uncletopia.com","port":27065,"enabled":true,"region":"eu","cc":"pl","latitude":52.2297,"longitude":21.017532,"reserved":0,"last_update":"0001-01-01T00:00:00Z","name_a2s":"Uncletopia | Warsaw | 6 | Community","protocol":17,"map":"workshop/pl_barnblitz_pro7.ugc582280235","folder":"tf","game":"Team Fortress","app_id":440,"player_count":0,"max_players":24,"Bots":0,"server_type":"Dedicated","server_os":"Linux","password":true,"vac":true,"version":"7757534","steam_id":85568392925397856,"keywords":["nocrits","nodmgspread","payload","uncletopia"],"game_id":440,"stv_port":27066,"stv_name":"Uncletopia | Warsaw | 6 | Community | STV","players":null}]}