{"status":true,"message":"","result":[{"server_id":9,"name":"Uncletopia | Atlanta | 1 | All Maps","name_short":"atl-1","host":"atl-1.us.uncletopia.com","port":27015,"enabled":true,"region":"us-east","cc":"us","latitude":33.753746,"longitude":-84.38633,"reserved":0,"last_update":"0001-01-01T00:00:00Z","name_a2s":"Uncletopia | Atlanta | 1 | All Maps","protocol":17,"map":"pl_frontier_final","folder":"tf","game":"Team Fortress","app_id":440,"player_count":24,"max_players":24,"Bots":0,"server_type":"Dedicated","server_os":"Linux","password":true,"vac":true,"version":"7882260","steam_id":85568392924469982,"keywords":["nocrits","nodmgspread","payload","uncletopia"],"game_id":440,"stv_port":27016,"stv_name":"Uncletopia | Atlanta | 1 | All Maps | STV","players":[{"user_id":214,"name":"fudge lord","steam_id":76561198118318422,"connected_time":265000000000,"state":"active","ping":69},{"user_id":198,"name":"Yummy Kabobz","steam_id":76561198067661705,"connected_time":1700000000000,"state":"active","ping":60},{"user_id":181,"name":"FitzyBear","steam_id":76561198409189585,"connected_time":2905000000000,"state":"active","ping":72},{"user_id":213,"name":"rawgust","steam_id":76561198004523887,"connected_time":334000000000,"state":"active","ping":133},{"user_id":196,"name":"Shame","steam_id":76561198100490994,"connected_time":1791000000000,"state":"active","ping":57},{"user_id":179,"name":"Messy_","steam_id":76561199095580664,"connected_time":3018000000000,"state":"active","ping":128},{"user_id":200,"name":"BLACK MAN FROM JJBA","steam_id":76561198272948471,"connected_time":1693000000000,"state":"active","ping":74},{"user_id":201,"name":"The Cadean Lucius","steam_id":76561198183880529,"connected_time":1625000000000,"state":"active","ping":155},{"user_id":215,"name":"souljaboytellem.com","steam_id":76561198111975583,"connected_time":215000000000,"state":"active","ping":77},{"user_id":190,"name":"Yam Jazzy Jim","steam_id":76561198000788950,"connected_time":2325000000000,"state":"active","ping":77},{"user_id":216,"name":"Swole Jesus","steam_id":76561199085545225,"connected_time":173000000000,"state":"active","ping":67},{"user_id":203,"name":"peace dog","steam_id":76561198267988522,"connected_time":1587000000000,"state":"active","ping":90},{"user_id":222,"name":"Kidzbopsicle","steam_id":76561198047660691,"connected_time":61000000000,"state":"active","ping":62},{"user_id":206,"name":"computer club","steam_id":76561198057076267,"connected_time":884000000000,"state":"active","ping":76},{"user_id":217,"name":"your local forecast","steam_id":76561198042243083,"connected_time":169000000000,"state":"active","ping":59},{"user_id":167,"name":"An Unhappy Clown","steam_id":76561198175516514,"connected_time":4032000000000,"state":"active","ping":71},{"user_id":211,"name":"JamesBlakeFan11","steam_id":76561198440539769,"connected_time":584000000000,"state":"active","ping":114},{"user_id":221,"name":"nickles","steam_id":76561199177498487,"connected_time":99000000000,"state":"active","ping":75},{"user_id":168,"name":"awintenb","steam_id":76561198035677638,"connected_time":3953000000000,"state":"active","ping":75},{"user_id":177,"name":"IAmAProfesonal","steam_id":76561199171858953,"connected_time":3415000000000,"state":"active","ping":75},{"user_id":162,"name":"[Z80] Princess Kittycath","steam_id":76561198023770278,"connected_time":4251000000000,"state":"active","ping":60},{"user_id":185,"name":"ali","steam_id":76561198271449374,"connected_time":2733000000000,"state":"active","ping":81},{"user_id":178,"name":"lily","steam_id":76561198388123421,"connected_time":3392000000000,"state":"active","ping":104},{"user_id":210,"name":"YourFriendJessie #savetf2","steam_id":76561198176883097,"connected_time":670000000000,"state":"active","ping":83}]},{"server_id":104,"name":"Uncletopia | Atlanta | 2 | All Maps","name_short":"atl-2","host":"atl-1.us.uncletopia.com","port":27025,"enabled":true,"region":"us-east","cc":"us","latitude":33.753746,"longitude":-84.38633,"reserved":0,"last_update":"0001-01-01T00:00:00Z","name_a2s":"Uncletopia | Atlanta | 2 | All Maps","protocol":17,"map":"pl_borneo","folder":"tf","game":"Team Fortress","app_id":440,"player_count":22,"max_players":24,"Bots":0,"server_type":"Dedicated","server_os":"Linux","password":true,"vac":true,"version":"7882260","steam_id":85568392924469983,"keywords":["nocrits","nodmgspread","payload","uncletopia"],"game_id":440,"stv_port":27026,"stv_name":"Uncletopia | Atlanta | 2 | All Maps | STV","players":[{"user_id":118,"name":"jazaniac","steam_id":76561198059955588,"connected_time":52000000000,"state":"active","ping":79},{"user_id":119,"name":"big slappy enjoyer","steam_id":76561198036884600,"connected_time":39000000000,"state":"active","ping":71},{"user_id":120,"name":"A_Malebolgia","steam_id":76561198097722818,"connected_time":38000000000,"state":"active","ping":85},{"user_id":121,"name":"InventorX","steam_id":76561198216912629,"connected_time":12000000000,"state":"active","ping":67},{"user_id":122,"name":"scio","steam_id":76561199001930207,"connected_time":2000000000,"state":"spawning","ping":49},{"user_id":89,"name":"pagedMov","steam_id":76561198032056050,"connected_time":2555000000000,"state":"active","ping":45},{"user_id":104,"name":"slude","steam_id":76561198065700596,"connected_time":1130000000000,"state":"active","ping":62},{"user_id":108,"name":"lactose father","steam_id":76561199408853457,"connected_time":912000000000,"state":"active","ping":181},{"user_id":112,"name":"MellowBoy-2354","steam_id":76561199080630632,"connected_time":725000000000,"state":"active","ping":72},{"user_id":82,"name":"ALBINO LESBIAN MIDGET","steam_id":76561198122691714,"connected_time":2979000000000,"state":"active","ping":63},{"user_id":116,"name":"Fishy","steam_id":76561198819316173,"connected_time":314000000000,"state":"active","ping":102},{"user_id":71,"name":"Dr. Enforcicle (real)","steam_id":76561198964471859,"connected_time":3316000000000,"state":"active","ping":83},{"user_id":85,"name":"playguy carter","steam_id":76561198080679337,"connected_time":2870000000000,"state":"active","ping":75},{"user_id":111,"name":"Clef","steam_id":76561198985096335,"connected_time":760000000000,"state":"active","ping":72},{"user_id":51,"name":"♥Bunny♥Slut♥","steam_id":76561198206376851,"connected_time":4235000000000,"state":"active","ping":121},{"user_id":93,"name":"BarrowBaron","steam_id":76561198013633236,"connected_time":1838000000000,"state":"active","ping":88},{"user_id":95,"name":"Shush","steam_id":76561198123902813,"connected_time":1793000000000,"state":"active","ping":75},{"user_id":109,"name":"the silly","steam_id":76561198850632709,"connected_time":874000000000,"state":"active","ping":62},{"user_id":117,"name":"Queen Frau the Round","steam_id":76561197999942134,"connected_time":295000000000,"state":"active","ping":60},{"user_id":105,"name":"gamerlegend47","steam_id":76561198122776598,"connected_time":1062000000000,"state":"active","ping":54},{"user_id":94,"name":"pumquinn","steam_id":76561198066386940,"connected_time":1823000000000,"state":"active","ping":67},{"user_id":98,"name":"TheWildZest","steam_id":76561198378503656,"connected_time":1697000000000,"state":"connecting","ping":45}]},{"server_id":400,"name":"Uncletopia | Atlanta | 3 | Community","name_short":"atl-3","host":"atl-1.us.uncletopia.com","port":27035,"enabled":true,"region":"us-east","cc":"us","latitude":33.753746,"longitude":-84.38633,"reserved":0,"last_update":"0001-01-01T00:00:00Z","name_a2s":"Uncletopia | Atlanta | 3 | Community","protocol":17,"map":"workshop/cp_glacier_rc6.ugc2905735376","folder":"tf","game":"Team Fortress","app_id":440,"player_count":20,"max_players":24,"Bots":0,"server_type":"Dedicated","server_os":"Linux","password":true,"vac":true,"version":"7882260","steam_id":85568392924515187,"keywords":["cp","nocrits","nodmgspread","uncletopia"],"game_id":440,"stv_port":27036,"stv_name":"Uncletopia | Atlanta | 3 | Community | STV","players":[{"user_id":8,"name":"Pillow","steam_id":76561198043970197,"connected_time":1999000000000,"state":"active","ping":60},{"user_id":9,"name":"Meltman","steam_id":76561198010285646,"connected_time":1782000000000,"state":"active","ping":112},{"user_id":10,"name":"AceofSpates","steam_id":76561198144087335,"connected_time":1770000000000,"state":"active","ping":56},{"user_id":33,"name":"pudl","steam_id":76561198043726592,"connected_time":164000000000,"state":"active","ping":59},{"user_id":12,"name":"sassy loli","steam_id":76561198402316065,"connected_time":1328000000000,"state":"active","ping":90},{"user_id":13,"name":"bachphong760","steam_id":76561199433780443,"connected_time":1296000000000,"state":"active","ping":118},{"user_id":22,"name":"Monorchid","steam_id":76561199008858355,"connected_time":714000000000,"state":"active","ping":132},{"user_id":34,"name":"ItsBrieDude","steam_id":76561198051971306,"connected_time":138000000000,"state":"active","ping":56},{"user_id":21,"name":"FluffyBananas142","steam_id":76561198116563356,"connected_time":726000000000,"state":"active","ping":78},{"user_id":19,"name":"Evenaris","steam_id":76561198087544319,"connected_time":903000000000,"state":"active","ping":104},{"user_id":24,"name":"Dimitri Petrenko","steam_id":76561198041767176,"connected_time":627000000000,"state":"spawning","ping":294},{"user_id":30,"name":"lucin","steam_id":76561198258062078,"connected_time":396000000000,"state":"active","ping":53},{"user_id":35,"name":"Cheesi","steam_id":76561199417190840,"connected_time":115000000000,"state":"active","ping":89},{"user_id":27,"name":"Heathcliff","steam_id":76561198044288534,"connected_time":501000000000,"state":"active","ping":65},{"user_id":36,"name":"❤ Dolphiniz ❤","steam_id":76561199093367765,"connected_time":100000000000,"state":"active","ping":134},{"user_id":37,"name":"genaro salazar","steam_id":76561198085451776,"connected_time":98000000000,"state":"active","ping":126},{"user_id":38,"name":"Faerun_F","steam_id":76561198443906094,"connected_time":91000000000,"state":"active","ping":46},{"user_id":40,"name":"freddy_fazbear","steam_id":76561199482822200,"connected_time":60000000000,"state":"active","ping":83},{"user_id":41,"name":"crayonnipple","steam_id":76561198070253331,"connected_time":38000000000,"state":"spawning","ping":179},{"user_id":42,"name":"Sky Tree","steam_id":76561198027103242,"connected_time":7000000000,"state":"spawning","ping":65}]},{"server_id":401,"name":"Uncletopia | Atlanta | 4 | No Payload","name_short":"atl-4","host":"atl-1.us.uncletopia.com","port":27045,"enabled":true,"region":"us-east","cc":"us","latitude":33.753746,"longitude":-84.38633,"reserved":0,"last_update":"0001-01-01T00:00:00Z","name_a2s":"","protocol":0,"map":"","folder":"","game":"","app_id":0,"player_count":0,"max_players":0,"Bots":0,"server_type":"","server_os":"","password":false,"vac":false,"version":"","steam_id":0,"keywords":null,"game_id":0,"stv_port":0,"stv_name":"","players":null},{"server_id":2,"name":"Uncletopia | Chicago | 1 | All Maps","name_short":"chi-1","host":"chi-1.us.uncletopia.com","port":27015,"enabled":true,"region":"us-central","cc":"us","latitude":41.881832,"longitude":-87.62318,"reserved":0,"last_update":"0001-01-01T00:00:00Z","name_a2s":"Uncletopia | Chicago | 1 | All Maps","protocol":17,"map":"pl_upward","folder":"tf","game":"Team Fortress","app_id":440,"player_count":24,"max_players":24,"Bots":0,"server_type":"Dedicated","server_os":"Linux","password":true,"vac":true,"version":"7882260","steam_id":85568392924469984,"keywords":["nocrits","nodmgspread","payload","uncletopia"],"game_id":440,"stv_port":27016,"stv_name":"Uncletopia | Chicago | 1 | All Maps | STV","players":[{"user_id":335,"name":"vv","steam_id":76561198134813102,"connected_time":524000000000,"state":"active","ping":57},{"user_id":327,"name":"Rezz","steam_id":76561198241801078,"connected_time":653000000000,"state":"active","ping":68},{"user_id":328,"name":"SirJellyRolls","steam_id":76561198119277244,"connected_time":614000000000,"state":"active","ping":71},{"user_id":330,"name":"Famelegion","steam_id":76561198958341424,"connected_time":609000000000,"state":"active","ping":95},{"user_id":339,"name":"drwwby","steam_id":76561198067741339,"connected_time":450000000000,"state":"active","ping":52},{"user_id":321,"name":"Owen","steam_id":76561198025446908,"connected_time":1096000000000,"state":"active","ping":60},{"user_id":312,"name":"PKBEAST_7","steam_id":76561198177136537,"connected_time":1424000000000,"state":"active","ping":89},{"user_id":331,"name":"Cicada Orchestra","steam_id":76561199226839783,"connected_time":579000000000,"state":"active","ping":88},{"user_id":326,"name":"Heel Licks","steam_id":76561198192375733,"connected_time":671000000000,"state":"active","ping":55},{"user_id":334,"name":"Cottontail","steam_id":76561198213634567,"connected_time":550000000000,"state":"active","ping":93},{"user_id":342,"name":"Soviet Effect","steam_id":76561198240830200,"connected_time":203000000000,"state":"active","ping":81},{"user_id":240,"name":"Madeline the Mad","steam_id":76561198153456869,"connected_time":6914000000000,"state":"active","ping":65},{"user_id":337,"name":"seems_fishy","steam_id":76561199028846656,"connected_time":485000000000,"state":"active","ping":68},{"user_id":283,"name":"Estrogen Bundle","steam_id":76561198086733903,"connected_time":4479000000000,"state":"active","ping":60},{"user_id":325,"name":"ray (the based god)","steam_id":76561198311984941,"connected_time":682000000000,"state":"active","ping":61},{"user_id":315,"name":"KooKooKachue","steam_id":76561198391195262,"connected_time":1299000000000,"state":"active","ping":90},{"user_id":273,"name":"Thundermonkey (SMOKE)","steam_id":76561198017631728,"connected_time":4977000000000,"state":"active","ping":61},{"user_id":338,"name":"dick fuckington","steam_id":76561198073269122,"connected_time":473000000000,"state":"active","ping":60},{"user_id":340,"name":"n_sacco","steam_id":76561198432818448,"connected_time":445000000000,"state":"active","ping":65},{"user_id":316,"name":"Zoot","steam_id":76561198121944243,"connected_time":1207000000000,"state":"active","ping":77},{"user_id":307,"name":"Drapph","steam_id":76561199384213314,"connected_time":2164000000000,"state":"active","ping":61},{"user_id":341,"name":"Straight-Faced Orgasm","steam_id":76561198170007261,"connected_time":427000000000,"state":"active","ping":98},{"user_id":275,"name":"What the fuck is Liechtenstein","steam_id":76561198882404753,"connected_time":4948000000000,"state":"active","ping":79},{"user_id":314,"name":"slep.py","steam_id":76561197988287144,"connected_time":1381000000000,"state":"active","ping":56}]},{"server_id":106,"name":"Uncletopia | Chicago | 2 | All Maps","name_short":"chi-2","host":"chi-1.us.uncletopia.com","port":27025,"enabled":true,"region":"us-central","cc":"us","latitude":41.881832,"longitude":-87.62318,"reserved":0,"last_update":"0001-01-01T00:00:00Z","name_a2s":"Uncletopia | Chicago | 2 | All Maps","protocol":17,"map":"cp_dustbowl","folder":"tf","game":"Team Fortress","app_id":440,"player_count":24,"max_players":24,"Bots":0,"server_type":"Dedicated","server_os":"Linux","password":true,"vac":true,"version":"7882260","steam_id":85568392924469985,"keywords":["cp","nocrits","nodmgspread","uncletopia"],"game_id":440,"stv_port":27026,"stv_name":"Uncletopia | Chicago | 2 | All Maps | STV","players":[{"user_id":93,"name":"Charles Barkley","steam_id":76561198047845399,"connected_time":6316000000000,"state":"active","ping":76},{"user_id":179,"name":"Knight Minson","steam_id":76561198091567396,"connected_time":715000000000,"state":"active","ping":47},{"user_id":185,"name":"Syntaxx","steam_id":76561199235615445,"connected_time":261000000000,"state":"active","ping":60},{"user_id":182,"name":"MILKY","steam_id":76561199261620682,"connected_time":641000000000,"state":"active","ping":152},{"user_id":183,"name":"Hadvar","steam_id":76561198081681234,"connected_time":325000000000,"state":"active","ping":55},{"user_id":89,"name":"Missing Minus","steam_id":76561198120822928,"connected_time":6874000000000,"state":"active","ping":59},{"user_id":163,"name":"GreySweaterCat","steam_id":76561198351860293,"connected_time":1236000000000,"state":"active","ping":89},{"user_id":184,"name":"Flaming O'Gaming","steam_id":76561198044185725,"connected_time":306000000000,"state":"active","ping":82},{"user_id":169,"name":"|WS| Don't_Taze_Me_Bro","steam_id":76561198043289495,"connected_time":1169000000000,"state":"active","ping":75},{"user_id":186,"name":"PiSs MaNn","steam_id":76561198946860609,"connected_time":244000000000,"state":"active","ping":77},{"user_id":22,"name":"reisen fumo","steam_id":76561198243487026,"connected_time":11384000000000,"state":"active","ping":98},{"user_id":187,"name":"Random Person","steam_id":76561198990531385,"connected_time":242000000000,"state":"active","ping":76},{"user_id":130,"name":"Hob-Goblin Jim The IV","steam_id":76561199046650666,"connected_time":3759000000000,"state":"active","ping":60},{"user_id":150,"name":"gaming elliptical","steam_id":76561198013456569,"connected_time":2663000000000,"state":"active","ping":46},{"user_id":86,"name":"Gaskranx","steam_id":76561198020269547,"connected_time":7101000000000,"state":"active","ping":69},{"user_id":188,"name":"Haminator","steam_id":76561198398918486,"connected_time":227000000000,"state":"active","ping":69},{"user_id":164,"name":"◢◤ Joker ◢◤","steam_id":76561198038325384,"connected_time":1231000000000,"state":"active","ping":132},{"user_id":165,"name":"ṽ⧉ cookie","steam_id":76561197998884823,"connected_time":1228000000000,"state":"active","ping":61},{"user_id":168,"name":"Carson","steam_id":76561198076771071,"connected_time":1201000000000,"state":"active","ping":53},{"user_id":136,"name":"Trotsky Gaming","steam_id":76561199101638460,"connected_time":3384000000000,"state":"active","ping":63},{"user_id":148,"name":"Toast","steam_id":76561198401995265,"connected_time":2818000000000,"state":"active","ping":58},{"user_id":189,"name":"SuperGuyStuf","steam_id":76561198041318651,"connected_time":222000000000,"state":"active","ping":60},{"user_id":103,"name":"jrdoran","steam_id":76561197984753094,"connected_time":5642000000000,"state":"active","ping":62},{"user_id":172,"name":"pancake","steam_id":76561199071416407,"connected_time":1130000000000,"state":"active","ping":88}]},{"server_id":402,"name":"Uncletopia | Chicago | 3 | All Maps","name_short":"chi-3","host":"chi-1.us.uncletopia.com","port":27035,"enabled":true,"region":"us-central","cc":"us","latitude":41.881832,"longitude":-87.62318,"reserved":0,"last_update":"0001-01-01T00:00:00Z","name_a2s":"Uncletopia | Chicago | 3 | All Maps","protocol":17,"map":"pl_badwater","folder":"tf","game":"Team Fortress","app_id":440,"player_count":24,"max_players":24,"Bots":0,"server_type":"Dedicated","server_os":"Linux","password":true,"vac":true,"version":"7882260","steam_id":85568392924515191,"keywords":["nocrits","nodmgspread","payload","uncletopia"],"game_id":440,"stv_port":27036,"stv_name":"Uncletopia | Chicago | 3 | All Maps | STV","players":[{"user_id":248,"name":"Adam (Cursed Confetti Creature)","steam_id":76561198317690197,"connected_time":2151000000000,"state":"active","ping":45},{"user_id":251,"name":"Galaxy","steam_id":76561198035134466,"connected_time":1966000000000,"state":"active","ping":77},{"user_id":250,"name":"threethree","steam_id":76561198177354155,"connected_time":2054000000000,"state":"active","ping":45},{"user_id":216,"name":"Bocchi the Gock","steam_id":76561198152455316,"connected_time":3837000000000,"state":"active","ping":133},{"user_id":264,"name":"waylen","steam_id":76561198945724920,"connected_time":1254000000000,"state":"active","ping":85},{"user_id":247,"name":"Mindstrain","steam_id":76561199274044215,"connected_time":2328000000000,"state":"active","ping":106},{"user_id":275,"name":"Also Known As Assteeth","steam_id":76561198049837377,"connected_time":734000000000,"state":"active","ping":54},{"user_id":217,"name":"Cdi","steam_id":76561198056223909,"connected_time":3823000000000,"state":"active","ping":61},{"user_id":186,"name":"Salty","steam_id":76561198019195732,"connected_time":5651000000000,"state":"active","ping":74},{"user_id":276,"name":"neet","steam_id":76561197968115168,"connected_time":595000000000,"state":"active","ping":57},{"user_id":261,"name":"rept","steam_id":76561198022100969,"connected_time":1383000000000,"state":"active","ping":51},{"user_id":253,"name":"x","steam_id":76561198973457538,"connected_time":1837000000000,"state":"active","ping":181},{"user_id":270,"name":"scrapheap","steam_id":76561198202407087,"connected_time":1120000000000,"state":"active","ping":74},{"user_id":281,"name":"Jo","steam_id":76561198060447015,"connected_time":21000000000,"state":"active","ping":76},{"user_id":210,"name":"K O I S H I V I B E [F2P]","steam_id":76561198418070607,"connected_time":4200000000000,"state":"active","ping":83},{"user_id":280,"name":"Tlaloc","steam_id":76561198375215983,"connected_time":285000000000,"state":"active","ping":121},{"user_id":268,"name":"LerN","steam_id":76561198083463877,"connected_time":1174000000000,"state":"active","ping":59},{"user_id":265,"name":"dumpster fire","steam_id":76561199180461090,"connected_time":1220000000000,"state":"active","ping":59},{"user_id":254,"name":"Sean Bae","steam_id":76561198036909521,"connected_time":1780000000000,"state":"active","ping":75},{"user_id":278,"name":"[GUT] RiDiK®","steam_id":76561197969756446,"connected_time":535000000000,"state":"active","ping":59},{"user_id":257,"name":"team foolery 2","steam_id":76561199118049168,"connected_time":1591000000000,"state":"active","ping":99},{"user_id":245,"name":"your wickedness is cringe","steam_id":76561198016826181,"connected_time":2447000000000,"state":"active","ping":74},{"user_id":246,"name":"Nodin","steam_id":76561198135757376,"connected_time":2447000000000,"state":"active","ping":55},{"user_id":279,"name":"Wan Shi Tong","steam_id":76561198076441225,"connected_time":534000000000,"state":"active","ping":67}]},{"server_id":403,"name":"Uncletopia | Chicago | 4 | All Maps","name_short":"chi-4","host":"chi-1.us.uncletopia.com","port":27045,"enabled":true,"region":"us-central","cc":"us","latitude":41.881832,"longitude":-87.62318,"reserved":0,"last_update":"0001-01-01T00:00:00Z","name_a2s":"Uncletopia | Chicago | 4 | All Maps","protocol":17,"map":"koth_highpass","folder":"tf","game":"Team Fortress","app_id":440,"player_count":0,"max_players":24,"Bots":0,"server_type":"Dedicated","server_os":"Linux","password":true,"vac":true,"version":"7882260","steam_id":85568392924515193,"keywords":["cp","nocrits","nodmgspread","uncletopia"],"game_id":440,"stv_port":27046,"stv_name":"Uncletopia | Chicago | 4 | All Maps | STV","players":null},{"server_id":36,"name":"Uncletopia | Chicago | 5 | All Maps","name_short":"chi-5","host":"chi-2.us.uncletopia.com","port":27015,"enabled":true,"region":"us-central","cc":"us","latitude":41.881832,"longitude":-87.62318,"reserved":0,"last_update":"0001-01-01T00:00:00Z","name_a2s":"Uncletopia | Chicago | 5 | All Maps","protocol":17,"map":"koth_lakeside_final","folder":"tf","game":"Team Fortress","app_id":440,"player_count":4,"max_players":24,"Bots":0,"server_type":"Dedicated","server_os":"Linux","password":true,"vac":true,"version":"7882260","steam_id":85568392924866362,"keywords":["cp","nocrits","nodmgspread","uncletopia"],"game_id":440,"stv_port":27016,"stv_name":"Uncletopia | Chicago | 5 | All Maps | STV","players":[{"user_id":10,"name":"leboeufbn","steam_id":76561199228923100,"connected_time":1091000000000,"state":"active","ping":86},{"user_id":11,"name":"Sagoogoo","steam_id":76561198176061614,"connected_time":1042000000000,"state":"active","ping":86},{"user_id":12,"name":"Tejo","steam_id":76561198200617911,"connected_time":1005000000000,"state":"active","ping":46},{"user_id":13,"name":"Thequirka #ForFountainMann","steam_id":76561198968058652,"connected_time":951000000000,"state":"active","ping":102}]},{"server_id":37,"name":"Uncletopia | Chicago | 6 | All Maps","name_short":"chi-6","host":"chi-2.us.uncletopia.com","port":27025,"enabled":true,"region":"us-central","cc":"us","latitude":41.881832,"longitude":-87.62318,"reserved":0,"last_update":"0001-01-01T00:00:00Z","name_a2s":"Uncletopia | Chicago | 6 | All Maps","protocol":17,"map":"pl_frontier_final","folder":"tf","game":"Team Fortress","app_id":440,"player_count":0,"max_players":24,"Bots":0,"server_type":"Dedicated","server_os":"Linux","password":true,"vac":true,"version":"7882260","steam_id":85568392924866363,"keywords":["nocrits","nodmgspread","payload","uncletopia"],"game_id":440,"stv_port":27026,"stv_name":"Uncletopia | Chicago | 6 | All Maps | STV","players":null},{"server_id":38,"name":"Uncletopia | Chicago | 7 | Stopwatch Beta","name_short":"chi-7","host":"chi-2.us.uncletopia.com","port":27035,"enabled":true,"region":"us-central","cc":"us","latitude":41.881832,"longitude":-87.62318,"reserved":0,"last_update":"0001-01-01T00:00:00Z","name_a2s":"Uncletopia | Chicago | 7 | Stopwatch Beta","protocol":17,"map":"koth_lakeside_final","folder":"tf","game":"Team Fortress","app_id":440,"player_count":0,"max_players":24,"Bots":0,"server_type":"Dedicated","server_os":"Linux","password":true,"vac":true,"version":"7882260","steam_id":85568392924866364,"keywords":["cp","nocrits","nodmgspread","uncletopia"],"game_id":440,"stv_port":27036,"stv_name":"Uncletopia | Chicago | 7 | Stopwatch Beta | STV","players":null},{"server_id":39,"name":"Uncletopia | Chicago | 8 | Community","name_short":"chi-8","host":"chi-2.us.uncletopia.com","port":27045,"enabled":true,"region":"us-central","cc":"us","latitude":41.881832,"longitude":-87.62318,"reserved":0,"last_update":"0001-01-01T00:00:00Z","name_a2s":"Uncletopia | Chicago | 8 | Community","protocol":17,"map":"workshop/koth_product_final.ugc454272353","folder":"tf","game":"Team Fortress","app_id":440,"player_count":0,"max_players":24,"Bots":0,"server_type":"Dedicated","server_os":"Linux","password":true,"vac":true,"version":"7882260","steam_id":85568392924866365,"keywords":["cp","nocrits","nodmgspread","uncletopia"],"game_id":440,"stv_port":27046,"stv_name":"Uncletopia | Chicago | 8 | Community | STV","players":null},{"server_id":8,"name":"Uncletopia | Dallas | 1 | All Maps","name_short":"dal-1","host":"dal-1.us.uncletopia.com","port":27015,"enabled":true,"region":"us-central","cc":"us","latitude":32.779167,"longitude":-96.80889,"reserved":0,"last_update":"0001-01-01T00:00:00Z","name_a2s":"Uncletopia | Dallas | 1 | All Maps","protocol":17,"map":"cp_dustbowl","folder":"tf","game":"Team Fortress","app_id":440,"player_count":24,"max_players":24,"Bots":0,"server_type":"Dedicated","server_os":"Linux","password":true,"vac":true,"version":"7882260","steam_id":85568392924469986,"keywords":["cp","nocrits","nodmgspread","uncletopia"],"game_id":440,"stv_port":27016,"stv_name":"Uncletopia | Dallas | 1 | All Maps | STV","players":[{"user_id":205,"name":"mkl","steam_id":76561197986401685,"connected_time":1696000000000,"state":"active","ping":55},{"user_id":218,"name":"Alkimia","steam_id":76561198385763137,"connected_time":1388000000000,"state":"active","ping":124},{"user_id":193,"name":"Rusted Cake","steam_id":76561198209755931,"connected_time":2404000000000,"state":"active","ping":87},{"user_id":184,"name":"TurkeyJuice","steam_id":76561198193109422,"connected_time":2784000000000,"state":"active","ping":60},{"user_id":240,"name":"Pinetree w/ apples.","steam_id":76561198105411709,"connected_time":80000000000,"state":"active","ping":106},{"user_id":181,"name":"Fresh0c0","steam_id":76561198271933283,"connected_time":3289000000000,"state":"active","ping":80},{"user_id":232,"name":"0x01FE","steam_id":76561198838881917,"connected_time":840000000000,"state":"active","ping":63},{"user_id":195,"name":"Motreir","steam_id":76561198151717946,"connected_time":2335000000000,"state":"active","ping":88},{"user_id":236,"name":"m.shkreli.1983","steam_id":76561198070923665,"connected_time":437000000000,"state":"active","ping":104},{"user_id":201,"name":"crashymicsplody","steam_id":76561198213916765,"connected_time":1953000000000,"state":"active","ping":1317},{"user_id":237,"name":"DragonHeart","steam_id":76561198013245625,"connected_time":391000000000,"state":"active","ping":70},{"user_id":147,"name":"Greg Boberton 2012","steam_id":76561198983566026,"connected_time":5685000000000,"state":"active","ping":86},{"user_id":223,"name":"Flint","steam_id":76561198148412420,"connected_time":956000000000,"state":"active","ping":74},{"user_id":167,"name":"Darling","steam_id":76561198127525888,"connected_time":3981000000000,"state":"active","ping":51},{"user_id":187,"name":"Wiggee","steam_id":76561197972792989,"connected_time":2733000000000,"state":"active","ping":46},{"user_id":241,"name":"BLOCKHEAD04","steam_id":76561198808224331,"connected_time":27000000000,"state":"spawning","ping":104},{"user_id":215,"name":"ChoiBoi9001","steam_id":76561199401392691,"connected_time":1469000000000,"state":"active","ping":85},{"user_id":230,"name":"Sbork","steam_id":76561198035681610,"connected_time":865000000000,"state":"active","ping":122},{"user_id":235,"name":"Rhutebeer","steam_id":76561198018302761,"connected_time":515000000000,"state":"active","ping":80},{"user_id":199,"name":"Sigiferd","steam_id":76561198148788110,"connected_time":2203000000000,"state":"active","ping":140},{"user_id":239,"name":"sybarite","steam_id":76561197999797345,"connected_time":207000000000,"state":"active","ping":96},{"user_id":227,"name":"Grognak","steam_id":76561198044710527,"connected_time":924000000000,"state":"active","ping":92},{"user_id":220,"name":"will smith","steam_id":76561198976876859,"connected_time":1194000000000,"state":"active","ping":85},{"user_id":231,"name":"sunny","steam_id":76561198069380992,"connected_time":865000000000,"state":"active","ping":58}]},{"server_id":108,"name":"Uncletopia | Dallas | 2 | All Maps","name_short":"dal-2","host":"dal-1.us.uncletopia.com","port":27025,"enabled":true,"region":"us-central","cc":"us","latitude":32.779167,"longitude":-96.80889,"reserved":0,"last_update":"0001-01-01T00:00:00Z","name_a2s":"Uncletopia | Dallas | 2 | All Maps","protocol":17,"map":"pl_swiftwater_final1","folder":"tf","game":"Team Fortress","app_id":440,"player_count":24,"max_players":24,"Bots":0,"server_type":"Dedicated","server_os":"Linux","password":true,"vac":true,"version":"7882260","steam_id":85568392924469988,"keywords":["nocrits","nodmgspread","payload","uncletopia"],"game_id":440,"stv_port":27026,"stv_name":"Uncletopia | Dallas | 2 | All Maps | STV","players":[{"user_id":135,"name":"leopardo123atl","steam_id":76561198872648238,"connected_time":1199000000000,"state":"active","ping":78},{"user_id":141,"name":"Huntpk","steam_id":76561198340591674,"connected_time":782000000000,"state":"active","ping":61},{"user_id":127,"name":"Soul Garg Plushy","steam_id":76561198044480181,"connected_time":1963000000000,"state":"active","ping":77},{"user_id":148,"name":"BIG HOG","steam_id":76561198079923652,"connected_time":379000000000,"state":"active","ping":47},{"user_id":142,"name":"that dick can piss","steam_id":76561198971285292,"connected_time":734000000000,"state":"active","ping":83},{"user_id":134,"name":"-W3E- grim10465","steam_id":76561198045698581,"connected_time":1208000000000,"state":"active","ping":75},{"user_id":137,"name":"Hollister's Tree","steam_id":76561198982631429,"connected_time":846000000000,"state":"active","ping":53},{"user_id":67,"name":"Fresh Lychee","steam_id":76561198045399559,"connected_time":5611000000000,"state":"active","ping":75},{"user_id":147,"name":"Shinies","steam_id":76561198169459631,"connected_time":416000000000,"state":"active","ping":44},{"user_id":151,"name":"MrStinkyCat","steam_id":76561198141354002,"connected_time":172000000000,"state":"active","ping":81},{"user_id":116,"name":"H.P. Lovecraft","steam_id":76561198329591401,"connected_time":3093000000000,"state":"active","ping":91},{"user_id":149,"name":"DMM","steam_id":76561198065426171,"connected_time":256000000000,"state":"active","ping":52},{"user_id":152,"name":"Weeb","steam_id":76561198333568146,"connected_time":139000000000,"state":"active","ping":95},{"user_id":128,"name":"artichoke","steam_id":76561198980994364,"connected_time":1779000000000,"state":"active","ping":97},{"user_id":146,"name":"Stryder","steam_id":76561199387418697,"connected_time":482000000000,"state":"active","ping":70},{"user_id":143,"name":"yaldabaoth","steam_id":76561198084606869,"connected_time":713000000000,"state":"active","ping":75},{"user_id":119,"name":"I paused mc to be here","steam_id":76561198407141831,"connected_time":3005000000000,"state":"active","ping":101},{"user_id":139,"name":"Proud Swift City Resident","steam_id":76561198036283992,"connected_time":838000000000,"state":"active","ping":79},{"user_id":144,"name":"wmarriner66","steam_id":76561198045357592,"connected_time":708000000000,"state":"active","ping":93},{"user_id":121,"name":"Actually Brain Griffin (real)","steam_id":76561198179532535,"connected_time":2937000000000,"state":"active","ping":101},{"user_id":150,"name":"Sup m8","steam_id":76561198081659121,"connected_time":195000000000,"state":"active","ping":43},{"user_id":130,"name":"Sych06","steam_id":76561198798979302,"connected_time":1746000000000,"state":"active","ping":80},{"user_id":108,"name":"General Sherman","steam_id":76561198044769376,"connected_time":3607000000000,"state":"active","ping":70},{"user_id":118,"name":"ham","steam_id":76561198130412963,"connected_time":3047000000000,"state":"active","ping":66}]},{"server_id":5,"name":"Uncletopia | Frankfurt | 1 | All Maps","name_short":"frk-1","host":"frk-1.de.uncletopia.com","port":27015,"enabled":true,"region":"eu","cc":"de","latitude":50.110924,"longitude":8.682127,"reserved":0,"last_update":"0001-01-01T00:00:00Z","name_a2s":"Uncletopia | Frankfurt | 1 | All Maps","protocol":17,"map":"pl_barnblitz","folder":"tf","game":"Team Fortress","app_id":440,"player_count":24,"max_players":24,"Bots":0,"server_type":"Dedicated","server_os":"Linux","password":true,"vac":true,"version":"7882260","steam_id":85568392924469989,"keywords":["nocrits","nodmgspread","payload","uncletopia"],"game_id":440,"stv_port":27016,"stv_name":"Uncletopia | Frankfurt | 1 | All Maps | STV","players":[{"user_id":569,"name":"Master Of Noob","steam_id":76561198217926783,"connected_time":2385000000000,"state":"active","ping":73},{"user_id":609,"name":"LivEssense","steam_id":76561198052476979,"connected_time":347000000000,"state":"active","ping":75},{"user_id":615,"name":"emotional_fridge2001","steam_id":76561198343328308,"connected_time":94000000000,"state":"active","ping":55},{"user_id":608,"name":"SlowMode","steam_id":76561198039631442,"connected_time":395000000000,"state":"active","ping":75},{"user_id":548,"name":"Unseen","steam_id":76561198154670360,"connected_time":3914000000000,"state":"active","ping":87},{"user_id":604,"name":"cock","steam_id":76561198307522022,"connected_time":590000000000,"state":"active","ping":52},{"user_id":610,"name":"Carl","steam_id":76561198045638738,"connected_time":334000000000,"state":"active","ping":72},{"user_id":611,"name":"the scringly dingly","steam_id":76561198192179174,"connected_time":333000000000,"state":"active","ping":146},{"user_id":568,"name":"Charles Darwin","steam_id":76561197973496139,"connected_time":2644000000000,"state":"active","ping":60},{"user_id":602,"name":"EmptyBottle356","steam_id":76561197970915314,"connected_time":689000000000,"state":"active","ping":67},{"user_id":592,"name":"Samaruun","steam_id":76561198048841418,"connected_time":1113000000000,"state":"active","ping":57},{"user_id":594,"name":"Dr. Trustmeonthisone","steam_id":76561198009884765,"connected_time":778000000000,"state":"active","ping":92},{"user_id":616,"name":"windd","steam_id":76561198123470622,"connected_time":66000000000,"state":"active","ping":60},{"user_id":517,"name":"kektuse","steam_id":76561198088426580,"connected_time":4748000000000,"state":"active","ping":55},{"user_id":617,"name":"Cypher","steam_id":76561197996967254,"connected_time":46000000000,"state":"active","ping":60},{"user_id":554,"name":"waluigi","steam_id":76561198215809251,"connected_time":3129000000000,"state":"active","ping":52},{"user_id":557,"name":"Flal","steam_id":76561198453819816,"connected_time":2972000000000,"state":"active","ping":68},{"user_id":564,"name":"Joy","steam_id":76561198155314925,"connected_time":2722000000000,"state":"active","ping":67},{"user_id":603,"name":"Bootywizard356","steam_id":76561199487381897,"connected_time":685000000000,"state":"active","ping":105},{"user_id":618,"name":"le unfunny dog","steam_id":76561198415020571,"connected_time":10000000000,"state":"active","ping":80},{"user_id":538,"name":"NO end to POOTIS","steam_id":76561198144879361,"connected_time":4243000000000,"state":"active","ping":115},{"user_id":590,"name":"Dollar","steam_id":76561199250808808,"connected_time":1132000000000,"state":"active","ping":75},{"user_id":583,"name":"pardner","steam_id":76561198451471161,"connected_time":1793000000000,"state":"active","ping":63},{"user_id":542,"name":"Captain HandicappedCock","steam_id":76561198109850402,"connected_time":4184000000000,"state":"active","ping":70}]},{"server_id":110,"name":"Uncletopia | Frankfurt | 2 | All Maps","name_short":"frk-2","host":"frk-1.de.uncletopia.com","port":27025,"enabled":true,"region":"eu","cc":"de","latitude":50.110924,"longitude":8.682127,"reserved":0,"last_update":"0001-01-01T00:00:00Z","name_a2s":"Uncletopia | Frankfurt | 2 | All Maps","protocol":17,"map":"koth_viaduct","folder":"tf","game":"Team Fortress","app_id":440,"player_count":3,"max_players":24,"Bots":0,"server_type":"Dedicated","server_os":"Linux","password":true,"vac":true,"version":"7882260","steam_id":85568392924469990,"keywords":["cp","nocrits","nodmgspread","uncletopia"],"game_id":440,"stv_port":27026,"stv_name":"Uncletopia | Frankfurt | 2 | All Maps | STV","players":[{"user_id":217,"name":"SW_Svit #savetf2","steam_id":76561199099715145,"connected_time":312000000000,"state":"active","ping":63},{"user_id":218,"name":"supercharger832","steam_id":76561198871408515,"connected_time":200000000000,"state":"active","ping":46},{"user_id":219,"name":"FanFish","steam_id":76561199389558024,"connected_time":105000000000,"state":"active","ping":55}]},{"server_id":308,"name":"Uncletopia | Frankfurt | 3 | All Maps","name_short":"frk-3","host":"frk-1.de.uncletopia.com","port":27035,"enabled":true,"region":"eu","cc":"de","latitude":50.110924,"longitude":8.682127,"reserved":0,"last_update":"0001-01-01T00:00:00Z","name_a2s":"Uncletopia | Frankfurt | 3 | All Maps","protocol":17,"map":"pl_pier","folder":"tf","game":"Team Fortress","app_id":440,"player_count":24,"max_players":24,"Bots":0,"server_type":"Dedicated","server_os":"Linux","password":true,"vac":true,"version":"7882260","steam_id":85568392924504274,"keywords":["nocrits","nodmgspread","payload","uncletopia"],"game_id":440,"stv_port":27036,"stv_name":"Uncletopia | Frankfurt | 3 | All Maps | STV","players":[{"user_id":294,"name":"Chillrend | #SaveTF2","steam_id":76561198452963141,"connected_time":1426000000000,"state":"active","ping":75},{"user_id":299,"name":"Willy Wanker","steam_id":76561198238091034,"connected_time":1099000000000,"state":"active","ping":94},{"user_id":277,"name":"nvmHastee","steam_id":76561199371458295,"connected_time":2981000000000,"state":"active","ping":71},{"user_id":245,"name":"chopsticks","steam_id":76561198045899345,"connected_time":5722000000000,"state":"active","ping":104},{"user_id":300,"name":"Omu norilor","steam_id":76561198453523560,"connected_time":854000000000,"state":"active","ping":79},{"user_id":303,"name":"Rodia","steam_id":76561197968293161,"connected_time":393000000000,"state":"active","ping":60},{"user_id":307,"name":"manKe","steam_id":76561198008564860,"connected_time":23000000000,"state":"active","ping":61},{"user_id":292,"name":"Sylmeuh","steam_id":76561198084685420,"connected_time":1647000000000,"state":"active","ping":64},{"user_id":236,"name":"Urfangonultasadana","steam_id":76561199389286151,"connected_time":6178000000000,"state":"active","ping":113},{"user_id":253,"name":"class1driller","steam_id":76561198029068574,"connected_time":5483000000000,"state":"active","ping":61},{"user_id":287,"name":"duck from afar","steam_id":76561198331564258,"connected_time":2292000000000,"state":"active","ping":70},{"user_id":297,"name":"Kapitan Polska","steam_id":76561197968069413,"connected_time":1330000000000,"state":"active","ping":74},{"user_id":301,"name":"Frok","steam_id":76561199213363196,"connected_time":816000000000,"state":"active","ping":75},{"user_id":288,"name":"Sir Warock","steam_id":76561198180468693,"connected_time":1962000000000,"state":"active","ping":86},{"user_id":289,"name":"presidentialAIDS","steam_id":76561199257284077,"connected_time":1954000000000,"state":"active","ping":143},{"user_id":283,"name":"Fifourche","steam_id":76561198078209480,"connected_time":2582000000000,"state":"active","ping":64},{"user_id":304,"name":"Pancake Bunny","steam_id":76561198008221326,"connected_time":387000000000,"state":"active","ping":73},{"user_id":309,"name":"After8","steam_id":76561198090750865,"connected_time":2000000000,"state":"spawning","ping":52},{"user_id":306,"name":"Moby Chick (F2P)","steam_id":76561198151152730,"connected_time":62000000000,"state":"active","ping":193},{"user_id":308,"name":"TSM MANDE","steam_id":76561198261795972,"connected_time":19000000000,"state":"active","ping":73},{"user_id":296,"name":"Zedespook","steam_id":76561198265479349,"connected_time":1416000000000,"state":"active","ping":59},{"user_id":247,"name":"Butt Fangs Fetish","steam_id":76561198038130063,"connected_time":5706000000000,"state":"active","ping":99},{"user_id":305,"name":"Niggi","steam_id":76561198039866494,"connected_time":361000000000,"state":"active","ping":64},{"user_id":250,"name":"Havelyn","steam_id":76561198036159862,"connected_time":5620000000000,"state":"active","ping":121}]},{"server_id":309,"name":"Uncletopia | Frankfurt | 4 | All Maps","name_short":"frk-4","host":"frk-1.de.uncletopia.com","port":27045,"enabled":true,"region":"eu","cc":"de","latitude":50.110924,"longitude":8.682127,"reserved":0,"last_update":"0001-01-01T00:00:00Z","name_a2s":"Uncletopia | Frankfurt | 4 | All Maps","protocol":17,"map":"pl_pier","folder":"tf","game":"Team Fortress","app_id":440,"player_count":24,"max_players":24,"Bots":0,"server_type":"Dedicated","server_os":"Linux","password":true,"vac":true,"version":"7882260","steam_id":85568392924504275,"keywords":["nocrits","nodmgspread","payload","uncletopia"],"game_id":440,"stv_port":27046,"stv_name":"Uncletopia | Frankfurt | 4 | All Maps | STV","players":[{"user_id":299,"name":"Inov","steam_id":76561198207364644,"connected_time":3245000000000,"state":"active","ping":86},{"user_id":319,"name":"MastahDizzy","steam_id":76561198123024093,"connected_time":1982000000000,"state":"active","ping":54},{"user_id":337,"name":"JonaMake","steam_id":76561198415629249,"connected_time":241000000000,"state":"active","ping":104},{"user_id":309,"name":"WarAndroid","steam_id":76561198873727435,"connected_time":2777000000000,"state":"active","ping":63},{"user_id":335,"name":"Thebluetotodile","steam_id":76561198377832877,"connected_time":271000000000,"state":"active","ping":57},{"user_id":296,"name":"burgz","steam_id":76561198109955787,"connected_time":3991000000000,"state":"active","ping":60},{"user_id":308,"name":"67mph","steam_id":76561198096654820,"connected_time":2826000000000,"state":"active","ping":56},{"user_id":230,"name":":)","steam_id":76561198039964082,"connected_time":7984000000000,"state":"active","ping":61},{"user_id":325,"name":"STANISLAV","steam_id":76561198007394937,"connected_time":1312000000000,"state":"active","ping":95},{"user_id":281,"name":"LOBZIK","steam_id":76561198114830120,"connected_time":5858000000000,"state":"active","ping":76},{"user_id":334,"name":"Pacanaz","steam_id":76561198011514552,"connected_time":375000000000,"state":"active","ping":76},{"user_id":336,"name":"Myrmodion","steam_id":76561198054746247,"connected_time":261000000000,"state":"active","ping":65},{"user_id":311,"name":"etc","steam_id":76561197998394797,"connected_time":2702000000000,"state":"active","ping":50},{"user_id":275,"name":"Ixsus\u003c3","steam_id":76561198094756869,"connected_time":6145000000000,"state":"active","ping":58},{"user_id":338,"name":"Punker","steam_id":76561198255964089,"connected_time":240000000000,"state":"active","ping":111},{"user_id":323,"name":"Anadest","steam_id":76561198992528373,"connected_time":1599000000000,"state":"active","ping":83},{"user_id":339,"name":"Michael","steam_id":76561198003146906,"connected_time":201000000000,"state":"active","ping":60},{"user_id":176,"name":"mixxxa_french","steam_id":76561198085098243,"connected_time":11657000000000,"state":"active","ping":106},{"user_id":320,"name":"Littleyoshifan","steam_id":76561198445491045,"connected_time":1973000000000,"state":"active","ping":58},{"user_id":340,"name":"The.Real.Genesis","steam_id":76561198999652040,"connected_time":190000000000,"state":"active","ping":43},{"user_id":333,"name":"Laske","steam_id":76561198370905474,"connected_time":386000000000,"state":"active","ping":75},{"user_id":332,"name":"Drift7114","steam_id":76561199044419505,"connected_time":743000000000,"state":"active","ping":79},{"user_id":286,"name":"0xDEADBEEF","steam_id":76561199075416111,"connected_time":5148000000000,"state":"active","ping":89},{"user_id":327,"name":"Acbh","steam_id":76561198158271672,"connected_time":1257000000000,"state":"active","ping":61}]},{"server_id":310,"name":"Uncletopia | Frankfurt | 5 | All Maps","name_short":"frk-5","host":"frk-1.de.uncletopia.com","port":27055,"enabled":true,"region":"eu","cc":"de","latitude":50.110924,"longitude":8.682127,"reserved":0,"last_update":"0001-01-01T00:00:00Z","name_a2s":"Uncletopia | Frankfurt | 5 | All Maps","protocol":17,"map":"pl_swiftwater_final1","folder":"tf","game":"Team Fortress","app_id":440,"player_count":24,"max_players":24,"Bots":0,"server_type":"Dedicated","server_os":"Linux","password":true,"vac":true,"version":"7882260","steam_id":85568392924504277,"keywords":["nocrits","nodmgspread","payload","uncletopia"],"game_id":440,"stv_port":27056,"stv_name":"Uncletopia | Frankfurt | 5 | All Maps | STV","players":[{"user_id":371,"name":"nappo","steam_id":76561198060105180,"connected_time":779000000000,"state":"active","ping":74},{"user_id":302,"name":"Hexagon","steam_id":76561198151205758,"connected_time":5125000000000,"state":"active","ping":55},{"user_id":258,"name":"Michał","steam_id":76561198320346362,"connected_time":8435000000000,"state":"active","ping":59},{"user_id":358,"name":"L1RG0","steam_id":76561198329274068,"connected_time":2135000000000,"state":"active","ping":69},{"user_id":380,"name":"Skuld","steam_id":76561198064734905,"connected_time":205000000000,"state":"active","ping":91},{"user_id":381,"name":"stonebum","steam_id":76561198057004606,"connected_time":110000000000,"state":"active","ping":60},{"user_id":379,"name":"bad farter","steam_id":76561198261853441,"connected_time":338000000000,"state":"active","ping":60},{"user_id":382,"name":"1couver","steam_id":76561198168553215,"connected_time":9000000000,"state":"active","ping":122},{"user_id":342,"name":"Hercules","steam_id":76561198041164170,"connected_time":3374000000000,"state":"active","ping":60},{"user_id":370,"name":"killbind irl","steam_id":76561198180637374,"connected_time":814000000000,"state":"active","ping":83},{"user_id":282,"name":"sareena","steam_id":76561198810194062,"connected_time":6307000000000,"state":"active","ping":75},{"user_id":359,"name":"alice","steam_id":76561198269200388,"connected_time":2133000000000,"state":"active","ping":74},{"user_id":373,"name":"Krefa12","steam_id":76561198268375393,"connected_time":764000000000,"state":"active","ping":85},{"user_id":378,"name":"Marmac","steam_id":76561198120033210,"connected_time":534000000000,"state":"active","ping":71},{"user_id":314,"name":"Rin-Nakaret","steam_id":76561197971051188,"connected_time":4628000000000,"state":"active","ping":71},{"user_id":375,"name":"lofimonkeyjazz","steam_id":76561198117059662,"connected_time":758000000000,"state":"active","ping":85},{"user_id":298,"name":"Solymr ibn Wali Barad","steam_id":76561198044008976,"connected_time":5197000000000,"state":"active","ping":75},{"user_id":365,"name":"толя","steam_id":76561199098518615,"connected_time":1515000000000,"state":"active","ping":75},{"user_id":376,"name":"Ar|es","steam_id":76561198819160313,"connected_time":703000000000,"state":"active","ping":82},{"user_id":357,"name":"soupalognionycrouton","steam_id":76561199021878433,"connected_time":2280000000000,"state":"active","ping":87},{"user_id":362,"name":"bigwish | bmod.tf","steam_id":76561197997859723,"connected_time":1600000000000,"state":"active","ping":79},{"user_id":366,"name":"Darkf065","steam_id":76561199029257202,"connected_time":1505000000000,"state":"active","ping":102},{"user_id":355,"name":"Stridsvagn 122B PLSS","steam_id":76561197999285844,"connected_time":2479000000000,"state":"active","ping":88},{"user_id":323,"name":"Mr. Mundy","steam_id":76561198132008918,"connected_time":4302000000000,"state":"active","ping":73}]},{"server_id":311,"name":"Uncletopia | Frankfurt | 6 | All Maps","name_short":"frk-6","host":"frk-1.de.uncletopia.com","port":27065,"enabled":true,"region":"eu","cc":"de","latitude":50.110924,"longitude":8.682127,"reserved":0,"last_update":"0001-01-01T00:00:00Z","name_a2s":"Uncletopia | Frankfurt | 6 | All Maps","protocol":17,"map":"pl_swiftwater_final1","folder":"tf","game":"Team Fortress","app_id":440,"player_count":12,"max_players":24,"Bots":0,"server_type":"Dedicated","server_os":"Linux","password":true,"vac":true,"version":"7882260","steam_id":85568392924504278,"keywords":["nocrits","nodmgspread","payload","uncletopia"],"game_id":440,"stv_port":27066,"stv_name":"Uncletopia | Frankfurt | 6 | All Maps | STV","players":[{"user_id":464,"name":"Bullet magnet (FIN)","steam_id":76561197975715220,"connected_time":6257000000000,"state":"active","ping":85},{"user_id":549,"name":"cof","steam_id":76561199128417805,"connected_time":198000000000,"state":"active","ping":64},{"user_id":542,"name":"axl#pizdaaim","steam_id":76561198991661832,"connected_time":1172000000000,"state":"active","ping":105},{"user_id":550,"name":"mark of the outsider","steam_id":76561198309246388,"connected_time":77000000000,"state":"active","ping":45},{"user_id":509,"name":"AxyzS | affenbr0t_6o4","steam_id":76561197981823456,"connected_time":3269000000000,"state":"active","ping":82},{"user_id":523,"name":"install gentoo","steam_id":76561198185257982,"connected_time":2699000000000,"state":"active","ping":76},{"user_id":533,"name":"antlionguard","steam_id":76561198072747143,"connected_time":2219000000000,"state":"active","ping":103},{"user_id":524,"name":"szmen","steam_id":76561198072569764,"connected_time":2688000000000,"state":"active","ping":84},{"user_id":547,"name":"big stewie","steam_id":76561198147173457,"connected_time":926000000000,"state":"active","ping":62},{"user_id":532,"name":"Carrot Arc","steam_id":76561198164957006,"connected_time":2241000000000,"state":"active","ping":69},{"user_id":546,"name":"dakkafex","steam_id":76561198020254869,"connected_time":985000000000,"state":"active","ping":47},{"user_id":535,"name":"...","steam_id":76561198969234594,"connected_time":2183000000000,"state":"active","ping":75}]},{"server_id":23,"name":"Uncletopia | Frankfurt | 7 | Stopwatch Beta","name_short":"frk-7","host":"frk-1.de.uncletopia.com","port":27075,"enabled":true,"region":"eu","cc":"de","latitude":50.110924,"longitude":8.682127,"reserved":0,"last_update":"0001-01-01T00:00:00Z","name_a2s":"Uncletopia | Frankfurt | 7 | Stopwatch Beta","protocol":17,"map":"pl_borneo","folder":"tf","game":"Team Fortress","app_id":440,"player_count":0,"max_players":24,"Bots":0,"server_type":"Dedicated","server_os":"Linux","password":true,"vac":true,"version":"7882260","steam_id":85568392924742827,"keywords":["nocrits","nodmgspread","payload","uncletopia"],"game_id":440,"stv_port":27076,"stv_name":"Uncletopia | Frankfurt | 7 | Stopwatch Beta | STV","players":null},{"server_id":24,"name":"Uncletopia | Frankfurt | 8 | Community","name_short":"frk-8","host":"frk-1.de.uncletopia.com","port":27085,"enabled":true,"region":"eu","cc":"de","latitude":50.110924,"longitude":8.682127,"reserved":0,"last_update":"0001-01-01T00:00:00Z","name_a2s":"Uncletopia | Frankfurt | 8 | Community","protocol":17,"map":"workshop/cp_reckoner_rc6.ugc674719999","folder":"tf","game":"Team Fortress","app_id":440,"player_count":0,"max_players":24,"Bots":0,"server_type":"Dedicated","server_os":"Linux","password":true,"vac":true,"version":"7882260","steam_id":85568392924742828,"keywords":["cp","nocrits","nodmgspread","uncletopia"],"game_id":440,"stv_port":27086,"stv_name":"Uncletopia | Frankfurt | 8 | Community | STV","players":null},{"server_id":202,"name":"Uncletopia | Hong Kong | 1 | All Maps","name_short":"hgk-1","host":"hgk-1.hk.uncletopia.com","port":27015,"enabled":true,"region":"asia","cc":"hk","latitude":22.302711,"longitude":114.177216,"reserved":0,"last_update":"0001-01-01T00:00:00Z","name_a2s":"Uncletopia | Hong Kong | 1 | All Maps","protocol":17,"map":"koth_highpass","folder":"tf","game":"Team Fortress","app_id":440,"player_count":0,"max_players":24,"Bots":0,"server_type":"Dedicated","server_os":"Linux","password":true,"vac":true,"version":"7882260","steam_id":85568392924494504,"keywords":["cp","nocrits","nodmgspread","uncletopia"],"game_id":440,"stv_port":27016,"stv_name":"Uncletopia | Hong Kong | 1 | All Maps | STV","players":null},{"server_id":1,"name":"Uncletopia | Los Angeles | 1 | All Maps","name_short":"lax-1","host":"lax-1.us.uncletopia.com","port":27015,"enabled":true,"region":"us-west","cc":"us","latitude":33.94279,"longitude":-118.41004,"reserved":0,"last_update":"0001-01-01T00:00:00Z","name_a2s":"Uncletopia | Los Angeles | 1 | All Maps","protocol":17,"map":"koth_lakeside_final","folder":"tf","game":"Team Fortress","app_id":440,"player_count":0,"max_players":24,"Bots":0,"server_type":"Dedicated","server_os":"Linux","password":true,"vac":true,"version":"7882260","steam_id":85568392924469991,"keywords":["cp","nocrits","nodmgspread","uncletopia"],"game_id":440,"stv_port":27016,"stv_name":"Uncletopia | Los Angeles | 1 | All Maps | STV","players":null},{"server_id":112,"name":"Uncletopia | Los Angeles | 2 | All Maps","name_short":"lax-2","host":"lax-1.us.uncletopia.com","port":27025,"enabled":true,"region":"us-west","cc":"us","latitude":33.94279,"longitude":-118.41004,"reserved":0,"last_update":"0001-01-01T00:00:00Z","name_a2s":"Uncletopia | Los Angeles | 2 | All Maps","protocol":17,"map":"pl_badwater","folder":"tf","game":"Team Fortress","app_id":440,"player_count":6,"max_players":24,"Bots":0,"server_type":"Dedicated","server_os":"Linux","password":true,"vac":true,"version":"7882260","steam_id":85568392924469992,"keywords":["nocrits","nodmgspread","payload","uncletopia"],"game_id":440,"stv_port":27026,"stv_name":"Uncletopia | Los Angeles | 2 | All Maps | STV","players":[{"user_id":8,"name":"YourNansFlipFlops","steam_id":76561199363301288,"connected_time":413000000000,"state":"active","ping":218},{"user_id":6,"name":"a cat plushie","steam_id":76561198080046542,"connected_time":1189000000000,"state":"active","ping":63},{"user_id":7,"name":"mrzachab0i","steam_id":76561199444911765,"connected_time":1187000000000,"state":"active","ping":84},{"user_id":10,"name":"beans","steam_id":76561199082781884,"connected_time":147000000000,"state":"active","ping":55},{"user_id":14,"name":"black allen iverson","steam_id":76561198341405467,"connected_time":52000000000,"state":"active","ping":30},{"user_id":15,"name":"Li'l Lily (She/Her)","steam_id":76561198401198268,"connected_time":44000000000,"state":"active","ping":96}]},{"server_id":324,"name":"Uncletopia | Los Angeles | 3 | All Maps","name_short":"lax-3","host":"lax-1.us.uncletopia.com","port":27035,"enabled":true,"region":"us-west","cc":"us","latitude":33.94279,"longitude":-118.41004,"reserved":0,"last_update":"0001-01-01T00:00:00Z","name_a2s":"Uncletopia | Los Angeles | 3 | All Maps","protocol":17,"map":"pl_borneo","folder":"tf","game":"Team Fortress","app_id":440,"player_count":24,"max_players":24,"Bots":0,"server_type":"Dedicated","server_os":"Linux","password":true,"vac":true,"version":"7882260","steam_id":85568392924510198,"keywords":["nocrits","nodmgspread","payload","uncletopia"],"game_id":440,"stv_port":27036,"stv_name":"Uncletopia | Los Angeles | 3 | All Maps | STV","players":[{"user_id":87,"name":"catrinaisahuman","steam_id":76561198281355729,"connected_time":661000000000,"state":"active","ping":75},{"user_id":4,"name":"Cel","steam_id":76561198119023653,"connected_time":5919000000000,"state":"active","ping":49},{"user_id":86,"name":"darkness.danny3481","steam_id":76561198132808002,"connected_time":753000000000,"state":"active","ping":45},{"user_id":99,"name":"Pez","steam_id":76561199197778137,"connected_time":0,"state":"connecting","ping":0},{"user_id":72,"name":"cactus eater","steam_id":76561199107499844,"connected_time":1760000000000,"state":"active","ping":54},{"user_id":89,"name":"Purple Silence","steam_id":76561198402755987,"connected_time":538000000000,"state":"active","ping":49},{"user_id":9,"name":"dicksnip","steam_id":76561198356515396,"connected_time":5778000000000,"state":"active","ping":94},{"user_id":90,"name":"Renz","steam_id":76561198118995036,"connected_time":480000000000,"state":"active","ping":72},{"user_id":81,"name":"Life Grips (TRANS RIGHTS)","steam_id":76561198082089317,"connected_time":883000000000,"state":"active","ping":66},{"user_id":98,"name":"poober","steam_id":76561199054530640,"connected_time":12000000000,"state":"spawning","ping":64},{"user_id":83,"name":"Coffee","steam_id":76561198154646418,"connected_time":795000000000,"state":"active","ping":90},{"user_id":45,"name":"Elias","steam_id":76561198106431732,"connected_time":3873000000000,"state":"active","ping":88},{"user_id":73,"name":"Lemonade Juice","steam_id":76561198402892608,"connected_time":1683000000000,"state":"active","ping":44},{"user_id":58,"name":"Stapler","steam_id":76561198099295077,"connected_time":2555000000000,"state":"active","ping":59},{"user_id":91,"name":"Saul Goodman","steam_id":76561198968009574,"connected_time":470000000000,"state":"active","ping":110},{"user_id":84,"name":"Once in a Lifetime","steam_id":76561199180652178,"connected_time":786000000000,"state":"active","ping":116},{"user_id":96,"name":"donutdagger","steam_id":76561199203048300,"connected_time":178000000000,"state":"active","ping":58},{"user_id":32,"name":"goblin64","steam_id":76561198969156830,"connected_time":4260000000000,"state":"active","ping":50},{"user_id":93,"name":"Dr. Bubs","steam_id":76561198011696595,"connected_time":441000000000,"state":"active","ping":47},{"user_id":94,"name":"Snoopy","steam_id":76561198273735974,"connected_time":396000000000,"state":"active","ping":84},{"user_id":71,"name":"BrockSpread","steam_id":76561198145924402,"connected_time":1870000000000,"state":"active","ping":97},{"user_id":97,"name":"kalzonkly","steam_id":76561198309217857,"connected_time":118000000000,"state":"active","ping":50},{"user_id":43,"name":"coolbust carti","steam_id":76561198065384345,"connected_time":3941000000000,"state":"active","ping":71},{"user_id":79,"name":"Noid","steam_id":76561198227804500,"connected_time":1016000000000,"state":"active","ping":111}]},{"server_id":25,"name":"Uncletopia | Los Angeles | 4 | Stopwatch Beta","name_short":"lax-4","host":"lax-1.us.uncletopia.com","port":27045,"enabled":true,"region":"us-west","cc":"us","latitude":33.94279,"longitude":-118.41004,"reserved":0,"last_update":"0001-01-01T00:00:00Z","name_a2s":"Uncletopia | Los Angeles | 4 | Stopwatch Beta","protocol":17,"map":"koth_lakeside_final","folder":"tf","game":"Team Fortress","app_id":440,"player_count":2,"max_players":24,"Bots":0,"server_type":"Dedicated","server_os":"Linux","password":true,"vac":true,"version":"7882260","steam_id":85568392924510199,"keywords":["cp","nocrits","nodmgspread","uncletopia"],"game_id":440,"stv_port":27046,"stv_name":"Uncletopia | Los Angeles | 4 | Stopwatch Beta | STV","players":[{"user_id":4,"name":"bread cat","steam_id":76561199215696644,"connected_time":1258000000000,"state":"active","ping":114},{"user_id":5,"name":"Froot Loopus","steam_id":76561198828216222,"connected_time":1112000000000,"state":"active","ping":103}]},{"server_id":11,"name":"Uncletopia | London | 1 | All Maps","name_short":"lon-1","host":"lon-1.uk.uncletopia.com","port":27015,"enabled":true,"region":"eu","cc":"gb","latitude":51.509865,"longitude":-0.118092,"reserved":0,"last_update":"0001-01-01T00:00:00Z","name_a2s":"Uncletopia | London | 1 | All Maps","protocol":17,"map":"pl_barnblitz","folder":"tf","game":"Team Fortress","app_id":440,"player_count":24,"max_players":24,"Bots":0,"server_type":"Dedicated","server_os":"Linux","password":true,"vac":true,"version":"7882260","steam_id":85568392924367362,"keywords":["nocrits","nodmgspread","payload","uncletopia"],"game_id":440,"stv_port":27016,"stv_name":"Uncletopia | London | 1 | All Maps | STV","players":[{"user_id":604,"name":"SausageRoll","steam_id":76561197994072622,"connected_time":840000000000,"state":"active","ping":53},{"user_id":526,"name":"✪ qua ✪","steam_id":76561198066408333,"connected_time":7589000000000,"state":"active","ping":83},{"user_id":550,"name":"Jnyu","steam_id":76561198070532575,"connected_time":5374000000000,"state":"active","ping":77},{"user_id":601,"name":"teehee","steam_id":76561198046280845,"connected_time":876000000000,"state":"active","ping":45},{"user_id":598,"name":"Amoru","steam_id":76561198798161817,"connected_time":970000000000,"state":"active","ping":88},{"user_id":612,"name":"Fernando Alonso","steam_id":76561198875985174,"connected_time":239000000000,"state":"active","ping":73},{"user_id":613,"name":"thebigcheif","steam_id":76561198236015392,"connected_time":180000000000,"state":"active","ping":118},{"user_id":608,"name":"temrane.5555","steam_id":76561197976237300,"connected_time":355000000000,"state":"active","ping":43},{"user_id":567,"name":"unconditional love","steam_id":76561199026097466,"connected_time":3965000000000,"state":"active","ping":70},{"user_id":578,"name":"Sandshee","steam_id":76561198088574666,"connected_time":3192000000000,"state":"active","ping":34},{"user_id":580,"name":"♥aura♥","steam_id":76561198066258544,"connected_time":2790000000000,"state":"active","ping":65},{"user_id":582,"name":"WaDIP","steam_id":76561198010270494,"connected_time":2562000000000,"state":"active","ping":81},{"user_id":551,"name":"Maybe_Stunner","steam_id":76561199085822219,"connected_time":5361000000000,"state":"active","ping":90},{"user_id":611,"name":"My left foot itches","steam_id":76561198078411001,"connected_time":275000000000,"state":"active","ping":83},{"user_id":588,"name":"Andreus","steam_id":76561199403926001,"connected_time":2328000000000,"state":"active","ping":78},{"user_id":609,"name":"Wally","steam_id":76561199383437138,"connected_time":323000000000,"state":"active","ping":120},{"user_id":597,"name":"Deur","steam_id":76561199014305863,"connected_time":1034000000000,"state":"active","ping":99},{"user_id":599,"name":"Wafflesky","steam_id":76561198109973821,"connected_time":925000000000,"state":"active","ping":61},{"user_id":593,"name":"sam-","steam_id":76561198013770973,"connected_time":1200000000000,"state":"active","ping":69},{"user_id":602,"name":"NoMaD994","steam_id":76561198051908201,"connected_time":871000000000,"state":"active","ping":84},{"user_id":574,"name":"Xnopyt","steam_id":76561199117079794,"connected_time":3751000000000,"state":"active","ping":87},{"user_id":603,"name":"Vitamin Weee","steam_id":76561199183937747,"connected_time":870000000000,"state":"active","ping":99},{"user_id":605,"name":"Thing","steam_id":76561197997904403,"connected_time":815000000000,"state":"active","ping":105},{"user_id":606,"name":"Moltisanti","steam_id":76561198139141045,"connected_time":796000000000,"state":"active","ping":111}]},{"server_id":114,"name":"Uncletopia | London | 2 | All Maps","name_short":"lon-2","host":"lon-1.uk.uncletopia.com","port":27025,"enabled":true,"region":"eu","cc":"gb","latitude":51.509865,"longitude":-0.118092,"reserved":0,"last_update":"0001-01-01T00:00:00Z","name_a2s":"Uncletopia | London | 2 | All Maps","protocol":17,"map":"koth_badlands","folder":"tf","game":"Team Fortress","app_id":440,"player_count":24,"max_players":24,"Bots":0,"server_type":"Dedicated","server_os":"Linux","password":true,"vac":true,"version":"7882260","steam_id":85568392924470941,"keywords":["cp","nocrits","nodmgspread","uncletopia"],"game_id":440,"stv_port":27026,"stv_name":"Uncletopia | London | 2 | All Maps | STV","players":[{"user_id":95,"name":"Random","steam_id":76561199079951047,"connected_time":526000000000,"state":"active","ping":96},{"user_id":46,"name":"Mirage","steam_id":76561199013190566,"connected_time":3639000000000,"state":"active","ping":50},{"user_id":66,"name":"Rook","steam_id":76561197995204779,"connected_time":2620000000000,"state":"active","ping":45},{"user_id":84,"name":"One-Face","steam_id":76561197999384826,"connected_time":1338000000000,"state":"active","ping":60},{"user_id":53,"name":"I'm IN your AREAAAA","steam_id":76561198193357946,"connected_time":3329000000000,"state":"active","ping":97},{"user_id":98,"name":"Shark","steam_id":76561198205226501,"connected_time":157000000000,"state":"active","ping":150},{"user_id":90,"name":"Kocham Wode z Filtra","steam_id":76561198016042113,"connected_time":891000000000,"state":"active","ping":89},{"user_id":83,"name":"I know Kung Fu (Lie)","steam_id":76561198032359132,"connected_time":1432000000000,"state":"active","ping":43},{"user_id":62,"name":"REN","steam_id":76561198000596385,"connected_time":2993000000000,"state":"active","ping":76},{"user_id":36,"name":"Gravy","steam_id":76561198029548074,"connected_time":4435000000000,"state":"active","ping":58},{"user_id":50,"name":"Tweek Tweak","steam_id":76561198445739792,"connected_time":3396000000000,"state":"active","ping":123},{"user_id":38,"name":"Bayoyo","steam_id":76561199069591774,"connected_time":4214000000000,"state":"active","ping":84},{"user_id":92,"name":"Peskyplumber64","steam_id":76561198044458330,"connected_time":751000000000,"state":"active","ping":56},{"user_id":85,"name":"Lykos","steam_id":76561198074827880,"connected_time":1133000000000,"state":"active","ping":101},{"user_id":76,"name":"Worm","steam_id":76561198296497176,"connected_time":1856000000000,"state":"active","ping":44},{"user_id":72,"name":"vadr","steam_id":76561198334528186,"connected_time":2088000000000,"state":"active","ping":46},{"user_id":82,"name":"ArtaKir","steam_id":76561198291746440,"connected_time":1476000000000,"state":"active","ping":89},{"user_id":64,"name":"Flyin'BBQ","steam_id":76561198021363070,"connected_time":2877000000000,"state":"active","ping":58},{"user_id":99,"name":"Foly","steam_id":76561198379383694,"connected_time":141000000000,"state":"active","ping":70},{"user_id":96,"name":"Purps","steam_id":76561198053886680,"connected_time":509000000000,"state":"active","ping":32},{"user_id":93,"name":"DoubleHelix","steam_id":76561198045549571,"connected_time":741000000000,"state":"active","ping":60},{"user_id":87,"name":"Syte","steam_id":76561198020997082,"connected_time":937000000000,"state":"active","ping":72},{"user_id":89,"name":"gmele1","steam_id":76561199219013004,"connected_time":903000000000,"state":"active","ping":139},{"user_id":71,"name":"LazySan","steam_id":76561198085914304,"connected_time":2278000000000,"state":"active","ping":85}]},{"server_id":320,"name":"Uncletopia | London | 3 | All Maps","name_short":"lon-3","host":"lon-1.uk.uncletopia.com","port":27035,"enabled":true,"region":"eu","cc":"gb","latitude":51.509865,"longitude":-0.118092,"reserved":0,"last_update":"0001-01-01T00:00:00Z","name_a2s":"Uncletopia | London | 3 | All Maps","protocol":17,"map":"pl_upward","folder":"tf","game":"Team Fortress","app_id":440,"player_count":17,"max_players":24,"Bots":0,"server_type":"Dedicated","server_os":"Linux","password":true,"vac":true,"version":"7882260","steam_id":85568392924510192,"keywords":["nocrits","nodmgspread","payload","uncletopia"],"game_id":440,"stv_port":27036,"stv_name":"Uncletopia | London | 3 | All Maps | STV","players":[{"user_id":508,"name":"Agent Anti-FemPyro XI","steam_id":76561197981064341,"connected_time":9000000000,"state":"spawning","ping":77},{"user_id":491,"name":"Woa","steam_id":76561198345683201,"connected_time":930000000000,"state":"active","ping":54},{"user_id":457,"name":"MoonDroid","steam_id":76561198023027016,"connected_time":2492000000000,"state":"active","ping":44},{"user_id":480,"name":"BELADIT","steam_id":76561198011911501,"connected_time":1587000000000,"state":"active","ping":85},{"user_id":479,"name":"Scooterboy","steam_id":76561198071705499,"connected_time":1603000000000,"state":"active","ping":49},{"user_id":507,"name":"Wujek Cacek","steam_id":76561198010267943,"connected_time":12000000000,"state":"spawning","ping":73},{"user_id":496,"name":"Cöffee","steam_id":76561198115131952,"connected_time":445000000000,"state":"active","ping":96},{"user_id":494,"name":"Salesman Doren","steam_id":76561198076098142,"connected_time":479000000000,"state":"active","ping":37},{"user_id":497,"name":"brk559","steam_id":76561199095687349,"connected_time":427000000000,"state":"active","ping":83},{"user_id":448,"name":"Weeb exterminator","steam_id":76561198078964973,"connected_time":3078000000000,"state":"active","ping":74},{"user_id":478,"name":"flr","steam_id":76561198249327786,"connected_time":1721000000000,"state":"active","ping":66},{"user_id":475,"name":"Rockpig","steam_id":76561198066421407,"connected_time":1789000000000,"state":"active","ping":51},{"user_id":431,"name":"MattyS","steam_id":76561198125923639,"connected_time":4801000000000,"state":"active","ping":45},{"user_id":493,"name":"BomberNote","steam_id":76561198085392317,"connected_time":508000000000,"state":"active","ping":81},{"user_id":501,"name":"weleenkerk","steam_id":76561198143969491,"connected_time":314000000000,"state":"active","ping":61},{"user_id":503,"name":"Ritzy","steam_id":76561198381955342,"connected_time":226000000000,"state":"active","ping":51}]},{"server_id":321,"name":"Uncletopia | London | 4 | All Maps","name_short":"lon-4","host":"lon-1.uk.uncletopia.com","port":27045,"enabled":true,"region":"eu","cc":"gb","latitude":51.509865,"longitude":-0.118092,"reserved":0,"last_update":"0001-01-01T00:00:00Z","name_a2s":"Uncletopia | London | 4 | All Maps","protocol":17,"map":"pl_upward","folder":"tf","game":"Team Fortress","app_id":440,"player_count":23,"max_players":24,"Bots":0,"server_type":"Dedicated","server_os":"Linux","password":true,"vac":true,"version":"7882260","steam_id":85568392924510193,"keywords":["nocrits","nodmgspread","payload","uncletopia"],"game_id":440,"stv_port":27046,"stv_name":"Uncletopia | London | 4 | All Maps | STV","players":[{"user_id":287,"name":"Koi-Koi","steam_id":76561198045527771,"connected_time":2071000000000,"state":"active","ping":63},{"user_id":160,"name":"DelaNo","steam_id":76561199125086655,"connected_time":10404000000000,"state":"active","ping":41},{"user_id":292,"name":"Uckfrog","steam_id":76561198987232417,"connected_time":1619000000000,"state":"active","ping":106},{"user_id":297,"name":"Martin","steam_id":76561199357934976,"connected_time":625000000000,"state":"active","ping":59},{"user_id":298,"name":"Cabbch","steam_id":76561198045955679,"connected_time":621000000000,"state":"active","ping":45},{"user_id":281,"name":"rhost","steam_id":76561199230709660,"connected_time":2255000000000,"state":"active","ping":60},{"user_id":290,"name":"RLCrazyCat3","steam_id":76561197983757878,"connected_time":1732000000000,"state":"active","ping":64},{"user_id":242,"name":"Izzie","steam_id":76561198090287325,"connected_time":4915000000000,"state":"active","ping":63},{"user_id":244,"name":"Regan","steam_id":76561198100631086,"connected_time":4733000000000,"state":"active","ping":52},{"user_id":259,"name":"Benzo Fury","steam_id":76561198025259336,"connected_time":2642000000000,"state":"active","ping":44},{"user_id":306,"name":"cislastar","steam_id":76561198027202375,"connected_time":119000000000,"state":"active","ping":62},{"user_id":263,"name":"blurst of times","steam_id":76561197972325640,"connected_time":2533000000000,"state":"active","ping":46},{"user_id":296,"name":"BROOMSTER","steam_id":76561198344833818,"connected_time":657000000000,"state":"active","ping":66},{"user_id":288,"name":"Mongo","steam_id":76561198012351470,"connected_time":1887000000000,"state":"active","ping":46},{"user_id":304,"name":"Kroto","steam_id":76561198056233760,"connected_time":151000000000,"state":"active","ping":60},{"user_id":305,"name":"Pauxc","steam_id":76561198188346841,"connected_time":128000000000,"state":"active","ping":71},{"user_id":280,"name":"Combat Wombat","steam_id":76561197994720068,"connected_time":2263000000000,"state":"active","ping":62},{"user_id":301,"name":"Buddy","steam_id":76561198050185582,"connected_time":518000000000,"state":"active","ping":66},{"user_id":240,"name":"Max Andrew","steam_id":76561198158955194,"connected_time":5026000000000,"state":"active","ping":50},{"user_id":293,"name":"3L","steam_id":76561198007208996,"connected_time":1612000000000,"state":"active","ping":59},{"user_id":166,"name":"gagalak","steam_id":76561198089979108,"connected_time":10336000000000,"state":"active","ping":95},{"user_id":294,"name":"Gozzer","steam_id":76561197984155185,"connected_time":980000000000,"state":"active","ping":62},{"user_id":286,"name":"Max Power","steam_id":76561198019269089,"connected_time":2174000000000,"state":"active","ping":57}]},{"server_id":21,"name":"Uncletopia | London | 5 | All Maps","name_short":"lon-5","host":"lon-1.uk.uncletopia.com","port":27055,"enabled":true,"region":"eu","cc":"gb","latitude":51.509865,"longitude":-0.118092,"reserved":0,"last_update":"0001-01-01T00:00:00Z","name_a2s":"Uncletopia | London | 5 | All Maps","protocol":17,"map":"koth_highpass","folder":"tf","game":"Team Fortress","app_id":440,"player_count":7,"max_players":24,"Bots":0,"server_type":"Dedicated","server_os":"Linux","password":true,"vac":true,"version":"7882260","steam_id":85568392924742829,"keywords":["cp","nocrits","nodmgspread","uncletopia"],"game_id":440,"stv_port":27056,"stv_name":"Uncletopia | London | 5 | All Maps | STV","players":[{"user_id":36,"name":"Andrew The Spy","steam_id":76561198253535854,"connected_time":586000000000,"state":"active","ping":130},{"user_id":42,"name":"Von Leining","steam_id":76561198859983504,"connected_time":218000000000,"state":"active","ping":59},{"user_id":25,"name":"gunter.exe","steam_id":76561198930058349,"connected_time":2242000000000,"state":"spawning","ping":131},{"user_id":44,"name":"mikota","steam_id":76561199027728405,"connected_time":60000000000,"state":"active","ping":73},{"user_id":32,"name":"MozPango","steam_id":76561198083556891,"connected_time":882000000000,"state":"active","ping":93},{"user_id":37,"name":"Jackie Chan","steam_id":76561199378865926,"connected_time":488000000000,"state":"active","ping":90},{"user_id":38,"name":"C.H.E.R.E.P.","steam_id":76561198026938595,"connected_time":458000000000,"state":"active","ping":76}]},{"server_id":22,"name":"Uncletopia | London | 6 | All Maps","name_short":"lon-6","host":"lon-1.uk.uncletopia.com","port":27065,"enabled":true,"region":"eu","cc":"gb","latitude":51.509865,"longitude":-0.118092,"reserved":0,"last_update":"0001-01-01T00:00:00Z","name_a2s":"Uncletopia | London | 6 | All Maps","protocol":17,"map":"pl_borneo","folder":"tf","game":"Team Fortress","app_id":440,"player_count":16,"max_players":24,"Bots":0,"server_type":"Dedicated","server_os":"Linux","password":true,"vac":true,"version":"7882260","steam_id":85568392924742830,"keywords":["nocrits","nodmgspread","payload","uncletopia"],"game_id":440,"stv_port":27066,"stv_name":"Uncletopia | London | 6 | All Maps | STV","players":[{"user_id":367,"name":"denimchicken","steam_id":76561197989061982,"connected_time":2813000000000,"state":"active","ping":78},{"user_id":372,"name":"Ankle Dane","steam_id":76561198134378108,"connected_time":2370000000000,"state":"active","ping":83},{"user_id":397,"name":"remi, she wrote.","steam_id":76561198044045655,"connected_time":363000000000,"state":"active","ping":65},{"user_id":384,"name":"harry","steam_id":76561199396513379,"connected_time":1816000000000,"state":"active","ping":57},{"user_id":393,"name":"Wardruna96","steam_id":76561199057083828,"connected_time":937000000000,"state":"active","ping":77},{"user_id":395,"name":"night.s","steam_id":76561198326287823,"connected_time":746000000000,"state":"active","ping":71},{"user_id":359,"name":"Dagoth Ur","steam_id":76561198120500488,"connected_time":3959000000000,"state":"active","ping":55},{"user_id":332,"name":"[FP] Shiken","steam_id":76561198257905663,"connected_time":6343000000000,"state":"active","ping":57},{"user_id":380,"name":"Purpurea","steam_id":76561198075376419,"connected_time":2147000000000,"state":"active","ping":62},{"user_id":308,"name":"zvekan","steam_id":76561198381101196,"connected_time":7585000000000,"state":"active","ping":114},{"user_id":362,"name":"Lambda","steam_id":76561198313133913,"connected_time":3683000000000,"state":"spawning","ping":60},{"user_id":399,"name":"Tea guy","steam_id":76561198797847641,"connected_time":104000000000,"state":"spawning","ping":53},{"user_id":391,"name":"U F Onion","steam_id":76561198843305350,"connected_time":1075000000000,"state":"active","ping":107},{"user_id":392,"name":"miixaa69","steam_id":76561199417054629,"connected_time":1050000000000,"state":"active","ping":110},{"user_id":386,"name":"Perämiehenä","steam_id":76561197968945306,"connected_time":1619000000000,"state":"active","ping":154},{"user_id":339,"name":"Macaulay Cuckin","steam_id":76561198030842879,"connected_time":5417000000000,"state":"active","ping":77}]},{"server_id":40,"name":"Uncletopia | London | 7 | No Payload","name_short":"lon-7","host":"lon-1.uk.uncletopia.com","port":27075,"enabled":true,"region":"eu","cc":"gb","latitude":51.509865,"longitude":-0.118092,"reserved":0,"last_update":"0001-01-01T00:00:00Z","name_a2s":"Uncletopia | London | 7 | No Payload","protocol":17,"map":"koth_suijin","folder":"tf","game":"Team Fortress","app_id":440,"player_count":24,"max_players":24,"Bots":0,"server_type":"Dedicated","server_os":"Linux","password":true,"vac":true,"version":"7882260","steam_id":85568392924964314,"keywords":["cp","nocrits","nodmgspread","uncletopia"],"game_id":440,"stv_port":27076,"stv_name":"Uncletopia | London | 7 | No Payload | STV","players":[{"user_id":182,"name":"Toaster1337","steam_id":76561198103706881,"connected_time":1529000000000,"state":"active","ping":77},{"user_id":191,"name":"dirt","steam_id":76561198097583088,"connected_time":1050000000000,"state":"active","ping":121},{"user_id":138,"name":"Marukuso","steam_id":76561198154229845,"connected_time":3739000000000,"state":"active","ping":60},{"user_id":214,"name":"smile","steam_id":76561198365841841,"connected_time":142000000000,"state":"active","ping":69},{"user_id":206,"name":"leonardini.w","steam_id":76561199097963071,"connected_time":442000000000,"state":"active","ping":127},{"user_id":217,"name":"PASTAMAN!!!","steam_id":76561198995641765,"connected_time":1000000000,"state":"spawning","ping":31},{"user_id":207,"name":"El_Kommadante","steam_id":76561198079551685,"connected_time":435000000000,"state":"active","ping":64},{"user_id":159,"name":"Der Herr Doktor","steam_id":76561198119476089,"connected_time":2869000000000,"state":"active","ping":66},{"user_id":176,"name":"IndigoJones","steam_id":76561198050284262,"connected_time":1992000000000,"state":"active","ping":46},{"user_id":139,"name":"Sham!","steam_id":76561198050434275,"connected_time":3735000000000,"state":"active","ping":59},{"user_id":208,"name":"woman (rare)","steam_id":76561198274631806,"connected_time":409000000000,"state":"active","ping":46},{"user_id":186,"name":"Sybille Sirky","steam_id":76561198082407725,"connected_time":1253000000000,"state":"active","ping":47},{"user_id":140,"name":"Average meme enjoyer","steam_id":76561199087566663,"connected_time":3708000000000,"state":"active","ping":91},{"user_id":200,"name":"Celarvaa (cel-larva)","steam_id":76561198035024894,"connected_time":650000000000,"state":"active","ping":76},{"user_id":168,"name":"Rolloden","steam_id":76561198069414404,"connected_time":2506000000000,"state":"active","ping":73},{"user_id":216,"name":"The Knight","steam_id":76561198055320626,"connected_time":31000000000,"state":"active","ping":89},{"user_id":211,"name":"Fletcher","steam_id":76561198108604934,"connected_time":275000000000,"state":"active","ping":48},{"user_id":181,"name":"Counter Plexus","steam_id":76561198081479942,"connected_time":1721000000000,"state":"active","ping":83},{"user_id":215,"name":"wrpipe","steam_id":76561198854305411,"connected_time":123000000000,"state":"active","ping":75},{"user_id":203,"name":"the_Qcumber","steam_id":76561199152515819,"connected_time":504000000000,"state":"active","ping":71},{"user_id":212,"name":"MEDiUM","steam_id":76561198112328561,"connected_time":202000000000,"state":"spawning","ping":61},{"user_id":213,"name":"Darfsterman #rustclash","steam_id":76561199004139305,"connected_time":201000000000,"state":"active","ping":68},{"user_id":116,"name":"M2rtRa","steam_id":76561198111036466,"connected_time":4978000000000,"state":"active","ping":80},{"user_id":209,"name":"Anonymous47007","steam_id":76561199005211417,"connected_time":357000000000,"state":"active","ping":82}]},{"server_id":41,"name":"Uncletopia | London | 8 | Community","name_short":"lon-8","host":"lon-1.uk.uncletopia.com","port":27085,"enabled":true,"region":"eu","cc":"gb","latitude":51.509865,"longitude":-0.118092,"reserved":0,"last_update":"0001-01-01T00:00:00Z","name_a2s":"Uncletopia | London | 8 | Community","protocol":17,"map":"workshop/koth_slaughter_rc1.ugc1712845210","folder":"tf","game":"Team Fortress","app_id":440,"player_count":0,"max_players":24,"Bots":0,"server_type":"Dedicated","server_os":"Linux","password":true,"vac":true,"version":"7882260","steam_id":85568392924964315,"keywords":["cp","nocrits","nodmgspread","uncletopia"],"game_id":440,"stv_port":27086,"stv_name":"Uncletopia | London | 8 | Community | STV","players":null},{"server_id":300,"name":"Uncletopia | Montréal | 1 | All Maps","name_short":"mtl-1","host":"mtl-1.ca.uncletopia.com","port":27015,"enabled":true,"region":"us-east","cc":"ca","latitude":45.50889,"longitude":-73.56167,"reserved":0,"last_update":"0001-01-01T00:00:00Z","name_a2s":"Uncletopia | Montréal | 1 | All Maps","protocol":17,"map":"cp_snakewater_final1","folder":"tf","game":"Team Fortress","app_id":440,"player_count":0,"max_players":24,"Bots":0,"server_type":"Dedicated","server_os":"Linux","password":true,"vac":true,"version":"7882260","steam_id":85568392924500087,"keywords":["cp","nocrits","nodmgspread","uncletopia"],"game_id":440,"stv_port":27016,"stv_name":"Uncletopia | Montréal | 1 | All Maps | STV","players":null},{"server_id":301,"name":"Uncletopia | Montréal | 2 | All Maps","name_short":"mtl-2","host":"mtl-1.ca.uncletopia.com","port":27025,"enabled":true,"region":"us-east","cc":"ca","latitude":45.50889,"longitude":-73.56167,"reserved":0,"last_update":"0001-01-01T00:00:00Z","name_a2s":"Uncletopia | Montréal | 2 | All Maps","protocol":17,"map":"pl_swiftwater_final1","folder":"tf","game":"Team Fortress","app_id":440,"player_count":0,"max_players":24,"Bots":0,"server_type":"Dedicated","server_os":"Linux","password":true,"vac":true,"version":"7882260","steam_id":85568392924500088,"keywords":["nocrits","nodmgspread","payload","uncletopia"],"game_id":440,"stv_port":27026,"stv_name":"Uncletopia | Montréal | 2 | All Maps | STV","players":null},{"server_id":302,"name":"Uncletopia | Montréal | 3 | All Maps","name_short":"mtl-3","host":"mtl-1.ca.uncletopia.com","port":27035,"enabled":true,"region":"us-east","cc":"ca","latitude":45.50889,"longitude":-73.56167,"reserved":0,"last_update":"0001-01-01T00:00:00Z","name_a2s":"Uncletopia | Montréal | 3 | All Maps","protocol":17,"map":"koth_harvest_final","folder":"tf","game":"Team Fortress","app_id":440,"player_count":0,"max_players":24,"Bots":0,"server_type":"Dedicated","server_os":"Linux","password":true,"vac":true,"version":"7882260","steam_id":85568392924500089,"keywords":["cp","nocrits","nodmgspread","uncletopia"],"game_id":440,"stv_port":27036,"stv_name":"Uncletopia | Montréal | 3 | All Maps | STV","players":null},{"server_id":303,"name":"Uncletopia | Montréal | 4 | No Payload","name_short":"mtl-4","host":"mtl-1.ca.uncletopia.com","port":27045,"enabled":true,"region":"us-east","cc":"ca","latitude":45.50889,"longitude":-73.56167,"reserved":0,"last_update":"0001-01-01T00:00:00Z","name_a2s":"Uncletopia | Montréal | 4 | No Payload","protocol":17,"map":"koth_highpass","folder":"tf","game":"Team Fortress","app_id":440,"player_count":0,"max_players":24,"Bots":0,"server_type":"Dedicated","server_os":"Linux","password":true,"vac":true,"version":"7882260","steam_id":85568392924500090,"keywords":["cp","nocrits","nodmgspread","uncletopia"],"game_id":440,"stv_port":27046,"stv_name":"Uncletopia | Montréal | 4 | No Payload | STV","players":null},{"server_id":13,"name":"Uncletopia | New York City | 1 | All Maps","name_short":"nyc-1","host":"nyc-1.us.uncletopia.com","port":27015,"enabled":true,"region":"us-east","cc":"us","latitude":40.73061,"longitude":-73.93524,"reserved":0,"last_update":"0001-01-01T00:00:00Z","name_a2s":"Uncletopia | New York City | 1 | All Maps","protocol":17,"map":"cp_snakewater_final1","folder":"tf","game":"Team Fortress","app_id":440,"player_count":24,"max_players":24,"Bots":0,"server_type":"Dedicated","server_os":"Linux","password":true,"vac":true,"version":"7882260","steam_id":85568392924469993,"keywords":["cp","nocrits","nodmgspread","uncletopia"],"game_id":440,"stv_port":27016,"stv_name":"Uncletopia | New York City | 1 | All Maps | STV","players":[{"user_id":189,"name":"Myn","steam_id":76561198055438857,"connected_time":6241000000000,"state":"active","ping":59},{"user_id":223,"name":"Tidwell","steam_id":76561198037414410,"connected_time":2695000000000,"state":"active","ping":59},{"user_id":245,"name":"Asanez3","steam_id":76561198037381436,"connected_time":850000000000,"state":"active","ping":60},{"user_id":238,"name":"ThisDOT","steam_id":76561199011823773,"connected_time":1748000000000,"state":"active","ping":105},{"user_id":198,"name":"A Puppy","steam_id":76561198828184456,"connected_time":5548000000000,"state":"active","ping":45},{"user_id":197,"name":"turd ferguson","steam_id":76561198071620782,"connected_time":5813000000000,"state":"active","ping":65},{"user_id":243,"name":"Queso2469","steam_id":76561197993024580,"connected_time":981000000000,"state":"active","ping":40},{"user_id":229,"name":"waffal10110101","steam_id":76561198200784511,"connected_time":2574000000000,"state":"active","ping":69},{"user_id":239,"name":"Stuid","steam_id":76561199427506542,"connected_time":1655000000000,"state":"active","ping":153},{"user_id":191,"name":"wool","steam_id":76561198869689933,"connected_time":6115000000000,"state":"active","ping":49},{"user_id":234,"name":"Zixzs","steam_id":76561198055504126,"connected_time":2297000000000,"state":"active","ping":78},{"user_id":225,"name":"SublunarFox","steam_id":76561198886387474,"connected_time":2684000000000,"state":"active","ping":55},{"user_id":231,"name":"Tea Enthusiast","steam_id":76561198185583925,"connected_time":2372000000000,"state":"active","ping":36},{"user_id":264,"name":"Nick","steam_id":76561199065776495,"connected_time":191000000000,"state":"active","ping":72},{"user_id":253,"name":"VISCERAL ASS","steam_id":76561198046130018,"connected_time":689000000000,"state":"active","ping":70},{"user_id":232,"name":"Tater Todd","steam_id":76561198020282117,"connected_time":2370000000000,"state":"active","ping":78},{"user_id":257,"name":"Karma","steam_id":76561198030565234,"connected_time":526000000000,"state":"active","ping":53},{"user_id":260,"name":"Notorious G.R.A.N.D.E.","steam_id":76561198403861055,"connected_time":399000000000,"state":"active","ping":172},{"user_id":249,"name":"Furry exterminator","steam_id":76561199174242639,"connected_time":767000000000,"state":"active","ping":81},{"user_id":258,"name":"Misdoubtful","steam_id":76561198035409499,"connected_time":520000000000,"state":"active","ping":70},{"user_id":235,"name":"Gayne Wretzky","steam_id":76561198069816677,"connected_time":2068000000000,"state":"active","ping":69},{"user_id":217,"name":"Xurany","steam_id":76561199005012427,"connected_time":3738000000000,"state":"active","ping":84},{"user_id":265,"name":"TheChickenChuck","steam_id":76561199192686708,"connected_time":170000000000,"state":"active","ping":104},{"user_id":262,"name":"mans got the mouse katool","steam_id":76561198073103529,"connected_time":354000000000,"state":"active","ping":75}]},{"server_id":14,"name":"Uncletopia | New York City | 2 | All Maps","name_short":"nyc-2","host":"nyc-1.us.uncletopia.com","port":27025,"enabled":true,"region":"us-east","cc":"us","latitude":40.73061,"longitude":-73.93524,"reserved":0,"last_update":"0001-01-01T00:00:00Z","name_a2s":"Uncletopia | New York City | 2 | All Maps","protocol":17,"map":"pl_upward","folder":"tf","game":"Team Fortress","app_id":440,"player_count":24,"max_players":24,"Bots":0,"server_type":"Dedicated","server_os":"Linux","password":true,"vac":true,"version":"7882260","steam_id":85568392924469994,"keywords":["nocrits","nodmgspread","payload","uncletopia"],"game_id":440,"stv_port":27026,"stv_name":"Uncletopia | New York City | 2 | All Maps | STV","players":[{"user_id":132,"name":"gritty 2024","steam_id":76561198165567310,"connected_time":1898000000000,"state":"active","ping":49},{"user_id":88,"name":"proon","steam_id":76561198155983535,"connected_time":4370000000000,"state":"active","ping":60},{"user_id":65,"name":"foxxo","steam_id":76561198451014982,"connected_time":6664000000000,"state":"active","ping":59},{"user_id":174,"name":"Justcallmedave","steam_id":76561198013700581,"connected_time":110000000000,"state":"active","ping":57},{"user_id":125,"name":"Captain Coochie","steam_id":76561198441729702,"connected_time":2252000000000,"state":"active","ping":82},{"user_id":165,"name":"bagelman285","steam_id":76561199074583685,"connected_time":604000000000,"state":"active","ping":42},{"user_id":169,"name":"King Sans","steam_id":76561198294198517,"connected_time":571000000000,"state":"active","ping":41},{"user_id":113,"name":"YesMargaret","steam_id":76561198127971751,"connected_time":2814000000000,"state":"active","ping":72},{"user_id":124,"name":"Aqua","steam_id":76561198136989701,"connected_time":2263000000000,"state":"active","ping":55},{"user_id":61,"name":"kiaan","steam_id":76561198060819695,"connected_time":7128000000000,"state":"active","ping":64},{"user_id":160,"name":"Speedy","steam_id":76561198080761661,"connected_time":1026000000000,"state":"active","ping":64},{"user_id":167,"name":"WANNA SPOON TONIGHT?","steam_id":76561199039152146,"connected_time":599000000000,"state":"active","ping":60},{"user_id":158,"name":"the devil","steam_id":76561198905911729,"connected_time":1302000000000,"state":"active","ping":138},{"user_id":170,"name":"bubbles","steam_id":76561198974276335,"connected_time":530000000000,"state":"active","ping":73},{"user_id":172,"name":"suger1316","steam_id":76561199079999423,"connected_time":481000000000,"state":"active","ping":65},{"user_id":173,"name":"The REAL Drake","steam_id":76561199070125903,"connected_time":347000000000,"state":"active","ping":71},{"user_id":120,"name":"Cyrilthewonders","steam_id":76561198987020031,"connected_time":2665000000000,"state":"active","ping":69},{"user_id":122,"name":"winkie456","steam_id":76561198352628243,"connected_time":2528000000000,"state":"active","ping":59},{"user_id":74,"name":"chiswola","steam_id":76561198046920142,"connected_time":6067000000000,"state":"active","ping":90},{"user_id":116,"name":"Yato","steam_id":76561198084100335,"connected_time":2765000000000,"state":"active","ping":76},{"user_id":162,"name":"Judge Holden","steam_id":76561198322479866,"connected_time":983000000000,"state":"active","ping":39},{"user_id":107,"name":"BigNugs","steam_id":76561198056402610,"connected_time":3241000000000,"state":"active","ping":85},{"user_id":164,"name":"hound","steam_id":76561198880258435,"connected_time":654000000000,"state":"active","ping":100},{"user_id":135,"name":"funny man","steam_id":76561198858817216,"connected_time":1885000000000,"state":"active","ping":85}]},{"server_id":15,"name":"Uncletopia | New York City | 3 | Stopwatch Beta","name_short":"nyc-3","host":"nyc-1.us.uncletopia.com","port":27035,"enabled":true,"region":"us-east","cc":"us","latitude":40.73061,"longitude":-73.93524,"reserved":0,"last_update":"0001-01-01T00:00:00Z","name_a2s":"Uncletopia | New York City | 3 | Stopwatch Beta","protocol":17,"map":"pl_borneo","folder":"tf","game":"Team Fortress","app_id":440,"player_count":0,"max_players":24,"Bots":0,"server_type":"Dedicated","server_os":"Linux","password":true,"vac":true,"version":"7882260","steam_id":85568392924742820,"keywords":["nocrits","nodmgspread","payload","uncletopia"],"game_id":440,"stv_port":27036,"stv_name":"Uncletopia | New York City | 3 | Stopwatch Beta | STV","players":null},{"server_id":16,"name":"Uncletopia | New York City | 4 | Community","name_short":"nyc-4","host":"nyc-1.us.uncletopia.com","port":27045,"enabled":true,"region":"us-east","cc":"us","latitude":40.73061,"longitude":-73.93524,"reserved":0,"last_update":"0001-01-01T00:00:00Z","name_a2s":"Uncletopia | New York City | 4 | Community","protocol":17,"map":"cp_altitude","folder":"tf","game":"Team Fortress","app_id":440,"player_count":0,"max_players":24,"Bots":0,"server_type":"Dedicated","server_os":"Linux","password":true,"vac":true,"version":"7882260","steam_id":85568392924742821,"keywords":["cp","nocrits","nodmgspread","uncletopia"],"game_id":440,"stv_port":27046,"stv_name":"Uncletopia | New York City | 4 | Community | STV","players":null},{"server_id":142,"name":"Uncletopia | São Paulo | 1 | All Maps","name_short":"sao-1","host":"sao-1.br.uncletopia.com","port":27015,"enabled":true,"region":"sa","cc":"br","latitude":-23.533773,"longitude":-46.62529,"reserved":0,"last_update":"0001-01-01T00:00:00Z","name_a2s":"Uncletopia | São Paulo | 1 | All Maps","protocol":17,"map":"koth_viaduct","folder":"tf","game":"Team Fortress","app_id":440,"player_count":0,"max_players":24,"Bots":0,"server_type":"Dedicated","server_os":"Linux","password":true,"vac":true,"version":"7882260","steam_id":85568392924469996,"keywords":["cp","nocrits","nodmgspread","uncletopia"],"game_id":440,"stv_port":27016,"stv_name":"Uncletopia | São Paulo | 1 | All Maps | STV","players":null},{"server_id":143,"name":"Uncletopia | São Paulo | 2 | All Maps","name_short":"sao-2","host":"sao-2.br.uncletopia.com","port":27015,"enabled":true,"region":"sa","cc":"br","latitude":-23.533773,"longitude":-46.62529,"reserved":0,"last_update":"0001-01-01T00:00:00Z","name_a2s":"Uncletopia | São Paulo | 2 | All Maps","protocol":17,"map":"cp_dustbowl","folder":"tf","game":"Team Fortress","app_id":440,"player_count":9,"max_players":24,"Bots":0,"server_type":"Dedicated","server_os":"Linux","password":true,"vac":true,"version":"7882260","steam_id":85568392924485349,"keywords":["cp","nocrits","nodmgspread","uncletopia"],"game_id":440,"stv_port":27016,"stv_name":"Uncletopia | São Paulo | 2 | All Maps | STV","players":[{"user_id":124,"name":"Kamikaze Soldier#SaveTF2","steam_id":76561198860370749,"connected_time":1313000000000,"state":"active","ping":56},{"user_id":115,"name":"Bingchilling","steam_id":76561198062730257,"connected_time":2109000000000,"state":"active","ping":44},{"user_id":139,"name":"Morte","steam_id":76561199150201581,"connected_time":5000000000,"state":"spawning","ping":246},{"user_id":128,"name":"starm0nster","steam_id":76561199016975635,"connected_time":817000000000,"state":"active","ping":36},{"user_id":133,"name":"vacaloca25","steam_id":76561198082683352,"connected_time":546000000000,"state":"active","ping":59},{"user_id":123,"name":"Sherlon","steam_id":76561198039840196,"connected_time":1377000000000,"state":"active","ping":105},{"user_id":127,"name":"PudimScoutbro#SAVETF2","steam_id":76561199218227477,"connected_time":1120000000000,"state":"active","ping":76},{"user_id":135,"name":"Joaconusil","steam_id":76561198118446364,"connected_time":474000000000,"state":"active","ping":65},{"user_id":68,"name":"Chuck McGill","steam_id":76561198359942758,"connected_time":5662000000000,"state":"active","ping":44}]},{"server_id":7,"name":"Uncletopia | Seattle | 1 | All Maps","name_short":"sea-1","host":"sea-1.us.uncletopia.com","port":27015,"enabled":true,"region":"us-west","cc":"us","latitude":47.608013,"longitude":-122.33517,"reserved":0,"last_update":"0001-01-01T00:00:00Z","name_a2s":"Uncletopia | Seattle | 1 | All Maps","protocol":17,"map":"cp_dustbowl","folder":"tf","game":"Team Fortress","app_id":440,"player_count":24,"max_players":24,"Bots":0,"server_type":"Dedicated","server_os":"Linux","password":true,"vac":true,"version":"7882260","steam_id":85568392924469997,"keywords":["cp","nocrits","nodmgspread","uncletopia"],"game_id":440,"stv_port":27016,"stv_name":"Uncletopia | Seattle | 1 | All Maps | STV","players":[{"user_id":93,"name":"Syrix","steam_id":76561198017328672,"connected_time":493000000000,"state":"active","ping":108},{"user_id":90,"name":"JoeJoeJoeBob","steam_id":76561198067236683,"connected_time":611000000000,"state":"active","ping":61},{"user_id":91,"name":"Saint Pablo","steam_id":76561198083300159,"connected_time":575000000000,"state":"active","ping":62},{"user_id":79,"name":"Ectomonkey","steam_id":76561198125417062,"connected_time":1827000000000,"state":"active","ping":82},{"user_id":80,"name":"Zenire","steam_id":76561199087298510,"connected_time":1802000000000,"state":"active","ping":52},{"user_id":18,"name":"Cloud","steam_id":76561198272454184,"connected_time":5866000000000,"state":"active","ping":170},{"user_id":61,"name":"PKDarkness","steam_id":76561198103180140,"connected_time":3050000000000,"state":"active","ping":142},{"user_id":92,"name":"dust | she/it","steam_id":76561198045218909,"connected_time":558000000000,"state":"active","ping":44},{"user_id":35,"name":"HaphazardHazel","steam_id":76561198316812693,"connected_time":4701000000000,"state":"active","ping":149},{"user_id":98,"name":"BuncusBeffer","steam_id":76561198285936616,"connected_time":59000000000,"state":"active","ping":76},{"user_id":84,"name":"Franz","steam_id":76561198041929745,"connected_time":1185000000000,"state":"active","ping":67},{"user_id":95,"name":"Trans Anime Rizz Gaming","steam_id":76561198257541502,"connected_time":376000000000,"state":"active","ping":64},{"user_id":97,"name":"THinkBOX546","steam_id":76561198928550867,"connected_time":144000000000,"state":"active","ping":75},{"user_id":73,"name":"\u003c3Elise\u003c3","steam_id":76561198146435005,"connected_time":2273000000000,"state":"active","ping":71},{"user_id":77,"name":"ghosttᗝ","steam_id":76561199214430703,"connected_time":2054000000000,"state":"active","ping":98},{"user_id":63,"name":"Byte The Protogen","steam_id":76561199229871383,"connected_time":3018000000000,"state":"active","ping":88},{"user_id":64,"name":"mooney","steam_id":76561199110622484,"connected_time":3009000000000,"state":"active","ping":70},{"user_id":40,"name":"Bang","steam_id":76561198279426326,"connected_time":4449000000000,"state":"active","ping":75},{"user_id":50,"name":"oo","steam_id":76561198119626492,"connected_time":3954000000000,"state":"active","ping":85},{"user_id":70,"name":"a firm hand","steam_id":76561198042913843,"connected_time":2469000000000,"state":"active","ping":60},{"user_id":45,"name":"abcdefghijklmnopqrstuvwxyz","steam_id":76561198175741741,"connected_time":4187000000000,"state":"active","ping":63},{"user_id":99,"name":"Xiǎobái","steam_id":76561198827001333,"connected_time":25000000000,"state":"active","ping":194},{"user_id":74,"name":"lili","steam_id":76561199391478575,"connected_time":2181000000000,"state":"active","ping":72},{"user_id":83,"name":"Tightpin","steam_id":76561198042139984,"connected_time":1221000000000,"state":"active","ping":100}]},{"server_id":119,"name":"Uncletopia | Seattle | 2 | All Maps","name_short":"sea-2","host":"sea-1.us.uncletopia.com","port":27025,"enabled":true,"region":"us-west","cc":"us","latitude":47.608013,"longitude":-122.33517,"reserved":0,"last_update":"0001-01-01T00:00:00Z","name_a2s":"Uncletopia | Seattle | 2 | All Maps","protocol":17,"map":"koth_lakeside_final","folder":"tf","game":"Team Fortress","app_id":440,"player_count":0,"max_players":24,"Bots":0,"server_type":"Dedicated","server_os":"Linux","password":true,"vac":true,"version":"7882260","steam_id":85568392924469998,"keywords":["cp","nocrits","nodmgspread","uncletopia"],"game_id":440,"stv_port":27026,"stv_name":"Uncletopia | Seattle | 2 | All Maps | STV","players":null},{"server_id":406,"name":"Uncletopia | Seattle | 3 | Stopwatch Beta","name_short":"sea-3","host":"sea-1.us.uncletopia.com","port":27035,"enabled":true,"region":"us-west","cc":"us","latitude":47.608013,"longitude":-122.33517,"reserved":0,"last_update":"0001-01-01T00:00:00Z","name_a2s":"Uncletopia | Seattle | 3 | Stopwatch Beta","protocol":17,"map":"koth_viaduct","folder":"tf","game":"Team Fortress","app_id":440,"player_count":0,"max_players":24,"Bots":0,"server_type":"Dedicated","server_os":"Linux","password":true,"vac":true,"version":"7882260","steam_id":85568392924515217,"keywords":["cp","nocrits","nodmgspread","uncletopia"],"game_id":440,"stv_port":27036,"stv_name":"Uncletopia | Seattle | 3 | Stopwatch Beta | STV","players":null},{"server_id":17,"name":"Uncletopia | San Francisco | 1 | All Maps","name_short":"sfo-1","host":"sfo-1.us.uncletopia.com","port":27015,"enabled":true,"region":"us-west","cc":"us","latitude":37.77397,"longitude":-122.4313,"reserved":0,"last_update":"0001-01-01T00:00:00Z","name_a2s":"Uncletopia | San Francisco | 1 | All Maps","protocol":17,"map":"koth_viaduct","folder":"tf","game":"Team Fortress","app_id":440,"player_count":0,"max_players":24,"Bots":0,"server_type":"Dedicated","server_os":"Linux","password":true,"vac":true,"version":"7882260","steam_id":85568392924469999,"keywords":["cp","nocrits","nodmgspread","uncletopia"],"game_id":440,"stv_port":27016,"stv_name":"Uncletopia | San Francisco | 1 | All Maps | STV","players":null},{"server_id":18,"name":"Uncletopia | San Francisco | 2 | All Maps","name_short":"sfo-2","host":"sfo-1.us.uncletopia.com","port":27025,"enabled":true,"region":"us-west","cc":"us","latitude":37.77397,"longitude":-122.4313,"reserved":0,"last_update":"0001-01-01T00:00:00Z","name_a2s":"Uncletopia | San Francisco | 2 | All Maps","protocol":17,"map":"pl_frontier_final","folder":"tf","game":"Team Fortress","app_id":440,"player_count":19,"max_players":24,"Bots":0,"server_type":"Dedicated","server_os":"Linux","password":true,"vac":true,"version":"7882260","steam_id":85568392924470000,"keywords":["nocrits","nodmgspread","payload","uncletopia"],"game_id":440,"stv_port":27026,"stv_name":"Uncletopia | San Francisco | 2 | All Maps | STV","players":[{"user_id":245,"name":"Dealer","steam_id":76561198801450794,"connected_time":3737000000000,"state":"spawning","ping":152},{"user_id":244,"name":"HispanicHypocrite","steam_id":76561199436076398,"connected_time":3749000000000,"state":"active","ping":63},{"user_id":290,"name":"greens beans","steam_id":76561198153611491,"connected_time":59000000000,"state":"active","ping":60},{"user_id":262,"name":"AAAAAAAAAAAAAAAAAAAAAAAAAAAAAAA","steam_id":76561198125467937,"connected_time":2926000000000,"state":"active","ping":57},{"user_id":233,"name":"JVKYSL","steam_id":76561199482157711,"connected_time":4643000000000,"state":"active","ping":76},{"user_id":259,"name":"Funkmaster Yee","steam_id":76561198037738918,"connected_time":3020000000000,"state":"active","ping":67},{"user_id":291,"name":"aiming with drawing tablet","steam_id":76561198397662124,"connected_time":43000000000,"state":"active","ping":99},{"user_id":292,"name":"Orion","steam_id":76561198000418837,"connected_time":21000000000,"state":"active","ping":85},{"user_id":278,"name":"some nerd","steam_id":76561198297272878,"connected_time":1174000000000,"state":"active","ping":46},{"user_id":287,"name":"oceanblue","steam_id":76561199013993093,"connected_time":694000000000,"state":"active","ping":62},{"user_id":271,"name":"Seshreb","steam_id":76561198846614634,"connected_time":1269000000000,"state":"active","ping":67},{"user_id":283,"name":"H _ N G M _ N","steam_id":76561198064662875,"connected_time":848000000000,"state":"active","ping":45},{"user_id":247,"name":"J76_","steam_id":76561199224457967,"connected_time":3558000000000,"state":"active","ping":77},{"user_id":263,"name":"Bheem","steam_id":76561198170453459,"connected_time":2808000000000,"state":"active","ping":61},{"user_id":266,"name":"merkury731","steam_id":76561198110565430,"connected_time":2682000000000,"state":"active","ping":101},{"user_id":281,"name":"A Can of Arizona Green Tea","steam_id":76561198062481133,"connected_time":984000000000,"state":"active","ping":82},{"user_id":284,"name":"The Angel of Death","steam_id":76561198026079349,"connected_time":815000000000,"state":"active","ping":81},{"user_id":270,"name":"Sgt. Goober","steam_id":76561198174745902,"connected_time":2033000000000,"state":"active","ping":89},{"user_id":273,"name":"🌸 Rena 🌸","steam_id":76561198048995563,"connected_time":1269000000000,"state":"active","ping":56}]},{"server_id":19,"name":"Uncletopia | San Francisco | 3 | Stopwatch Beta","name_short":"sfo-3","host":"sfo-1.us.uncletopia.com","port":27035,"enabled":true,"region":"us-west","cc":"us","latitude":37.77397,"longitude":-122.4313,"reserved":0,"last_update":"0001-01-01T00:00:00Z","name_a2s":"Uncletopia | San Francisco | 3 | Stopwatch Beta","protocol":17,"map":"pl_snowycoast","folder":"tf","game":"Team Fortress","app_id":440,"player_count":0,"max_players":24,"Bots":0,"server_type":"Dedicated","server_os":"Linux","password":true,"vac":true,"version":"7882260","steam_id":85568392924742824,"keywords":["nocrits","nodmgspread","payload","uncletopia"],"game_id":440,"stv_port":27036,"stv_name":"Uncletopia | San Francisco | 3 | Stopwatch Beta | STV","players":null},{"server_id":20,"name":"Uncletopia | San Francisco | 4 | Community","name_short":"sfo-4","host":"sfo-1.us.uncletopia.com","port":27045,"enabled":true,"region":"us-west","cc":"us","latitude":37.77397,"longitude":-122.4313,"reserved":0,"last_update":"0001-01-01T00:00:00Z","name_a2s":"Uncletopia | San Francisco | 4 | Community","protocol":17,"map":"workshop/cp_glacier_rc6.ugc2905735376","folder":"tf","game":"Team Fortress","app_id":440,"player_count":0,"max_players":24,"Bots":0,"server_type":"Dedicated","server_os":"Linux","password":true,"vac":true,"version":"7882260","steam_id":85568392924742826,"keywords":["cp","nocrits","nodmgspread","uncletopia"],"game_id":440,"stv_port":27046,"stv_name":"Uncletopia | San Francisco | 4 | Community | STV","players":null},{"server_id":141,"name":"Uncletopia | Sydney | 1 | All Maps","name_short":"syd-1","host":"syd-1.au.uncletopia.com","port":27015,"enabled":true,"region":"au","cc":"au","latitude":-33.865143,"longitude":151.2099,"reserved":0,"last_update":"0001-01-01T00:00:00Z","name_a2s":"Uncletopia | Sydney | 1 | All Maps","protocol":17,"map":"pl_frontier_final","folder":"tf","game":"Team Fortress","app_id":440,"player_count":0,"max_players":24,"Bots":0,"server_type":"Dedicated","server_os":"Linux","password":true,"vac":true,"version":"7882260","steam_id":85568392924470001,"keywords":["nocrits","nodmgspread","payload","uncletopia"],"game_id":440,"stv_port":27016,"stv_name":"Uncletopia | Sydney | 1 | All Maps | STV","players":null},{"server_id":123,"name":"Uncletopia | Sydney | 2 | All Maps","name_short":"syd-2","host":"syd-1.au.uncletopia.com","port":27025,"enabled":true,"region":"au","cc":"au","latitude":-33.865143,"longitude":151.2099,"reserved":0,"last_update":"0001-01-01T00:00:00Z","name_a2s":"Uncletopia | Sydney | 2 | All Maps","protocol":17,"map":"pl_pier","folder":"tf","game":"Team Fortress","app_id":440,"player_count":0,"max_players":24,"Bots":0,"server_type":"Dedicated","server_os":"Linux","password":true,"vac":true,"version":"7882260","steam_id":85568392924470002,"keywords":["nocrits","nodmgspread","payload","uncletopia"],"game_id":440,"stv_port":27026,"stv_name":"Uncletopia | Sydney | 2 | All Maps | STV","players":null},{"server_id":395,"name":"Uncletopia | Sydney | 3 | All Maps","name_short":"syd-3","host":"syd-1.au.uncletopia.com","port":27035,"enabled":true,"region":"au","cc":"au","latitude":-33.865143,"longitude":151.2099,"reserved":0,"last_update":"0001-01-01T00:00:00Z","name_a2s":"Uncletopia | Sydney | 3 | All Maps","protocol":17,"map":"koth_viaduct","folder":"tf","game":"Team Fortress","app_id":440,"player_count":0,"max_players":24,"Bots":0,"server_type":"Dedicated","server_os":"Linux","password":true,"vac":true,"version":"7882260","steam_id":85568392925194467,"keywords":["cp","nocrits","nodmgspread","uncletopia"],"game_id":440,"stv_port":27036,"stv_name":"Uncletopia | Sydney | 3 | All Maps | STV","players":null},{"server_id":396,"name":"Uncletopia | Sydney | 4 | All Maps","name_short":"syd-4","host":"syd-1.au.uncletopia.com","port":27045,"enabled":true,"region":"au","cc":"au","latitude":-33.865143,"longitude":151.2099,"reserved":0,"last_update":"0001-01-01T00:00:00Z","name_a2s":"Uncletopia | Sydney | 4 | All Maps","protocol":17,"map":"koth_highpass","folder":"tf","game":"Team Fortress","app_id":440,"player_count":0,"max_players":24,"Bots":0,"server_type":"Dedicated","server_os":"Linux","password":true,"vac":true,"version":"7882260","steam_id":85568392925397958,"keywords":["cp","nocrits","nodmgspread","uncletopia"],"game_id":440,"stv_port":27046,"stv_name":"Uncletopia | Sydney | 4 | All Maps | STV","players":null},{"server_id":58,"name":"Uncletopia | Sydney | 5 | Stopwatch Beta","name_short":"syd-5","host":"syd-1.au.uncletopia.com","port":27055,"enabled":true,"region":"au","cc":"au","latitude":-33.865143,"longitude":151.2099,"reserved":0,"last_update":"0001-01-01T00:00:00Z","name_a2s":"Uncletopia | Sydney | 5 | Stopwatch Beta","protocol":17,"map":"workshop/koth_ramjam_rc1.ugc459778887","folder":"tf","game":"Team Fortress","app_id":440,"player_count":0,"max_players":24,"Bots":0,"server_type":"Dedicated","server_os":"Linux","password":true,"vac":true,"version":"7882260","steam_id":85568392925397959,"keywords":["cp","nocrits","nodmgspread","uncletopia"],"game_id":440,"stv_port":27056,"stv_name":"Uncletopia | Sydney | 5 | Stopwatch Beta | STV","players":null},{"server_id":59,"name":"Uncletopia | Sydney | 6 | Community","name_short":"syd-6","host":"syd-1.au.uncletopia.com","port":27065,"enabled":true,"region":"au","cc":"au","latitude":-33.865143,"longitude":151.2099,"reserved":0,"last_update":"0001-01-01T00:00:00Z","name_a2s":"Uncletopia | Sydney | 6 | Community","protocol":17,"map":"workshop/koth_synthetic_rc6a.ugc1549817316","folder":"tf","game":"Team Fortress","app_id":440,"player_count":0,"max_players":24,"Bots":0,"server_type":"Dedicated","server_os":"Linux","password":true,"vac":true,"version":"7882260","steam_id":85568392925397960,"keywords":["cp","nocrits","nodmgspread","uncletopia"],"game_id":440,"stv_port":27066,"stv_name":"Uncletopia | Sydney | 6 | Community | STV","players":null},{"server_id":49,"name":"Uncletopia | Warsaw | 1 | All Maps","name_short":"waw-1","host":"waw-1.pl.uncletopia.com","port":27015,"enabled":true,"region":"eu","cc":"pl","latitude":52.2297,"longitude":21.017532,"reserved":0,"last_update":"0001-01-01T00:00:00Z","name_a2s":"","protocol":0,"map":"","folder":"","game":"","app_id":0,"player_count":0,"max_players":0,"Bots":0,"server_type":"","server_os":"","password":false,"vac":false,"version":"","steam_id":0,"keywords":null,"game_id":0,"stv_port":0,"stv_name":"","players":null},{"server_id":50,"name":"Uncletopia | Warsaw | 2 | All Maps","name_short":"waw-2","host":"waw-1.pl.uncletopia.com","port":27025,"enabled":true,"region":"eu","cc":"pl","latitude":52.2297,"longitude":21.017532,"reserved":0,"last_update":"0001-01-01T00:00:00Z","name_a2s":"Uncletopia | Warsaw | 2 | All Maps","protocol":17,"map":"koth_viaduct","folder":"tf","game":"Team Fortress","app_id":440,"player_count":0,"max_players":24,"Bots":0,"server_type":"Dedicated","server_os":"Linux","password":true,"vac":true,"version":"7882260","steam_id":85568392925397851,"keywords":["cp","nocrits","nodmgspread","uncletopia"],"game_id":440,"stv_port":27026,"stv_name":"Uncletopia | Warsaw | 2 | All Maps | STV","players":null},{"server_id":51,"name":"Uncletopia | Warsaw | 3 | All Maps","name_short":"waw-3","host":"waw-1.pl.uncletopia.com","port":27035,"enabled":true,"region":"eu","cc":"pl","latitude":52.2297,"longitude":21.017532,"reserved":0,"last_update":"0001-01-01T00:00:00Z","name_a2s":"Uncletopia | Warsaw | 3 | All Maps","protocol":17,"map":"pl_swiftwater_final1","folder":"tf","game":"Team Fortress","app_id":440,"player_count":0,"max_players":24,"Bots":0,"server_type":"Dedicated","server_os":"Linux","password":true,"vac":true,"version":"7882260","steam_id":85568392925397852,"keywords":["nocrits","nodmgspread","payload","uncletopia"],"game_id":440,"stv_port":27036,"stv_name":"Uncletopia | Warsaw | 3 | All Maps | STV","players":null},{"server_id":52,"name":"Uncletopia | Warsaw | 4 | All Maps","name_short":"waw-4","host":"waw-1.pl.uncletopia.com","port":27045,"enabled":true,"region":"eu","cc":"pl","latitude":52.2297,"longitude":21.017532,"reserved":0,"last_update":"0001-01-01T00:00:00Z","name_a2s":"Uncletopia | Warsaw | 4 | All Maps","protocol":17,"map":"koth_cascade","folder":"tf","game":"Team Fortress","app_id":440,"player_count":0,"max_players":24,"Bots":0,"server_type":"Dedicated","server_os":"Linux","password":true,"vac":true,"version":"7882260","steam_id":85568392925397853,"keywords":["cp","nocrits","nodmgspread","uncletopia"],"game_id":440,"stv_port":27046,"stv_name":"Uncletopia | Warsaw | 4 | All Maps | STV","players":null},{"server_id":53,"name":"Uncletopia | Warsaw | 5 | Stopwatch Beta","name_short":"waw-5","host":"waw-1.pl.uncletopia.com","port":27055,"enabled":true,"region":"eu","cc":"pl","latitude":52.2297,"longitude":21.017532,"reserved":0,"last_update":"0001-01-01T00:00:00Z","name_a2s":"Uncletopia | Warsaw | 5 | Stopwatch Beta","protocol":17,"map":"cp_granary","folder":"tf","game":"Team Fortress","app_id":440,"player_count":0,"max_players":24,"Bots":0,"server_type":"Dedicated","server_os":"Linux","password":true,"vac":true,"version":"7882260","steam_id":85568392925397854,"keywords":["cp","nocrits","nodmgspread","uncletopia"],"game_id":440,"stv_port":27056,"stv_name":"Uncletopia | Warsaw | 5 | Stopwatch Beta | STV","players":null},{"server_id":54,"name":"Uncletopia | Warsaw | 6 | Community","name_short":"waw-6","host":"waw-1.pl.uncletopia.com","port":27065,"enabled":true,"region":"eu","cc":"pl","latitude":52.2297,"longitude":21.017532,"reserved":0,"last_update":"0001-01-01T00:00:00Z","name_a2s":"Uncletopia | Warsaw | 6 | Community","protocol":17,"map":"workshop/koth_bagel_rc6.ugc2514036946","folder":"tf","game":"Team Fortress","app_id":440,"player_count":1,"max_players":24,"Bots":0,"server_type":"Dedicated","server_os":"Linux","password":true,"vac":true,"version":"7882260","steam_id":85568392925397856,"keywords":["cp","nocrits","nodmgspread","uncletopia"],"game_id":440,"stv_port":27066,"stv_name":"Uncletopia | Warsaw | 6 | Community | STV","players":[{"user_id":10,"name":"CRIT","steam_id":76561199195096783,"connected_time":378000000000,"state":"active","ping":71}]}]}