{"status":true,"message":"","result":[{"server_id":9,"name":"Uncletopia | Atlanta | 1 | All Maps","name_short":"atl-1","host":"atl-1.us.uncletopia.com","port":27015,"enabled":true,"region":"us-east","cc":"us","latitude":33.753746,"longitude":-84.38633,"reserved":0,"last_update":"0001-01-01T00:00:00Z","name_a2s":"Uncletopia | Atlanta | 1 | All Maps","protocol":17,"map":"pl_upward","folder":"tf","game":"Team Fortress","app_id":440,"player_count":13,"max_players":24,"Bots":0,"server_type":"Dedicated","server_os":"Linux","password":true,"vac":true,"version":"7932396","steam_id":85568392924469982,"keywords":["nocrits","nodmgspread","payload","uncletopia"],"game_id":440,"stv_port":27016,"stv_name":"Uncletopia | Atlanta | 1 | All Maps | STV","players":[{"user_id":537,"name":"Metapod","steam_id":76561198008725465,"connected_time":305000000000,"state":"active","ping":84},{"user_id":538,"name":"Medication Woman","steam_id":76561198348965524,"connected_time":304000000000,"state":"active","ping":88},{"user_id":534,"name":"goopman","steam_id":76561199247176207,"connected_time":597000000000,"state":"active","ping":280},{"user_id":535,"name":"Meep","steam_id":76561198357308577,"connected_time":564000000000,"state":"active","ping":119},{"user_id":509,"name":"LProduct","steam_id":76561199442139670,"connected_time":2823000000000,"state":"active","ping":362},{"user_id":533,"name":"Joobathan","steam_id":76561198077576449,"connected_time":680000000000,"state":"active","ping":110},{"user_id":542,"name":"Loonie \u003c3","steam_id":76561199159603807,"connected_time":161000000000,"state":"active","ping":80},{"user_id":539,"name":"Pight","steam_id":76561198823422389,"connected_time":269000000000,"state":"active","ping":86},{"user_id":520,"name":"Dededoo","steam_id":76561198279033471,"connected_time":1471000000000,"state":"active","ping":96},{"user_id":528,"name":"dr. coomer serket","steam_id":76561197998431617,"connected_time":949000000000,"state":"active","ping":113},{"user_id":522,"name":"Box{Fear is for the weak}","steam_id":76561198259097323,"connected_time":1130000000000,"state":"active","ping":65},{"user_id":540,"name":"Underwear Monster","steam_id":76561198175742775,"connected_time":245000000000,"state":"active","ping":115},{"user_id":525,"name":"Esteban Delsin","steam_id":76561198433519639,"connected_time":1064000000000,"state":"active","ping":110}]},{"server_id":104,"name":"Uncletopia | Atlanta | 2 | All Maps","name_short":"atl-2","host":"atl-1.us.uncletopia.com","port":27025,"enabled":true,"region":"us-east","cc":"us","latitude":33.753746,"longitude":-84.38633,"reserved":0,"last_update":"0001-01-01T00:00:00Z","name_a2s":"Uncletopia | Atlanta | 2 | All Maps","protocol":17,"map":"pl_upward","folder":"tf","game":"Team Fortress","app_id":440,"player_count":19,"max_players":24,"Bots":0,"server_type":"Dedicated","server_os":"Linux","password":true,"vac":true,"version":"7932396","steam_id":85568392924469983,"keywords":["nocrits","nodmgspread","payload","uncletopia"],"game_id":440,"stv_port":27026,"stv_name":"Uncletopia | Atlanta | 2 | All Maps | STV","players":[{"user_id":741,"name":"Capybara Enjoyer","steam_id":76561199147114434,"connected_time":847000000000,"state":"active","ping":110},{"user_id":585,"name":"M1K3 :)","steam_id":76561198072217407,"connected_time":4518000000000,"state":"active","ping":69},{"user_id":708,"name":"violent monkey porn","steam_id":76561199285074344,"connected_time":1716000000000,"state":"active","ping":126},{"user_id":743,"name":"RandyPickleshoes","steam_id":76561198064139260,"connected_time":780000000000,"state":"active","ping":107},{"user_id":740,"name":"[Janitor] SuperFlexMan","steam_id":76561198075382445,"connected_time":898000000000,"state":"active","ping":83},{"user_id":766,"name":"cookie","steam_id":76561198051499968,"connected_time":9000000000,"state":"spawning","ping":113},{"user_id":756,"name":"Real Azure #SaveTF2","steam_id":76561198095912284,"connected_time":234000000000,"state":"active","ping":133},{"user_id":749,"name":"Walpinsta","steam_id":76561198394882349,"connected_time":430000000000,"state":"active","ping":106},{"user_id":610,"name":"Wolfman","steam_id":76561198095264646,"connected_time":3922000000000,"state":"active","ping":99},{"user_id":751,"name":"Rock under the sun","steam_id":76561198881093314,"connected_time":386000000000,"state":"active","ping":154},{"user_id":759,"name":"Nicolas Cage Kisses Mace Windu","steam_id":76561198046127710,"connected_time":187000000000,"state":"active","ping":90},{"user_id":699,"name":"Glub Enjoyer","steam_id":76561198342587663,"connected_time":1899000000000,"state":"active","ping":113},{"user_id":762,"name":"Whatrus","steam_id":76561198340908301,"connected_time":86000000000,"state":"active","ping":215},{"user_id":754,"name":"Zoro01","steam_id":76561198407989540,"connected_time":322000000000,"state":"active","ping":127},{"user_id":757,"name":"Wackydavo","steam_id":76561197990094209,"connected_time":229000000000,"state":"active","ping":160},{"user_id":710,"name":"Techo","steam_id":76561199169405285,"connected_time":1704000000000,"state":"active","ping":152},{"user_id":764,"name":"The Sex Defender","steam_id":76561198964223143,"connected_time":66000000000,"state":"active","ping":101},{"user_id":720,"name":"Pedro Num","steam_id":76561198854600072,"connected_time":1397000000000,"state":"active","ping":166},{"user_id":581,"name":"woah","steam_id":76561198993008247,"connected_time":4637000000000,"state":"active","ping":130}]},{"server_id":400,"name":"Uncletopia | Atlanta | 3 | Community","name_short":"atl-3","host":"atl-1.us.uncletopia.com","port":27035,"enabled":true,"region":"us-east","cc":"us","latitude":33.753746,"longitude":-84.38633,"reserved":0,"last_update":"0001-01-01T00:00:00Z","name_a2s":"Uncletopia | Atlanta | 3 | Community","protocol":17,"map":"workshop/koth_trenchfoot_b1a.ugc731436616","folder":"tf","game":"Team Fortress","app_id":440,"player_count":0,"max_players":24,"Bots":0,"server_type":"Dedicated","server_os":"Linux","password":true,"vac":true,"version":"7932396","steam_id":85568392924515187,"keywords":["cp","nocrits","nodmgspread","uncletopia"],"game_id":440,"stv_port":27036,"stv_name":"Uncletopia | Atlanta | 3 | Community | STV","players":null},{"server_id":401,"name":"Uncletopia | Atlanta | 4 | No Payload","name_short":"atl-4","host":"atl-1.us.uncletopia.com","port":27045,"enabled":true,"region":"us-east","cc":"us","latitude":33.753746,"longitude":-84.38633,"reserved":0,"last_update":"0001-01-01T00:00:00Z","name_a2s":"","protocol":0,"map":"","folder":"","game":"","app_id":0,"player_count":0,"max_players":0,"Bots":0,"server_type":"","server_os":"","password":false,"vac":false,"version":"","steam_id":0,"keywords":null,"game_id":0,"stv_port":0,"stv_name":"","players":null},{"server_id":2,"name":"Uncletopia | Chicago | 1 | All Maps","name_short":"chi-1","host":"chi-1.us.uncletopia.com","port":27015,"enabled":true,"region":"us-central","cc":"us","latitude":41.881832,"longitude":-87.62318,"reserved":0,"last_update":"0001-01-01T00:00:00Z","name_a2s":"Uncletopia | Chicago | 1 | All Maps","protocol":17,"map":"pl_frontier_final","folder":"tf","game":"Team Fortress","app_id":440,"player_count":24,"max_players":24,"Bots":0,"server_type":"Dedicated","server_os":"Linux","password":true,"vac":true,"version":"7932396","steam_id":85568392924469984,"keywords":["nocrits","nodmgspread","payload","uncletopia"],"game_id":440,"stv_port":27016,"stv_name":"Uncletopia | Chicago | 1 | All Maps | STV","players":[{"user_id":353,"name":"Cdesmondd","steam_id":76561198072774462,"connected_time":2235000000000,"state":"active","ping":57},{"user_id":347,"name":"troll","steam_id":76561198040890252,"connected_time":2259000000000,"state":"active","ping":70},{"user_id":357,"name":"Swash","steam_id":76561197969421355,"connected_time":1430000000000,"state":"active","ping":63},{"user_id":368,"name":"SpinetinglingToast","steam_id":76561198099470670,"connected_time":498000000000,"state":"active","ping":73},{"user_id":373,"name":"Doctor Emerald(real)","steam_id":76561199123003872,"connected_time":208000000000,"state":"active","ping":94},{"user_id":336,"name":"HOTA","steam_id":76561199002778841,"connected_time":3864000000000,"state":"active","ping":76},{"user_id":319,"name":"raspy","steam_id":76561198027298961,"connected_time":5340000000000,"state":"active","ping":54},{"user_id":292,"name":"Zoot","steam_id":76561198121944243,"connected_time":7634000000000,"state":"active","ping":81},{"user_id":344,"name":"DuckMann","steam_id":76561198197058638,"connected_time":2883000000000,"state":"active","ping":60},{"user_id":365,"name":"Rookie","steam_id":76561198191763447,"connected_time":506000000000,"state":"active","ping":94},{"user_id":361,"name":"DinkleBerg","steam_id":76561198891626233,"connected_time":516000000000,"state":"active","ping":61},{"user_id":343,"name":"Snom","steam_id":76561198333827920,"connected_time":3196000000000,"state":"active","ping":231},{"user_id":341,"name":"Admiral Crumbs (Fasting)","steam_id":76561198108791583,"connected_time":3211000000000,"state":"active","ping":72},{"user_id":366,"name":"Obelix","steam_id":76561198274715109,"connected_time":505000000000,"state":"active","ping":57},{"user_id":372,"name":"Gr4yyッ","steam_id":76561198126936736,"connected_time":257000000000,"state":"active","ping":88},{"user_id":370,"name":"AYAYA!!!","steam_id":76561198992102180,"connected_time":491000000000,"state":"active","ping":47},{"user_id":342,"name":"Albino (FATTING)","steam_id":76561198063970639,"connected_time":3211000000000,"state":"active","ping":69},{"user_id":375,"name":"OffKey","steam_id":76561198017660927,"connected_time":26000000000,"state":"active","ping":52},{"user_id":350,"name":"MR. BEEEEEEEEEEEEEAAAAAAAAAAST","steam_id":76561198205346760,"connected_time":2249000000000,"state":"active","ping":47},{"user_id":352,"name":"Colonel Dissapointment","steam_id":76561198181891649,"connected_time":2239000000000,"state":"active","ping":56},{"user_id":354,"name":"leaf.png","steam_id":76561198847561312,"connected_time":1577000000000,"state":"active","ping":45},{"user_id":208,"name":"Lia_Rein","steam_id":76561198151569597,"connected_time":15398000000000,"state":"active","ping":152},{"user_id":334,"name":"Space","steam_id":76561198350489754,"connected_time":4113000000000,"state":"active","ping":46},{"user_id":356,"name":"Wizard Raccoon","steam_id":76561198072562591,"connected_time":1449000000000,"state":"active","ping":82}]},{"server_id":106,"name":"Uncletopia | Chicago | 2 | All Maps","name_short":"chi-2","host":"chi-1.us.uncletopia.com","port":27025,"enabled":true,"region":"us-central","cc":"us","latitude":41.881832,"longitude":-87.62318,"reserved":0,"last_update":"0001-01-01T00:00:00Z","name_a2s":"Uncletopia | Chicago | 2 | All Maps","protocol":17,"map":"pl_borneo","folder":"tf","game":"Team Fortress","app_id":440,"player_count":24,"max_players":24,"Bots":0,"server_type":"Dedicated","server_os":"Linux","password":true,"vac":true,"version":"7932396","steam_id":85568392924469985,"keywords":["nocrits","nodmgspread","payload","uncletopia"],"game_id":440,"stv_port":27026,"stv_name":"Uncletopia | Chicago | 2 | All Maps | STV","players":[{"user_id":365,"name":"Billychicken54","steam_id":76561198022365463,"connected_time":939000000000,"state":"active","ping":57},{"user_id":366,"name":"AJTarcza","steam_id":76561198070800190,"connected_time":931000000000,"state":"active","ping":82},{"user_id":350,"name":"Grand","steam_id":76561198290143399,"connected_time":2492000000000,"state":"active","ping":72},{"user_id":323,"name":"ttv/xiiiTF2","steam_id":76561198079416036,"connected_time":4429000000000,"state":"active","ping":43},{"user_id":378,"name":"Paxa","steam_id":76561198008953177,"connected_time":358000000000,"state":"active","ping":72},{"user_id":355,"name":"NAHIDA","steam_id":76561198349648942,"connected_time":2023000000000,"state":"active","ping":163},{"user_id":352,"name":"A Drippy Rat","steam_id":76561198376026672,"connected_time":2082000000000,"state":"active","ping":74},{"user_id":375,"name":"Satan-2","steam_id":76561199231742764,"connected_time":606000000000,"state":"active","ping":74},{"user_id":367,"name":"Fightin Cow","steam_id":76561198080941486,"connected_time":911000000000,"state":"active","ping":82},{"user_id":380,"name":"king stupid","steam_id":76561199013535116,"connected_time":161000000000,"state":"active","ping":60},{"user_id":362,"name":"Flowers","steam_id":76561198031669899,"connected_time":1213000000000,"state":"active","ping":87},{"user_id":360,"name":"Rornir","steam_id":76561198081829615,"connected_time":1635000000000,"state":"active","ping":45},{"user_id":320,"name":"Treader","steam_id":76561198096555885,"connected_time":4770000000000,"state":"active","ping":65},{"user_id":369,"name":"Sunfly","steam_id":76561198034307439,"connected_time":884000000000,"state":"active","ping":31},{"user_id":374,"name":"crayonnipple","steam_id":76561198070253331,"connected_time":668000000000,"state":"active","ping":75},{"user_id":376,"name":"saint martin","steam_id":76561198173047169,"connected_time":536000000000,"state":"active","ping":62},{"user_id":325,"name":"tomboyfemboy @ttv/xiiitf2","steam_id":76561198061868020,"connected_time":4184000000000,"state":"active","ping":138},{"user_id":358,"name":"Dot.","steam_id":76561198149463984,"connected_time":1774000000000,"state":"active","ping":59},{"user_id":343,"name":"ttv.theohareonion","steam_id":76561198201259645,"connected_time":3172000000000,"state":"active","ping":68},{"user_id":346,"name":"brian eno","steam_id":76561198109901138,"connected_time":2714000000000,"state":"active","ping":80},{"user_id":373,"name":"capybara","steam_id":76561198182288455,"connected_time":727000000000,"state":"active","ping":308},{"user_id":354,"name":"anyakitten","steam_id":76561197994492154,"connected_time":2066000000000,"state":"active","ping":177},{"user_id":377,"name":"DFR oak","steam_id":76561198092135570,"connected_time":429000000000,"state":"active","ping":61},{"user_id":348,"name":"Truffles","steam_id":76561198095868800,"connected_time":2668000000000,"state":"active","ping":86}]},{"server_id":402,"name":"Uncletopia | Chicago | 3 | All Maps","name_short":"chi-3","host":"chi-1.us.uncletopia.com","port":27035,"enabled":true,"region":"us-central","cc":"us","latitude":41.881832,"longitude":-87.62318,"reserved":0,"last_update":"0001-01-01T00:00:00Z","name_a2s":"Uncletopia | Chicago | 3 | All Maps","protocol":17,"map":"ctf_2fort","folder":"tf","game":"Team Fortress","app_id":440,"player_count":23,"max_players":24,"Bots":0,"server_type":"Dedicated","server_os":"Linux","password":true,"vac":true,"version":"7932396","steam_id":85568392924515191,"keywords":["ctf","nocrits","nodmgspread","uncletopia"],"game_id":440,"stv_port":27036,"stv_name":"Uncletopia | Chicago | 3 | All Maps | STV","players":[{"user_id":836,"name":"Elite_Friendly","steam_id":76561198819972127,"connected_time":1164000000000,"state":"active","ping":90},{"user_id":837,"name":"NeonBean","steam_id":76561198088335827,"connected_time":1086000000000,"state":"active","ping":88},{"user_id":812,"name":"JetZ","steam_id":76561199122488957,"connected_time":3128000000000,"state":"active","ping":65},{"user_id":835,"name":"Monochi","steam_id":76561198093093118,"connected_time":1292000000000,"state":"active","ping":80},{"user_id":721,"name":"Waddlehi","steam_id":76561198072553840,"connected_time":6608000000000,"state":"active","ping":55},{"user_id":806,"name":"Vaudeville Villain","steam_id":76561199212093339,"connected_time":3233000000000,"state":"active","ping":71},{"user_id":842,"name":"smoking on bhutanese shadow pac","steam_id":76561198095313463,"connected_time":562000000000,"state":"active","ping":86},{"user_id":843,"name":"squidpunk1312","steam_id":76561198202274248,"connected_time":532000000000,"state":"active","ping":92},{"user_id":844,"name":"Infinitytacos","steam_id":76561198884260211,"connected_time":520000000000,"state":"active","ping":45},{"user_id":845,"name":"YesMargaret","steam_id":76561198127971751,"connected_time":490000000000,"state":"active","ping":69},{"user_id":846,"name":"ThyLocalCrusader","steam_id":76561198116112218,"connected_time":438000000000,"state":"active","ping":43},{"user_id":847,"name":"JtsRes","steam_id":76561197994809241,"connected_time":434000000000,"state":"active","ping":63},{"user_id":848,"name":"AXZIOM","steam_id":76561198255074952,"connected_time":407000000000,"state":"active","ping":87},{"user_id":824,"name":"Dr. Dick","steam_id":76561198138011922,"connected_time":2369000000000,"state":"active","ping":74},{"user_id":737,"name":"Jabawakai","steam_id":76561198088881254,"connected_time":5829000000000,"state":"active","ping":56},{"user_id":849,"name":"2_Kan","steam_id":76561199456801899,"connected_time":355000000000,"state":"active","ping":89},{"user_id":850,"name":"da clown","steam_id":76561199096780590,"connected_time":337000000000,"state":"active","ping":103},{"user_id":851,"name":"Spring Beans","steam_id":76561197978546259,"connected_time":323000000000,"state":"active","ping":59},{"user_id":852,"name":"JACK BRUNO","steam_id":76561198027957690,"connected_time":310000000000,"state":"active","ping":113},{"user_id":853,"name":"Jeff","steam_id":76561198078570414,"connected_time":170000000000,"state":"active","ping":100},{"user_id":816,"name":"ultralisk52","steam_id":76561198051666604,"connected_time":2692000000000,"state":"active","ping":60},{"user_id":855,"name":"St. Michael","steam_id":76561198037611052,"connected_time":77000000000,"state":"active","ping":71},{"user_id":856,"name":"CivilWarMike","steam_id":76561198141188839,"connected_time":50000000000,"state":"active","ping":72}]},{"server_id":403,"name":"Uncletopia | Chicago | 4 | All Maps","name_short":"chi-4","host":"chi-1.us.uncletopia.com","port":27045,"enabled":true,"region":"us-central","cc":"us","latitude":41.881832,"longitude":-87.62318,"reserved":0,"last_update":"0001-01-01T00:00:00Z","name_a2s":"Uncletopia | Chicago | 4 | All Maps","protocol":17,"map":"pl_pier","folder":"tf","game":"Team Fortress","app_id":440,"player_count":25,"max_players":24,"Bots":0,"server_type":"Dedicated","server_os":"Linux","password":true,"vac":true,"version":"7932396","steam_id":85568392924515193,"keywords":["nocrits","nodmgspread","payload","uncletopia"],"game_id":440,"stv_port":27046,"stv_name":"Uncletopia | Chicago | 4 | All Maps | STV","players":[{"user_id":411,"name":"Marc Antony","steam_id":76561198011366517,"connected_time":4826000000000,"state":"active","ping":59},{"user_id":383,"name":"AeroFortune","steam_id":76561198204736219,"connected_time":7813000000000,"state":"active","ping":113},{"user_id":507,"name":"l4d2 marshall","steam_id":76561198042570322,"connected_time":194000000000,"state":"active","ping":56},{"user_id":496,"name":"harold","steam_id":76561199016285746,"connected_time":309000000000,"state":"active","ping":88},{"user_id":448,"name":"playguy carter","steam_id":76561198080679337,"connected_time":914000000000,"state":"active","ping":52},{"user_id":394,"name":"RedSock","steam_id":76561198161243404,"connected_time":7089000000000,"state":"active","ping":45},{"user_id":433,"name":"JSlayz","steam_id":76561198853768655,"connected_time":2803000000000,"state":"active","ping":45},{"user_id":410,"name":"taylor swift","steam_id":76561198151135298,"connected_time":5203000000000,"state":"active","ping":90},{"user_id":440,"name":"Pizza","steam_id":76561198118748364,"connected_time":1354000000000,"state":"active","ping":76},{"user_id":437,"name":"Lv4 Gnoll Magus","steam_id":76561198042068995,"connected_time":1675000000000,"state":"active","ping":79},{"user_id":508,"name":"nori_420","steam_id":76561199117134203,"connected_time":171000000000,"state":"active","ping":108},{"user_id":447,"name":"makina","steam_id":76561198057475567,"connected_time":920000000000,"state":"active","ping":70},{"user_id":455,"name":"Spy that forgets his team","steam_id":76561198430778361,"connected_time":853000000000,"state":"active","ping":136},{"user_id":424,"name":"Double Dip","steam_id":76561198067483536,"connected_time":3666000000000,"state":"active","ping":48},{"user_id":477,"name":"Kng","steam_id":76561198993248203,"connected_time":511000000000,"state":"active","ping":105},{"user_id":510,"name":"CyborgHexapus4","steam_id":76561198160335724,"connected_time":87000000000,"state":"spawning","ping":81},{"user_id":441,"name":"a table","steam_id":76561198158461279,"connected_time":1348000000000,"state":"active","ping":62},{"user_id":513,"name":"tesagi","steam_id":76561198026664629,"connected_time":0,"state":"spawning","ping":27},{"user_id":506,"name":"he/him whimper","steam_id":76561198097175164,"connected_time":212000000000,"state":"active","ping":81},{"user_id":503,"name":"[12V] Marv","steam_id":76561198158638384,"connected_time":237000000000,"state":"active","ping":70},{"user_id":453,"name":"MonotoneMerc","steam_id":76561198022309851,"connected_time":889000000000,"state":"active","ping":105},{"user_id":454,"name":"frank","steam_id":76561198137777483,"connected_time":881000000000,"state":"active","ping":66},{"user_id":451,"name":"Dog Goggles","steam_id":76561197995233692,"connected_time":901000000000,"state":"active","ping":88},{"user_id":452,"name":"Googol","steam_id":76561198015967429,"connected_time":900000000000,"state":"active","ping":101},{"user_id":444,"name":"totoro","steam_id":76561198210420871,"connected_time":1236000000000,"state":"active","ping":45}]},{"server_id":36,"name":"Uncletopia | Chicago | 5 | All Maps","name_short":"chi-5","host":"chi-2.us.uncletopia.com","port":27015,"enabled":true,"region":"us-central","cc":"us","latitude":41.881832,"longitude":-87.62318,"reserved":0,"last_update":"0001-01-01T00:00:00Z","name_a2s":"Uncletopia | Chicago | 5 | All Maps","protocol":17,"map":"cp_mercenarypark","folder":"tf","game":"Team Fortress","app_id":440,"player_count":24,"max_players":24,"Bots":0,"server_type":"Dedicated","server_os":"Linux","password":true,"vac":true,"version":"7932396","steam_id":85568392924866362,"keywords":["cp","nocrits","nodmgspread","uncletopia"],"game_id":440,"stv_port":27016,"stv_name":"Uncletopia | Chicago | 5 | All Maps | STV","players":[{"user_id":398,"name":"Leonhard Euler","steam_id":76561199070141774,"connected_time":2533000000000,"state":"active","ping":87},{"user_id":391,"name":"Kaluka","steam_id":76561198036861445,"connected_time":2819000000000,"state":"active","ping":75},{"user_id":394,"name":"DeMarkus Feltcher","steam_id":76561198069350974,"connected_time":2702000000000,"state":"active","ping":85},{"user_id":401,"name":"Universe Man","steam_id":76561197997710655,"connected_time":1852000000000,"state":"active","ping":87},{"user_id":379,"name":"ProfessorCagan","steam_id":76561198141372356,"connected_time":4590000000000,"state":"active","ping":48},{"user_id":328,"name":"s71nk3y / Stinky / Apestoso","steam_id":76561198060954715,"connected_time":8827000000000,"state":"active","ping":80},{"user_id":356,"name":"James","steam_id":76561198081313916,"connected_time":6756000000000,"state":"active","ping":74},{"user_id":417,"name":"c0mp4c7_d1sc","steam_id":76561199037065992,"connected_time":896000000000,"state":"active","ping":55},{"user_id":414,"name":"Huntpk","steam_id":76561198340591674,"connected_time":1008000000000,"state":"active","ping":40},{"user_id":415,"name":"Soupman_Official","steam_id":76561198314308732,"connected_time":1006000000000,"state":"active","ping":44},{"user_id":416,"name":"Monolith Soldier","steam_id":76561198171898155,"connected_time":975000000000,"state":"active","ping":57},{"user_id":389,"name":"malon milk","steam_id":76561198042558913,"connected_time":3496000000000,"state":"active","ping":80},{"user_id":427,"name":"Irthene","steam_id":76561198047888351,"connected_time":443000000000,"state":"active","ping":61},{"user_id":411,"name":"cotton candy tyrant","steam_id":76561198058998371,"connected_time":1107000000000,"state":"active","ping":70},{"user_id":425,"name":"Cervidé","steam_id":76561198098579497,"connected_time":719000000000,"state":"active","ping":75},{"user_id":412,"name":"Flipeecup","steam_id":76561198100007863,"connected_time":1101000000000,"state":"active","ping":89},{"user_id":420,"name":"YouR dad","steam_id":76561198044013623,"connected_time":803000000000,"state":"active","ping":71},{"user_id":421,"name":"Snowy 79","steam_id":76561198944639546,"connected_time":788000000000,"state":"active","ping":79},{"user_id":422,"name":"Nick.","steam_id":76561198881036699,"connected_time":787000000000,"state":"active","ping":83},{"user_id":423,"name":"Cap'n Short Legs","steam_id":76561198164139410,"connected_time":780000000000,"state":"active","ping":80},{"user_id":397,"name":"Axel Beoulve","steam_id":76561198126511231,"connected_time":2632000000000,"state":"active","ping":130},{"user_id":408,"name":"TheSnipersHat","steam_id":76561198057684066,"connected_time":1270000000000,"state":"active","ping":63},{"user_id":355,"name":"Naffty","steam_id":76561198119734981,"connected_time":6810000000000,"state":"active","ping":108},{"user_id":428,"name":"Snake Handler","steam_id":76561198027198306,"connected_time":383000000000,"state":"active","ping":59}]},{"server_id":37,"name":"Uncletopia | Chicago | 6 | All Maps","name_short":"chi-6","host":"chi-2.us.uncletopia.com","port":27025,"enabled":true,"region":"us-central","cc":"us","latitude":41.881832,"longitude":-87.62318,"reserved":0,"last_update":"0001-01-01T00:00:00Z","name_a2s":"Uncletopia | Chicago | 6 | All Maps","protocol":17,"map":"pl_pier","folder":"tf","game":"Team Fortress","app_id":440,"player_count":24,"max_players":24,"Bots":0,"server_type":"Dedicated","server_os":"Linux","password":true,"vac":true,"version":"7932396","steam_id":85568392924866363,"keywords":["nocrits","nodmgspread","payload","uncletopia"],"game_id":440,"stv_port":27026,"stv_name":"Uncletopia | Chicago | 6 | All Maps | STV","players":[{"user_id":146,"name":"pudl","steam_id":76561198043726592,"connected_time":1363000000000,"state":"active","ping":69},{"user_id":147,"name":"manbearswineflu","steam_id":76561198083945137,"connected_time":1295000000000,"state":"active","ping":69},{"user_id":131,"name":"richarven","steam_id":76561198189429665,"connected_time":2196000000000,"state":"active","ping":73},{"user_id":157,"name":"squash the beef","steam_id":76561198277163301,"connected_time":620000000000,"state":"active","ping":72},{"user_id":145,"name":"(Past Tense)","steam_id":76561197996279335,"connected_time":1473000000000,"state":"active","ping":53},{"user_id":148,"name":"Demonica","steam_id":76561198841858340,"connected_time":1271000000000,"state":"active","ping":71},{"user_id":139,"name":"Sage","steam_id":76561198143101697,"connected_time":1735000000000,"state":"active","ping":104},{"user_id":124,"name":"Poe Wuppafoe","steam_id":76561198211674749,"connected_time":2694000000000,"state":"active","ping":73},{"user_id":160,"name":"crumpsycodger","steam_id":76561197972601902,"connected_time":165000000000,"state":"active","ping":84},{"user_id":141,"name":"Lore","steam_id":76561198098407538,"connected_time":1638000000000,"state":"active","ping":56},{"user_id":149,"name":"money talks, wealth whispers","steam_id":76561198149666258,"connected_time":1254000000000,"state":"active","ping":49},{"user_id":135,"name":"Also Known As Assteeth","steam_id":76561198049837377,"connected_time":1966000000000,"state":"active","ping":52},{"user_id":156,"name":"ATL1 | TheRealMud","steam_id":76561198138312993,"connected_time":729000000000,"state":"active","ping":154},{"user_id":84,"name":"Walrusto","steam_id":76561198829644616,"connected_time":5565000000000,"state":"active","ping":79},{"user_id":161,"name":"Silverkeys","steam_id":76561197986012496,"connected_time":104000000000,"state":"active","ping":72},{"user_id":159,"name":"wedoalittletrolling TF2EASY.COM","steam_id":76561198984807162,"connected_time":211000000000,"state":"active","ping":66},{"user_id":91,"name":"Hope","steam_id":76561199201900779,"connected_time":5457000000000,"state":"active","ping":78},{"user_id":128,"name":"Jofferie","steam_id":76561198035927549,"connected_time":2610000000000,"state":"active","ping":75},{"user_id":151,"name":"WastefulTrash","steam_id":76561198119003597,"connected_time":1228000000000,"state":"active","ping":70},{"user_id":152,"name":"Furious George","steam_id":76561198405111646,"connected_time":1209000000000,"state":"active","ping":98},{"user_id":92,"name":"Peepster","steam_id":76561198297854733,"connected_time":5439000000000,"state":"active","ping":79},{"user_id":129,"name":"helen keller","steam_id":76561197979870540,"connected_time":2488000000000,"state":"active","ping":58},{"user_id":154,"name":"Killroy NQP ❤","steam_id":76561198006983771,"connected_time":1170000000000,"state":"active","ping":77},{"user_id":143,"name":"lxzvrdwxzvrd","steam_id":76561198111975583,"connected_time":1609000000000,"state":"active","ping":98}]},{"server_id":38,"name":"Uncletopia | Chicago | 7 | Stopwatch Beta","name_short":"chi-7","host":"chi-2.us.uncletopia.com","port":27035,"enabled":true,"region":"us-central","cc":"us","latitude":41.881832,"longitude":-87.62318,"reserved":0,"last_update":"0001-01-01T00:00:00Z","name_a2s":"Uncletopia | Chicago | 7 | Stopwatch Beta","protocol":17,"map":"pl_upward","folder":"tf","game":"Team Fortress","app_id":440,"player_count":23,"max_players":24,"Bots":0,"server_type":"Dedicated","server_os":"Linux","password":true,"vac":true,"version":"7932396","steam_id":85568392924866364,"keywords":["nocrits","nodmgspread","payload","uncletopia"],"game_id":440,"stv_port":27036,"stv_name":"Uncletopia | Chicago | 7 | Stopwatch Beta | STV","players":[{"user_id":26,"name":"subro","steam_id":76561198839134994,"connected_time":3910000000000,"state":"active","ping":82},{"user_id":70,"name":"big fish","steam_id":76561198186479818,"connected_time":836000000000,"state":"active","ping":116},{"user_id":28,"name":"Best_Garbage","steam_id":76561199070436446,"connected_time":3838000000000,"state":"active","ping":81},{"user_id":18,"name":"ire","steam_id":76561198228984836,"connected_time":4363000000000,"state":"active","ping":78},{"user_id":84,"name":"john travolta from pulp fiction","steam_id":76561199487373269,"connected_time":105000000000,"state":"active","ping":65},{"user_id":71,"name":"-(FCC)- DREDD","steam_id":76561198063039042,"connected_time":821000000000,"state":"active","ping":62},{"user_id":69,"name":"ttv/ shouleil","steam_id":76561198970370243,"connected_time":986000000000,"state":"active","ping":54},{"user_id":22,"name":"(TTV) The_Astrum_Guardian","steam_id":76561198130134103,"connected_time":4165000000000,"state":"active","ping":65},{"user_id":83,"name":"bladees saddest, realest verse","steam_id":76561198098099826,"connected_time":116000000000,"state":"active","ping":88},{"user_id":86,"name":"Kidzbopsicle","steam_id":76561198047660691,"connected_time":67000000000,"state":"active","ping":52},{"user_id":87,"name":"Big Daddy's Worst Nightmare","steam_id":76561198087155304,"connected_time":56000000000,"state":"active","ping":66},{"user_id":60,"name":"Tom Crúaich","steam_id":76561197999439911,"connected_time":2159000000000,"state":"active","ping":71},{"user_id":72,"name":"R0CK","steam_id":76561198055540752,"connected_time":798000000000,"state":"active","ping":42},{"user_id":81,"name":"LeTonzy","steam_id":76561198005806699,"connected_time":301000000000,"state":"active","ping":111},{"user_id":82,"name":"Bee","steam_id":76561198074681324,"connected_time":128000000000,"state":"active","ping":63},{"user_id":75,"name":"Santamen","steam_id":76561198119478199,"connected_time":632000000000,"state":"active","ping":64},{"user_id":80,"name":"Smokey","steam_id":76561198093158117,"connected_time":303000000000,"state":"active","ping":59},{"user_id":54,"name":"danielarmvt","steam_id":76561198799723201,"connected_time":2598000000000,"state":"active","ping":114},{"user_id":59,"name":"[S]Mr. X [No Monitor]","steam_id":76561197963746035,"connected_time":2172000000000,"state":"active","ping":140},{"user_id":74,"name":"crashymicsplody","steam_id":76561198213916765,"connected_time":701000000000,"state":"active","ping":80},{"user_id":41,"name":"Sollyz","steam_id":76561198081110786,"connected_time":3284000000000,"state":"active","ping":98},{"user_id":78,"name":"skent6621","steam_id":76561199210134404,"connected_time":557000000000,"state":"active","ping":87},{"user_id":46,"name":"J O S H³²","steam_id":76561198122603779,"connected_time":3168000000000,"state":"active","ping":97}]},{"server_id":39,"name":"Uncletopia | Chicago | 8 | Community","name_short":"chi-8","host":"chi-2.us.uncletopia.com","port":27045,"enabled":true,"region":"us-central","cc":"us","latitude":41.881832,"longitude":-87.62318,"reserved":0,"last_update":"0001-01-01T00:00:00Z","name_a2s":"Uncletopia | Chicago | 8 | Community","protocol":17,"map":"workshop/koth_trenchfoot_b1a.ugc731436616","folder":"tf","game":"Team Fortress","app_id":440,"player_count":0,"max_players":24,"Bots":0,"server_type":"Dedicated","server_os":"Linux","password":true,"vac":true,"version":"7932396","steam_id":85568392924866365,"keywords":["cp","nocrits","nodmgspread","uncletopia"],"game_id":440,"stv_port":27046,"stv_name":"Uncletopia | Chicago | 8 | Community | STV","players":null},{"server_id":8,"name":"Uncletopia | Dallas | 1 | All Maps","name_short":"dal-1","host":"dal-1.us.uncletopia.com","port":27015,"enabled":true,"region":"us-central","cc":"us","latitude":32.779167,"longitude":-96.80889,"reserved":0,"last_update":"0001-01-01T00:00:00Z","name_a2s":"Uncletopia | Dallas | 1 | All Maps","protocol":17,"map":"pl_badwater","folder":"tf","game":"Team Fortress","app_id":440,"player_count":24,"max_players":24,"Bots":0,"server_type":"Dedicated","server_os":"Linux","password":true,"vac":true,"version":"7932396","steam_id":85568392924469986,"keywords":["nocrits","nodmgspread","payload","uncletopia"],"game_id":440,"stv_port":27016,"stv_name":"Uncletopia | Dallas | 1 | All Maps | STV","players":[{"user_id":732,"name":"Sup m8","steam_id":76561198081659121,"connected_time":977000000000,"state":"active","ping":33},{"user_id":722,"name":"Bill from L4D","steam_id":76561198821762699,"connected_time":2062000000000,"state":"active","ping":86},{"user_id":648,"name":"cypherzero","steam_id":76561199182960322,"connected_time":8882000000000,"state":"active","ping":51},{"user_id":719,"name":"Shattered Glass","steam_id":76561198116835391,"connected_time":2300000000000,"state":"active","ping":91},{"user_id":731,"name":"plink","steam_id":76561198057829889,"connected_time":1208000000000,"state":"active","ping":75},{"user_id":707,"name":"Quick Quack Car Wash","steam_id":76561197992753062,"connected_time":3568000000000,"state":"active","ping":85},{"user_id":683,"name":"derdds","steam_id":76561198034339940,"connected_time":4710000000000,"state":"active","ping":75},{"user_id":654,"name":"Tommy Provolone","steam_id":76561198170062377,"connected_time":8445000000000,"state":"active","ping":72},{"user_id":663,"name":"riSygneD","steam_id":76561198331618687,"connected_time":6669000000000,"state":"active","ping":62},{"user_id":715,"name":"NOT Susie Deltarune (not real)","steam_id":76561199007365488,"connected_time":2599000000000,"state":"active","ping":71},{"user_id":733,"name":"DJ-Whatchya #rEtiReD","steam_id":76561198060355298,"connected_time":600000000000,"state":"active","ping":87},{"user_id":694,"name":"MEGA NEGBERT","steam_id":76561198325613425,"connected_time":3881000000000,"state":"active","ping":110},{"user_id":724,"name":"Thickgloves","steam_id":76561198245629322,"connected_time":2014000000000,"state":"active","ping":86},{"user_id":674,"name":"errant","steam_id":76561197961758410,"connected_time":5794000000000,"state":"active","ping":34},{"user_id":727,"name":"lüh me da granky.hog","steam_id":76561198056186750,"connected_time":1742000000000,"state":"active","ping":83},{"user_id":680,"name":"DiabetesMan","steam_id":76561198075668940,"connected_time":4759000000000,"state":"active","ping":86},{"user_id":730,"name":"lamadre07","steam_id":76561198067337453,"connected_time":1501000000000,"state":"active","ping":78},{"user_id":711,"name":"how to fly?","steam_id":76561198064255155,"connected_time":3195000000000,"state":"active","ping":66},{"user_id":693,"name":"barker bill","steam_id":76561198018451994,"connected_time":3932000000000,"state":"active","ping":61},{"user_id":725,"name":"Swiggs","steam_id":76561198135015291,"connected_time":1781000000000,"state":"active","ping":63},{"user_id":734,"name":"spiderguy","steam_id":76561198412074955,"connected_time":587000000000,"state":"active","ping":65},{"user_id":705,"name":"Ironaka","steam_id":76561198029993183,"connected_time":3667000000000,"state":"active","ping":93},{"user_id":735,"name":"0x01FE","steam_id":76561198838881917,"connected_time":567000000000,"state":"active","ping":62},{"user_id":737,"name":"A Straw","steam_id":76561199367935846,"connected_time":504000000000,"state":"active","ping":71}]},{"server_id":108,"name":"Uncletopia | Dallas | 2 | All Maps","name_short":"dal-2","host":"dal-1.us.uncletopia.com","port":27025,"enabled":true,"region":"us-central","cc":"us","latitude":32.779167,"longitude":-96.80889,"reserved":0,"last_update":"0001-01-01T00:00:00Z","name_a2s":"Uncletopia | Dallas | 2 | All Maps","protocol":17,"map":"cp_granary","folder":"tf","game":"Team Fortress","app_id":440,"player_count":23,"max_players":24,"Bots":0,"server_type":"Dedicated","server_os":"Linux","password":true,"vac":true,"version":"7932396","steam_id":85568392924469988,"keywords":["cp","nocrits","nodmgspread","uncletopia"],"game_id":440,"stv_port":27026,"stv_name":"Uncletopia | Dallas | 2 | All Maps | STV","players":[{"user_id":594,"name":"Not Giga Chad","steam_id":76561198059785363,"connected_time":1418000000000,"state":"active","ping":55},{"user_id":560,"name":"Insizhen","steam_id":76561198051352605,"connected_time":3650000000000,"state":"active","ping":57},{"user_id":566,"name":"aloysius","steam_id":76561199193617048,"connected_time":3434000000000,"state":"active","ping":72},{"user_id":592,"name":"Kirby.exe","steam_id":76561198242714582,"connected_time":1746000000000,"state":"active","ping":62},{"user_id":606,"name":"Tuvok Shakur","steam_id":76561198018875334,"connected_time":521000000000,"state":"active","ping":60},{"user_id":602,"name":"Evangelion","steam_id":76561198059690074,"connected_time":1200000000000,"state":"active","ping":43},{"user_id":603,"name":"moopmop","steam_id":76561198065224965,"connected_time":1113000000000,"state":"active","ping":90},{"user_id":610,"name":"chaffy","steam_id":76561198021754567,"connected_time":13000000000,"state":"spawning","ping":58},{"user_id":490,"name":"TheGFG","steam_id":76561198166150556,"connected_time":10003000000000,"state":"active","ping":65},{"user_id":567,"name":"Relaxed","steam_id":76561199208293985,"connected_time":3421000000000,"state":"active","ping":76},{"user_id":533,"name":"Jesse","steam_id":76561198157305426,"connected_time":6633000000000,"state":"active","ping":61},{"user_id":605,"name":"Snoman","steam_id":76561197969248675,"connected_time":608000000000,"state":"active","ping":68},{"user_id":572,"name":"confetti except its bees","steam_id":76561198355264648,"connected_time":3377000000000,"state":"active","ping":73},{"user_id":597,"name":"emerge","steam_id":76561198186882891,"connected_time":1337000000000,"state":"active","ping":82},{"user_id":607,"name":"totally not a pile of beans","steam_id":76561198119851931,"connected_time":486000000000,"state":"active","ping":96},{"user_id":598,"name":"Raz","steam_id":76561198002426150,"connected_time":1333000000000,"state":"active","ping":45},{"user_id":599,"name":"J21","steam_id":76561198066590783,"connected_time":1305000000000,"state":"active","ping":91},{"user_id":609,"name":"Burt Macklin","steam_id":76561198038080028,"connected_time":112000000000,"state":"active","ping":85},{"user_id":554,"name":"dweamy","steam_id":76561198119181880,"connected_time":4288000000000,"state":"active","ping":60},{"user_id":600,"name":"Apricot","steam_id":76561198355699935,"connected_time":1289000000000,"state":"active","ping":80},{"user_id":604,"name":"Tetris Speedrunner","steam_id":76561198984917566,"connected_time":668000000000,"state":"active","ping":61},{"user_id":601,"name":"xTSxbob T.S.H.A","steam_id":76561198130440530,"connected_time":1258000000000,"state":"active","ping":79},{"user_id":496,"name":"AlcoholicDad454","steam_id":76561198157414556,"connected_time":9858000000000,"state":"active","ping":84}]},{"server_id":5,"name":"Uncletopia | Frankfurt | 1 | All Maps","name_short":"frk-1","host":"frk-1.de.uncletopia.com","port":27015,"enabled":true,"region":"eu","cc":"de","latitude":50.110924,"longitude":8.682127,"reserved":0,"last_update":"0001-01-01T00:00:00Z","name_a2s":"Uncletopia | Frankfurt | 1 | All Maps","protocol":17,"map":"pl_pier","folder":"tf","game":"Team Fortress","app_id":440,"player_count":0,"max_players":24,"Bots":0,"server_type":"Dedicated","server_os":"Linux","password":true,"vac":true,"version":"7932396","steam_id":85568392924469989,"keywords":["nocrits","nodmgspread","payload","uncletopia"],"game_id":440,"stv_port":27016,"stv_name":"Uncletopia | Frankfurt | 1 | All Maps | STV","players":null},{"server_id":110,"name":"Uncletopia | Frankfurt | 2 | All Maps","name_short":"frk-2","host":"frk-1.de.uncletopia.com","port":27025,"enabled":true,"region":"eu","cc":"de","latitude":50.110924,"longitude":8.682127,"reserved":0,"last_update":"0001-01-01T00:00:00Z","name_a2s":"Uncletopia | Frankfurt | 2 | All Maps","protocol":17,"map":"pl_swiftwater_final1","folder":"tf","game":"Team Fortress","app_id":440,"player_count":0,"max_players":24,"Bots":0,"server_type":"Dedicated","server_os":"Linux","password":true,"vac":true,"version":"7932396","steam_id":85568392924469990,"keywords":["nocrits","nodmgspread","payload","uncletopia"],"game_id":440,"stv_port":27026,"stv_name":"Uncletopia | Frankfurt | 2 | All Maps | STV","players":null},{"server_id":308,"name":"Uncletopia | Frankfurt | 3 | All Maps","name_short":"frk-3","host":"frk-1.de.uncletopia.com","port":27035,"enabled":true,"region":"eu","cc":"de","latitude":50.110924,"longitude":8.682127,"reserved":0,"last_update":"0001-01-01T00:00:00Z","name_a2s":"Uncletopia | Frankfurt | 3 | All Maps","protocol":17,"map":"koth_highpass","folder":"tf","game":"Team Fortress","app_id":440,"player_count":0,"max_players":24,"Bots":0,"server_type":"Dedicated","server_os":"Linux","password":true,"vac":true,"version":"7932396","steam_id":85568392924504274,"keywords":["cp","nocrits","nodmgspread","uncletopia"],"game_id":440,"stv_port":27036,"stv_name":"Uncletopia | Frankfurt | 3 | All Maps | STV","players":null},{"server_id":309,"name":"Uncletopia | Frankfurt | 4 | All Maps","name_short":"frk-4","host":"frk-1.de.uncletopia.com","port":27045,"enabled":true,"region":"eu","cc":"de","latitude":50.110924,"longitude":8.682127,"reserved":0,"last_update":"0001-01-01T00:00:00Z","name_a2s":"Uncletopia | Frankfurt | 4 | All Maps","protocol":17,"map":"cp_process_final","folder":"tf","game":"Team Fortress","app_id":440,"player_count":16,"max_players":24,"Bots":0,"server_type":"Dedicated","server_os":"Linux","password":true,"vac":true,"version":"7932396","steam_id":85568392924504275,"keywords":["cp","nocrits","nodmgspread","uncletopia"],"game_id":440,"stv_port":27046,"stv_name":"Uncletopia | Frankfurt | 4 | All Maps | STV","players":[{"user_id":540,"name":"MurСhila","steam_id":76561198819104188,"connected_time":258000000000,"state":"active","ping":99},{"user_id":498,"name":"STINGL88","steam_id":76561198099968962,"connected_time":3284000000000,"state":"active","ping":75},{"user_id":528,"name":"Ｓａｓｓｙ","steam_id":76561198844060342,"connected_time":1910000000000,"state":"active","ping":59},{"user_id":499,"name":".epiL","steam_id":76561198812768425,"connected_time":3278000000000,"state":"active","ping":79},{"user_id":532,"name":"Dragon","steam_id":76561198163255365,"connected_time":1254000000000,"state":"active","ping":96},{"user_id":539,"name":"A real set of badonkers","steam_id":76561198138525714,"connected_time":309000000000,"state":"active","ping":176},{"user_id":500,"name":"ksg","steam_id":76561198042894236,"connected_time":3263000000000,"state":"active","ping":66},{"user_id":533,"name":"scott steiners strongest warrio","steam_id":76561198148888622,"connected_time":807000000000,"state":"active","ping":69},{"user_id":438,"name":"paradigmatic shift","steam_id":76561197988802856,"connected_time":10175000000000,"state":"active","ping":59},{"user_id":529,"name":"MIG","steam_id":76561198099245500,"connected_time":1792000000000,"state":"active","ping":74},{"user_id":536,"name":"63756d","steam_id":76561198808699024,"connected_time":440000000000,"state":"active","ping":57},{"user_id":530,"name":"Kosmonaukt","steam_id":76561198168108777,"connected_time":1694000000000,"state":"active","ping":65},{"user_id":518,"name":"[37th]LeJeff","steam_id":76561198148672652,"connected_time":2745000000000,"state":"active","ping":167},{"user_id":512,"name":"Ran33","steam_id":76561197991474499,"connected_time":3087000000000,"state":"active","ping":91},{"user_id":537,"name":"Cosmetic brain","steam_id":76561198055936410,"connected_time":425000000000,"state":"active","ping":87},{"user_id":522,"name":"Just A Fan","steam_id":76561199095470507,"connected_time":2711000000000,"state":"active","ping":188}]},{"server_id":310,"name":"Uncletopia | Frankfurt | 5 | All Maps","name_short":"frk-5","host":"frk-1.de.uncletopia.com","port":27055,"enabled":true,"region":"eu","cc":"de","latitude":50.110924,"longitude":8.682127,"reserved":0,"last_update":"0001-01-01T00:00:00Z","name_a2s":"Uncletopia | Frankfurt | 5 | All Maps","protocol":17,"map":"koth_highpass","folder":"tf","game":"Team Fortress","app_id":440,"player_count":0,"max_players":24,"Bots":0,"server_type":"Dedicated","server_os":"Linux","password":true,"vac":true,"version":"7932396","steam_id":85568392924504277,"keywords":["cp","nocrits","nodmgspread","uncletopia"],"game_id":440,"stv_port":27056,"stv_name":"Uncletopia | Frankfurt | 5 | All Maps | STV","players":null},{"server_id":311,"name":"Uncletopia | Frankfurt | 6 | All Maps","name_short":"frk-6","host":"frk-1.de.uncletopia.com","port":27065,"enabled":true,"region":"eu","cc":"de","latitude":50.110924,"longitude":8.682127,"reserved":0,"last_update":"0001-01-01T00:00:00Z","name_a2s":"Uncletopia | Frankfurt | 6 | All Maps","protocol":17,"map":"pl_badwater","folder":"tf","game":"Team Fortress","app_id":440,"player_count":0,"max_players":24,"Bots":0,"server_type":"Dedicated","server_os":"Linux","password":true,"vac":true,"version":"7932396","steam_id":85568392924504278,"keywords":["nocrits","nodmgspread","payload","uncletopia"],"game_id":440,"stv_port":27066,"stv_name":"Uncletopia | Frankfurt | 6 | All Maps | STV","players":null},{"server_id":23,"name":"Uncletopia | Frankfurt | 7 | Stopwatch Beta","name_short":"frk-7","host":"frk-1.de.uncletopia.com","port":27075,"enabled":true,"region":"eu","cc":"de","latitude":50.110924,"longitude":8.682127,"reserved":0,"last_update":"0001-01-01T00:00:00Z","name_a2s":"Uncletopia | Frankfurt | 7 | Stopwatch Beta","protocol":17,"map":"pl_snowycoast","folder":"tf","game":"Team Fortress","app_id":440,"player_count":0,"max_players":24,"Bots":0,"server_type":"Dedicated","server_os":"Linux","password":true,"vac":true,"version":"7932396","steam_id":85568392924742827,"keywords":["nocrits","nodmgspread","payload","uncletopia"],"game_id":440,"stv_port":27076,"stv_name":"Uncletopia | Frankfurt | 7 | Stopwatch Beta | STV","players":null},{"server_id":24,"name":"Uncletopia | Frankfurt | 8 | Community","name_short":"frk-8","host":"frk-1.de.uncletopia.com","port":27085,"enabled":true,"region":"eu","cc":"de","latitude":50.110924,"longitude":8.682127,"reserved":0,"last_update":"0001-01-01T00:00:00Z","name_a2s":"Uncletopia | Frankfurt | 8 | Community","protocol":17,"map":"workshop/cp_bruhstbowl_b6.ugc2878604990","folder":"tf","game":"Team Fortress","app_id":440,"player_count":0,"max_players":24,"Bots":0,"server_type":"Dedicated","server_os":"Linux","password":true,"vac":true,"version":"7932396","steam_id":85568392924742828,"keywords":["cp","nocrits","nodmgspread","uncletopia"],"game_id":440,"stv_port":27086,"stv_name":"Uncletopia | Frankfurt | 8 | Community | STV","players":null},{"server_id":202,"name":"Uncletopia | Hong Kong | 1 | All Maps","name_short":"hgk-1","host":"hgk-1.hk.uncletopia.com","port":27015,"enabled":true,"region":"asia","cc":"hk","latitude":22.302711,"longitude":114.177216,"reserved":0,"last_update":"0001-01-01T00:00:00Z","name_a2s":"Uncletopia | Hong Kong | 1 | All Maps","protocol":17,"map":"cp_mountainlab","folder":"tf","game":"Team Fortress","app_id":440,"player_count":2,"max_players":24,"Bots":0,"server_type":"Dedicated","server_os":"Linux","password":true,"vac":true,"version":"7932396","steam_id":85568392924494504,"keywords":["cp","nocrits","nodmgspread","uncletopia"],"game_id":440,"stv_port":27016,"stv_name":"Uncletopia | Hong Kong | 1 | All Maps | STV","players":[{"user_id":16,"name":"Xx_EpicTrickstabber_xX","steam_id":76561199024960087,"connected_time":1583000000000,"state":"active","ping":48},{"user_id":18,"name":"gero's boytoy","steam_id":76561199226227211,"connected_time":429000000000,"state":"active","ping":76}]},{"server_id":1,"name":"Uncletopia | Los Angeles | 1 | All Maps","name_short":"lax-1","host":"lax-1.us.uncletopia.com","port":27015,"enabled":true,"region":"us-west","cc":"us","latitude":33.94279,"longitude":-118.41004,"reserved":0,"last_update":"0001-01-01T00:00:00Z","name_a2s":"Uncletopia | Los Angeles | 1 | All Maps","protocol":17,"map":"pl_barnblitz","folder":"tf","game":"Team Fortress","app_id":440,"player_count":24,"max_players":24,"Bots":0,"server_type":"Dedicated","server_os":"Linux","password":true,"vac":true,"version":"7932396","steam_id":85568392924469991,"keywords":["nocrits","nodmgspread","payload","uncletopia"],"game_id":440,"stv_port":27016,"stv_name":"Uncletopia | Los Angeles | 1 | All Maps | STV","players":[{"user_id":214,"name":"Ferret","steam_id":76561198060416458,"connected_time":1744000000000,"state":"active","ping":67},{"user_id":223,"name":"fish LFT :)","steam_id":76561198054070811,"connected_time":1289000000000,"state":"active","ping":54},{"user_id":227,"name":"Kung fu Mungus","steam_id":76561198069281556,"connected_time":746000000000,"state":"active","ping":87},{"user_id":231,"name":"doughboy","steam_id":76561198219012928,"connected_time":566000000000,"state":"active","ping":50},{"user_id":232,"name":"St. Bimmius","steam_id":76561198013595716,"connected_time":562000000000,"state":"active","ping":56},{"user_id":176,"name":"CEOlifestyle","steam_id":76561198025747866,"connected_time":4351000000000,"state":"active","ping":76},{"user_id":244,"name":"naturia","steam_id":76561198092317849,"connected_time":99000000000,"state":"active","ping":43},{"user_id":226,"name":"Skagerecked","steam_id":76561198006578524,"connected_time":763000000000,"state":"active","ping":84},{"user_id":199,"name":"MakutaArty1987","steam_id":76561199048865492,"connected_time":2357000000000,"state":"active","ping":100},{"user_id":217,"name":"._.","steam_id":76561198300316801,"connected_time":1687000000000,"state":"active","ping":106},{"user_id":201,"name":"lunamoon250","steam_id":76561199122331888,"connected_time":2340000000000,"state":"active","ping":113},{"user_id":228,"name":"HUMBY","steam_id":76561198065045867,"connected_time":656000000000,"state":"active","ping":88},{"user_id":221,"name":"gliZZY_G0bliN","steam_id":76561198088764516,"connected_time":1348000000000,"state":"active","ping":97},{"user_id":185,"name":"frostedflakes99","steam_id":76561199049292578,"connected_time":3312000000000,"state":"active","ping":50},{"user_id":204,"name":"TheWhiskeyMan","steam_id":76561198125180961,"connected_time":2323000000000,"state":"active","ping":58},{"user_id":182,"name":"||BassMan||","steam_id":76561198279865229,"connected_time":3784000000000,"state":"active","ping":90},{"user_id":219,"name":"BrightOrangeMango","steam_id":76561198023144607,"connected_time":1500000000000,"state":"active","ping":63},{"user_id":243,"name":"nav","steam_id":76561198872608266,"connected_time":180000000000,"state":"active","ping":187},{"user_id":234,"name":"Juan M. Maldacena","steam_id":76561198066883814,"connected_time":443000000000,"state":"active","ping":57},{"user_id":207,"name":"Midnight-ag","steam_id":76561198115714484,"connected_time":2317000000000,"state":"active","ping":74},{"user_id":240,"name":"soupy","steam_id":76561197974283797,"connected_time":342000000000,"state":"active","ping":102},{"user_id":242,"name":"Gahlok_Ka","steam_id":76561199128265461,"connected_time":242000000000,"state":"active","ping":146},{"user_id":190,"name":"vera","steam_id":76561198318851246,"connected_time":2616000000000,"state":"active","ping":59},{"user_id":187,"name":"meme","steam_id":76561199170771700,"connected_time":3147000000000,"state":"active","ping":81}]},{"server_id":112,"name":"Uncletopia | Los Angeles | 2 | All Maps","name_short":"lax-2","host":"lax-1.us.uncletopia.com","port":27025,"enabled":true,"region":"us-west","cc":"us","latitude":33.94279,"longitude":-118.41004,"reserved":0,"last_update":"0001-01-01T00:00:00Z","name_a2s":"Uncletopia | Los Angeles | 2 | All Maps","protocol":17,"map":"pl_frontier_final","folder":"tf","game":"Team Fortress","app_id":440,"player_count":24,"max_players":24,"Bots":0,"server_type":"Dedicated","server_os":"Linux","password":true,"vac":true,"version":"7932396","steam_id":85568392924469992,"keywords":["nocrits","nodmgspread","payload","uncletopia"],"game_id":440,"stv_port":27026,"stv_name":"Uncletopia | Los Angeles | 2 | All Maps | STV","players":[{"user_id":76,"name":"SCUD missile up your ass","steam_id":76561198066452726,"connected_time":5010000000000,"state":"active","ping":45},{"user_id":154,"name":"Iron Argus","steam_id":76561198181088245,"connected_time":56000000000,"state":"active","ping":128},{"user_id":143,"name":"johnnajojonna","steam_id":76561199488883432,"connected_time":1102000000000,"state":"active","ping":108},{"user_id":127,"name":"Selenddron","steam_id":76561198130341338,"connected_time":1399000000000,"state":"active","ping":99},{"user_id":155,"name":"jon pickle water","steam_id":76561199036212135,"connected_time":45000000000,"state":"active","ping":103},{"user_id":129,"name":"TwoScore","steam_id":76561198024412148,"connected_time":1371000000000,"state":"active","ping":77},{"user_id":22,"name":"Cinnifox","steam_id":76561198068773971,"connected_time":8527000000000,"state":"active","ping":84},{"user_id":130,"name":"nelly modelo","steam_id":76561198044875206,"connected_time":1368000000000,"state":"active","ping":85},{"user_id":146,"name":"Sol","steam_id":76561198121500201,"connected_time":963000000000,"state":"active","ping":45},{"user_id":144,"name":"Wacks","steam_id":76561198079476100,"connected_time":1035000000000,"state":"active","ping":60},{"user_id":151,"name":"Silly Shark","steam_id":76561198130714378,"connected_time":306000000000,"state":"active","ping":87},{"user_id":78,"name":"DarkForce8","steam_id":76561198853892261,"connected_time":4754000000000,"state":"active","ping":58},{"user_id":135,"name":"Squids023","steam_id":76561199013031576,"connected_time":1291000000000,"state":"active","ping":69},{"user_id":150,"name":"donkeyballs2007","steam_id":76561199466298683,"connected_time":526000000000,"state":"active","ping":53},{"user_id":148,"name":"Lift_","steam_id":76561198863467430,"connected_time":673000000000,"state":"active","ping":66},{"user_id":138,"name":"CreativeName","steam_id":76561198853344895,"connected_time":1272000000000,"state":"active","ping":64},{"user_id":156,"name":"Purp","steam_id":76561198044559535,"connected_time":39000000000,"state":"active","ping":117},{"user_id":81,"name":"Anarchy","steam_id":76561199062545363,"connected_time":4600000000000,"state":"active","ping":120},{"user_id":147,"name":"Victrok","steam_id":76561199441398791,"connected_time":961000000000,"state":"active","ping":99},{"user_id":106,"name":"Escapist Robot","steam_id":76561198121501913,"connected_time":3255000000000,"state":"active","ping":52},{"user_id":125,"name":"...","steam_id":76561198121508845,"connected_time":1602000000000,"state":"active","ping":66},{"user_id":145,"name":"Lead poisened","steam_id":76561198330743199,"connected_time":988000000000,"state":"active","ping":59},{"user_id":85,"name":"FlashofAsh","steam_id":76561198400422981,"connected_time":4328000000000,"state":"active","ping":70},{"user_id":153,"name":"slapnuts","steam_id":76561198170404082,"connected_time":89000000000,"state":"active","ping":82}]},{"server_id":324,"name":"Uncletopia | Los Angeles | 3 | All Maps","name_short":"lax-3","host":"lax-1.us.uncletopia.com","port":27035,"enabled":true,"region":"us-west","cc":"us","latitude":33.94279,"longitude":-118.41004,"reserved":0,"last_update":"0001-01-01T00:00:00Z","name_a2s":"Uncletopia | Los Angeles | 3 | All Maps","protocol":17,"map":"pl_pier","folder":"tf","game":"Team Fortress","app_id":440,"player_count":24,"max_players":24,"Bots":0,"server_type":"Dedicated","server_os":"Linux","password":true,"vac":true,"version":"7932396","steam_id":85568392924510198,"keywords":["nocrits","nodmgspread","payload","uncletopia"],"game_id":440,"stv_port":27036,"stv_name":"Uncletopia | Los Angeles | 3 | All Maps | STV","players":[{"user_id":416,"name":"Rad0Dragon","steam_id":76561199351578880,"connected_time":6325000000000,"state":"active","ping":63},{"user_id":508,"name":"californjoe","steam_id":76561197965047795,"connected_time":282000000000,"state":"active","ping":46},{"user_id":500,"name":"Ralph Kramden (Slim Charles)","steam_id":76561197981687895,"connected_time":752000000000,"state":"active","ping":59},{"user_id":501,"name":"Dumbass Cuh","steam_id":76561198831705698,"connected_time":732000000000,"state":"active","ping":58},{"user_id":510,"name":"moe","steam_id":76561198929586245,"connected_time":108000000000,"state":"active","ping":58},{"user_id":489,"name":"Buckethead","steam_id":76561198210181296,"connected_time":2133000000000,"state":"active","ping":115},{"user_id":509,"name":"Elfy","steam_id":76561199166448617,"connected_time":176000000000,"state":"active","ping":84},{"user_id":475,"name":"mastercoms","steam_id":76561198046110893,"connected_time":2905000000000,"state":"active","ping":90},{"user_id":483,"name":"baldo","steam_id":76561198178431338,"connected_time":2354000000000,"state":"active","ping":49},{"user_id":502,"name":"SkoranShogun","steam_id":76561198091811218,"connected_time":641000000000,"state":"active","ping":86},{"user_id":506,"name":"Mom","steam_id":76561198207936000,"connected_time":471000000000,"state":"active","ping":38},{"user_id":425,"name":"magunyamu","steam_id":76561198823083676,"connected_time":5981000000000,"state":"active","ping":56},{"user_id":499,"name":"ang","steam_id":76561198435151254,"connected_time":930000000000,"state":"active","ping":60},{"user_id":471,"name":"SomeRandomBetaFish","steam_id":76561198827731399,"connected_time":3232000000000,"state":"active","ping":105},{"user_id":503,"name":"JimmySquid","steam_id":76561198254242530,"connected_time":639000000000,"state":"active","ping":102},{"user_id":504,"name":"Gazelle","steam_id":76561198336397088,"connected_time":624000000000,"state":"active","ping":55},{"user_id":476,"name":"♥ kiss me! ♥","steam_id":76561198014557455,"connected_time":2898000000000,"state":"active","ping":107},{"user_id":507,"name":"speed","steam_id":76561198074489549,"connected_time":456000000000,"state":"active","ping":45},{"user_id":477,"name":"Paulus","steam_id":76561198814014565,"connected_time":2891000000000,"state":"active","ping":49},{"user_id":505,"name":"skeleton the stairphobic","steam_id":76561198315213115,"connected_time":621000000000,"state":"active","ping":65},{"user_id":473,"name":"Bodhisattva","steam_id":76561198085228896,"connected_time":2973000000000,"state":"active","ping":47},{"user_id":431,"name":"LOL (dies)","steam_id":76561198045964573,"connected_time":5910000000000,"state":"active","ping":47},{"user_id":432,"name":"Yeerk","steam_id":76561198057999536,"connected_time":5909000000000,"state":"active","ping":60},{"user_id":435,"name":"mellowhype","steam_id":76561198040675606,"connected_time":5718000000000,"state":"active","ping":78}]},{"server_id":25,"name":"Uncletopia | Los Angeles | 4 | Stopwatch Beta","name_short":"lax-4","host":"lax-1.us.uncletopia.com","port":27045,"enabled":true,"region":"us-west","cc":"us","latitude":33.94279,"longitude":-118.41004,"reserved":0,"last_update":"0001-01-01T00:00:00Z","name_a2s":"Uncletopia | Los Angeles | 4 | Stopwatch Beta","protocol":17,"map":"pl_borneo","folder":"tf","game":"Team Fortress","app_id":440,"player_count":0,"max_players":24,"Bots":0,"server_type":"Dedicated","server_os":"Linux","password":true,"vac":true,"version":"7932396","steam_id":85568392924510199,"keywords":["nocrits","nodmgspread","payload","uncletopia"],"game_id":440,"stv_port":27046,"stv_name":"Uncletopia | Los Angeles | 4 | Stopwatch Beta | STV","players":null},{"server_id":11,"name":"Uncletopia | London | 1 | All Maps","name_short":"lon-1","host":"lon-1.uk.uncletopia.com","port":27015,"enabled":true,"region":"eu","cc":"gb","latitude":51.509865,"longitude":-0.118092,"reserved":0,"last_update":"0001-01-01T00:00:00Z","name_a2s":"Uncletopia | London | 1 | All Maps","protocol":17,"map":"pl_pier","folder":"tf","game":"Team Fortress","app_id":440,"player_count":18,"max_players":24,"Bots":0,"server_type":"Dedicated","server_os":"Linux","password":true,"vac":true,"version":"7932396","steam_id":85568392924367362,"keywords":["nocrits","nodmgspread","payload","uncletopia"],"game_id":440,"stv_port":27016,"stv_name":"Uncletopia | London | 1 | All Maps | STV","players":[{"user_id":1105,"name":"cinny","steam_id":76561198832112629,"connected_time":1786000000000,"state":"active","ping":78},{"user_id":1102,"name":"js'","steam_id":76561198047803200,"connected_time":2403000000000,"state":"active","ping":91},{"user_id":961,"name":"vi","steam_id":76561198303147966,"connected_time":11517000000000,"state":"active","ping":44},{"user_id":1106,"name":"[T]aKer","steam_id":76561198001778013,"connected_time":213000000000,"state":"active","ping":45},{"user_id":976,"name":"Sakari","steam_id":76561197997811299,"connected_time":9815000000000,"state":"active","ping":61},{"user_id":1111,"name":"puck","steam_id":76561198121260981,"connected_time":39000000000,"state":"active","ping":34},{"user_id":1112,"name":"Sassy The Sasquatch","steam_id":76561198873412350,"connected_time":35000000000,"state":"active","ping":73},{"user_id":1074,"name":"stun","steam_id":76561198276681691,"connected_time":2861000000000,"state":"active","ping":46},{"user_id":1108,"name":"exRage","steam_id":76561198449953655,"connected_time":171000000000,"state":"active","ping":65},{"user_id":1109,"name":"Sir William Gaming","steam_id":76561198037676472,"connected_time":168000000000,"state":"active","ping":67},{"user_id":1110,"name":"Toasty","steam_id":76561198081397451,"connected_time":152000000000,"state":"active","ping":45},{"user_id":1038,"name":"AVOID EVERYONE","steam_id":76561198051852765,"connected_time":5257000000000,"state":"active","ping":75},{"user_id":1043,"name":"frosty","steam_id":76561198094560834,"connected_time":4025000000000,"state":"active","ping":46},{"user_id":1030,"name":"rev up the bugatti wahey","steam_id":76561198079589665,"connected_time":6077000000000,"state":"active","ping":59},{"user_id":1040,"name":"THE RIZZLER","steam_id":76561198083505031,"connected_time":4753000000000,"state":"active","ping":45},{"user_id":968,"name":"Lyncurion","steam_id":76561199260022725,"connected_time":10893000000000,"state":"active","ping":84},{"user_id":1047,"name":"Squishie #SaveTF2","steam_id":76561198321025400,"connected_time":3974000000000,"state":"active","ping":45},{"user_id":1052,"name":"e","steam_id":76561198145465595,"connected_time":3198000000000,"state":"active","ping":40}]},{"server_id":114,"name":"Uncletopia | London | 2 | All Maps","name_short":"lon-2","host":"lon-1.uk.uncletopia.com","port":27025,"enabled":true,"region":"eu","cc":"gb","latitude":51.509865,"longitude":-0.118092,"reserved":0,"last_update":"0001-01-01T00:00:00Z","name_a2s":"Uncletopia | London | 2 | All Maps","protocol":17,"map":"pl_pier","folder":"tf","game":"Team Fortress","app_id":440,"player_count":24,"max_players":24,"Bots":0,"server_type":"Dedicated","server_os":"Linux","password":true,"vac":true,"version":"7932396","steam_id":85568392924470941,"keywords":["nocrits","nodmgspread","payload","uncletopia"],"game_id":440,"stv_port":27026,"stv_name":"Uncletopia | London | 2 | All Maps | STV","players":[{"user_id":616,"name":"Churlesnd21","steam_id":76561198163442648,"connected_time":3808000000000,"state":"active","ping":175},{"user_id":591,"name":"Cronomax","steam_id":76561198285308399,"connected_time":5043000000000,"state":"active","ping":147},{"user_id":645,"name":"Mega Saturn","steam_id":76561198024750500,"connected_time":717000000000,"state":"active","ping":76},{"user_id":614,"name":"Emily (trans rights)","steam_id":76561198393596975,"connected_time":3868000000000,"state":"active","ping":46},{"user_id":627,"name":"Royal","steam_id":76561198157621024,"connected_time":2576000000000,"state":"active","ping":44},{"user_id":648,"name":"Kadrox","steam_id":76561199228653314,"connected_time":487000000000,"state":"active","ping":156},{"user_id":626,"name":"Randolf","steam_id":76561198093009729,"connected_time":2751000000000,"state":"active","ping":76},{"user_id":642,"name":"Draco","steam_id":76561198031226933,"connected_time":1101000000000,"state":"active","ping":51},{"user_id":636,"name":"Sheep","steam_id":76561198047895760,"connected_time":1913000000000,"state":"active","ping":56},{"user_id":620,"name":"Milca, One eye'd Drunkard","steam_id":76561198848650365,"connected_time":3496000000000,"state":"active","ping":78},{"user_id":631,"name":"DataParty","steam_id":76561198037161826,"connected_time":2170000000000,"state":"active","ping":47},{"user_id":585,"name":"Teathling","steam_id":76561198061580505,"connected_time":6011000000000,"state":"active","ping":59},{"user_id":601,"name":"barnkalassoldat","steam_id":76561198025513190,"connected_time":4603000000000,"state":"active","ping":47},{"user_id":541,"name":"Bottom-rate Child Soldier","steam_id":76561197977122134,"connected_time":8594000000000,"state":"active","ping":60},{"user_id":649,"name":"noided","steam_id":76561199480942903,"connected_time":472000000000,"state":"active","ping":75},{"user_id":607,"name":"Peep","steam_id":76561198132508552,"connected_time":4438000000000,"state":"active","ping":46},{"user_id":603,"name":"Falcon","steam_id":76561198211463916,"connected_time":4528000000000,"state":"active","ping":86},{"user_id":613,"name":"F U S ∑","steam_id":76561198026657173,"connected_time":4007000000000,"state":"active","ping":81},{"user_id":637,"name":"cordi","steam_id":76561198254657328,"connected_time":1665000000000,"state":"active","ping":49},{"user_id":625,"name":"Lubrsi","steam_id":76561198040208195,"connected_time":2773000000000,"state":"active","ping":53},{"user_id":643,"name":"Vix The Nickit","steam_id":76561198292181452,"connected_time":1089000000000,"state":"active","ping":153},{"user_id":646,"name":"killbind irl","steam_id":76561198180637374,"connected_time":663000000000,"state":"active","ping":94},{"user_id":650,"name":"Substance","steam_id":76561198026485933,"connected_time":453000000000,"state":"active","ping":78},{"user_id":633,"name":"dlk","steam_id":76561198086660302,"connected_time":2142000000000,"state":"active","ping":44}]},{"server_id":320,"name":"Uncletopia | London | 3 | All Maps","name_short":"lon-3","host":"lon-1.uk.uncletopia.com","port":27035,"enabled":true,"region":"eu","cc":"gb","latitude":51.509865,"longitude":-0.118092,"reserved":0,"last_update":"0001-01-01T00:00:00Z","name_a2s":"Uncletopia | London | 3 | All Maps","protocol":17,"map":"koth_highpass","folder":"tf","game":"Team Fortress","app_id":440,"player_count":0,"max_players":24,"Bots":0,"server_type":"Dedicated","server_os":"Linux","password":true,"vac":true,"version":"7932396","steam_id":85568392924510192,"keywords":["cp","nocrits","nodmgspread","uncletopia"],"game_id":440,"stv_port":27036,"stv_name":"Uncletopia | London | 3 | All Maps | STV","players":null},{"server_id":321,"name":"Uncletopia | London | 4 | All Maps","name_short":"lon-4","host":"lon-1.uk.uncletopia.com","port":27045,"enabled":true,"region":"eu","cc":"gb","latitude":51.509865,"longitude":-0.118092,"reserved":0,"last_update":"0001-01-01T00:00:00Z","name_a2s":"Uncletopia | London | 4 | All Maps","protocol":17,"map":"pl_frontier_final","folder":"tf","game":"Team Fortress","app_id":440,"player_count":0,"max_players":24,"Bots":0,"server_type":"Dedicated","server_os":"Linux","password":true,"vac":true,"version":"7932396","steam_id":85568392924510193,"keywords":["nocrits","nodmgspread","payload","uncletopia"],"game_id":440,"stv_port":27046,"stv_name":"Uncletopia | London | 4 | All Maps | STV","players":null},{"server_id":21,"name":"Uncletopia | London | 5 | All Maps","name_short":"lon-5","host":"lon-1.uk.uncletopia.com","port":27055,"enabled":true,"region":"eu","cc":"gb","latitude":51.509865,"longitude":-0.118092,"reserved":0,"last_update":"0001-01-01T00:00:00Z","name_a2s":"Uncletopia | London | 5 | All Maps","protocol":17,"map":"koth_lakeside_final","folder":"tf","game":"Team Fortress","app_id":440,"player_count":0,"max_players":24,"Bots":0,"server_type":"Dedicated","server_os":"Linux","password":true,"vac":true,"version":"7932396","steam_id":85568392924742829,"keywords":["cp","nocrits","nodmgspread","uncletopia"],"game_id":440,"stv_port":27056,"stv_name":"Uncletopia | London | 5 | All Maps | STV","players":null},{"server_id":22,"name":"Uncletopia | London | 6 | All Maps","name_short":"lon-6","host":"lon-1.uk.uncletopia.com","port":27065,"enabled":true,"region":"eu","cc":"gb","latitude":51.509865,"longitude":-0.118092,"reserved":0,"last_update":"0001-01-01T00:00:00Z","name_a2s":"Uncletopia | London | 6 | All Maps","protocol":17,"map":"koth_lakeside_final","folder":"tf","game":"Team Fortress","app_id":440,"player_count":0,"max_players":24,"Bots":0,"server_type":"Dedicated","server_os":"Linux","password":true,"vac":true,"version":"7932396","steam_id":85568392924742830,"keywords":["cp","nocrits","nodmgspread","uncletopia"],"game_id":440,"stv_port":27066,"stv_name":"Uncletopia | London | 6 | All Maps | STV","players":null},{"server_id":40,"name":"Uncletopia | London | 7 | No Payload","name_short":"lon-7","host":"lon-1.uk.uncletopia.com","port":27075,"enabled":true,"region":"eu","cc":"gb","latitude":51.509865,"longitude":-0.118092,"reserved":0,"last_update":"0001-01-01T00:00:00Z","name_a2s":"Uncletopia | London | 7 | No Payload","protocol":17,"map":"koth_brazil","folder":"tf","game":"Team Fortress","app_id":440,"player_count":0,"max_players":24,"Bots":0,"server_type":"Dedicated","server_os":"Linux","password":true,"vac":true,"version":"7932396","steam_id":85568392924964314,"keywords":["cp","nocrits","nodmgspread","uncletopia"],"game_id":440,"stv_port":27076,"stv_name":"Uncletopia | London | 7 | No Payload | STV","players":null},{"server_id":41,"name":"Uncletopia | London | 8 | Community","name_short":"lon-8","host":"lon-1.uk.uncletopia.com","port":27085,"enabled":true,"region":"eu","cc":"gb","latitude":51.509865,"longitude":-0.118092,"reserved":0,"last_update":"0001-01-01T00:00:00Z","name_a2s":"Uncletopia | London | 8 | Community","protocol":17,"map":"workshop/cp_snowbase_b18.ugc2081770490","folder":"tf","game":"Team Fortress","app_id":440,"player_count":0,"max_players":24,"Bots":0,"server_type":"Dedicated","server_os":"Linux","password":true,"vac":true,"version":"7932396","steam_id":85568392924964315,"keywords":["cp","nocrits","nodmgspread","uncletopia"],"game_id":440,"stv_port":27086,"stv_name":"Uncletopia | London | 8 | Community | STV","players":null},{"server_id":300,"name":"Uncletopia | Montréal | 1 | All Maps","name_short":"mtl-1","host":"mtl-1.ca.uncletopia.com","port":27015,"enabled":true,"region":"us-east","cc":"ca","latitude":45.50889,"longitude":-73.56167,"reserved":0,"last_update":"0001-01-01T00:00:00Z","name_a2s":"Uncletopia | Montréal | 1 | All Maps","protocol":17,"map":"cp_dustbowl","folder":"tf","game":"Team Fortress","app_id":440,"player_count":0,"max_players":24,"Bots":0,"server_type":"Dedicated","server_os":"Linux","password":true,"vac":true,"version":"7932396","steam_id":85568392924500087,"keywords":["cp","nocrits","nodmgspread","uncletopia"],"game_id":440,"stv_port":27016,"stv_name":"Uncletopia | Montréal | 1 | All Maps | STV","players":null},{"server_id":301,"name":"Uncletopia | Montréal | 2 | All Maps","name_short":"mtl-2","host":"mtl-1.ca.uncletopia.com","port":27025,"enabled":true,"region":"us-east","cc":"ca","latitude":45.50889,"longitude":-73.56167,"reserved":0,"last_update":"0001-01-01T00:00:00Z","name_a2s":"Uncletopia | Montréal | 2 | All Maps","protocol":17,"map":"pl_snowycoast","folder":"tf","game":"Team Fortress","app_id":440,"player_count":0,"max_players":24,"Bots":0,"server_type":"Dedicated","server_os":"Linux","password":true,"vac":true,"version":"7932396","steam_id":85568392924500088,"keywords":["nocrits","nodmgspread","payload","uncletopia"],"game_id":440,"stv_port":27026,"stv_name":"Uncletopia | Montréal | 2 | All Maps | STV","players":null},{"server_id":302,"name":"Uncletopia | Montréal | 3 | All Maps","name_short":"mtl-3","host":"mtl-1.ca.uncletopia.com","port":27035,"enabled":true,"region":"us-east","cc":"ca","latitude":45.50889,"longitude":-73.56167,"reserved":0,"last_update":"0001-01-01T00:00:00Z","name_a2s":"Uncletopia | Montréal | 3 | All Maps","protocol":17,"map":"pl_barnblitz","folder":"tf","game":"Team Fortress","app_id":440,"player_count":0,"max_players":24,"Bots":0,"server_type":"Dedicated","server_os":"Linux","password":true,"vac":true,"version":"7932396","steam_id":85568392924500089,"keywords":["nocrits","nodmgspread","payload","uncletopia"],"game_id":440,"stv_port":27036,"stv_name":"Uncletopia | Montréal | 3 | All Maps | STV","players":null},{"server_id":303,"name":"Uncletopia | Montréal | 4 | No Payload","name_short":"mtl-4","host":"mtl-1.ca.uncletopia.com","port":27045,"enabled":true,"region":"us-east","cc":"ca","latitude":45.50889,"longitude":-73.56167,"reserved":0,"last_update":"0001-01-01T00:00:00Z","name_a2s":"Uncletopia | Montréal | 4 | No Payload","protocol":17,"map":"cp_snakewater_final1","folder":"tf","game":"Team Fortress","app_id":440,"player_count":0,"max_players":24,"Bots":0,"server_type":"Dedicated","server_os":"Linux","password":true,"vac":true,"version":"7932396","steam_id":85568392924500090,"keywords":["cp","nocrits","nodmgspread","uncletopia"],"game_id":440,"stv_port":27046,"stv_name":"Uncletopia | Montréal | 4 | No Payload | STV","players":null},{"server_id":13,"name":"Uncletopia | New York City | 1 | All Maps","name_short":"nyc-1","host":"nyc-1.us.uncletopia.com","port":27015,"enabled":true,"region":"us-east","cc":"us","latitude":40.73061,"longitude":-73.93524,"reserved":0,"last_update":"0001-01-01T00:00:00Z","name_a2s":"Uncletopia | New York City | 1 | All Maps","protocol":17,"map":"pl_goldrush","folder":"tf","game":"Team Fortress","app_id":440,"player_count":19,"max_players":24,"Bots":0,"server_type":"Dedicated","server_os":"Linux","password":true,"vac":true,"version":"7932396","steam_id":85568392924469993,"keywords":["nocrits","nodmgspread","payload","uncletopia"],"game_id":440,"stv_port":27016,"stv_name":"Uncletopia | New York City | 1 | All Maps | STV","players":[{"user_id":333,"name":"Quirinus","steam_id":76561198011516889,"connected_time":729000000000,"state":"active","ping":61},{"user_id":338,"name":"hashmap","steam_id":76561198043794014,"connected_time":137000000000,"state":"active","ping":63},{"user_id":275,"name":"Discourse","steam_id":76561198984286678,"connected_time":2527000000000,"state":"active","ping":73},{"user_id":335,"name":"Kasimir","steam_id":76561198013840333,"connected_time":450000000000,"state":"active","ping":91},{"user_id":313,"name":"Nerrrd_","steam_id":76561198870129960,"connected_time":1727000000000,"state":"active","ping":30},{"user_id":340,"name":"insafjaleel","steam_id":76561198239445570,"connected_time":39000000000,"state":"active","ping":58},{"user_id":341,"name":"Quillz","steam_id":76561197996567754,"connected_time":33000000000,"state":"active","ping":46},{"user_id":211,"name":"BeerPowder","steam_id":76561198058129400,"connected_time":7493000000000,"state":"active","ping":49},{"user_id":332,"name":"garbanzo bean","steam_id":76561198045696985,"connected_time":818000000000,"state":"active","ping":78},{"user_id":206,"name":"gIBBY","steam_id":76561198080099598,"connected_time":7742000000000,"state":"active","ping":31},{"user_id":342,"name":"Grentac","steam_id":76561198140435841,"connected_time":26000000000,"state":"spawning","ping":63},{"user_id":216,"name":"Horrizan","steam_id":76561197965028480,"connected_time":6768000000000,"state":"active","ping":77},{"user_id":328,"name":"Skipluff","steam_id":76561198084734554,"connected_time":1120000000000,"state":"active","ping":59},{"user_id":337,"name":"L + Ratio","steam_id":76561198263786953,"connected_time":203000000000,"state":"active","ping":83},{"user_id":322,"name":"sheep man shaun","steam_id":76561198994349483,"connected_time":1530000000000,"state":"active","ping":115},{"user_id":174,"name":"Yummy Kabobz","steam_id":76561198067661705,"connected_time":11230000000000,"state":"active","ping":46},{"user_id":339,"name":"SPOOKY HOTDOG","steam_id":76561197964599698,"connected_time":64000000000,"state":"active","ping":76},{"user_id":334,"name":"lfty","steam_id":76561198283841707,"connected_time":692000000000,"state":"active","ping":61},{"user_id":331,"name":"nullptr","steam_id":76561198111790388,"connected_time":964000000000,"state":"active","ping":104}]},{"server_id":14,"name":"Uncletopia | New York City | 2 | All Maps","name_short":"nyc-2","host":"nyc-1.us.uncletopia.com","port":27025,"enabled":true,"region":"us-east","cc":"us","latitude":40.73061,"longitude":-73.93524,"reserved":0,"last_update":"0001-01-01T00:00:00Z","name_a2s":"Uncletopia | New York City | 2 | All Maps","protocol":17,"map":"cp_dustbowl","folder":"tf","game":"Team Fortress","app_id":440,"player_count":25,"max_players":24,"Bots":0,"server_type":"Dedicated","server_os":"Linux","password":true,"vac":true,"version":"7932396","steam_id":85568392924469994,"keywords":["cp","nocrits","nodmgspread","uncletopia"],"game_id":440,"stv_port":27026,"stv_name":"Uncletopia | New York City | 2 | All Maps | STV","players":[{"user_id":368,"name":"Lumina","steam_id":76561198089227368,"connected_time":9000000000,"state":"spawning","ping":257},{"user_id":264,"name":"Apetometrist","steam_id":76561198045391635,"connected_time":2758000000000,"state":"active","ping":71},{"user_id":316,"name":"Grendar","steam_id":76561198823384034,"connected_time":1516000000000,"state":"active","ping":67},{"user_id":317,"name":"Sweetyfluff","steam_id":76561198045397871,"connected_time":1446000000000,"state":"active","ping":58},{"user_id":205,"name":"TheLuzinator","steam_id":76561198377144604,"connected_time":8088000000000,"state":"active","ping":79},{"user_id":308,"name":"xLeoparrd","steam_id":76561198940657194,"connected_time":1811000000000,"state":"active","ping":78},{"user_id":302,"name":"Yveltak","steam_id":76561198072636283,"connected_time":1927000000000,"state":"active","ping":147},{"user_id":272,"name":"SPEEEEEEEEEEEEEEEEEEEEED","steam_id":76561198316768819,"connected_time":2585000000000,"state":"active","ping":53},{"user_id":260,"name":"The base jumper doesnt suck","steam_id":76561198317677617,"connected_time":2855000000000,"state":"active","ping":72},{"user_id":101,"name":"CRAZY engineer","steam_id":76561198887937902,"connected_time":15720000000000,"state":"active","ping":47},{"user_id":323,"name":"Missive","steam_id":76561198025357935,"connected_time":1335000000000,"state":"active","ping":72},{"user_id":199,"name":"Mr. Durian","steam_id":76561198093813212,"connected_time":8427000000000,"state":"active","ping":60},{"user_id":267,"name":"ash","steam_id":76561198127890645,"connected_time":2742000000000,"state":"active","ping":75},{"user_id":321,"name":"Soup Salad \u0026 Breadsticks","steam_id":76561198382572522,"connected_time":1409000000000,"state":"active","ping":50},{"user_id":270,"name":"Yatchi.","steam_id":76561198878073232,"connected_time":2609000000000,"state":"active","ping":127},{"user_id":320,"name":"VX Ghost","steam_id":76561198072541436,"connected_time":1415000000000,"state":"active","ping":55},{"user_id":331,"name":"Jeremy","steam_id":76561198283977979,"connected_time":1118000000000,"state":"active","ping":66},{"user_id":350,"name":"levi","steam_id":76561199277087621,"connected_time":474000000000,"state":"active","ping":125},{"user_id":353,"name":"0","steam_id":76561198046055673,"connected_time":424000000000,"state":"active","ping":58},{"user_id":273,"name":"GameboyAdvancedSPMobileHotspot","steam_id":76561198413739460,"connected_time":2564000000000,"state":"active","ping":103},{"user_id":219,"name":"ATL1 | cola","steam_id":76561198374390458,"connected_time":6429000000000,"state":"active","ping":61},{"user_id":274,"name":"Grilled Jizo","steam_id":76561199250875340,"connected_time":2557000000000,"state":"active","ping":91},{"user_id":282,"name":"Terror-Billy #SaveTF2","steam_id":76561198328141870,"connected_time":2333000000000,"state":"active","ping":67},{"user_id":255,"name":"Periculosum PhD in Funny","steam_id":76561198123370914,"connected_time":3257000000000,"state":"active","ping":93},{"user_id":305,"name":"GodandTitans","steam_id":76561198070070155,"connected_time":1911000000000,"state":"active","ping":89}]},{"server_id":15,"name":"Uncletopia | New York City | 3 | Stopwatch Beta","name_short":"nyc-3","host":"nyc-1.us.uncletopia.com","port":27035,"enabled":true,"region":"us-east","cc":"us","latitude":40.73061,"longitude":-73.93524,"reserved":0,"last_update":"0001-01-01T00:00:00Z","name_a2s":"Uncletopia | New York City | 3 | Stopwatch Beta","protocol":17,"map":"workshop/koth_ramjam_rc1.ugc459778887","folder":"tf","game":"Team Fortress","app_id":440,"player_count":0,"max_players":24,"Bots":0,"server_type":"Dedicated","server_os":"Linux","password":true,"vac":true,"version":"7932396","steam_id":85568392924742820,"keywords":["cp","nocrits","nodmgspread","uncletopia"],"game_id":440,"stv_port":27036,"stv_name":"Uncletopia | New York City | 3 | Stopwatch Beta | STV","players":null},{"server_id":16,"name":"Uncletopia | New York City | 4 | Community","name_short":"nyc-4","host":"nyc-1.us.uncletopia.com","port":27045,"enabled":true,"region":"us-east","cc":"us","latitude":40.73061,"longitude":-73.93524,"reserved":0,"last_update":"0001-01-01T00:00:00Z","name_a2s":"Uncletopia | New York City | 4 | Community","protocol":17,"map":"workshop/pl_vigil_rc9.ugc1266210012","folder":"tf","game":"Team Fortress","app_id":440,"player_count":15,"max_players":24,"Bots":0,"server_type":"Dedicated","server_os":"Linux","password":true,"vac":true,"version":"7932396","steam_id":85568392924742821,"keywords":["nocrits","nodmgspread","payload","uncletopia"],"game_id":440,"stv_port":27046,"stv_name":"Uncletopia | New York City | 4 | Community | STV","players":[{"user_id":409,"name":"Zhenaj","steam_id":76561199209016136,"connected_time":166000000000,"state":"active","ping":60},{"user_id":306,"name":"Not Ghostie","steam_id":76561198068686762,"connected_time":6271000000000,"state":"active","ping":50},{"user_id":391,"name":"gorf?","steam_id":76561198142286417,"connected_time":1308000000000,"state":"active","ping":71},{"user_id":384,"name":"Skiddy","steam_id":76561198125942665,"connected_time":1916000000000,"state":"active","ping":106},{"user_id":408,"name":"HundchenTanque","steam_id":76561198122692754,"connected_time":191000000000,"state":"active","ping":39},{"user_id":339,"name":"DistantJragon","steam_id":76561198117563641,"connected_time":4231000000000,"state":"active","ping":80},{"user_id":410,"name":"sonikro","steam_id":76561197989428692,"connected_time":1000000000,"state":"spawning","ping":54},{"user_id":373,"name":"please don't! im helpless!","steam_id":76561198103496593,"connected_time":2794000000000,"state":"active","ping":61},{"user_id":378,"name":"girl arc","steam_id":76561198406252824,"connected_time":2476000000000,"state":"active","ping":120},{"user_id":360,"name":"Weary","steam_id":76561198145767546,"connected_time":3425000000000,"state":"active","ping":76},{"user_id":393,"name":"123","steam_id":76561198106308056,"connected_time":1113000000000,"state":"active","ping":120},{"user_id":394,"name":"Frontier Psychiatrist","steam_id":76561198038689088,"connected_time":1102000000000,"state":"active","ping":92},{"user_id":406,"name":"k1tty","steam_id":76561198869348268,"connected_time":339000000000,"state":"active","ping":105},{"user_id":395,"name":"Squope","steam_id":76561198983129293,"connected_time":1028000000000,"state":"active","ping":53},{"user_id":389,"name":"Flaxks","steam_id":76561198410260447,"connected_time":1345000000000,"state":"active","ping":102}]},{"server_id":142,"name":"Uncletopia | São Paulo | 1 | All Maps","name_short":"sao-1","host":"sao-1.br.uncletopia.com","port":27015,"enabled":true,"region":"sa","cc":"br","latitude":-23.533773,"longitude":-46.62529,"reserved":0,"last_update":"0001-01-01T00:00:00Z","name_a2s":"Uncletopia | São Paulo | 1 | All Maps","protocol":17,"map":"cp_snakewater_final1","folder":"tf","game":"Team Fortress","app_id":440,"player_count":0,"max_players":24,"Bots":0,"server_type":"Dedicated","server_os":"Linux","password":true,"vac":true,"version":"7932396","steam_id":85568392924469996,"keywords":["cp","nocrits","nodmgspread","uncletopia"],"game_id":440,"stv_port":27016,"stv_name":"Uncletopia | São Paulo | 1 | All Maps | STV","players":null},{"server_id":143,"name":"Uncletopia | São Paulo | 2 | All Maps","name_short":"sao-2","host":"sao-2.br.uncletopia.com","port":27015,"enabled":true,"region":"sa","cc":"br","latitude":-23.533773,"longitude":-46.62529,"reserved":0,"last_update":"0001-01-01T00:00:00Z","name_a2s":"Uncletopia | São Paulo | 2 | All Maps","protocol":17,"map":"koth_harvest_final","folder":"tf","game":"Team Fortress","app_id":440,"player_count":1,"max_players":24,"Bots":0,"server_type":"Dedicated","server_os":"Linux","password":true,"vac":true,"version":"7932396","steam_id":85568392924485349,"keywords":["cp","nocrits","nodmgspread","uncletopia"],"game_id":440,"stv_port":27016,"stv_name":"Uncletopia | São Paulo | 2 | All Maps | STV","players":[{"user_id":148,"name":"GirlsGoGames","steam_id":76561198971749651,"connected_time":15000000000,"state":"active","ping":77}]},{"server_id":7,"name":"Uncletopia | Seattle | 1 | All Maps","name_short":"sea-1","host":"sea-1.us.uncletopia.com","port":27015,"enabled":true,"region":"us-west","cc":"us","latitude":47.608013,"longitude":-122.33517,"reserved":0,"last_update":"0001-01-01T00:00:00Z","name_a2s":"Uncletopia | Seattle | 1 | All Maps","protocol":17,"map":"pl_upward","folder":"tf","game":"Team Fortress","app_id":440,"player_count":24,"max_players":24,"Bots":0,"server_type":"Dedicated","server_os":"Linux","password":true,"vac":true,"version":"7932396","steam_id":85568392924469997,"keywords":["nocrits","nodmgspread","payload","uncletopia"],"game_id":440,"stv_port":27016,"stv_name":"Uncletopia | Seattle | 1 | All Maps | STV","players":[{"user_id":402,"name":"flamingdorit0s","steam_id":76561198869206247,"connected_time":1199000000000,"state":"active","ping":90},{"user_id":376,"name":"Owl Of Delos","steam_id":76561198437116566,"connected_time":4899000000000,"state":"active","ping":96},{"user_id":394,"name":"gravewater","steam_id":76561198043558709,"connected_time":1792000000000,"state":"active","ping":45},{"user_id":348,"name":"SnailYT","steam_id":76561198332040385,"connected_time":7905000000000,"state":"active","ping":69},{"user_id":372,"name":"goldhed","steam_id":76561198051751133,"connected_time":6028000000000,"state":"active","ping":62},{"user_id":400,"name":"MrVegasAguitar","steam_id":76561198084466946,"connected_time":1299000000000,"state":"active","ping":140},{"user_id":406,"name":"Chi -fr","steam_id":76561198121085178,"connected_time":764000000000,"state":"active","ping":125},{"user_id":382,"name":"Depressed Alcoholic Catboy","steam_id":76561199013544727,"connected_time":4029000000000,"state":"active","ping":140},{"user_id":411,"name":"V∆lume The 1rd","steam_id":76561198133260990,"connected_time":186000000000,"state":"active","ping":58},{"user_id":371,"name":"a cat plushie","steam_id":76561198080046542,"connected_time":6042000000000,"state":"active","ping":47},{"user_id":342,"name":"cubibluer","steam_id":76561198197405295,"connected_time":8228000000000,"state":"active","ping":57},{"user_id":401,"name":"Igrium","steam_id":76561198119549811,"connected_time":1269000000000,"state":"active","ping":81},{"user_id":378,"name":"jacix3 [gay wolfgirl]{she/it}","steam_id":76561198205004165,"connected_time":4791000000000,"state":"active","ping":69},{"user_id":405,"name":"Fire Bad","steam_id":76561198389802335,"connected_time":1064000000000,"state":"active","ping":53},{"user_id":395,"name":"skeletobro","steam_id":76561198311258358,"connected_time":1534000000000,"state":"active","ping":66},{"user_id":404,"name":"Seesawz","steam_id":76561199222588200,"connected_time":1145000000000,"state":"active","ping":69},{"user_id":349,"name":"amantes dominatio","steam_id":76561198042913843,"connected_time":7513000000000,"state":"active","ping":60},{"user_id":380,"name":"Mignyanne :3","steam_id":76561198048754056,"connected_time":4431000000000,"state":"active","ping":74},{"user_id":381,"name":"E4Estrogen","steam_id":76561198085813708,"connected_time":4321000000000,"state":"active","ping":115},{"user_id":383,"name":"MegumiTame","steam_id":76561198450280686,"connected_time":3644000000000,"state":"active","ping":52},{"user_id":397,"name":"Jammy","steam_id":76561198119652755,"connected_time":1484000000000,"state":"active","ping":88},{"user_id":389,"name":"sillyjack","steam_id":76561198844273999,"connected_time":3076000000000,"state":"active","ping":46},{"user_id":392,"name":"jorts","steam_id":76561199041179985,"connected_time":2846000000000,"state":"active","ping":64},{"user_id":409,"name":"Nea","steam_id":76561198408792773,"connected_time":295000000000,"state":"active","ping":50}]},{"server_id":119,"name":"Uncletopia | Seattle | 2 | All Maps","name_short":"sea-2","host":"sea-1.us.uncletopia.com","port":27025,"enabled":true,"region":"us-west","cc":"us","latitude":47.608013,"longitude":-122.33517,"reserved":0,"last_update":"0001-01-01T00:00:00Z","name_a2s":"Uncletopia | Seattle | 2 | All Maps","protocol":17,"map":"pl_barnblitz","folder":"tf","game":"Team Fortress","app_id":440,"player_count":24,"max_players":24,"Bots":0,"server_type":"Dedicated","server_os":"Linux","password":true,"vac":true,"version":"7932396","steam_id":85568392924469998,"keywords":["nocrits","nodmgspread","payload","uncletopia"],"game_id":440,"stv_port":27026,"stv_name":"Uncletopia | Seattle | 2 | All Maps | STV","players":[{"user_id":122,"name":"volta","steam_id":76561199214283884,"connected_time":9472000000000,"state":"active","ping":138},{"user_id":216,"name":"weed lesbian","steam_id":76561198042263805,"connected_time":3786000000000,"state":"active","ping":59},{"user_id":249,"name":"The CEO of cement","steam_id":76561199107177460,"connected_time":1327000000000,"state":"active","ping":100},{"user_id":234,"name":"Voxeltile","steam_id":76561198043724134,"connected_time":2675000000000,"state":"active","ping":55},{"user_id":259,"name":"Rusty","steam_id":76561198055585129,"connected_time":571000000000,"state":"active","ping":45},{"user_id":265,"name":"my wife didn't like her present","steam_id":76561198380018244,"connected_time":149000000000,"state":"active","ping":63},{"user_id":258,"name":"t2h","steam_id":76561198057944303,"connected_time":634000000000,"state":"active","ping":74},{"user_id":257,"name":"Sekretary Sukkubus","steam_id":76561198083060751,"connected_time":677000000000,"state":"active","ping":73},{"user_id":211,"name":"Bhutch","steam_id":76561198145654275,"connected_time":4224000000000,"state":"active","ping":83},{"user_id":238,"name":"BLU3","steam_id":76561198059652670,"connected_time":2540000000000,"state":"active","ping":45},{"user_id":256,"name":"A UsedNom","steam_id":76561198402832756,"connected_time":812000000000,"state":"active","ping":55},{"user_id":260,"name":"Keamy","steam_id":76561199471434875,"connected_time":377000000000,"state":"active","ping":45},{"user_id":262,"name":"Where The F**K I Am?","steam_id":76561197986530028,"connected_time":291000000000,"state":"active","ping":100},{"user_id":207,"name":"Weakly","steam_id":76561197992690915,"connected_time":4924000000000,"state":"active","ping":64},{"user_id":239,"name":"ORANGE","steam_id":76561198000401769,"connected_time":2537000000000,"state":"active","ping":46},{"user_id":215,"name":"arsenic","steam_id":76561198176391550,"connected_time":3938000000000,"state":"active","ping":66},{"user_id":245,"name":"MCman","steam_id":76561198412110305,"connected_time":1719000000000,"state":"active","ping":69},{"user_id":251,"name":"Vincent Van Bro","steam_id":76561197966919802,"connected_time":1297000000000,"state":"active","ping":54},{"user_id":255,"name":"Luna","steam_id":76561198082944789,"connected_time":1056000000000,"state":"active","ping":78},{"user_id":246,"name":"Lightatex","steam_id":76561199068097196,"connected_time":1717000000000,"state":"active","ping":99},{"user_id":254,"name":"Applesauce","steam_id":76561198047011689,"connected_time":1229000000000,"state":"active","ping":88},{"user_id":266,"name":"ROGUE-PLANET","steam_id":76561198116023052,"connected_time":93000000000,"state":"active","ping":73},{"user_id":261,"name":"litcherally in vents","steam_id":76561199169558959,"connected_time":315000000000,"state":"active","ping":38},{"user_id":205,"name":"aisu","steam_id":76561198043768507,"connected_time":5022000000000,"state":"active","ping":90}]},{"server_id":406,"name":"Uncletopia | Seattle | 3 | Stopwatch Beta","name_short":"sea-3","host":"sea-1.us.uncletopia.com","port":27035,"enabled":true,"region":"us-west","cc":"us","latitude":47.608013,"longitude":-122.33517,"reserved":0,"last_update":"0001-01-01T00:00:00Z","name_a2s":"Uncletopia | Seattle | 3 | Stopwatch Beta","protocol":17,"map":"workshop/koth_bagel_rc6.ugc2514036946","folder":"tf","game":"Team Fortress","app_id":440,"player_count":0,"max_players":24,"Bots":0,"server_type":"Dedicated","server_os":"Linux","password":true,"vac":true,"version":"7932396","steam_id":85568392924515217,"keywords":["cp","nocrits","nodmgspread","uncletopia"],"game_id":440,"stv_port":27036,"stv_name":"Uncletopia | Seattle | 3 | Stopwatch Beta | STV","players":null},{"server_id":17,"name":"Uncletopia | San Francisco | 1 | All Maps","name_short":"sfo-1","host":"sfo-1.us.uncletopia.com","port":27015,"enabled":true,"region":"us-west","cc":"us","latitude":37.77397,"longitude":-122.4313,"reserved":0,"last_update":"0001-01-01T00:00:00Z","name_a2s":"Uncletopia | San Francisco | 1 | All Maps","protocol":17,"map":"pl_barnblitz","folder":"tf","game":"Team Fortress","app_id":440,"player_count":24,"max_players":24,"Bots":0,"server_type":"Dedicated","server_os":"Linux","password":true,"vac":true,"version":"7932396","steam_id":85568392924469999,"keywords":["nocrits","nodmgspread","payload","uncletopia"],"game_id":440,"stv_port":27016,"stv_name":"Uncletopia | San Francisco | 1 | All Maps | STV","players":[{"user_id":269,"name":"Branz","steam_id":76561198076632143,"connected_time":1476000000000,"state":"active","ping":71},{"user_id":267,"name":"Imabox","steam_id":76561199206177858,"connected_time":1740000000000,"state":"active","ping":66},{"user_id":278,"name":"lemonjack","steam_id":76561198277380277,"connected_time":1082000000000,"state":"active","ping":67},{"user_id":243,"name":"TwinkGaming(Jerma)","steam_id":76561197972835907,"connected_time":3665000000000,"state":"active","ping":71},{"user_id":283,"name":"Siev","steam_id":76561198000518937,"connected_time":87000000000,"state":"active","ping":76},{"user_id":277,"name":"DoubleX2000","steam_id":76561198164134387,"connected_time":1184000000000,"state":"active","ping":72},{"user_id":266,"name":"Ivy","steam_id":76561198208996573,"connected_time":1813000000000,"state":"active","ping":73},{"user_id":262,"name":"Heavy","steam_id":76561198437794740,"connected_time":2156000000000,"state":"active","ping":51},{"user_id":239,"name":"Ytown","steam_id":76561198165879751,"connected_time":3886000000000,"state":"active","ping":69},{"user_id":270,"name":"fentanyl enthusiast","steam_id":76561198351895498,"connected_time":1453000000000,"state":"active","ping":105},{"user_id":254,"name":"Riven","steam_id":76561198091701349,"connected_time":3263000000000,"state":"active","ping":101},{"user_id":265,"name":"里芋 - Tarooo","steam_id":76561198392986348,"connected_time":1953000000000,"state":"active","ping":53},{"user_id":248,"name":"lol","steam_id":76561198026491738,"connected_time":3614000000000,"state":"active","ping":62},{"user_id":249,"name":"Hugh Mann","steam_id":76561198212049401,"connected_time":3613000000000,"state":"active","ping":89},{"user_id":279,"name":"Morgan","steam_id":76561199224141679,"connected_time":888000000000,"state":"active","ping":52},{"user_id":271,"name":"The Comedian","steam_id":76561198037780226,"connected_time":1414000000000,"state":"active","ping":48},{"user_id":272,"name":"avumenes","steam_id":76561199085145396,"connected_time":1358000000000,"state":"active","ping":142},{"user_id":273,"name":"selvhat","steam_id":76561198114225509,"connected_time":1325000000000,"state":"active","ping":66},{"user_id":251,"name":"Based Jvnko Fan","steam_id":76561198355290984,"connected_time":3601000000000,"state":"active","ping":78},{"user_id":275,"name":"Dreamzapp","steam_id":76561199084936632,"connected_time":1217000000000,"state":"active","ping":72},{"user_id":268,"name":"Jawn","steam_id":76561198424248616,"connected_time":1687000000000,"state":"active","ping":102},{"user_id":284,"name":"Quesso0","steam_id":76561198976607799,"connected_time":83000000000,"state":"active","ping":78},{"user_id":155,"name":"smith","steam_id":76561199391478575,"connected_time":10277000000000,"state":"active","ping":80},{"user_id":276,"name":"Bat(Magnetized to your head)","steam_id":76561198976521735,"connected_time":1215000000000,"state":"active","ping":56}]},{"server_id":18,"name":"Uncletopia | San Francisco | 2 | All Maps","name_short":"sfo-2","host":"sfo-1.us.uncletopia.com","port":27025,"enabled":true,"region":"us-west","cc":"us","latitude":37.77397,"longitude":-122.4313,"reserved":0,"last_update":"0001-01-01T00:00:00Z","name_a2s":"Uncletopia | San Francisco | 2 | All Maps","protocol":17,"map":"koth_lakeside_final","folder":"tf","game":"Team Fortress","app_id":440,"player_count":24,"max_players":24,"Bots":0,"server_type":"Dedicated","server_os":"Linux","password":true,"vac":true,"version":"7932396","steam_id":85568392924470000,"keywords":["cp","nocrits","nodmgspread","uncletopia"],"game_id":440,"stv_port":27026,"stv_name":"Uncletopia | San Francisco | 2 | All Maps | STV","players":[{"user_id":141,"name":"Krysar","steam_id":76561198202077555,"connected_time":2766000000000,"state":"active","ping":100},{"user_id":187,"name":"lightning","steam_id":76561198432444690,"connected_time":10000000000,"state":"active","ping":63},{"user_id":142,"name":"Edwon","steam_id":76561198319902846,"connected_time":2761000000000,"state":"active","ping":100},{"user_id":164,"name":"nogoodnameshere","steam_id":76561199065926375,"connected_time":1062000000000,"state":"active","ping":71},{"user_id":110,"name":"Mutzy™","steam_id":76561198085858203,"connected_time":3841000000000,"state":"active","ping":95},{"user_id":87,"name":"Hindmost","steam_id":76561199081837220,"connected_time":5880000000000,"state":"active","ping":114},{"user_id":162,"name":"HeHedron","steam_id":76561199199667164,"connected_time":1099000000000,"state":"active","ping":156},{"user_id":169,"name":"Tommy Pickles (Very Cool)","steam_id":76561198391261463,"connected_time":472000000000,"state":"active","ping":98},{"user_id":175,"name":"G. Howard Dee","steam_id":76561198058382812,"connected_time":373000000000,"state":"active","ping":60},{"user_id":180,"name":"Scrux","steam_id":76561198129763115,"connected_time":325000000000,"state":"active","ping":55},{"user_id":154,"name":"scrimblo","steam_id":76561199150833796,"connected_time":1997000000000,"state":"active","ping":74},{"user_id":172,"name":"wlfgng","steam_id":76561198316639499,"connected_time":433000000000,"state":"active","ping":41},{"user_id":181,"name":"ShredMaan","steam_id":76561198429982138,"connected_time":108000000000,"state":"active","ping":64},{"user_id":160,"name":"Fermenting Kiwi","steam_id":76561198253303497,"connected_time":1404000000000,"state":"active","ping":88},{"user_id":182,"name":"el wokismo","steam_id":76561198058617608,"connected_time":103000000000,"state":"active","ping":60},{"user_id":143,"name":"phon","steam_id":76561198140659236,"connected_time":2756000000000,"state":"active","ping":51},{"user_id":134,"name":"no brain","steam_id":76561198451032322,"connected_time":3042000000000,"state":"active","ping":78},{"user_id":174,"name":"Ooh! *YANK*","steam_id":76561199077027954,"connected_time":396000000000,"state":"active","ping":71},{"user_id":184,"name":"MayKaye","steam_id":76561199016092265,"connected_time":72000000000,"state":"active","ping":73},{"user_id":177,"name":"zeplinnn","steam_id":76561198301300987,"connected_time":367000000000,"state":"active","ping":85},{"user_id":168,"name":"Laxoloni","steam_id":76561199197045700,"connected_time":915000000000,"state":"active","ping":63},{"user_id":146,"name":"AstraLee","steam_id":76561198093501649,"connected_time":2739000000000,"state":"active","ping":100},{"user_id":185,"name":"Throws Before Bros󠀡","steam_id":76561197992905530,"connected_time":69000000000,"state":"active","ping":46},{"user_id":136,"name":"Darkgaming579","steam_id":76561199121435004,"connected_time":2921000000000,"state":"active","ping":74}]},{"server_id":19,"name":"Uncletopia | San Francisco | 3 | Stopwatch Beta","name_short":"sfo-3","host":"sfo-1.us.uncletopia.com","port":27035,"enabled":true,"region":"us-west","cc":"us","latitude":37.77397,"longitude":-122.4313,"reserved":0,"last_update":"0001-01-01T00:00:00Z","name_a2s":"Uncletopia | San Francisco | 3 | Stopwatch Beta","protocol":17,"map":"workshop/pl_badwater_pro_v12.ugc2142942074","folder":"tf","game":"Team Fortress","app_id":440,"player_count":0,"max_players":24,"Bots":0,"server_type":"Dedicated","server_os":"Linux","password":true,"vac":true,"version":"7932396","steam_id":85568392924742824,"keywords":["nocrits","nodmgspread","payload","uncletopia"],"game_id":440,"stv_port":27036,"stv_name":"Uncletopia | San Francisco | 3 | Stopwatch Beta | STV","players":null},{"server_id":20,"name":"Uncletopia | San Francisco | 4 | Community","name_short":"sfo-4","host":"sfo-1.us.uncletopia.com","port":27045,"enabled":true,"region":"us-west","cc":"us","latitude":37.77397,"longitude":-122.4313,"reserved":0,"last_update":"0001-01-01T00:00:00Z","name_a2s":"Uncletopia | San Francisco | 4 | Community","protocol":17,"map":"workshop/cp_fulgur_rc2a.ugc2068252300","folder":"tf","game":"Team Fortress","app_id":440,"player_count":3,"max_players":24,"Bots":0,"server_type":"Dedicated","server_os":"Linux","password":true,"vac":true,"version":"7932396","steam_id":85568392924742826,"keywords":["cp","nocrits","nodmgspread","uncletopia"],"game_id":440,"stv_port":27046,"stv_name":"Uncletopia | San Francisco | 4 | Community | STV","players":[{"user_id":10,"name":"G.bo","steam_id":76561198085176270,"connected_time":629000000000,"state":"active","ping":56},{"user_id":11,"name":"Otterstream8502","steam_id":76561198343767866,"connected_time":284000000000,"state":"active","ping":68},{"user_id":12,"name":"Renz","steam_id":76561198118995036,"connected_time":116000000000,"state":"active","ping":59}]},{"server_id":141,"name":"Uncletopia | Sydney | 1 | All Maps","name_short":"syd-1","host":"syd-1.au.uncletopia.com","port":27015,"enabled":true,"region":"au","cc":"au","latitude":-33.865143,"longitude":151.2099,"reserved":0,"last_update":"0001-01-01T00:00:00Z","name_a2s":"Uncletopia | Sydney | 1 | All Maps","protocol":17,"map":"pl_upward","folder":"tf","game":"Team Fortress","app_id":440,"player_count":0,"max_players":24,"Bots":0,"server_type":"Dedicated","server_os":"Linux","password":true,"vac":true,"version":"7932396","steam_id":85568392924470001,"keywords":["nocrits","nodmgspread","payload","uncletopia"],"game_id":440,"stv_port":27016,"stv_name":"Uncletopia | Sydney | 1 | All Maps | STV","players":null},{"server_id":123,"name":"Uncletopia | Sydney | 2 | All Maps","name_short":"syd-2","host":"syd-1.au.uncletopia.com","port":27025,"enabled":true,"region":"au","cc":"au","latitude":-33.865143,"longitude":151.2099,"reserved":0,"last_update":"0001-01-01T00:00:00Z","name_a2s":"Uncletopia | Sydney | 2 | All Maps","protocol":17,"map":"cp_process_final","folder":"tf","game":"Team Fortress","app_id":440,"player_count":6,"max_players":24,"Bots":0,"server_type":"Dedicated","server_os":"Linux","password":true,"vac":true,"version":"7932396","steam_id":85568392924470002,"keywords":["cp","nocrits","nodmgspread","uncletopia"],"game_id":440,"stv_port":27026,"stv_name":"Uncletopia | Sydney | 2 | All Maps | STV","players":[{"user_id":4,"name":"APVC","steam_id":76561199090168813,"connected_time":1434000000000,"state":"active","ping":53},{"user_id":7,"name":"put your raygun to my head","steam_id":76561198238031616,"connected_time":1181000000000,"state":"active","ping":75},{"user_id":6,"name":"M00NSH1N3 1337","steam_id":76561198280237790,"connected_time":1298000000000,"state":"active","ping":65},{"user_id":8,"name":"Awesomeguy002","steam_id":76561198070497067,"connected_time":933000000000,"state":"active","ping":57},{"user_id":9,"name":"Tortik","steam_id":76561198807834894,"connected_time":724000000000,"state":"active","ping":455},{"user_id":10,"name":"superbob event manager","steam_id":76561198272422193,"connected_time":538000000000,"state":"active","ping":60}]},{"server_id":395,"name":"Uncletopia | Sydney | 3 | All Maps","name_short":"syd-3","host":"syd-1.au.uncletopia.com","port":27035,"enabled":true,"region":"au","cc":"au","latitude":-33.865143,"longitude":151.2099,"reserved":0,"last_update":"0001-01-01T00:00:00Z","name_a2s":"Uncletopia | Sydney | 3 | All Maps","protocol":17,"map":"cp_dustbowl","folder":"tf","game":"Team Fortress","app_id":440,"player_count":0,"max_players":24,"Bots":0,"server_type":"Dedicated","server_os":"Linux","password":true,"vac":true,"version":"7932396","steam_id":85568392925194467,"keywords":["cp","nocrits","nodmgspread","uncletopia"],"game_id":440,"stv_port":27036,"stv_name":"Uncletopia | Sydney | 3 | All Maps | STV","players":null},{"server_id":396,"name":"Uncletopia | Sydney | 4 | All Maps","name_short":"syd-4","host":"syd-1.au.uncletopia.com","port":27045,"enabled":true,"region":"au","cc":"au","latitude":-33.865143,"longitude":151.2099,"reserved":0,"last_update":"0001-01-01T00:00:00Z","name_a2s":"Uncletopia | Sydney | 4 | All Maps","protocol":17,"map":"pl_pier","folder":"tf","game":"Team Fortress","app_id":440,"player_count":0,"max_players":24,"Bots":0,"server_type":"Dedicated","server_os":"Linux","password":true,"vac":true,"version":"7932396","steam_id":85568392925397958,"keywords":["nocrits","nodmgspread","payload","uncletopia"],"game_id":440,"stv_port":27046,"stv_name":"Uncletopia | Sydney | 4 | All Maps | STV","players":null},{"server_id":58,"name":"Uncletopia | Sydney | 5 | Stopwatch Beta","name_short":"syd-5","host":"syd-1.au.uncletopia.com","port":27055,"enabled":true,"region":"au","cc":"au","latitude":-33.865143,"longitude":151.2099,"reserved":0,"last_update":"0001-01-01T00:00:00Z","name_a2s":"Uncletopia | Sydney | 5 | Stopwatch Beta","protocol":17,"map":"pl_borneo","folder":"tf","game":"Team Fortress","app_id":440,"player_count":0,"max_players":24,"Bots":0,"server_type":"Dedicated","server_os":"Linux","password":true,"vac":true,"version":"7932396","steam_id":85568392925397959,"keywords":["nocrits","nodmgspread","payload","uncletopia"],"game_id":440,"stv_port":27056,"stv_name":"Uncletopia | Sydney | 5 | Stopwatch Beta | STV","players":null},{"server_id":59,"name":"Uncletopia | Sydney | 6 | Community","name_short":"syd-6","host":"syd-1.au.uncletopia.com","port":27065,"enabled":true,"region":"au","cc":"au","latitude":-33.865143,"longitude":151.2099,"reserved":0,"last_update":"0001-01-01T00:00:00Z","name_a2s":"Uncletopia | Sydney | 6 | Community","protocol":17,"map":"workshop/pl_vigil_rc9.ugc1266210012","folder":"tf","game":"Team Fortress","app_id":440,"player_count":0,"max_players":24,"Bots":0,"server_type":"Dedicated","server_os":"Linux","password":true,"vac":true,"version":"7932396","steam_id":85568392925397960,"keywords":["nocrits","nodmgspread","payload","uncletopia"],"game_id":440,"stv_port":27066,"stv_name":"Uncletopia | Sydney | 6 | Community | STV","players":null},{"server_id":49,"name":"Uncletopia | Warsaw | 1 | All Maps","name_short":"waw-1","host":"waw-1.pl.uncletopia.com","port":27015,"enabled":true,"region":"eu","cc":"pl","latitude":52.2297,"longitude":21.017532,"reserved":0,"last_update":"0001-01-01T00:00:00Z","name_a2s":"","protocol":0,"map":"","folder":"","game":"","app_id":0,"player_count":0,"max_players":0,"Bots":0,"server_type":"","server_os":"","password":false,"vac":false,"version":"","steam_id":0,"keywords":null,"game_id":0,"stv_port":0,"stv_name":"","players":null},{"server_id":50,"name":"Uncletopia | Warsaw | 2 | All Maps","name_short":"waw-2","host":"waw-1.pl.uncletopia.com","port":27025,"enabled":true,"region":"eu","cc":"pl","latitude":52.2297,"longitude":21.017532,"reserved":0,"last_update":"0001-01-01T00:00:00Z","name_a2s":"Uncletopia | Warsaw | 2 | All Maps","protocol":17,"map":"koth_highpass","folder":"tf","game":"Team Fortress","app_id":440,"player_count":0,"max_players":24,"Bots":0,"server_type":"Dedicated","server_os":"Linux","password":true,"vac":true,"version":"7932396","steam_id":85568392925397851,"keywords":["cp","nocrits","nodmgspread","uncletopia"],"game_id":440,"stv_port":27026,"stv_name":"Uncletopia | Warsaw | 2 | All Maps | STV","players":null},{"server_id":51,"name":"Uncletopia | Warsaw | 3 | All Maps","name_short":"waw-3","host":"waw-1.pl.uncletopia.com","port":27035,"enabled":true,"region":"eu","cc":"pl","latitude":52.2297,"longitude":21.017532,"reserved":0,"last_update":"0001-01-01T00:00:00Z","name_a2s":"Uncletopia | Warsaw | 3 | All Maps","protocol":17,"map":"koth_viaduct","folder":"tf","game":"Team Fortress","app_id":440,"player_count":0,"max_players":24,"Bots":0,"server_type":"Dedicated","server_os":"Linux","password":true,"vac":true,"version":"7932396","steam_id":85568392925397852,"keywords":["cp","nocrits","nodmgspread","uncletopia"],"game_id":440,"stv_port":27036,"stv_name":"Uncletopia | Warsaw | 3 | All Maps | STV","players":null},{"server_id":52,"name":"Uncletopia | Warsaw | 4 | All Maps","name_short":"waw-4","host":"waw-1.pl.uncletopia.com","port":27045,"enabled":true,"region":"eu","cc":"pl","latitude":52.2297,"longitude":21.017532,"reserved":0,"last_update":"0001-01-01T00:00:00Z","name_a2s":"Uncletopia | Warsaw | 4 | All Maps","protocol":17,"map":"cp_dustbowl","folder":"tf","game":"Team Fortress","app_id":440,"player_count":0,"max_players":24,"Bots":0,"server_type":"Dedicated","server_os":"Linux","password":true,"vac":true,"version":"7932396","steam_id":85568392925397853,"keywords":["cp","nocrits","nodmgspread","uncletopia"],"game_id":440,"stv_port":27046,"stv_name":"Uncletopia | Warsaw | 4 | All Maps | STV","players":null},{"server_id":53,"name":"Uncletopia | Warsaw | 5 | Stopwatch Beta","name_short":"waw-5","host":"waw-1.pl.uncletopia.com","port":27055,"enabled":true,"region":"eu","cc":"pl","latitude":52.2297,"longitude":21.017532,"reserved":0,"last_update":"0001-01-01T00:00:00Z","name_a2s":"Uncletopia | Warsaw | 5 | Stopwatch Beta","protocol":17,"map":"koth_lakeside_final","folder":"tf","game":"Team Fortress","app_id":440,"player_count":0,"max_players":24,"Bots":0,"server_type":"Dedicated","server_os":"Linux","password":true,"vac":true,"version":"7932396","steam_id":85568392925397854,"keywords":["cp","nocrits","nodmgspread","uncletopia"],"game_id":440,"stv_port":27056,"stv_name":"Uncletopia | Warsaw | 5 | Stopwatch Beta | STV","players":null},{"server_id":54,"name":"Uncletopia | Warsaw | 6 | Community","name_short":"waw-6","host":"waw-1.pl.uncletopia.com","port":27065,"enabled":true,"region":"eu","cc":"pl","latitude":52.2297,"longitude":21.017532,"reserved":0,"last_update":"0001-01-01T00:00:00Z","name_a2s":"Uncletopia | Warsaw | 6 | Community","protocol":17,"map":"pl_upward","folder":"tf","game":"Team Fortress","app_id":440,"player_count":0,"max_players":24,"Bots":0,"server_type":"Dedicated","server_os":"Linux","password":true,"vac":true,"version":"7932396","steam_id":85568392925397856,"keywords":["nocrits","nodmgspread","payload","uncletopia"],"game_id":440,"stv_port":27066,"stv_name":"Uncletopia | Warsaw | 6 | Community | STV","players":null}]}