{"status":true,"message":"","result":[{"server_id":9,"name":"Uncletopia | Atlanta | 1 | All Maps","name_short":"atl-1","host":"atl-1.us.uncletopia.com","port":27015,"enabled":true,"region":"us-east","cc":"us","latitude":33.753746,"longitude":-84.38633,"reserved":0,"last_update":"0001-01-01T00:00:00Z","name_a2s":"Uncletopia | Atlanta | 1 | All Maps","protocol":17,"map":"pl_barnblitz","folder":"tf","game":"Team Fortress","app_id":440,"player_count":20,"max_players":24,"Bots":0,"server_type":"Dedicated","server_os":"Linux","password":true,"vac":true,"version":"7757534","steam_id":85568392924469982,"keywords":["nocrits","nodmgspread","payload","uncletopia"],"game_id":440,"stv_port":27016,"stv_name":"Uncletopia | Atlanta | 1 | All Maps | STV","players":[{"user_id":873,"name":"Hyper","steam_id":76561198976760150,"connected_time":718000000000,"state":"active","ping":54},{"user_id":878,"name":"Aquadango","steam_id":76561198244891752,"connected_time":155000000000,"state":"active","ping":143},{"user_id":880,"name":"jazaniac","steam_id":76561198059955588,"connected_time":78000000000,"state":"active","ping":86},{"user_id":876,"name":"GamingJoker2012","steam_id":76561198247589168,"connected_time":192000000000,"state":"active","ping":59},{"user_id":879,"name":"silvestrelops","steam_id":76561198275189720,"connected_time":117000000000,"state":"active","ping":123},{"user_id":882,"name":":3 Ozbulu","steam_id":76561198067176829,"connected_time":0,"state":"spawning","ping":0},{"user_id":843,"name":"Yoloisnotded","steam_id":76561198995043589,"connected_time":3842000000000,"state":"active","ping":73},{"user_id":857,"name":"JelloMotion","steam_id":76561198045892038,"connected_time":1886000000000,"state":"active","ping":53},{"user_id":867,"name":"5869","steam_id":76561198799616739,"connected_time":1016000000000,"state":"active","ping":99},{"user_id":877,"name":"keffers","steam_id":76561198202338796,"connected_time":177000000000,"state":"active","ping":91},{"user_id":868,"name":"Rocky","steam_id":76561198048158539,"connected_time":945000000000,"state":"active","ping":118},{"user_id":869,"name":"White-Light","steam_id":76561198077094973,"connected_time":858000000000,"state":"active","ping":69},{"user_id":858,"name":"Ritzy","steam_id":76561198381955342,"connected_time":1858000000000,"state":"active","ping":133},{"user_id":870,"name":"Hoofuyu","steam_id":76561199022142345,"connected_time":822000000000,"state":"active","ping":63},{"user_id":831,"name":"Ace Attorney","steam_id":76561198133011705,"connected_time":5162000000000,"state":"active","ping":60},{"user_id":871,"name":"GrimWolf01","steam_id":76561198079532780,"connected_time":817000000000,"state":"active","ping":55},{"user_id":818,"name":"Merit","steam_id":76561198803769563,"connected_time":6819000000000,"state":"active","ping":62},{"user_id":872,"name":"Robrago-san","steam_id":76561197963638042,"connected_time":801000000000,"state":"active","ping":114},{"user_id":819,"name":"Orange Juice","steam_id":76561198151423112,"connected_time":6786000000000,"state":"active","ping":76},{"user_id":863,"name":"HOODEDLAWYER285","steam_id":76561198156496197,"connected_time":1619000000000,"state":"active","ping":71}]},{"server_id":104,"name":"Uncletopia | Atlanta | 2 | All Maps","name_short":"atl-2","host":"atl-1.us.uncletopia.com","port":27025,"enabled":true,"region":"us-east","cc":"us","latitude":33.753746,"longitude":-84.38633,"reserved":0,"last_update":"0001-01-01T00:00:00Z","name_a2s":"Uncletopia | Atlanta | 2 | All Maps","protocol":17,"map":"pl_upward","folder":"tf","game":"Team Fortress","app_id":440,"player_count":0,"max_players":24,"Bots":0,"server_type":"Dedicated","server_os":"Linux","password":true,"vac":true,"version":"7757534","steam_id":85568392924469983,"keywords":["nocrits","nodmgspread","payload","uncletopia"],"game_id":440,"stv_port":27026,"stv_name":"Uncletopia | Atlanta | 2 | All Maps | STV","players":null},{"server_id":400,"name":"Uncletopia | Atlanta | 3 | Community","name_short":"atl-3","host":"atl-1.us.uncletopia.com","port":27035,"enabled":true,"region":"us-east","cc":"us","latitude":33.753746,"longitude":-84.38633,"reserved":0,"last_update":"0001-01-01T00:00:00Z","name_a2s":"Uncletopia | Atlanta | 3 | Community","protocol":17,"map":"workshop/cp_mannbase_rc2a.ugc1900737467","folder":"tf","game":"Team Fortress","app_id":440,"player_count":0,"max_players":24,"Bots":0,"server_type":"Dedicated","server_os":"Linux","password":true,"vac":true,"version":"7757534","steam_id":85568392924515187,"keywords":["cp","nocrits","nodmgspread","uncletopia"],"game_id":440,"stv_port":27036,"stv_name":"Uncletopia | Atlanta | 3 | Community | STV","players":null},{"server_id":401,"name":"Uncletopia | Atlanta | 4 | No Payload","name_short":"atl-4","host":"atl-1.us.uncletopia.com","port":27045,"enabled":true,"region":"us-east","cc":"us","latitude":33.753746,"longitude":-84.38633,"reserved":0,"last_update":"0001-01-01T00:00:00Z","name_a2s":"","protocol":0,"map":"","folder":"","game":"","app_id":0,"player_count":0,"max_players":0,"Bots":0,"server_type":"","server_os":"","password":false,"vac":false,"version":"","steam_id":0,"keywords":null,"game_id":0,"stv_port":0,"stv_name":"","players":null},{"server_id":2,"name":"Uncletopia | Chicago | 1 | All Maps","name_short":"chi-1","host":"chi-1.us.uncletopia.com","port":27015,"enabled":true,"region":"us-central","cc":"us","latitude":41.881832,"longitude":-87.62318,"reserved":0,"last_update":"0001-01-01T00:00:00Z","name_a2s":"Uncletopia | Chicago | 1 | All Maps","protocol":17,"map":"koth_lakeside_final","folder":"tf","game":"Team Fortress","app_id":440,"player_count":24,"max_players":24,"Bots":0,"server_type":"Dedicated","server_os":"Linux","password":true,"vac":true,"version":"7757534","steam_id":85568392924469984,"keywords":["cp","nocrits","nodmgspread","uncletopia"],"game_id":440,"stv_port":27016,"stv_name":"Uncletopia | Chicago | 1 | All Maps | STV","players":[{"user_id":920,"name":"glutt","steam_id":76561198941773783,"connected_time":342000000000,"state":"active","ping":79},{"user_id":847,"name":"Achtan","steam_id":76561198078189844,"connected_time":5567000000000,"state":"active","ping":57},{"user_id":911,"name":"Qwerty","steam_id":76561198023525894,"connected_time":1162000000000,"state":"active","ping":163},{"user_id":907,"name":"Rubles","steam_id":76561198070156875,"connected_time":1401000000000,"state":"active","ping":50},{"user_id":921,"name":"Jayden Ramirez","steam_id":76561198095237437,"connected_time":319000000000,"state":"active","ping":114},{"user_id":919,"name":"soph","steam_id":76561198067497459,"connected_time":706000000000,"state":"active","ping":65},{"user_id":884,"name":"Niykin","steam_id":76561198044779043,"connected_time":2975000000000,"state":"active","ping":75},{"user_id":853,"name":"bary","steam_id":76561197988317087,"connected_time":4955000000000,"state":"active","ping":61},{"user_id":880,"name":"Cuphead","steam_id":76561198211892779,"connected_time":3284000000000,"state":"active","ping":65},{"user_id":912,"name":"dzcreeper","steam_id":76561198072250723,"connected_time":1155000000000,"state":"active","ping":81},{"user_id":927,"name":"Antiparticle #SaveTF2","steam_id":76561197990545681,"connected_time":208000000000,"state":"active","ping":136},{"user_id":923,"name":"SIGMA [BS]","steam_id":76561197962604879,"connected_time":301000000000,"state":"active","ping":66},{"user_id":883,"name":"Yune","steam_id":76561198039324447,"connected_time":2995000000000,"state":"active","ping":75},{"user_id":885,"name":"Rat_king","steam_id":76561199465689129,"connected_time":2964000000000,"state":"active","ping":74},{"user_id":904,"name":"Metbol","steam_id":76561198001362410,"connected_time":1431000000000,"state":"active","ping":78},{"user_id":929,"name":"CreativeUsername","steam_id":76561198186045503,"connected_time":192000000000,"state":"active","ping":49},{"user_id":917,"name":"Telly G","steam_id":76561198049592405,"connected_time":905000000000,"state":"active","ping":84},{"user_id":924,"name":"hb","steam_id":76561198185980055,"connected_time":241000000000,"state":"active","ping":61},{"user_id":925,"name":"Pa-Py-ro-ni","steam_id":76561198139054162,"connected_time":232000000000,"state":"active","ping":76},{"user_id":892,"name":"„ÄåIQ„Äç#savetf2","steam_id":76561198965612371,"connected_time":2492000000000,"state":"active","ping":147},{"user_id":895,"name":"Thorngot","steam_id":76561198398094468,"connected_time":2250000000000,"state":"active","ping":84},{"user_id":928,"name":"LordZahe","steam_id":76561198241749034,"connected_time":203000000000,"state":"active","ping":76},{"user_id":930,"name":"FraKctured","steam_id":76561198018610010,"connected_time":130000000000,"state":"active","ping":150},{"user_id":926,"name":"alfredodan #RunThatBack","steam_id":76561198025011044,"connected_time":228000000000,"state":"active","ping":78}]},{"server_id":106,"name":"Uncletopia | Chicago | 2 | All Maps","name_short":"chi-2","host":"chi-1.us.uncletopia.com","port":27025,"enabled":true,"region":"us-central","cc":"us","latitude":41.881832,"longitude":-87.62318,"reserved":0,"last_update":"0001-01-01T00:00:00Z","name_a2s":"Uncletopia | Chicago | 2 | All Maps","protocol":17,"map":"koth_viaduct","folder":"tf","game":"Team Fortress","app_id":440,"player_count":0,"max_players":24,"Bots":0,"server_type":"Dedicated","server_os":"Linux","password":true,"vac":true,"version":"7757534","steam_id":85568392924469985,"keywords":["cp","nocrits","nodmgspread","uncletopia"],"game_id":440,"stv_port":27026,"stv_name":"Uncletopia | Chicago | 2 | All Maps | STV","players":null},{"server_id":402,"name":"Uncletopia | Chicago | 3 | All Maps","name_short":"chi-3","host":"chi-1.us.uncletopia.com","port":27035,"enabled":true,"region":"us-central","cc":"us","latitude":41.881832,"longitude":-87.62318,"reserved":0,"last_update":"0001-01-01T00:00:00Z","name_a2s":"Uncletopia | Chicago | 3 | All Maps","protocol":17,"map":"cp_mountainlab","folder":"tf","game":"Team Fortress","app_id":440,"player_count":0,"max_players":24,"Bots":0,"server_type":"Dedicated","server_os":"Linux","password":true,"vac":true,"version":"7757534","steam_id":85568392924515191,"keywords":["cp","nocrits","nodmgspread","uncletopia"],"game_id":440,"stv_port":27036,"stv_name":"Uncletopia | Chicago | 3 | All Maps | STV","players":null},{"server_id":403,"name":"Uncletopia | Chicago | 4 | All Maps","name_short":"chi-4","host":"chi-1.us.uncletopia.com","port":27045,"enabled":true,"region":"us-central","cc":"us","latitude":41.881832,"longitude":-87.62318,"reserved":0,"last_update":"0001-01-01T00:00:00Z","name_a2s":"Uncletopia | Chicago | 4 | All Maps","protocol":17,"map":"cp_dustbowl","folder":"tf","game":"Team Fortress","app_id":440,"player_count":0,"max_players":24,"Bots":0,"server_type":"Dedicated","server_os":"Linux","password":true,"vac":true,"version":"7757534","steam_id":85568392924515193,"keywords":["cp","nocrits","nodmgspread","uncletopia"],"game_id":440,"stv_port":27046,"stv_name":"Uncletopia | Chicago | 4 | All Maps | STV","players":null},{"server_id":36,"name":"Uncletopia | Chicago | 5 | All Maps","name_short":"chi-5","host":"chi-2.us.uncletopia.com","port":27015,"enabled":true,"region":"us-central","cc":"us","latitude":41.881832,"longitude":-87.62318,"reserved":0,"last_update":"0001-01-01T00:00:00Z","name_a2s":"Uncletopia | Chicago | 5 | All Maps","protocol":17,"map":"pl_thundermountain","folder":"tf","game":"Team Fortress","app_id":440,"player_count":6,"max_players":24,"Bots":0,"server_type":"Dedicated","server_os":"Linux","password":true,"vac":true,"version":"7757534","steam_id":85568392924866362,"keywords":["nocrits","nodmgspread","payload","uncletopia"],"game_id":440,"stv_port":27016,"stv_name":"Uncletopia | Chicago | 5 | All Maps | STV","players":[{"user_id":619,"name":"F.P. Lovelich","steam_id":76561198203863333,"connected_time":1305000000000,"state":"active","ping":61},{"user_id":585,"name":"Seal","steam_id":76561198043985619,"connected_time":4105000000000,"state":"active","ping":76},{"user_id":613,"name":"Idiotden","steam_id":76561199340950135,"connected_time":1815000000000,"state":"active","ping":98},{"user_id":622,"name":"hud_saytext_time 0","steam_id":76561198010327228,"connected_time":1145000000000,"state":"active","ping":151},{"user_id":624,"name":"nori_420","steam_id":76561199117134203,"connected_time":865000000000,"state":"active","ping":104},{"user_id":603,"name":"BeansMan","steam_id":76561198349672838,"connected_time":2667000000000,"state":"active","ping":164}]},{"server_id":37,"name":"Uncletopia | Chicago | 6 | All Maps","name_short":"chi-6","host":"chi-2.us.uncletopia.com","port":27025,"enabled":true,"region":"us-central","cc":"us","latitude":41.881832,"longitude":-87.62318,"reserved":0,"last_update":"0001-01-01T00:00:00Z","name_a2s":"Uncletopia | Chicago | 6 | All Maps","protocol":17,"map":"cp_junction_final","folder":"tf","game":"Team Fortress","app_id":440,"player_count":4,"max_players":24,"Bots":0,"server_type":"Dedicated","server_os":"Linux","password":true,"vac":true,"version":"7757534","steam_id":85568392924866363,"keywords":["cp","nocrits","nodmgspread","uncletopia"],"game_id":440,"stv_port":27026,"stv_name":"Uncletopia | Chicago | 6 | All Maps | STV","players":[{"user_id":525,"name":"connie kins","steam_id":76561198074701151,"connected_time":1275000000000,"state":"active","ping":94},{"user_id":526,"name":"Dairy Queen","steam_id":76561198285298576,"connected_time":1273000000000,"state":"active","ping":61},{"user_id":527,"name":"griff928","steam_id":76561198149614679,"connected_time":985000000000,"state":"active","ping":46},{"user_id":514,"name":"SuperSandwichGoku","steam_id":76561198438882159,"connected_time":5658000000000,"state":"active","ping":40}]},{"server_id":38,"name":"Uncletopia | Chicago | 7 | Stopwatch Beta","name_short":"chi-7","host":"chi-2.us.uncletopia.com","port":27035,"enabled":true,"region":"us-central","cc":"us","latitude":41.881832,"longitude":-87.62318,"reserved":0,"last_update":"0001-01-01T00:00:00Z","name_a2s":"Uncletopia | Chicago | 7 | Stopwatch Beta","protocol":17,"map":"workshop/koth_clearcut_b15.ugc2107050255","folder":"tf","game":"Team Fortress","app_id":440,"player_count":0,"max_players":24,"Bots":0,"server_type":"Dedicated","server_os":"Linux","password":true,"vac":true,"version":"7757534","steam_id":85568392924866364,"keywords":["cp","nocrits","nodmgspread","uncletopia"],"game_id":440,"stv_port":27036,"stv_name":"Uncletopia | Chicago | 7 | Stopwatch Beta | STV","players":null},{"server_id":39,"name":"Uncletopia | Chicago | 8 | Community","name_short":"chi-8","host":"chi-2.us.uncletopia.com","port":27045,"enabled":true,"region":"us-central","cc":"us","latitude":41.881832,"longitude":-87.62318,"reserved":0,"last_update":"0001-01-01T00:00:00Z","name_a2s":"Uncletopia | Chicago | 8 | Community","protocol":17,"map":"workshop/cp_bruhstbowl_b5.ugc2878604990","folder":"tf","game":"Team Fortress","app_id":440,"player_count":0,"max_players":24,"Bots":0,"server_type":"Dedicated","server_os":"Linux","password":true,"vac":true,"version":"7757534","steam_id":85568392924866365,"keywords":["cp","nocrits","nodmgspread","uncletopia"],"game_id":440,"stv_port":27046,"stv_name":"Uncletopia | Chicago | 8 | Community | STV","players":null},{"server_id":8,"name":"Uncletopia | Dallas | 1 | All Maps","name_short":"dal-1","host":"dal-1.us.uncletopia.com","port":27015,"enabled":true,"region":"us-central","cc":"us","latitude":32.779167,"longitude":-96.80889,"reserved":0,"last_update":"0001-01-01T00:00:00Z","name_a2s":"Uncletopia | Dallas | 1 | All Maps","protocol":17,"map":"pl_pier","folder":"tf","game":"Team Fortress","app_id":440,"player_count":24,"max_players":24,"Bots":0,"server_type":"Dedicated","server_os":"Linux","password":true,"vac":true,"version":"7757534","steam_id":85568392924469986,"keywords":["nocrits","nodmgspread","payload","uncletopia"],"game_id":440,"stv_port":27016,"stv_name":"Uncletopia | Dallas | 1 | All Maps | STV","players":[{"user_id":736,"name":"Oopsie Daisy ‚ùã","steam_id":76561198042144492,"connected_time":1041000000000,"state":"active","ping":74},{"user_id":712,"name":"wakeupbdot","steam_id":76561198160786631,"connected_time":2915000000000,"state":"active","ping":68},{"user_id":696,"name":"bolainassr0","steam_id":76561199079078845,"connected_time":4940000000000,"state":"active","ping":100},{"user_id":711,"name":"substance","steam_id":76561198050103868,"connected_time":2968000000000,"state":"active","ping":116},{"user_id":721,"name":"Well-off Walnut","steam_id":76561198092494136,"connected_time":2432000000000,"state":"active","ping":45},{"user_id":739,"name":"2004 Honda Element","steam_id":76561198410000571,"connected_time":737000000000,"state":"active","ping":87},{"user_id":737,"name":"ü§®","steam_id":76561199365672047,"connected_time":942000000000,"state":"active","ping":101},{"user_id":715,"name":"ÁßÅ„ÅØ‰∏çÊ≠£Ë°åÁÇ∫„Çí„Åó„Å¶„ÅÑ","steam_id":76561199465653959,"connected_time":2830000000000,"state":"active","ping":135},{"user_id":709,"name":"Luna the Milk Bringer","steam_id":76561198991791655,"connected_time":3586000000000,"state":"active","ping":107},{"user_id":729,"name":"POKIMANES FEET","steam_id":76561198250540576,"connected_time":1508000000000,"state":"active","ping":80},{"user_id":741,"name":"Spy","steam_id":76561198937717599,"connected_time":562000000000,"state":"active","ping":35},{"user_id":738,"name":"D(b) Hell","steam_id":76561198067869016,"connected_time":825000000000,"state":"active","ping":66},{"user_id":720,"name":"Funky Buttlovin","steam_id":76561198002807702,"connected_time":2626000000000,"state":"active","ping":80},{"user_id":688,"name":"hotpocket","steam_id":76561199070028098,"connected_time":5821000000000,"state":"active","ping":91},{"user_id":740,"name":"schnof","steam_id":76561198301598124,"connected_time":715000000000,"state":"active","ping":112},{"user_id":745,"name":"Devorous","steam_id":76561198098418776,"connected_time":413000000000,"state":"active","ping":102},{"user_id":703,"name":"fitotutus","steam_id":76561197974993253,"connected_time":4334000000000,"state":"active","ping":129},{"user_id":723,"name":"Golden","steam_id":76561199128320581,"connected_time":2360000000000,"state":"active","ping":112},{"user_id":679,"name":"deb","steam_id":76561198414336279,"connected_time":6787000000000,"state":"active","ping":59},{"user_id":726,"name":"Papperskorg","steam_id":76561197963615539,"connected_time":1844000000000,"state":"active","ping":155},{"user_id":692,"name":"kermitcreeper(ZAZA)","steam_id":76561199222829972,"connected_time":5388000000000,"state":"active","ping":59},{"user_id":728,"name":"Xranth","steam_id":76561198040827689,"connected_time":1731000000000,"state":"active","ping":72},{"user_id":746,"name":"DannyM","steam_id":76561198351165570,"connected_time":149000000000,"state":"active","ping":42},{"user_id":742,"name":"Yummy Kabobz","steam_id":76561198067661705,"connected_time":530000000000,"state":"active","ping":80}]},{"server_id":108,"name":"Uncletopia | Dallas | 2 | All Maps","name_short":"dal-2","host":"dal-1.us.uncletopia.com","port":27025,"enabled":true,"region":"us-central","cc":"us","latitude":32.779167,"longitude":-96.80889,"reserved":0,"last_update":"0001-01-01T00:00:00Z","name_a2s":"Uncletopia | Dallas | 2 | All Maps","protocol":17,"map":"pl_badwater","folder":"tf","game":"Team Fortress","app_id":440,"player_count":2,"max_players":24,"Bots":0,"server_type":"Dedicated","server_os":"Linux","password":true,"vac":true,"version":"7757534","steam_id":85568392924469988,"keywords":["nocrits","nodmgspread","payload","uncletopia"],"game_id":440,"stv_port":27026,"stv_name":"Uncletopia | Dallas | 2 | All Maps | STV","players":[{"user_id":621,"name":"alpharuby","steam_id":76561198051638462,"connected_time":7135000000000,"state":"active","ping":62},{"user_id":623,"name":"Phil Collins","steam_id":76561198068868644,"connected_time":7114000000000,"state":"active","ping":75}]},{"server_id":5,"name":"Uncletopia | Frankfurt | 1 | All Maps","name_short":"frk-1","host":"frk-1.de.uncletopia.com","port":27015,"enabled":true,"region":"eu","cc":"de","latitude":50.110924,"longitude":8.682127,"reserved":0,"last_update":"0001-01-01T00:00:00Z","name_a2s":"Uncletopia | Frankfurt | 1 | All Maps","protocol":17,"map":"cp_mercenarypark","folder":"tf","game":"Team Fortress","app_id":440,"player_count":24,"max_players":24,"Bots":0,"server_type":"Dedicated","server_os":"Linux","password":true,"vac":true,"version":"7757534","steam_id":85568392924469989,"keywords":["cp","nocrits","nodmgspread","uncletopia"],"game_id":440,"stv_port":27016,"stv_name":"Uncletopia | Frankfurt | 1 | All Maps | STV","players":[{"user_id":111,"name":"Karl Heinrich Marx","steam_id":76561197987837486,"connected_time":771000000000,"state":"active","ping":47},{"user_id":94,"name":"fat c’Ωnt","steam_id":76561198845550388,"connected_time":1934000000000,"state":"active","ping":110},{"user_id":102,"name":"skeleton94","steam_id":76561199032256341,"connected_time":1452000000000,"state":"active","ping":113},{"user_id":97,"name":"Krakb","steam_id":76561198126760706,"connected_time":1878000000000,"state":"active","ping":107},{"user_id":28,"name":"Pogmanson","steam_id":76561198919953445,"connected_time":6402000000000,"state":"active","ping":49},{"user_id":104,"name":"Mr. Pickles #SaveTF2","steam_id":76561199210183560,"connected_time":1230000000000,"state":"active","ping":134},{"user_id":103,"name":"W√ºstenfuchs","steam_id":76561198453885708,"connected_time":1430000000000,"state":"active","ping":62},{"user_id":99,"name":"NLSAM","steam_id":76561199111154916,"connected_time":1842000000000,"state":"active","ping":67},{"user_id":113,"name":"Marchioly","steam_id":76561198335079215,"connected_time":491000000000,"state":"active","ping":100},{"user_id":81,"name":"Aydef","steam_id":76561198821964726,"connected_time":3036000000000,"state":"active","ping":90},{"user_id":116,"name":"Gio'sMonkey","steam_id":76561198892432223,"connected_time":57000000000,"state":"active","ping":106},{"user_id":37,"name":"Topme","steam_id":76561198091734693,"connected_time":5969000000000,"state":"active","ping":76},{"user_id":117,"name":"kubasirus","steam_id":76561198216313280,"connected_time":46000000000,"state":"active","ping":72},{"user_id":108,"name":"Flash","steam_id":76561198067379855,"connected_time":951000000000,"state":"active","ping":56},{"user_id":30,"name":"Loop_Cat","steam_id":76561199045902145,"connected_time":6291000000000,"state":"active","ping":114},{"user_id":109,"name":"Garuda1","steam_id":76561198058244959,"connected_time":896000000000,"state":"active","ping":71},{"user_id":44,"name":"poliakov.noam","steam_id":76561199259322961,"connected_time":5527000000000,"state":"active","ping":106},{"user_id":118,"name":"ÊàëÂñúÊ¨¢ÊàëÂ±ÅËÇ°‰∏äÁöÑÂ§ßÈªë","steam_id":76561198419323571,"connected_time":28000000000,"state":"spawning","ping":120},{"user_id":77,"name":"s‚Äôil vous pla√Æt","steam_id":76561197960467762,"connected_time":3600000000000,"state":"active","ping":84},{"user_id":105,"name":"–¥–∂–µ–≥–µ–º–∏ —Ö—ç–ø–∫–∏–Ω–≥—Å","steam_id":76561198131531394,"connected_time":1189000000000,"state":"active","ping":85},{"user_id":119,"name":"Tafrum","steam_id":76561198053868147,"connected_time":10000000000,"state":"spawning","ping":76},{"user_id":112,"name":"Glenn Quagmire","steam_id":76561199348527880,"connected_time":545000000000,"state":"active","ping":83},{"user_id":106,"name":"Douse","steam_id":76561198023702779,"connected_time":1005000000000,"state":"active","ping":98},{"user_id":110,"name":"–°–ê–ù–Ø –í–û–î–Ü–õ–ê","steam_id":76561198343380238,"connected_time":892000000000,"state":"active","ping":77}]},{"server_id":110,"name":"Uncletopia | Frankfurt | 2 | All Maps","name_short":"frk-2","host":"frk-1.de.uncletopia.com","port":27025,"enabled":true,"region":"eu","cc":"de","latitude":50.110924,"longitude":8.682127,"reserved":0,"last_update":"0001-01-01T00:00:00Z","name_a2s":"Uncletopia | Frankfurt | 2 | All Maps","protocol":17,"map":"pl_badwater","folder":"tf","game":"Team Fortress","app_id":440,"player_count":24,"max_players":24,"Bots":0,"server_type":"Dedicated","server_os":"Linux","password":true,"vac":true,"version":"7757534","steam_id":85568392924469990,"keywords":["nocrits","nodmgspread","payload","uncletopia"],"game_id":440,"stv_port":27026,"stv_name":"Uncletopia | Frankfurt | 2 | All Maps | STV","players":[{"user_id":38,"name":"Taez","steam_id":76561198261820803,"connected_time":624000000000,"state":"active","ping":60},{"user_id":5,"name":"Shi Ê≠ª","steam_id":76561199214163032,"connected_time":3801000000000,"state":"active","ping":82},{"user_id":6,"name":"Itai","steam_id":76561198804555329,"connected_time":3760000000000,"state":"active","ping":111},{"user_id":22,"name":"Jonkheervanflep","steam_id":76561198006853101,"connected_time":1421000000000,"state":"active","ping":88},{"user_id":13,"name":"Drdarlekzzz","steam_id":76561198160141785,"connected_time":2223000000000,"state":"active","ping":57},{"user_id":45,"name":"pepsimus_maximus (pepsi/max)","steam_id":76561198062425104,"connected_time":455000000000,"state":"active","ping":80},{"user_id":46,"name":"Zurgling Goraan","steam_id":76561198098415374,"connected_time":446000000000,"state":"active","ping":140},{"user_id":11,"name":"leonardini.w","steam_id":76561199097963071,"connected_time":2499000000000,"state":"active","ping":85},{"user_id":48,"name":"the youngest trillionaire","steam_id":76561198078780040,"connected_time":148000000000,"state":"active","ping":62},{"user_id":24,"name":"FingerMan","steam_id":76561198004040091,"connected_time":1362000000000,"state":"active","ping":53},{"user_id":40,"name":"trashedribs","steam_id":76561198354735240,"connected_time":606000000000,"state":"active","ping":63},{"user_id":26,"name":"Estyle","steam_id":76561198157804700,"connected_time":1184000000000,"state":"active","ping":83},{"user_id":49,"name":"‚úà","steam_id":76561198296214683,"connected_time":85000000000,"state":"active","ping":71},{"user_id":47,"name":"ok","steam_id":76561198052575567,"connected_time":297000000000,"state":"active","ping":75},{"user_id":32,"name":"Lessoz","steam_id":76561199211572036,"connected_time":923000000000,"state":"active","ping":92},{"user_id":33,"name":"bAdmon","steam_id":76561197961785793,"connected_time":823000000000,"state":"active","ping":57},{"user_id":34,"name":"y'all","steam_id":76561198106049954,"connected_time":800000000000,"state":"active","ping":83},{"user_id":35,"name":"The Abbiatons","steam_id":76561198133085347,"connected_time":787000000000,"state":"active","ping":58},{"user_id":36,"name":"on1on (fried)","steam_id":76561197995304137,"connected_time":697000000000,"state":"active","ping":59},{"user_id":37,"name":"snooper main","steam_id":76561199073802389,"connected_time":679000000000,"state":"active","ping":105},{"user_id":50,"name":"(1)ok","steam_id":76561198044451693,"connected_time":28000000000,"state":"active","ping":104},{"user_id":42,"name":"HarMala","steam_id":76561198055298143,"connected_time":548000000000,"state":"active","ping":89},{"user_id":43,"name":"KAKTyC","steam_id":76561198019296536,"connected_time":501000000000,"state":"active","ping":90},{"user_id":44,"name":"aiwgode","steam_id":76561198826619475,"connected_time":497000000000,"state":"active","ping":111}]},{"server_id":308,"name":"Uncletopia | Frankfurt | 3 | All Maps","name_short":"frk-3","host":"frk-1.de.uncletopia.com","port":27035,"enabled":true,"region":"eu","cc":"de","latitude":50.110924,"longitude":8.682127,"reserved":0,"last_update":"0001-01-01T00:00:00Z","name_a2s":"Uncletopia | Frankfurt | 3 | All Maps","protocol":17,"map":"cp_snakewater_final1","folder":"tf","game":"Team Fortress","app_id":440,"player_count":0,"max_players":24,"Bots":0,"server_type":"Dedicated","server_os":"Linux","password":true,"vac":true,"version":"7757534","steam_id":85568392924504274,"keywords":["cp","nocrits","nodmgspread","uncletopia"],"game_id":440,"stv_port":27036,"stv_name":"Uncletopia | Frankfurt | 3 | All Maps | STV","players":null},{"server_id":309,"name":"Uncletopia | Frankfurt | 4 | All Maps","name_short":"frk-4","host":"frk-1.de.uncletopia.com","port":27045,"enabled":true,"region":"eu","cc":"de","latitude":50.110924,"longitude":8.682127,"reserved":0,"last_update":"0001-01-01T00:00:00Z","name_a2s":"Uncletopia | Frankfurt | 4 | All Maps","protocol":17,"map":"koth_viaduct","folder":"tf","game":"Team Fortress","app_id":440,"player_count":0,"max_players":24,"Bots":0,"server_type":"Dedicated","server_os":"Linux","password":true,"vac":true,"version":"7757534","steam_id":85568392924504275,"keywords":["cp","nocrits","nodmgspread","uncletopia"],"game_id":440,"stv_port":27046,"stv_name":"Uncletopia | Frankfurt | 4 | All Maps | STV","players":null},{"server_id":310,"name":"Uncletopia | Frankfurt | 5 | All Maps","name_short":"frk-5","host":"frk-1.de.uncletopia.com","port":27055,"enabled":true,"region":"eu","cc":"de","latitude":50.110924,"longitude":8.682127,"reserved":0,"last_update":"0001-01-01T00:00:00Z","name_a2s":"Uncletopia | Frankfurt | 5 | All Maps","protocol":17,"map":"koth_lakeside_final","folder":"tf","game":"Team Fortress","app_id":440,"player_count":0,"max_players":24,"Bots":0,"server_type":"Dedicated","server_os":"Linux","password":true,"vac":true,"version":"7757534","steam_id":85568392924504277,"keywords":["cp","nocrits","nodmgspread","uncletopia"],"game_id":440,"stv_port":27056,"stv_name":"Uncletopia | Frankfurt | 5 | All Maps | STV","players":null},{"server_id":311,"name":"Uncletopia | Frankfurt | 6 | All Maps","name_short":"frk-6","host":"frk-1.de.uncletopia.com","port":27065,"enabled":true,"region":"eu","cc":"de","latitude":50.110924,"longitude":8.682127,"reserved":0,"last_update":"0001-01-01T00:00:00Z","name_a2s":"Uncletopia | Frankfurt | 6 | All Maps","protocol":17,"map":"pl_frontier_final","folder":"tf","game":"Team Fortress","app_id":440,"player_count":0,"max_players":24,"Bots":0,"server_type":"Dedicated","server_os":"Linux","password":true,"vac":true,"version":"7757534","steam_id":85568392924504278,"keywords":["nocrits","nodmgspread","payload","uncletopia"],"game_id":440,"stv_port":27066,"stv_name":"Uncletopia | Frankfurt | 6 | All Maps | STV","players":null},{"server_id":23,"name":"Uncletopia | Frankfurt | 7 | Stopwatch Beta","name_short":"frk-7","host":"frk-1.de.uncletopia.com","port":27075,"enabled":true,"region":"eu","cc":"de","latitude":50.110924,"longitude":8.682127,"reserved":0,"last_update":"0001-01-01T00:00:00Z","name_a2s":"Uncletopia | Frankfurt | 7 | Stopwatch Beta","protocol":17,"map":"koth_lakeside_final","folder":"tf","game":"Team Fortress","app_id":440,"player_count":0,"max_players":24,"Bots":0,"server_type":"Dedicated","server_os":"Linux","password":true,"vac":true,"version":"7757534","steam_id":85568392924742827,"keywords":["cp","nocrits","nodmgspread","uncletopia"],"game_id":440,"stv_port":27076,"stv_name":"Uncletopia | Frankfurt | 7 | Stopwatch Beta | STV","players":null},{"server_id":24,"name":"Uncletopia | Frankfurt | 8 | Community","name_short":"frk-8","host":"frk-1.de.uncletopia.com","port":27085,"enabled":true,"region":"eu","cc":"de","latitude":50.110924,"longitude":8.682127,"reserved":0,"last_update":"0001-01-01T00:00:00Z","name_a2s":"Uncletopia | Frankfurt | 8 | Community","protocol":17,"map":"koth_lakeside_final","folder":"tf","game":"Team Fortress","app_id":440,"player_count":0,"max_players":24,"Bots":0,"server_type":"Dedicated","server_os":"Linux","password":true,"vac":true,"version":"7757534","steam_id":85568392924742828,"keywords":["cp","nocrits","nodmgspread","uncletopia"],"game_id":440,"stv_port":27086,"stv_name":"Uncletopia | Frankfurt | 8 | Community | STV","players":null},{"server_id":202,"name":"Uncletopia | Hong Kong | 1 | All Maps","name_short":"hgk-1","host":"hgk-1.hk.uncletopia.com","port":27015,"enabled":true,"region":"asia","cc":"hk","latitude":22.302711,"longitude":114.177216,"reserved":0,"last_update":"0001-01-01T00:00:00Z","name_a2s":"Uncletopia | Hong Kong | 1 | All Maps","protocol":17,"map":"pl_pier","folder":"tf","game":"Team Fortress","app_id":440,"player_count":24,"max_players":24,"Bots":0,"server_type":"Dedicated","server_os":"Linux","password":true,"vac":true,"version":"7757534","steam_id":85568392924494504,"keywords":["nocrits","nodmgspread","payload","uncletopia"],"game_id":440,"stv_port":27016,"stv_name":"Uncletopia | Hong Kong | 1 | All Maps | STV","players":[{"user_id":264,"name":"LEGS","steam_id":76561199111623890,"connected_time":864000000000,"state":"active","ping":66},{"user_id":211,"name":"P","steam_id":76561198304514505,"connected_time":5306000000000,"state":"active","ping":76},{"user_id":275,"name":"BOK","steam_id":76561198095872644,"connected_time":259000000000,"state":"active","ping":83},{"user_id":182,"name":"Â∏ï","steam_id":76561198439343999,"connected_time":7923000000000,"state":"active","ping":77},{"user_id":258,"name":"TonXD","steam_id":76561199024372559,"connected_time":2141000000000,"state":"active","ping":102},{"user_id":241,"name":"AmaiToxic(I drew FemPyro tits)","steam_id":76561199122491157,"connected_time":3096000000000,"state":"active","ping":133},{"user_id":277,"name":"TomProPlayer","steam_id":76561199223292521,"connected_time":91000000000,"state":"active","ping":67},{"user_id":269,"name":"Mega 00F","steam_id":76561198962485791,"connected_time":577000000000,"state":"active","ping":135},{"user_id":170,"name":"7853","steam_id":76561199390507975,"connected_time":8647000000000,"state":"active","ping":51},{"user_id":188,"name":"Michael Scott","steam_id":76561198023082794,"connected_time":7545000000000,"state":"active","ping":56},{"user_id":152,"name":"Meru","steam_id":76561198405734851,"connected_time":11644000000000,"state":"active","ping":147},{"user_id":232,"name":"17","steam_id":76561198241530712,"connected_time":3913000000000,"state":"active","ping":59},{"user_id":249,"name":"Operate EX","steam_id":76561199351297136,"connected_time":2676000000000,"state":"active","ping":87},{"user_id":243,"name":"MongGoyo63","steam_id":76561198349540834,"connected_time":2991000000000,"state":"active","ping":90},{"user_id":271,"name":"tiden2000","steam_id":76561198092969425,"connected_time":568000000000,"state":"active","ping":108},{"user_id":279,"name":"Lu","steam_id":76561198320532821,"connected_time":85000000000,"state":"active","ping":74},{"user_id":278,"name":"Cloud-Verse","steam_id":76561198194370973,"connected_time":88000000000,"state":"active","ping":82},{"user_id":231,"name":"Nonexistent","steam_id":76561198980563251,"connected_time":3971000000000,"state":"active","ping":83},{"user_id":225,"name":"Milk‚ù§","steam_id":76561198163911560,"connected_time":4769000000000,"state":"active","ping":138},{"user_id":208,"name":"David Keithson","steam_id":76561199279393636,"connected_time":5616000000000,"state":"active","ping":71},{"user_id":234,"name":"A Toilet","steam_id":76561198148278657,"connected_time":3884000000000,"state":"active","ping":158},{"user_id":254,"name":"chlorine poisoning","steam_id":76561199146847474,"connected_time":2643000000000,"state":"active","ping":56},{"user_id":256,"name":"Momoxhien","steam_id":76561198414997429,"connected_time":2295000000000,"state":"active","ping":56},{"user_id":230,"name":"Puddin","steam_id":76561198140052918,"connected_time":3983000000000,"state":"active","ping":101}]},{"server_id":1,"name":"Uncletopia | Los Angeles | 1 | All Maps","name_short":"lax-1","host":"lax-1.us.uncletopia.com","port":27015,"enabled":true,"region":"us-west","cc":"us","latitude":33.94279,"longitude":-118.41004,"reserved":0,"last_update":"0001-01-01T00:00:00Z","name_a2s":"Uncletopia | Los Angeles | 1 | All Maps","protocol":17,"map":"plr_hightower","folder":"tf","game":"Team Fortress","app_id":440,"player_count":0,"max_players":24,"Bots":0,"server_type":"Dedicated","server_os":"Linux","password":true,"vac":true,"version":"7757534","steam_id":85568392924469991,"keywords":["nocrits","nodmgspread","payload","uncletopia"],"game_id":440,"stv_port":27016,"stv_name":"Uncletopia | Los Angeles | 1 | All Maps | STV","players":null},{"server_id":112,"name":"Uncletopia | Los Angeles | 2 | All Maps","name_short":"lax-2","host":"lax-1.us.uncletopia.com","port":27025,"enabled":true,"region":"us-west","cc":"us","latitude":33.94279,"longitude":-118.41004,"reserved":0,"last_update":"0001-01-01T00:00:00Z","name_a2s":"Uncletopia | Los Angeles | 2 | All Maps","protocol":17,"map":"pl_badwater","folder":"tf","game":"Team Fortress","app_id":440,"player_count":24,"max_players":24,"Bots":0,"server_type":"Dedicated","server_os":"Linux","password":true,"vac":true,"version":"7757534","steam_id":85568392924469992,"keywords":["nocrits","nodmgspread","payload","uncletopia"],"game_id":440,"stv_port":27026,"stv_name":"Uncletopia | Los Angeles | 2 | All Maps | STV","players":[{"user_id":497,"name":"dinocoder","steam_id":76561198311038263,"connected_time":742000000000,"state":"active","ping":54},{"user_id":484,"name":"Myahster","steam_id":76561198082824771,"connected_time":1548000000000,"state":"active","ping":32},{"user_id":318,"name":"perc 10","steam_id":76561198116471653,"connected_time":11223000000000,"state":"active","ping":58},{"user_id":415,"name":"selvhat","steam_id":76561198114225509,"connected_time":6589000000000,"state":"active","ping":49},{"user_id":498,"name":"frappe444","steam_id":76561199032973937,"connected_time":592000000000,"state":"active","ping":65},{"user_id":485,"name":"cringe","steam_id":76561198104086771,"connected_time":1417000000000,"state":"active","ping":46},{"user_id":482,"name":"netoc6","steam_id":76561199065312168,"connected_time":1599000000000,"state":"active","ping":112},{"user_id":470,"name":"HAGGARD","steam_id":76561198028184364,"connected_time":2219000000000,"state":"active","ping":85},{"user_id":499,"name":"Fi \u003c3","steam_id":76561198315348942,"connected_time":521000000000,"state":"active","ping":78},{"user_id":500,"name":"Makali","steam_id":76561198839601234,"connected_time":512000000000,"state":"active","ping":60},{"user_id":503,"name":"Q","steam_id":76561199201310500,"connected_time":398000000000,"state":"active","ping":72},{"user_id":502,"name":"Plus","steam_id":76561198403056269,"connected_time":430000000000,"state":"active","ping":34},{"user_id":488,"name":"h0nex","steam_id":76561198161212078,"connected_time":1397000000000,"state":"active","ping":147},{"user_id":504,"name":"Shadow_Phoenix4","steam_id":76561199089073864,"connected_time":397000000000,"state":"active","ping":89},{"user_id":455,"name":"cool beans","steam_id":76561198045758072,"connected_time":3592000000000,"state":"active","ping":50},{"user_id":505,"name":"portal2trollin","steam_id":76561198046869828,"connected_time":366000000000,"state":"active","ping":102},{"user_id":492,"name":"god's drunkest driver","steam_id":76561198212115640,"connected_time":1189000000000,"state":"active","ping":47},{"user_id":496,"name":"ScoutBox","steam_id":76561198111539895,"connected_time":813000000000,"state":"active","ping":45},{"user_id":446,"name":"FriskyDemon","steam_id":76561198043684646,"connected_time":4088000000000,"state":"active","ping":69},{"user_id":506,"name":"Blows","steam_id":76561198065349185,"connected_time":358000000000,"state":"active","ping":52},{"user_id":507,"name":"no way that mouse is modest","steam_id":76561198154746018,"connected_time":294000000000,"state":"active","ping":109},{"user_id":509,"name":"Pasta Opressor","steam_id":76561198281612642,"connected_time":277000000000,"state":"active","ping":75},{"user_id":510,"name":"hardfork","steam_id":76561197960958019,"connected_time":276000000000,"state":"active","ping":71},{"user_id":407,"name":"beeble!","steam_id":76561198219538525,"connected_time":7034000000000,"state":"active","ping":88}]},{"server_id":324,"name":"Uncletopia | Los Angeles | 3 | All Maps","name_short":"lax-3","host":"lax-1.us.uncletopia.com","port":27035,"enabled":true,"region":"us-west","cc":"us","latitude":33.94279,"longitude":-118.41004,"reserved":0,"last_update":"0001-01-01T00:00:00Z","name_a2s":"Uncletopia | Los Angeles | 3 | All Maps","protocol":17,"map":"cp_snakewater_final1","folder":"tf","game":"Team Fortress","app_id":440,"player_count":0,"max_players":24,"Bots":0,"server_type":"Dedicated","server_os":"Linux","password":true,"vac":true,"version":"7757534","steam_id":85568392924510198,"keywords":["cp","nocrits","nodmgspread","uncletopia"],"game_id":440,"stv_port":27036,"stv_name":"Uncletopia | Los Angeles | 3 | All Maps | STV","players":null},{"server_id":25,"name":"Uncletopia | Los Angeles | 4 | Stopwatch Beta","name_short":"lax-4","host":"lax-1.us.uncletopia.com","port":27045,"enabled":true,"region":"us-west","cc":"us","latitude":33.94279,"longitude":-118.41004,"reserved":0,"last_update":"0001-01-01T00:00:00Z","name_a2s":"Uncletopia | Los Angeles | 4 | Stopwatch Beta","protocol":17,"map":"cp_sunshine","folder":"tf","game":"Team Fortress","app_id":440,"player_count":0,"max_players":24,"Bots":0,"server_type":"Dedicated","server_os":"Linux","password":true,"vac":true,"version":"7757534","steam_id":85568392924510199,"keywords":["cp","nocrits","nodmgspread","uncletopia"],"game_id":440,"stv_port":27046,"stv_name":"Uncletopia | Los Angeles | 4 | Stopwatch Beta | STV","players":null},{"server_id":11,"name":"Uncletopia | London | 1 | All Maps","name_short":"lon-1","host":"lon-1.uk.uncletopia.com","port":27015,"enabled":true,"region":"eu","cc":"gb","latitude":51.509865,"longitude":-0.118092,"reserved":0,"last_update":"0001-01-01T00:00:00Z","name_a2s":"Uncletopia | London | 1 | All Maps","protocol":17,"map":"koth_lakeside_final","folder":"tf","game":"Team Fortress","app_id":440,"player_count":7,"max_players":24,"Bots":0,"server_type":"Dedicated","server_os":"Linux","password":true,"vac":true,"version":"7757534","steam_id":85568392924367362,"keywords":["cp","nocrits","nodmgspread","uncletopia"],"game_id":440,"stv_port":27016,"stv_name":"Uncletopia | London | 1 | All Maps | STV","players":[{"user_id":4,"name":"James","steam_id":76561198152128484,"connected_time":1818000000000,"state":"active","ping":40},{"user_id":5,"name":"Senior","steam_id":76561198065014164,"connected_time":1790000000000,"state":"active","ping":39},{"user_id":7,"name":"Slim3rs","steam_id":76561199088010585,"connected_time":1450000000000,"state":"active","ping":176},{"user_id":15,"name":"\"Big\" Jack Horner","steam_id":76561199000922074,"connected_time":12000000000,"state":"spawning","ping":123},{"user_id":9,"name":"hamez1740","steam_id":76561198868217493,"connected_time":621000000000,"state":"active","ping":79},{"user_id":11,"name":"N A M E L E S S","steam_id":76561198032391000,"connected_time":327000000000,"state":"active","ping":47},{"user_id":14,"name":"Ataraxia","steam_id":76561198086654069,"connected_time":120000000000,"state":"active","ping":74}]},{"server_id":114,"name":"Uncletopia | London | 2 | All Maps","name_short":"lon-2","host":"lon-1.uk.uncletopia.com","port":27025,"enabled":true,"region":"eu","cc":"gb","latitude":51.509865,"longitude":-0.118092,"reserved":0,"last_update":"0001-01-01T00:00:00Z","name_a2s":"Uncletopia | London | 2 | All Maps","protocol":17,"map":"koth_viaduct","folder":"tf","game":"Team Fortress","app_id":440,"player_count":0,"max_players":24,"Bots":0,"server_type":"Dedicated","server_os":"Linux","password":true,"vac":true,"version":"7757534","steam_id":85568392924470941,"keywords":["cp","nocrits","nodmgspread","uncletopia"],"game_id":440,"stv_port":27026,"stv_name":"Uncletopia | London | 2 | All Maps | STV","players":null},{"server_id":320,"name":"Uncletopia | London | 3 | All Maps","name_short":"lon-3","host":"lon-1.uk.uncletopia.com","port":27035,"enabled":true,"region":"eu","cc":"gb","latitude":51.509865,"longitude":-0.118092,"reserved":0,"last_update":"0001-01-01T00:00:00Z","name_a2s":"Uncletopia | London | 3 | All Maps","protocol":17,"map":"cp_dustbowl","folder":"tf","game":"Team Fortress","app_id":440,"player_count":0,"max_players":24,"Bots":0,"server_type":"Dedicated","server_os":"Linux","password":true,"vac":true,"version":"7757534","steam_id":85568392924510192,"keywords":["cp","nocrits","nodmgspread","uncletopia"],"game_id":440,"stv_port":27036,"stv_name":"Uncletopia | London | 3 | All Maps | STV","players":null},{"server_id":321,"name":"Uncletopia | London | 4 | All Maps","name_short":"lon-4","host":"lon-1.uk.uncletopia.com","port":27045,"enabled":true,"region":"eu","cc":"gb","latitude":51.509865,"longitude":-0.118092,"reserved":0,"last_update":"0001-01-01T00:00:00Z","name_a2s":"Uncletopia | London | 4 | All Maps","protocol":17,"map":"koth_highpass","folder":"tf","game":"Team Fortress","app_id":440,"player_count":0,"max_players":24,"Bots":0,"server_type":"Dedicated","server_os":"Linux","password":true,"vac":true,"version":"7757534","steam_id":85568392924510193,"keywords":["cp","nocrits","nodmgspread","uncletopia"],"game_id":440,"stv_port":27046,"stv_name":"Uncletopia | London | 4 | All Maps | STV","players":null},{"server_id":21,"name":"Uncletopia | London | 5 | All Maps","name_short":"lon-5","host":"lon-1.uk.uncletopia.com","port":27055,"enabled":true,"region":"eu","cc":"gb","latitude":51.509865,"longitude":-0.118092,"reserved":0,"last_update":"0001-01-01T00:00:00Z","name_a2s":"Uncletopia | London | 5 | All Maps","protocol":17,"map":"cp_altitude","folder":"tf","game":"Team Fortress","app_id":440,"player_count":0,"max_players":24,"Bots":0,"server_type":"Dedicated","server_os":"Linux","password":true,"vac":true,"version":"7757534","steam_id":85568392924742829,"keywords":["cp","nocrits","nodmgspread","uncletopia"],"game_id":440,"stv_port":27056,"stv_name":"Uncletopia | London | 5 | All Maps | STV","players":null},{"server_id":22,"name":"Uncletopia | London | 6 | All Maps","name_short":"lon-6","host":"lon-1.uk.uncletopia.com","port":27065,"enabled":true,"region":"eu","cc":"gb","latitude":51.509865,"longitude":-0.118092,"reserved":0,"last_update":"0001-01-01T00:00:00Z","name_a2s":"Uncletopia | London | 6 | All Maps","protocol":17,"map":"pl_pier","folder":"tf","game":"Team Fortress","app_id":440,"player_count":0,"max_players":24,"Bots":0,"server_type":"Dedicated","server_os":"Linux","password":true,"vac":true,"version":"7757534","steam_id":85568392924742830,"keywords":["nocrits","nodmgspread","payload","uncletopia"],"game_id":440,"stv_port":27066,"stv_name":"Uncletopia | London | 6 | All Maps | STV","players":null},{"server_id":40,"name":"Uncletopia | London | 7 | No Payload","name_short":"lon-7","host":"lon-1.uk.uncletopia.com","port":27075,"enabled":true,"region":"eu","cc":"gb","latitude":51.509865,"longitude":-0.118092,"reserved":0,"last_update":"0001-01-01T00:00:00Z","name_a2s":"Uncletopia | London | 7 | No Payload","protocol":17,"map":"pl_badwater","folder":"tf","game":"Team Fortress","app_id":440,"player_count":0,"max_players":24,"Bots":0,"server_type":"Dedicated","server_os":"Linux","password":true,"vac":true,"version":"7757534","steam_id":85568392924964314,"keywords":["nocrits","nodmgspread","payload","uncletopia"],"game_id":440,"stv_port":27076,"stv_name":"Uncletopia | London | 7 | No Payload | STV","players":null},{"server_id":41,"name":"Uncletopia | London | 8 | Community","name_short":"lon-8","host":"lon-1.uk.uncletopia.com","port":27085,"enabled":true,"region":"eu","cc":"gb","latitude":51.509865,"longitude":-0.118092,"reserved":0,"last_update":"0001-01-01T00:00:00Z","name_a2s":"Uncletopia | London | 8 | Community","protocol":17,"map":"pl_barnblitz","folder":"tf","game":"Team Fortress","app_id":440,"player_count":0,"max_players":24,"Bots":0,"server_type":"Dedicated","server_os":"Linux","password":true,"vac":true,"version":"7757534","steam_id":85568392924964315,"keywords":["nocrits","nodmgspread","payload","uncletopia"],"game_id":440,"stv_port":27086,"stv_name":"Uncletopia | London | 8 | Community | STV","players":null},{"server_id":300,"name":"Uncletopia | Montr√©al | 1 | All Maps","name_short":"mtl-1","host":"mtl-1.ca.uncletopia.com","port":27015,"enabled":true,"region":"us-east","cc":"ca","latitude":45.50889,"longitude":-73.56167,"reserved":0,"last_update":"0001-01-01T00:00:00Z","name_a2s":"Uncletopia | Montr√©al | 1 | All Maps","protocol":17,"map":"koth_highpass","folder":"tf","game":"Team Fortress","app_id":440,"player_count":0,"max_players":24,"Bots":0,"server_type":"Dedicated","server_os":"Linux","password":true,"vac":true,"version":"7757534","steam_id":85568392924500087,"keywords":["cp","nocrits","nodmgspread","uncletopia"],"game_id":440,"stv_port":27016,"stv_name":"Uncletopia | Montr√©al | 1 | All Maps | STV","players":null},{"server_id":301,"name":"Uncletopia | Montr√©al | 2 | All Maps","name_short":"mtl-2","host":"mtl-1.ca.uncletopia.com","port":27025,"enabled":true,"region":"us-east","cc":"ca","latitude":45.50889,"longitude":-73.56167,"reserved":0,"last_update":"0001-01-01T00:00:00Z","name_a2s":"Uncletopia | Montr√©al | 2 | All Maps","protocol":17,"map":"cp_snakewater_final1","folder":"tf","game":"Team Fortress","app_id":440,"player_count":0,"max_players":24,"Bots":0,"server_type":"Dedicated","server_os":"Linux","password":true,"vac":true,"version":"7757534","steam_id":85568392924500088,"keywords":["cp","nocrits","nodmgspread","uncletopia"],"game_id":440,"stv_port":27026,"stv_name":"Uncletopia | Montr√©al | 2 | All Maps | STV","players":null},{"server_id":302,"name":"Uncletopia | Montr√©al | 3 | All Maps","name_short":"mtl-3","host":"mtl-1.ca.uncletopia.com","port":27035,"enabled":true,"region":"us-east","cc":"ca","latitude":45.50889,"longitude":-73.56167,"reserved":0,"last_update":"0001-01-01T00:00:00Z","name_a2s":"Uncletopia | Montr√©al | 3 | All Maps","protocol":17,"map":"pl_pier","folder":"tf","game":"Team Fortress","app_id":440,"player_count":0,"max_players":24,"Bots":0,"server_type":"Dedicated","server_os":"Linux","password":true,"vac":true,"version":"7757534","steam_id":85568392924500089,"keywords":["nocrits","nodmgspread","payload","uncletopia"],"game_id":440,"stv_port":27036,"stv_name":"Uncletopia | Montr√©al | 3 | All Maps | STV","players":null},{"server_id":303,"name":"Uncletopia | Montr√©al | 4 | No Payload","name_short":"mtl-4","host":"mtl-1.ca.uncletopia.com","port":27045,"enabled":true,"region":"us-east","cc":"ca","latitude":45.50889,"longitude":-73.56167,"reserved":0,"last_update":"0001-01-01T00:00:00Z","name_a2s":"Uncletopia | Montr√©al | 4 | No Payload","protocol":17,"map":"plr_nightfall_final","folder":"tf","game":"Team Fortress","app_id":440,"player_count":0,"max_players":24,"Bots":0,"server_type":"Dedicated","server_os":"Linux","password":true,"vac":true,"version":"7757534","steam_id":85568392924500090,"keywords":["nocrits","nodmgspread","payload","uncletopia"],"game_id":440,"stv_port":27046,"stv_name":"Uncletopia | Montr√©al | 4 | No Payload | STV","players":null},{"server_id":13,"name":"Uncletopia | New York City | 1 | All Maps","name_short":"nyc-1","host":"nyc-1.us.uncletopia.com","port":27015,"enabled":true,"region":"us-east","cc":"us","latitude":40.73061,"longitude":-73.93524,"reserved":0,"last_update":"0001-01-01T00:00:00Z","name_a2s":"Uncletopia | New York City | 1 | All Maps","protocol":17,"map":"pl_badwater","folder":"tf","game":"Team Fortress","app_id":440,"player_count":23,"max_players":24,"Bots":0,"server_type":"Dedicated","server_os":"Linux","password":true,"vac":true,"version":"7757534","steam_id":85568392924469993,"keywords":["nocrits","nodmgspread","payload","uncletopia"],"game_id":440,"stv_port":27016,"stv_name":"Uncletopia | New York City | 1 | All Maps | STV","players":[{"user_id":722,"name":"OrangeKing64","steam_id":76561198082903736,"connected_time":2612000000000,"state":"active","ping":39},{"user_id":723,"name":"Jelx_","steam_id":76561198087109541,"connected_time":2608000000000,"state":"active","ping":45},{"user_id":715,"name":"Yoshimelon","steam_id":76561198253054325,"connected_time":3221000000000,"state":"active","ping":76},{"user_id":721,"name":"nutlube","steam_id":76561198128831131,"connected_time":2842000000000,"state":"active","ping":146},{"user_id":747,"name":"Mark","steam_id":76561198262591317,"connected_time":293000000000,"state":"active","ping":119},{"user_id":727,"name":"MRPIZZABOI","steam_id":76561199036144466,"connected_time":1967000000000,"state":"active","ping":94},{"user_id":728,"name":"Amish Robot","steam_id":76561198041156065,"connected_time":1963000000000,"state":"active","ping":97},{"user_id":729,"name":"PEPSI POWERED MAN","steam_id":76561198362668431,"connected_time":1900000000000,"state":"active","ping":112},{"user_id":732,"name":"Motorbung87","steam_id":76561198976821898,"connected_time":1677000000000,"state":"active","ping":114},{"user_id":731,"name":"Dragon_Skywalker","steam_id":76561198864997173,"connected_time":1768000000000,"state":"active","ping":60},{"user_id":700,"name":"Poptart From Mars","steam_id":76561197979930960,"connected_time":3828000000000,"state":"active","ping":94},{"user_id":733,"name":"box","steam_id":76561198049531483,"connected_time":1622000000000,"state":"active","ping":67},{"user_id":661,"name":"CRAZY engineer","steam_id":76561198887937902,"connected_time":7240000000000,"state":"active","ping":64},{"user_id":734,"name":"NV-6155","steam_id":76561198085696816,"connected_time":1621000000000,"state":"active","ping":64},{"user_id":737,"name":"Doomset","steam_id":76561198879996015,"connected_time":1455000000000,"state":"active","ping":182},{"user_id":716,"name":"Lucky7","steam_id":76561199084623109,"connected_time":3172000000000,"state":"active","ping":117},{"user_id":739,"name":"Mufalito","steam_id":76561198951889482,"connected_time":1338000000000,"state":"active","ping":147},{"user_id":742,"name":"Alcohol Hominid","steam_id":76561198320313950,"connected_time":1246000000000,"state":"active","ping":88},{"user_id":705,"name":"Arrythmia","steam_id":76561198093748123,"connected_time":3678000000000,"state":"active","ping":119},{"user_id":741,"name":"‚òÖ‚òÖthastephen‚òÖ‚òÖ","steam_id":76561198080289775,"connected_time":1304000000000,"state":"active","ping":119},{"user_id":743,"name":"DMTjoe","steam_id":76561198199804246,"connected_time":1224000000000,"state":"active","ping":189},{"user_id":603,"name":"zpalmtree","steam_id":76561198134307620,"connected_time":13834000000000,"state":"active","ping":63},{"user_id":744,"name":"ThoHost","steam_id":76561198152036600,"connected_time":1192000000000,"state":"active","ping":80}]},{"server_id":14,"name":"Uncletopia | New York City | 2 | All Maps","name_short":"nyc-2","host":"nyc-1.us.uncletopia.com","port":27025,"enabled":true,"region":"us-east","cc":"us","latitude":40.73061,"longitude":-73.93524,"reserved":0,"last_update":"0001-01-01T00:00:00Z","name_a2s":"Uncletopia | New York City | 2 | All Maps","protocol":17,"map":"cp_dustbowl","folder":"tf","game":"Team Fortress","app_id":440,"player_count":0,"max_players":24,"Bots":0,"server_type":"Dedicated","server_os":"Linux","password":true,"vac":true,"version":"7757534","steam_id":85568392924469994,"keywords":["cp","nocrits","nodmgspread","uncletopia"],"game_id":440,"stv_port":27026,"stv_name":"Uncletopia | New York City | 2 | All Maps | STV","players":null},{"server_id":15,"name":"Uncletopia | New York City | 3 | Stopwatch Beta","name_short":"nyc-3","host":"nyc-1.us.uncletopia.com","port":27035,"enabled":true,"region":"us-east","cc":"us","latitude":40.73061,"longitude":-73.93524,"reserved":0,"last_update":"0001-01-01T00:00:00Z","name_a2s":"Uncletopia | New York City | 3 | Stopwatch Beta","protocol":17,"map":"workshop/koth_ramjam_rc1.ugc459778887","folder":"tf","game":"Team Fortress","app_id":440,"player_count":0,"max_players":24,"Bots":0,"server_type":"Dedicated","server_os":"Linux","password":true,"vac":true,"version":"7757534","steam_id":85568392924742820,"keywords":["cp","nocrits","nodmgspread","uncletopia"],"game_id":440,"stv_port":27036,"stv_name":"Uncletopia | New York City | 3 | Stopwatch Beta | STV","players":null},{"server_id":16,"name":"Uncletopia | New York City | 4 | Community","name_short":"nyc-4","host":"nyc-1.us.uncletopia.com","port":27045,"enabled":true,"region":"us-east","cc":"us","latitude":40.73061,"longitude":-73.93524,"reserved":0,"last_update":"0001-01-01T00:00:00Z","name_a2s":"Uncletopia | New York City | 4 | Community","protocol":17,"map":"workshop/cp_propaganda_b18.ugc1603743849","folder":"tf","game":"Team Fortress","app_id":440,"player_count":0,"max_players":24,"Bots":0,"server_type":"Dedicated","server_os":"Linux","password":true,"vac":true,"version":"7757534","steam_id":85568392924742821,"keywords":["cp","nocrits","nodmgspread","uncletopia"],"game_id":440,"stv_port":27046,"stv_name":"Uncletopia | New York City | 4 | Community | STV","players":null},{"server_id":142,"name":"Uncletopia | S√£o Paulo | 1 | All Maps","name_short":"sao-1","host":"sao-1.br.uncletopia.com","port":27015,"enabled":true,"region":"sa","cc":"br","latitude":-23.533773,"longitude":-46.62529,"reserved":0,"last_update":"0001-01-01T00:00:00Z","name_a2s":"Uncletopia | S√£o Paulo | 1 | All Maps","protocol":17,"map":"koth_lakeside_final","folder":"tf","game":"Team Fortress","app_id":440,"player_count":0,"max_players":24,"Bots":0,"server_type":"Dedicated","server_os":"Linux","password":true,"vac":true,"version":"7757534","steam_id":85568392924469996,"keywords":["cp","nocrits","nodmgspread","uncletopia"],"game_id":440,"stv_port":27016,"stv_name":"Uncletopia | S√£o Paulo | 1 | All Maps | STV","players":null},{"server_id":143,"name":"Uncletopia | S√£o Paulo | 2 | All Maps","name_short":"sao-2","host":"sao-2.br.uncletopia.com","port":27015,"enabled":true,"region":"sa","cc":"br","latitude":-23.533773,"longitude":-46.62529,"reserved":0,"last_update":"0001-01-01T00:00:00Z","name_a2s":"Uncletopia | S√£o Paulo | 2 | All Maps","protocol":17,"map":"pl_borneo","folder":"tf","game":"Team Fortress","app_id":440,"player_count":0,"max_players":24,"Bots":0,"server_type":"Dedicated","server_os":"Linux","password":true,"vac":true,"version":"7757534","steam_id":85568392924485349,"keywords":["nocrits","nodmgspread","payload","uncletopia"],"game_id":440,"stv_port":27016,"stv_name":"Uncletopia | S√£o Paulo | 2 | All Maps | STV","players":null},{"server_id":7,"name":"Uncletopia | Seattle | 1 | All Maps","name_short":"sea-1","host":"sea-1.us.uncletopia.com","port":27015,"enabled":true,"region":"us-west","cc":"us","latitude":47.608013,"longitude":-122.33517,"reserved":0,"last_update":"0001-01-01T00:00:00Z","name_a2s":"Uncletopia | Seattle | 1 | All Maps","protocol":17,"map":"pl_badwater","folder":"tf","game":"Team Fortress","app_id":440,"player_count":24,"max_players":24,"Bots":0,"server_type":"Dedicated","server_os":"Linux","password":true,"vac":true,"version":"7757534","steam_id":85568392924469997,"keywords":["nocrits","nodmgspread","payload","uncletopia"],"game_id":440,"stv_port":27016,"stv_name":"Uncletopia | Seattle | 1 | All Maps | STV","players":[{"user_id":814,"name":"The local hobo","steam_id":76561198289650060,"connected_time":553000000000,"state":"active","ping":68},{"user_id":801,"name":"summerlis","steam_id":76561198165324438,"connected_time":1609000000000,"state":"active","ping":61},{"user_id":787,"name":"Closed.","steam_id":76561198212598967,"connected_time":2867000000000,"state":"active","ping":65},{"user_id":810,"name":"Big Fat Stinkword","steam_id":76561198094695484,"connected_time":789000000000,"state":"active","ping":56},{"user_id":767,"name":"Willy Wonker","steam_id":76561198082944789,"connected_time":4888000000000,"state":"active","ping":74},{"user_id":805,"name":"gl1tchr","steam_id":76561198302661983,"connected_time":1405000000000,"state":"active","ping":131},{"user_id":811,"name":"Big Ridley","steam_id":76561198129963910,"connected_time":780000000000,"state":"active","ping":106},{"user_id":778,"name":"cracky","steam_id":76561197971365444,"connected_time":3537000000000,"state":"active","ping":51},{"user_id":812,"name":"El Duderino","steam_id":76561199427900685,"connected_time":775000000000,"state":"active","ping":90},{"user_id":815,"name":"C10UD","steam_id":76561198067134091,"connected_time":531000000000,"state":"active","ping":92},{"user_id":788,"name":"Rain","steam_id":76561198065612273,"connected_time":2861000000000,"state":"active","ping":44},{"user_id":803,"name":"Mr.Frundles","steam_id":76561198134559026,"connected_time":1515000000000,"state":"active","ping":58},{"user_id":777,"name":"Smeagolhoss","steam_id":76561198361514063,"connected_time":3757000000000,"state":"active","ping":89},{"user_id":738,"name":"Ryuujin","steam_id":76561198000897946,"connected_time":8710000000000,"state":"active","ping":64},{"user_id":817,"name":"Octo","steam_id":76561198024056355,"connected_time":513000000000,"state":"active","ping":76},{"user_id":808,"name":"FCKGW-RHQQ2-YXRKT-8TG6W-2B7Q8","steam_id":76561197993138592,"connected_time":1076000000000,"state":"active","ping":49},{"user_id":737,"name":"Viol3tOni","steam_id":76561198079208738,"connected_time":8964000000000,"state":"active","ping":54},{"user_id":818,"name":"ark","steam_id":76561198041066271,"connected_time":490000000000,"state":"active","ping":75},{"user_id":712,"name":"The Deders","steam_id":76561198002639950,"connected_time":10742000000000,"state":"active","ping":77},{"user_id":807,"name":"Infuzion4","steam_id":76561198119664203,"connected_time":1183000000000,"state":"active","ping":92},{"user_id":799,"name":"sheep on da linux","steam_id":76561198076781979,"connected_time":1632000000000,"state":"active","ping":81},{"user_id":768,"name":"AzuriousAlex","steam_id":76561198158026405,"connected_time":4868000000000,"state":"active","ping":87},{"user_id":800,"name":"Callahan","steam_id":76561197976928457,"connected_time":1628000000000,"state":"active","ping":53},{"user_id":806,"name":"toilet thief","steam_id":76561198057486874,"connected_time":1368000000000,"state":"active","ping":72}]},{"server_id":119,"name":"Uncletopia | Seattle | 2 | All Maps","name_short":"sea-2","host":"sea-1.us.uncletopia.com","port":27025,"enabled":true,"region":"us-west","cc":"us","latitude":47.608013,"longitude":-122.33517,"reserved":0,"last_update":"0001-01-01T00:00:00Z","name_a2s":"Uncletopia | Seattle | 2 | All Maps","protocol":17,"map":"cp_snakewater_final1","folder":"tf","game":"Team Fortress","app_id":440,"player_count":24,"max_players":24,"Bots":0,"server_type":"Dedicated","server_os":"Linux","password":true,"vac":true,"version":"7757534","steam_id":85568392924469998,"keywords":["cp","nocrits","nodmgspread","uncletopia"],"game_id":440,"stv_port":27026,"stv_name":"Uncletopia | Seattle | 2 | All Maps | STV","players":[{"user_id":764,"name":"Mr. StepOnShi","steam_id":76561198049381236,"connected_time":2153000000000,"state":"connecting","ping":56},{"user_id":758,"name":"diymo","steam_id":76561198017600790,"connected_time":2548000000000,"state":"connecting","ping":41},{"user_id":715,"name":"smeasly","steam_id":76561198028718812,"connected_time":7006000000000,"state":"connecting","ping":54},{"user_id":753,"name":"Shadow.","steam_id":76561197965552409,"connected_time":3140000000000,"state":"connecting","ping":69},{"user_id":778,"name":"Star","steam_id":76561198150115757,"connected_time":126000000000,"state":"connecting","ping":149},{"user_id":775,"name":"Cloud","steam_id":76561198272454184,"connected_time":1543000000000,"state":"connecting","ping":185},{"user_id":769,"name":"hart","steam_id":76561198046073848,"connected_time":1919000000000,"state":"connecting","ping":57},{"user_id":780,"name":"Bed Buge","steam_id":76561198276310307,"connected_time":16000000000,"state":"connecting","ping":93},{"user_id":681,"name":"Florist","steam_id":76561198009121060,"connected_time":10752000000000,"state":"connecting","ping":62},{"user_id":751,"name":"azarjan","steam_id":76561198006140025,"connected_time":3291000000000,"state":"connecting","ping":114},{"user_id":738,"name":"Resident Thrussy Lender","steam_id":76561198071790583,"connected_time":4698000000000,"state":"connecting","ping":167},{"user_id":781,"name":"Koald","steam_id":76561198090591070,"connected_time":14000000000,"state":"connecting","ping":60},{"user_id":747,"name":"Snoopy_dog","steam_id":76561198065339248,"connected_time":3848000000000,"state":"connecting","ping":70},{"user_id":766,"name":"gorlab","steam_id":76561198025089694,"connected_time":1949000000000,"state":"connecting","ping":81},{"user_id":752,"name":"ItsTanleyCrunch","steam_id":76561198037915942,"connected_time":3266000000000,"state":"connecting","ping":126},{"user_id":773,"name":"strctfsh","steam_id":76561198083619784,"connected_time":1892000000000,"state":"connecting","ping":103},{"user_id":777,"name":"Mr. SchizoWitIt","steam_id":76561198401611646,"connected_time":715000000000,"state":"connecting","ping":51},{"user_id":776,"name":"resh","steam_id":76561198239598834,"connected_time":1117000000000,"state":"connecting","ping":158},{"user_id":759,"name":"THE_VIRTUAL_DOG.exe","steam_id":76561197999522253,"connected_time":2519000000000,"state":"connecting","ping":42},{"user_id":728,"name":"oil","steam_id":76561198099980149,"connected_time":5640000000000,"state":"connecting","ping":98},{"user_id":680,"name":"p9 jorts (zoot)","steam_id":76561199041179985,"connected_time":10863000000000,"state":"connecting","ping":68}]},{"server_id":406,"name":"Uncletopia | Seattle | 3 | Stopwatch Beta","name_short":"sea-3","host":"sea-1.us.uncletopia.com","port":27035,"enabled":true,"region":"us-west","cc":"us","latitude":47.608013,"longitude":-122.33517,"reserved":0,"last_update":"0001-01-01T00:00:00Z","name_a2s":"Uncletopia | Seattle | 3 | Stopwatch Beta","protocol":17,"map":"workshop/pl_vigil_rc9.ugc1266210012","folder":"tf","game":"Team Fortress","app_id":440,"player_count":0,"max_players":24,"Bots":0,"server_type":"Dedicated","server_os":"Linux","password":true,"vac":true,"version":"7757534","steam_id":85568392924515217,"keywords":["nocrits","nodmgspread","payload","uncletopia"],"game_id":440,"stv_port":27036,"stv_name":"Uncletopia | Seattle | 3 | Stopwatch Beta | STV","players":null},{"server_id":17,"name":"Uncletopia | San Francisco | 1 | All Maps","name_short":"sfo-1","host":"sfo-1.us.uncletopia.com","port":27015,"enabled":true,"region":"us-west","cc":"us","latitude":37.77397,"longitude":-122.4313,"reserved":0,"last_update":"0001-01-01T00:00:00Z","name_a2s":"Uncletopia | San Francisco | 1 | All Maps","protocol":17,"map":"pl_pier","folder":"tf","game":"Team Fortress","app_id":440,"player_count":18,"max_players":24,"Bots":0,"server_type":"Dedicated","server_os":"Linux","password":true,"vac":true,"version":"7757534","steam_id":85568392924469999,"keywords":["nocrits","nodmgspread","payload","uncletopia"],"game_id":440,"stv_port":27016,"stv_name":"Uncletopia | San Francisco | 1 | All Maps | STV","players":[{"user_id":783,"name":"FLASH ASSANOVA","steam_id":76561197996266992,"connected_time":264000000000,"state":"active","ping":60},{"user_id":764,"name":"Umami Socks","steam_id":76561198062688146,"connected_time":2372000000000,"state":"active","ping":103},{"user_id":789,"name":"Miles","steam_id":76561199246824619,"connected_time":36000000000,"state":"active","ping":93},{"user_id":785,"name":"Thequirka","steam_id":76561198968058652,"connected_time":126000000000,"state":"active","ping":62},{"user_id":731,"name":"smiley","steam_id":76561198240116276,"connected_time":4651000000000,"state":"active","ping":96},{"user_id":765,"name":"CrystalClear","steam_id":76561198344276579,"connected_time":2309000000000,"state":"active","ping":100},{"user_id":786,"name":"Amish Tornado","steam_id":76561198132953790,"connected_time":121000000000,"state":"active","ping":144},{"user_id":787,"name":"Amplify","steam_id":76561198463289109,"connected_time":104000000000,"state":"active","ping":43},{"user_id":766,"name":"Super Ghostbusters (Full Album)","steam_id":76561198057415490,"connected_time":2272000000000,"state":"active","ping":100},{"user_id":788,"name":"yo mama","steam_id":76561198384866172,"connected_time":81000000000,"state":"active","ping":44},{"user_id":776,"name":"Crump","steam_id":76561198854405997,"connected_time":1392000000000,"state":"active","ping":59},{"user_id":777,"name":"Insertnaemhere","steam_id":76561198817743839,"connected_time":1384000000000,"state":"active","ping":60},{"user_id":790,"name":"Bheem","steam_id":76561198170453459,"connected_time":28000000000,"state":"active","ping":48},{"user_id":791,"name":"Chemically Dead","steam_id":76561199475507686,"connected_time":18000000000,"state":"active","ping":129},{"user_id":762,"name":"hotdog every meal","steam_id":76561198392514273,"connected_time":2579000000000,"state":"active","ping":61},{"user_id":778,"name":"AmIPlayingHeavy?","steam_id":76561198423047856,"connected_time":1263000000000,"state":"active","ping":52},{"user_id":780,"name":"Turdshitter","steam_id":76561198047774801,"connected_time":1091000000000,"state":"active","ping":62},{"user_id":773,"name":"rmbl","steam_id":76561198150137369,"connected_time":1903000000000,"state":"active","ping":57}]},{"server_id":18,"name":"Uncletopia | San Francisco | 2 | All Maps","name_short":"sfo-2","host":"sfo-1.us.uncletopia.com","port":27025,"enabled":true,"region":"us-west","cc":"us","latitude":37.77397,"longitude":-122.4313,"reserved":0,"last_update":"0001-01-01T00:00:00Z","name_a2s":"Uncletopia | San Francisco | 2 | All Maps","protocol":17,"map":"cp_snakewater_final1","folder":"tf","game":"Team Fortress","app_id":440,"player_count":4,"max_players":24,"Bots":0,"server_type":"Dedicated","server_os":"Linux","password":true,"vac":true,"version":"7757534","steam_id":85568392924470000,"keywords":["cp","nocrits","nodmgspread","uncletopia"],"game_id":440,"stv_port":27026,"stv_name":"Uncletopia | San Francisco | 2 | All Maps | STV","players":[{"user_id":650,"name":"cheesefoam","steam_id":76561198387112466,"connected_time":1128000000000,"state":"active","ping":69},{"user_id":649,"name":"glazjed","steam_id":76561198321545921,"connected_time":1281000000000,"state":"active","ping":54},{"user_id":657,"name":"‚ú™ Y V E S","steam_id":76561198299479796,"connected_time":301000000000,"state":"active","ping":56},{"user_id":654,"name":"Pyrolimited","steam_id":76561198195455657,"connected_time":627000000000,"state":"active","ping":59}]},{"server_id":19,"name":"Uncletopia | San Francisco | 3 | Stopwatch Beta","name_short":"sfo-3","host":"sfo-1.us.uncletopia.com","port":27035,"enabled":true,"region":"us-west","cc":"us","latitude":37.77397,"longitude":-122.4313,"reserved":0,"last_update":"0001-01-01T00:00:00Z","name_a2s":"Uncletopia | San Francisco | 3 | Stopwatch Beta","protocol":17,"map":"workshop/pl_summercoast_rc8e.ugc1761528829","folder":"tf","game":"Team Fortress","app_id":440,"player_count":0,"max_players":24,"Bots":0,"server_type":"Dedicated","server_os":"Linux","password":true,"vac":true,"version":"7757534","steam_id":85568392924742824,"keywords":["nocrits","nodmgspread","payload","uncletopia"],"game_id":440,"stv_port":27036,"stv_name":"Uncletopia | San Francisco | 3 | Stopwatch Beta | STV","players":null},{"server_id":20,"name":"Uncletopia | San Francisco | 4 | Community","name_short":"sfo-4","host":"sfo-1.us.uncletopia.com","port":27045,"enabled":true,"region":"us-west","cc":"us","latitude":37.77397,"longitude":-122.4313,"reserved":0,"last_update":"0001-01-01T00:00:00Z","name_a2s":"Uncletopia | San Francisco | 4 | Community","protocol":17,"map":"workshop/cp_villa_b19.ugc2113052569","folder":"tf","game":"Team Fortress","app_id":440,"player_count":0,"max_players":24,"Bots":0,"server_type":"Dedicated","server_os":"Linux","password":true,"vac":true,"version":"7757534","steam_id":85568392924742826,"keywords":["cp","nocrits","nodmgspread","uncletopia"],"game_id":440,"stv_port":27046,"stv_name":"Uncletopia | San Francisco | 4 | Community | STV","players":null},{"server_id":141,"name":"Uncletopia | Sydney | 1 | All Maps","name_short":"syd-1","host":"syd-1.au.uncletopia.com","port":27015,"enabled":true,"region":"au","cc":"au","latitude":-33.865143,"longitude":151.2099,"reserved":0,"last_update":"0001-01-01T00:00:00Z","name_a2s":"Uncletopia | Sydney | 1 | All Maps","protocol":17,"map":"pl_snowycoast","folder":"tf","game":"Team Fortress","app_id":440,"player_count":24,"max_players":24,"Bots":0,"server_type":"Dedicated","server_os":"Linux","password":true,"vac":true,"version":"7757534","steam_id":85568392924470001,"keywords":["nocrits","nodmgspread","payload","uncletopia"],"game_id":440,"stv_port":27016,"stv_name":"Uncletopia | Sydney | 1 | All Maps | STV","players":[{"user_id":472,"name":"Uncle Fester","steam_id":76561198036511528,"connected_time":448000000000,"state":"active","ping":70},{"user_id":467,"name":"Nyatalie :3","steam_id":76561199440190709,"connected_time":681000000000,"state":"active","ping":64},{"user_id":462,"name":"beth.cubitt","steam_id":76561198454733447,"connected_time":878000000000,"state":"active","ping":89},{"user_id":455,"name":"CrowPBS1 PC","steam_id":76561198943274401,"connected_time":1534000000000,"state":"active","ping":93},{"user_id":403,"name":"EpicGuy4227","steam_id":76561198094132328,"connected_time":5124000000000,"state":"active","ping":51},{"user_id":454,"name":"Pr1nce","steam_id":76561198116791394,"connected_time":1712000000000,"state":"active","ping":53},{"user_id":447,"name":"Piklz","steam_id":76561198043384139,"connected_time":2178000000000,"state":"active","ping":50},{"user_id":468,"name":"Slowpoke","steam_id":76561198089176674,"connected_time":649000000000,"state":"active","ping":34},{"user_id":438,"name":"Dupiter","steam_id":76561198108820767,"connected_time":3279000000000,"state":"active","ping":49},{"user_id":464,"name":"Rashid Of The Dank Memes","steam_id":76561198281398078,"connected_time":805000000000,"state":"active","ping":60},{"user_id":450,"name":"Cofwee","steam_id":76561198072414195,"connected_time":2087000000000,"state":"active","ping":82},{"user_id":448,"name":"SoundlessPlum","steam_id":76561198077872547,"connected_time":2127000000000,"state":"active","ping":52},{"user_id":452,"name":"gaming","steam_id":76561198127506837,"connected_time":2046000000000,"state":"active","ping":71},{"user_id":469,"name":"steve pineapple","steam_id":76561198120942479,"connected_time":592000000000,"state":"active","ping":45},{"user_id":426,"name":"you have been deemed, Gilbert","steam_id":76561198301282416,"connected_time":4200000000000,"state":"active","ping":61},{"user_id":457,"name":"grab a stubby mate","steam_id":76561198075320354,"connected_time":1399000000000,"state":"active","ping":52},{"user_id":470,"name":"[T√êK] KeRpaL","steam_id":76561197974427061,"connected_time":575000000000,"state":"active","ping":57},{"user_id":451,"name":"PieMuncher","steam_id":76561198107221185,"connected_time":2058000000000,"state":"active","ping":71},{"user_id":442,"name":"Zilvera","steam_id":76561198065801850,"connected_time":2372000000000,"state":"active","ping":51},{"user_id":473,"name":"Cicerofrypan","steam_id":76561198317860338,"connected_time":102000000000,"state":"active","ping":53},{"user_id":439,"name":"soupy","steam_id":76561198073734936,"connected_time":2692000000000,"state":"active","ping":89},{"user_id":458,"name":"alqwnq","steam_id":76561198133867907,"connected_time":1390000000000,"state":"active","ping":68},{"user_id":423,"name":"sabeuo","steam_id":76561198288259746,"connected_time":4523000000000,"state":"active","ping":55},{"user_id":471,"name":"saudi ambassador messi","steam_id":76561198031293430,"connected_time":473000000000,"state":"active","ping":88}]},{"server_id":123,"name":"Uncletopia | Sydney | 2 | All Maps","name_short":"syd-2","host":"syd-1.au.uncletopia.com","port":27025,"enabled":true,"region":"au","cc":"au","latitude":-33.865143,"longitude":151.2099,"reserved":0,"last_update":"0001-01-01T00:00:00Z","name_a2s":"Uncletopia | Sydney | 2 | All Maps","protocol":17,"map":"pl_swiftwater_final1","folder":"tf","game":"Team Fortress","app_id":440,"player_count":24,"max_players":24,"Bots":0,"server_type":"Dedicated","server_os":"Linux","password":true,"vac":true,"version":"7757534","steam_id":85568392924470002,"keywords":["nocrits","nodmgspread","payload","uncletopia"],"game_id":440,"stv_port":27026,"stv_name":"Uncletopia | Sydney | 2 | All Maps | STV","players":[{"user_id":131,"name":"Jodelk√∂nig Franzl Lang","steam_id":76561198007667830,"connected_time":8328000000000,"state":"active","ping":69},{"user_id":205,"name":"Captain Canadia","steam_id":76561198167967735,"connected_time":2073000000000,"state":"active","ping":49},{"user_id":218,"name":"Motormouth","steam_id":76561197980851839,"connected_time":934000000000,"state":"active","ping":91},{"user_id":195,"name":"Zoey","steam_id":76561198126153554,"connected_time":3187000000000,"state":"active","ping":78},{"user_id":206,"name":"alex","steam_id":76561198053382248,"connected_time":2048000000000,"state":"active","ping":47},{"user_id":189,"name":"tom :D","steam_id":76561198073393715,"connected_time":3924000000000,"state":"active","ping":111},{"user_id":196,"name":"noskills","steam_id":76561198044310968,"connected_time":3175000000000,"state":"active","ping":53},{"user_id":221,"name":"sf/k","steam_id":76561198047758776,"connected_time":856000000000,"state":"active","ping":48},{"user_id":184,"name":"Jellyfish_kurage","steam_id":76561198425670698,"connected_time":4244000000000,"state":"active","ping":55},{"user_id":207,"name":"Catbreadisme","steam_id":76561198076000539,"connected_time":1973000000000,"state":"active","ping":83},{"user_id":203,"name":"electro599","steam_id":76561198058148858,"connected_time":2879000000000,"state":"active","ping":69},{"user_id":220,"name":"sav","steam_id":76561198058760041,"connected_time":860000000000,"state":"active","ping":73},{"user_id":165,"name":"FIX","steam_id":76561197995157189,"connected_time":5823000000000,"state":"active","ping":49},{"user_id":219,"name":"Kenos234","steam_id":76561199183803664,"connected_time":911000000000,"state":"active","ping":228},{"user_id":201,"name":"Bigrichard","steam_id":76561198032092945,"connected_time":3067000000000,"state":"active","ping":76},{"user_id":175,"name":"Dr. Hoppity","steam_id":76561197999715646,"connected_time":4719000000000,"state":"active","ping":66},{"user_id":179,"name":"bitch furry","steam_id":76561199057568663,"connected_time":4478000000000,"state":"active","ping":61},{"user_id":199,"name":"Pompadouraus","steam_id":76561198327530525,"connected_time":3124000000000,"state":"active","ping":75},{"user_id":222,"name":"God's strongest drainer","steam_id":76561198148449041,"connected_time":795000000000,"state":"active","ping":52},{"user_id":194,"name":"Owlenstein‚Ñ¢","steam_id":76561198093983826,"connected_time":3213000000000,"state":"active","ping":120},{"user_id":209,"name":"lavanderpumpernickle","steam_id":76561199093611800,"connected_time":1944000000000,"state":"active","ping":61},{"user_id":190,"name":"SkoKiE","steam_id":76561198283542986,"connected_time":3892000000000,"state":"active","ping":73},{"user_id":216,"name":"raimi081006","steam_id":76561199135738833,"connected_time":1493000000000,"state":"active","ping":139},{"user_id":191,"name":"Arpazha","steam_id":76561199072257230,"connected_time":3878000000000,"state":"active","ping":137}]},{"server_id":395,"name":"Uncletopia | Sydney | 3 | All Maps","name_short":"syd-3","host":"syd-1.au.uncletopia.com","port":27035,"enabled":true,"region":"au","cc":"au","latitude":-33.865143,"longitude":151.2099,"reserved":0,"last_update":"0001-01-01T00:00:00Z","name_a2s":"Uncletopia | Sydney | 3 | All Maps","protocol":17,"map":"pl_barnblitz","folder":"tf","game":"Team Fortress","app_id":440,"player_count":3,"max_players":24,"Bots":0,"server_type":"Dedicated","server_os":"Linux","password":true,"vac":true,"version":"7757534","steam_id":85568392925194467,"keywords":["nocrits","nodmgspread","payload","uncletopia"],"game_id":440,"stv_port":27036,"stv_name":"Uncletopia | Sydney | 3 | All Maps | STV","players":[{"user_id":49,"name":"MayoMan","steam_id":76561199140828165,"connected_time":1234000000000,"state":"active","ping":46},{"user_id":50,"name":"Yasnugget","steam_id":76561199091805719,"connected_time":1213000000000,"state":"active","ping":52},{"user_id":51,"name":"Louis","steam_id":76561198013395847,"connected_time":885000000000,"state":"active","ping":56}]},{"server_id":396,"name":"Uncletopia | Sydney | 4 | All Maps","name_short":"syd-4","host":"syd-1.au.uncletopia.com","port":27045,"enabled":true,"region":"au","cc":"au","latitude":-33.865143,"longitude":151.2099,"reserved":0,"last_update":"0001-01-01T00:00:00Z","name_a2s":"Uncletopia | Sydney | 4 | All Maps","protocol":17,"map":"pl_barnblitz","folder":"tf","game":"Team Fortress","app_id":440,"player_count":0,"max_players":24,"Bots":0,"server_type":"Dedicated","server_os":"Linux","password":true,"vac":true,"version":"7757534","steam_id":85568392925397958,"keywords":["nocrits","nodmgspread","payload","uncletopia"],"game_id":440,"stv_port":27046,"stv_name":"Uncletopia | Sydney | 4 | All Maps | STV","players":null},{"server_id":58,"name":"Uncletopia | Sydney | 5 | Stopwatch Beta","name_short":"syd-5","host":"syd-1.au.uncletopia.com","port":27055,"enabled":true,"region":"au","cc":"au","latitude":-33.865143,"longitude":151.2099,"reserved":0,"last_update":"0001-01-01T00:00:00Z","name_a2s":"Uncletopia | Sydney | 5 | Stopwatch Beta","protocol":17,"map":"koth_cascade","folder":"tf","game":"Team Fortress","app_id":440,"player_count":0,"max_players":24,"Bots":0,"server_type":"Dedicated","server_os":"Linux","password":true,"vac":true,"version":"7757534","steam_id":85568392925397959,"keywords":["cp","nocrits","nodmgspread","uncletopia"],"game_id":440,"stv_port":27056,"stv_name":"Uncletopia | Sydney | 5 | Stopwatch Beta | STV","players":null},{"server_id":59,"name":"Uncletopia | Sydney | 6 | Community","name_short":"syd-6","host":"syd-1.au.uncletopia.com","port":27065,"enabled":true,"region":"au","cc":"au","latitude":-33.865143,"longitude":151.2099,"reserved":0,"last_update":"0001-01-01T00:00:00Z","name_a2s":"Uncletopia | Sydney | 6 | Community","protocol":17,"map":"workshop/cp_fulgur_rc2a.ugc2068252300","folder":"tf","game":"Team Fortress","app_id":440,"player_count":0,"max_players":24,"Bots":0,"server_type":"Dedicated","server_os":"Linux","password":true,"vac":true,"version":"7757534","steam_id":85568392925397960,"keywords":["cp","nocrits","nodmgspread","uncletopia"],"game_id":440,"stv_port":27066,"stv_name":"Uncletopia | Sydney | 6 | Community | STV","players":null},{"server_id":49,"name":"Uncletopia | Warsaw | 1 | All Maps","name_short":"waw-1","host":"waw-1.pl.uncletopia.com","port":27015,"enabled":true,"region":"eu","cc":"pl","latitude":52.2297,"longitude":21.017532,"reserved":0,"last_update":"0001-01-01T00:00:00Z","name_a2s":"","protocol":0,"map":"","folder":"","game":"","app_id":0,"player_count":0,"max_players":0,"Bots":0,"server_type":"","server_os":"","password":false,"vac":false,"version":"","steam_id":0,"keywords":null,"game_id":0,"stv_port":0,"stv_name":"","players":null},{"server_id":50,"name":"Uncletopia | Warsaw | 2 | All Maps","name_short":"waw-2","host":"waw-1.pl.uncletopia.com","port":27025,"enabled":true,"region":"eu","cc":"pl","latitude":52.2297,"longitude":21.017532,"reserved":0,"last_update":"0001-01-01T00:00:00Z","name_a2s":"Uncletopia | Warsaw | 2 | All Maps","protocol":17,"map":"koth_viaduct","folder":"tf","game":"Team Fortress","app_id":440,"player_count":0,"max_players":24,"Bots":0,"server_type":"Dedicated","server_os":"Linux","password":true,"vac":true,"version":"7757534","steam_id":85568392925397851,"keywords":["cp","nocrits","nodmgspread","uncletopia"],"game_id":440,"stv_port":27026,"stv_name":"Uncletopia | Warsaw | 2 | All Maps | STV","players":null},{"server_id":51,"name":"Uncletopia | Warsaw | 3 | All Maps","name_short":"waw-3","host":"waw-1.pl.uncletopia.com","port":27035,"enabled":true,"region":"eu","cc":"pl","latitude":52.2297,"longitude":21.017532,"reserved":0,"last_update":"0001-01-01T00:00:00Z","name_a2s":"Uncletopia | Warsaw | 3 | All Maps","protocol":17,"map":"pl_swiftwater_final1","folder":"tf","game":"Team Fortress","app_id":440,"player_count":0,"max_players":24,"Bots":0,"server_type":"Dedicated","server_os":"Linux","password":true,"vac":true,"version":"7757534","steam_id":85568392925397852,"keywords":["nocrits","nodmgspread","payload","uncletopia"],"game_id":440,"stv_port":27036,"stv_name":"Uncletopia | Warsaw | 3 | All Maps | STV","players":null},{"server_id":52,"name":"Uncletopia | Warsaw | 4 | All Maps","name_short":"waw-4","host":"waw-1.pl.uncletopia.com","port":27045,"enabled":true,"region":"eu","cc":"pl","latitude":52.2297,"longitude":21.017532,"reserved":0,"last_update":"0001-01-01T00:00:00Z","name_a2s":"Uncletopia | Warsaw | 4 | All Maps","protocol":17,"map":"koth_lakeside_final","folder":"tf","game":"Team Fortress","app_id":440,"player_count":0,"max_players":24,"Bots":0,"server_type":"Dedicated","server_os":"Linux","password":true,"vac":true,"version":"7757534","steam_id":85568392925397853,"keywords":["cp","nocrits","nodmgspread","uncletopia"],"game_id":440,"stv_port":27046,"stv_name":"Uncletopia | Warsaw | 4 | All Maps | STV","players":null},{"server_id":53,"name":"Uncletopia | Warsaw | 5 | Stopwatch Beta","name_short":"waw-5","host":"waw-1.pl.uncletopia.com","port":27055,"enabled":true,"region":"eu","cc":"pl","latitude":52.2297,"longitude":21.017532,"reserved":0,"last_update":"0001-01-01T00:00:00Z","name_a2s":"Uncletopia | Warsaw | 5 | Stopwatch Beta","protocol":17,"map":"pl_borneo","folder":"tf","game":"Team Fortress","app_id":440,"player_count":0,"max_players":24,"Bots":0,"server_type":"Dedicated","server_os":"Linux","password":true,"vac":true,"version":"7757534","steam_id":85568392925397854,"keywords":["nocrits","nodmgspread","payload","uncletopia"],"game_id":440,"stv_port":27056,"stv_name":"Uncletopia | Warsaw | 5 | Stopwatch Beta | STV","players":null},{"server_id":54,"name":"Uncletopia | Warsaw | 6 | Community","name_short":"waw-6","host":"waw-1.pl.uncletopia.com","port":27065,"enabled":true,"region":"eu","cc":"pl","latitude":52.2297,"longitude":21.017532,"reserved":0,"last_update":"0001-01-01T00:00:00Z","name_a2s":"Uncletopia | Warsaw | 6 | Community","protocol":17,"map":"koth_lakeside_final","folder":"tf","game":"Team Fortress","app_id":440,"player_count":0,"max_players":24,"Bots":0,"server_type":"Dedicated","server_os":"Linux","password":true,"vac":true,"version":"7757534","steam_id":85568392925397856,"keywords":["cp","nocrits","nodmgspread","uncletopia"],"game_id":440,"stv_port":27066,"stv_name":"Uncletopia | Warsaw | 6 | Community | STV","players":null}]}