{"status":true,"message":"","result":[{"server_id":9,"name":"Uncletopia | Atlanta | 1 | All Maps","name_short":"atl-1","host":"atl-1.us.uncletopia.com","port":27015,"enabled":true,"region":"us-east","cc":"us","latitude":33.753746,"longitude":-84.38633,"reserved":0,"last_update":"0001-01-01T00:00:00Z","name_a2s":"Uncletopia | Atlanta | 1 | All Maps","protocol":17,"map":"pl_pier","folder":"tf","game":"Team Fortress","app_id":440,"player_count":24,"max_players":24,"Bots":0,"server_type":"Dedicated","server_os":"Linux","password":true,"vac":true,"version":"7961495","steam_id":85568392924469982,"keywords":["nocrits","nodmgspread","payload","uncletopia"],"game_id":440,"stv_port":27016,"stv_name":"Uncletopia | Atlanta | 1 | All Maps | STV","players":[{"user_id":452,"name":"Hater","steam_id":76561198124685704,"connected_time":649000000000,"state":"active","ping":74},{"user_id":434,"name":"Jin","steam_id":76561198119873148,"connected_time":1380000000000,"state":"active","ping":65},{"user_id":444,"name":"Poo","steam_id":76561198265144507,"connected_time":1114000000000,"state":"active","ping":64},{"user_id":371,"name":"Whisk #GOOD GAMER","steam_id":76561198272318229,"connected_time":5221000000000,"state":"active","ping":80},{"user_id":431,"name":"ATL1 | cola","steam_id":76561198374390458,"connected_time":1621000000000,"state":"active","ping":64},{"user_id":421,"name":"cupcup","steam_id":76561198116227192,"connected_time":2484000000000,"state":"active","ping":99},{"user_id":453,"name":"ATL1 | to4st","steam_id":76561198981009008,"connected_time":627000000000,"state":"active","ping":66},{"user_id":456,"name":"frank","steam_id":76561198969143876,"connected_time":434000000000,"state":"active","ping":69},{"user_id":445,"name":"Jared","steam_id":76561198027210228,"connected_time":1098000000000,"state":"active","ping":85},{"user_id":449,"name":"lu","steam_id":76561198080731872,"connected_time":847000000000,"state":"active","ping":76},{"user_id":436,"name":"lil hog","steam_id":76561199230929836,"connected_time":1283000000000,"state":"active","ping":85},{"user_id":363,"name":"Electroid","steam_id":76561199092263960,"connected_time":6549000000000,"state":"active","ping":48},{"user_id":422,"name":"stink","steam_id":76561198099318923,"connected_time":2475000000000,"state":"active","ping":79},{"user_id":426,"name":"GRIND type pokemon","steam_id":76561198328109873,"connected_time":2352000000000,"state":"active","ping":72},{"user_id":457,"name":"I hate red team","steam_id":76561198064127012,"connected_time":98000000000,"state":"active","ping":58},{"user_id":429,"name":"Le4n!!!","steam_id":76561198045522596,"connected_time":2185000000000,"state":"active","ping":73},{"user_id":430,"name":"z","steam_id":76561198377478982,"connected_time":1840000000000,"state":"active","ping":66},{"user_id":427,"name":"Ata","steam_id":76561198349085545,"connected_time":2311000000000,"state":"active","ping":83},{"user_id":455,"name":"gnome chompski (real)","steam_id":76561198150327877,"connected_time":532000000000,"state":"active","ping":45},{"user_id":361,"name":"trianamarco780","steam_id":76561199084319677,"connected_time":6633000000000,"state":"active","ping":103},{"user_id":415,"name":"HarryjusttHarry","steam_id":76561198982810452,"connected_time":3576000000000,"state":"active","ping":84},{"user_id":413,"name":"fortnite.jimmy.2014","steam_id":76561199177672325,"connected_time":3864000000000,"state":"active","ping":46},{"user_id":420,"name":"owlman owl","steam_id":76561199167996712,"connected_time":2706000000000,"state":"active","ping":63},{"user_id":433,"name":"she french, i'm a coke boy","steam_id":76561198120440587,"connected_time":1539000000000,"state":"active","ping":43}]},{"server_id":104,"name":"Uncletopia | Atlanta | 2 | All Maps","name_short":"atl-2","host":"atl-1.us.uncletopia.com","port":27025,"enabled":true,"region":"us-east","cc":"us","latitude":33.753746,"longitude":-84.38633,"reserved":0,"last_update":"0001-01-01T00:00:00Z","name_a2s":"Uncletopia | Atlanta | 2 | All Maps","protocol":17,"map":"pl_upward","folder":"tf","game":"Team Fortress","app_id":440,"player_count":21,"max_players":24,"Bots":0,"server_type":"Dedicated","server_os":"Linux","password":true,"vac":true,"version":"7961495","steam_id":85568392924469983,"keywords":["nocrits","nodmgspread","payload","uncletopia"],"game_id":440,"stv_port":27026,"stv_name":"Uncletopia | Atlanta | 2 | All Maps | STV","players":[{"user_id":384,"name":"Frawg","steam_id":76561198951162196,"connected_time":904000000000,"state":"active","ping":136},{"user_id":332,"name":"2cats_2curious","steam_id":76561198027143149,"connected_time":3796000000000,"state":"active","ping":102},{"user_id":386,"name":"Legit_Jaxer","steam_id":76561198172234053,"connected_time":663000000000,"state":"active","ping":142},{"user_id":391,"name":"Nestor","steam_id":76561198070782619,"connected_time":29000000000,"state":"active","ping":69},{"user_id":350,"name":"Gilliam Onzo","steam_id":76561198066671343,"connected_time":3033000000000,"state":"spawning","ping":50},{"user_id":392,"name":"tf2 AI chat bot","steam_id":76561198801207748,"connected_time":17000000000,"state":"active","ping":60},{"user_id":387,"name":"KoolBucky","steam_id":76561198147927648,"connected_time":567000000000,"state":"spawning","ping":68},{"user_id":382,"name":"biojuice BIOJUICE","steam_id":76561198083429635,"connected_time":973000000000,"state":"active","ping":200},{"user_id":371,"name":"Oxygen User","steam_id":76561199111975528,"connected_time":1480000000000,"state":"active","ping":106},{"user_id":355,"name":"Ka√±ul","steam_id":76561198977359464,"connected_time":2433000000000,"state":"active","ping":105},{"user_id":381,"name":"Donkus","steam_id":76561198076654704,"connected_time":1126000000000,"state":"spawning","ping":68},{"user_id":351,"name":"KrashBoomBang","steam_id":76561199002978777,"connected_time":3009000000000,"state":"active","ping":92},{"user_id":367,"name":"moe","steam_id":76561198929586245,"connected_time":1677000000000,"state":"active","ping":87},{"user_id":307,"name":"He rolls his own","steam_id":76561198058162684,"connected_time":5491000000000,"state":"active","ping":118},{"user_id":390,"name":"Transfem Bumblebee","steam_id":76561198119393205,"connected_time":160000000000,"state":"spawning","ping":68},{"user_id":385,"name":"ryce","steam_id":76561198114572309,"connected_time":850000000000,"state":"spawning","ping":54},{"user_id":383,"name":"illious","steam_id":76561198169925494,"connected_time":951000000000,"state":"active","ping":87},{"user_id":389,"name":"ICBMonkey","steam_id":76561198033351821,"connected_time":281000000000,"state":"active","ping":361},{"user_id":376,"name":"Jeramosa","steam_id":76561198811000094,"connected_time":1446000000000,"state":"spawning","ping":94},{"user_id":362,"name":"dirty30","steam_id":76561198021226566,"connected_time":1840000000000,"state":"active","ping":107},{"user_id":279,"name":"Yuck","steam_id":76561198001667870,"connected_time":7090000000000,"state":"active","ping":164}]},{"server_id":400,"name":"Uncletopia | Atlanta | 3 | Stopwatch","name_short":"atl-3","host":"atl-1.us.uncletopia.com","port":27035,"enabled":true,"region":"us-east","cc":"us","latitude":33.753746,"longitude":-84.38633,"reserved":0,"last_update":"0001-01-01T00:00:00Z","name_a2s":"Uncletopia | Atlanta | 3 | Stopwatch","protocol":17,"map":"cp_process_final","folder":"tf","game":"Team Fortress","app_id":440,"player_count":4,"max_players":24,"Bots":0,"server_type":"Dedicated","server_os":"Linux","password":true,"vac":true,"version":"7961495","steam_id":85568392924515187,"keywords":["cp","nocrits","nodmgspread","uncletopia"],"game_id":440,"stv_port":27036,"stv_name":"Uncletopia | Atlanta | 3 | Stopwatch | STV","players":[{"user_id":72,"name":"AAAAAAAAA","steam_id":76561198848149215,"connected_time":419000000000,"state":"active","ping":77},{"user_id":73,"name":"pina colada","steam_id":76561198435286999,"connected_time":181000000000,"state":"active","ping":70},{"user_id":74,"name":"IS THAT THE BITE 97?!","steam_id":76561198836635615,"connected_time":49000000000,"state":"active","ping":72},{"user_id":67,"name":"Erebus","steam_id":76561199061956673,"connected_time":1746000000000,"state":"active","ping":83}]},{"server_id":401,"name":"Uncletopia | Atlanta | 4 | Community","name_short":"atl-4","host":"atl-1.us.uncletopia.com","port":27045,"enabled":true,"region":"us-east","cc":"us","latitude":33.753746,"longitude":-84.38633,"reserved":0,"last_update":"0001-01-01T00:00:00Z","name_a2s":"Uncletopia | Atlanta | 4 | Community","protocol":17,"map":"workshop/pl_boundary_final1.ugc456799153","folder":"tf","game":"Team Fortress","app_id":440,"player_count":0,"max_players":24,"Bots":0,"server_type":"Dedicated","server_os":"Linux","password":true,"vac":true,"version":"7961495","steam_id":85568392924515188,"keywords":["nocrits","nodmgspread","payload","uncletopia"],"game_id":440,"stv_port":27046,"stv_name":"Uncletopia | Atlanta | 4 | Community | STV","players":null},{"server_id":2,"name":"Uncletopia | Chicago | 1 | All Maps","name_short":"chi-1","host":"chi-1.us.uncletopia.com","port":27015,"enabled":true,"region":"us-central","cc":"us","latitude":41.881832,"longitude":-87.62318,"reserved":0,"last_update":"0001-01-01T00:00:00Z","name_a2s":"Uncletopia | Chicago | 1 | All Maps","protocol":17,"map":"pl_badwater","folder":"tf","game":"Team Fortress","app_id":440,"player_count":24,"max_players":24,"Bots":0,"server_type":"Dedicated","server_os":"Linux","password":true,"vac":true,"version":"7961495","steam_id":85568392924469984,"keywords":["nocrits","nodmgspread","payload","uncletopia"],"game_id":440,"stv_port":27016,"stv_name":"Uncletopia | Chicago | 1 | All Maps | STV","players":[{"user_id":565,"name":"debin","steam_id":76561198070711217,"connected_time":2344000000000,"state":"active","ping":50},{"user_id":559,"name":"I.C.","steam_id":76561198049256017,"connected_time":2684000000000,"state":"active","ping":81},{"user_id":492,"name":"troll","steam_id":76561198082680563,"connected_time":7767000000000,"state":"active","ping":57},{"user_id":573,"name":"spire","steam_id":76561198367664346,"connected_time":1150000000000,"state":"active","ping":60},{"user_id":580,"name":"beep","steam_id":76561199096448766,"connected_time":908000000000,"state":"active","ping":60},{"user_id":536,"name":"Mads Mikkelsen","steam_id":76561198083482001,"connected_time":3919000000000,"state":"active","ping":135},{"user_id":495,"name":"elpful","steam_id":76561198189659530,"connected_time":7488000000000,"state":"active","ping":81},{"user_id":574,"name":"Crescent","steam_id":76561198095124633,"connected_time":1149000000000,"state":"active","ping":72},{"user_id":578,"name":"Prince Flip","steam_id":76561198023462157,"connected_time":1104000000000,"state":"active","ping":132},{"user_id":532,"name":"Qwerty","steam_id":76561198023525894,"connected_time":4506000000000,"state":"active","ping":162},{"user_id":579,"name":"okay","steam_id":76561198024973008,"connected_time":1057000000000,"state":"active","ping":62},{"user_id":581,"name":"guy","steam_id":76561198163306561,"connected_time":368000000000,"state":"active","ping":75},{"user_id":550,"name":"Chadmander","steam_id":76561197974136337,"connected_time":2780000000000,"state":"active","ping":40},{"user_id":561,"name":"SPYCHECK ME","steam_id":76561198980994364,"connected_time":2654000000000,"state":"active","ping":93},{"user_id":575,"name":"Semyr","steam_id":76561198125655939,"connected_time":1145000000000,"state":"active","ping":60},{"user_id":577,"name":"c64guy","steam_id":76561198023022744,"connected_time":1130000000000,"state":"active","ping":66},{"user_id":460,"name":"Strange Diplomat","steam_id":76561198428191920,"connected_time":10291000000000,"state":"active","ping":75},{"user_id":512,"name":"Tito","steam_id":76561198041702529,"connected_time":6438000000000,"state":"active","ping":72},{"user_id":554,"name":"Scarecrow","steam_id":76561198045870511,"connected_time":2746000000000,"state":"active","ping":57},{"user_id":563,"name":"DeadErebus","steam_id":76561198286117045,"connected_time":2514000000000,"state":"active","ping":37},{"user_id":571,"name":"A Sun","steam_id":76561198142545364,"connected_time":1305000000000,"state":"active","ping":59},{"user_id":549,"name":"tack","steam_id":76561198408477421,"connected_time":2888000000000,"state":"active","ping":80},{"user_id":475,"name":"neil","steam_id":76561198122666918,"connected_time":9196000000000,"state":"active","ping":73},{"user_id":570,"name":"Kero","steam_id":76561198343231436,"connected_time":1440000000000,"state":"active","ping":64}]},{"server_id":106,"name":"Uncletopia | Chicago | 2 | All Maps","name_short":"chi-2","host":"chi-1.us.uncletopia.com","port":27025,"enabled":true,"region":"us-central","cc":"us","latitude":41.881832,"longitude":-87.62318,"reserved":0,"last_update":"0001-01-01T00:00:00Z","name_a2s":"Uncletopia | Chicago | 2 | All Maps","protocol":17,"map":"pl_swiftwater_final1","folder":"tf","game":"Team Fortress","app_id":440,"player_count":25,"max_players":24,"Bots":0,"server_type":"Dedicated","server_os":"Linux","password":true,"vac":true,"version":"7961495","steam_id":85568392924469985,"keywords":["nocrits","nodmgspread","payload","uncletopia"],"game_id":440,"stv_port":27026,"stv_name":"Uncletopia | Chicago | 2 | All Maps | STV","players":[{"user_id":464,"name":"The one who knocks","steam_id":76561198863619592,"connected_time":1495000000000,"state":"active","ping":43},{"user_id":422,"name":"[El Fail] MR.BadassMCLee","steam_id":76561198043787818,"connected_time":4701000000000,"state":"active","ping":104},{"user_id":456,"name":"American Dad","steam_id":76561198059711448,"connected_time":2657000000000,"state":"active","ping":57},{"user_id":451,"name":"pup","steam_id":76561198145921847,"connected_time":2900000000000,"state":"active","ping":74},{"user_id":502,"name":"Golumpus","steam_id":76561198053549635,"connected_time":275000000000,"state":"active","ping":75},{"user_id":483,"name":"Vince Offer","steam_id":76561198991008825,"connected_time":667000000000,"state":"active","ping":73},{"user_id":475,"name":"chrissweep","steam_id":76561198072826791,"connected_time":973000000000,"state":"active","ping":70},{"user_id":480,"name":"sailor","steam_id":76561198091015050,"connected_time":754000000000,"state":"active","ping":49},{"user_id":466,"name":"Nutter Butter","steam_id":76561198068610437,"connected_time":1436000000000,"state":"active","ping":80},{"user_id":484,"name":"üå∏AVYüå∏","steam_id":76561197964252106,"connected_time":624000000000,"state":"active","ping":46},{"user_id":356,"name":"Gun","steam_id":76561199264073138,"connected_time":8018000000000,"state":"active","ping":87},{"user_id":419,"name":"runescape legend","steam_id":76561198077791373,"connected_time":4988000000000,"state":"active","ping":53},{"user_id":457,"name":"chaffy","steam_id":76561198021754567,"connected_time":1931000000000,"state":"active","ping":60},{"user_id":469,"name":"BlueZombieBlood","steam_id":76561198123590661,"connected_time":1407000000000,"state":"active","ping":56},{"user_id":447,"name":"DrChillin","steam_id":76561198043824865,"connected_time":3354000000000,"state":"active","ping":78},{"user_id":471,"name":"fresco","steam_id":76561199101199477,"connected_time":1239000000000,"state":"active","ping":57},{"user_id":461,"name":"Provocator","steam_id":76561197961830410,"connected_time":1566000000000,"state":"active","ping":66},{"user_id":479,"name":"3ggsalad3","steam_id":76561199386969191,"connected_time":775000000000,"state":"active","ping":57},{"user_id":458,"name":"CASR","steam_id":76561199122040210,"connected_time":1908000000000,"state":"active","ping":81},{"user_id":441,"name":"crittr","steam_id":76561198014302068,"connected_time":3670000000000,"state":"active","ping":60},{"user_id":427,"name":"ekgooby","steam_id":76561198043678479,"connected_time":4479000000000,"state":"active","ping":47},{"user_id":442,"name":"JeffTrash","steam_id":76561198975550775,"connected_time":3668000000000,"state":"active","ping":77},{"user_id":506,"name":"Dullahan","steam_id":76561198119668908,"connected_time":225000000000,"state":"active","ping":122},{"user_id":478,"name":"Jaflampe","steam_id":76561198175827647,"connected_time":791000000000,"state":"active","ping":61},{"user_id":518,"name":"Mr. Mime","steam_id":76561199197676776,"connected_time":14000000000,"state":"spawning","ping":60}]},{"server_id":402,"name":"Uncletopia | Chicago | 3 | All Maps","name_short":"chi-3","host":"chi-1.us.uncletopia.com","port":27035,"enabled":true,"region":"us-central","cc":"us","latitude":41.881832,"longitude":-87.62318,"reserved":0,"last_update":"0001-01-01T00:00:00Z","name_a2s":"Uncletopia | Chicago | 3 | All Maps","protocol":17,"map":"koth_highpass","folder":"tf","game":"Team Fortress","app_id":440,"player_count":24,"max_players":24,"Bots":0,"server_type":"Dedicated","server_os":"Linux","password":true,"vac":true,"version":"7961495","steam_id":85568392924515191,"keywords":["cp","nocrits","nodmgspread","uncletopia"],"game_id":440,"stv_port":27036,"stv_name":"Uncletopia | Chicago | 3 | All Maps | STV","players":[{"user_id":199,"name":"Mentally Ill Woman","steam_id":76561198072030567,"connected_time":451000000000,"state":"active","ping":56},{"user_id":176,"name":"Womanwer","steam_id":76561198194760222,"connected_time":1616000000000,"state":"active","ping":80},{"user_id":200,"name":"milwaukee pasta bandit","steam_id":76561198417793830,"connected_time":373000000000,"state":"active","ping":60},{"user_id":193,"name":"coda","steam_id":76561198092052685,"connected_time":1066000000000,"state":"active","ping":60},{"user_id":155,"name":"MangoMaster7834","steam_id":76561199231165397,"connected_time":2516000000000,"state":"active","ping":83},{"user_id":179,"name":"Xenowo","steam_id":76561198120574708,"connected_time":1440000000000,"state":"active","ping":75},{"user_id":201,"name":"Evelynn the Fox","steam_id":76561198050946208,"connected_time":356000000000,"state":"active","ping":162},{"user_id":210,"name":"Lunagriff","steam_id":76561198036889008,"connected_time":120000000000,"state":"active","ping":155},{"user_id":158,"name":"carrot cake","steam_id":76561198055174915,"connected_time":2435000000000,"state":"active","ping":68},{"user_id":194,"name":"Xyk","steam_id":76561198023268899,"connected_time":1062000000000,"state":"active","ping":60},{"user_id":204,"name":"the rat gets the cheese","steam_id":76561199077027954,"connected_time":324000000000,"state":"active","ping":64},{"user_id":159,"name":"Bytor2121","steam_id":76561197991263350,"connected_time":2400000000000,"state":"active","ping":42},{"user_id":208,"name":"Null","steam_id":76561198062791227,"connected_time":240000000000,"state":"active","ping":59},{"user_id":203,"name":"Iced Mustard","steam_id":76561198025407368,"connected_time":339000000000,"state":"active","ping":78},{"user_id":205,"name":"LiterallyDJ","steam_id":76561198030293743,"connected_time":322000000000,"state":"active","ping":91},{"user_id":144,"name":"Soy King","steam_id":76561198263025614,"connected_time":3063000000000,"state":"active","ping":94},{"user_id":163,"name":"Zoramine Fae","steam_id":76561198346753422,"connected_time":2274000000000,"state":"active","ping":36},{"user_id":206,"name":"Garfield","steam_id":76561198147300599,"connected_time":311000000000,"state":"active","ping":59},{"user_id":188,"name":"‚òÖDeebo‚òÖ","steam_id":76561198060081522,"connected_time":1276000000000,"state":"active","ping":85},{"user_id":207,"name":"The Glute Guardian","steam_id":76561198189330642,"connected_time":298000000000,"state":"active","ping":105},{"user_id":165,"name":"Skee-All","steam_id":76561198313401124,"connected_time":2214000000000,"state":"active","ping":91},{"user_id":133,"name":"strawberry milk","steam_id":76561198025514255,"connected_time":3783000000000,"state":"active","ping":77},{"user_id":209,"name":"king dedede","steam_id":76561198965562679,"connected_time":235000000000,"state":"active","ping":74},{"user_id":195,"name":"BobbyLord_II","steam_id":76561198062356650,"connected_time":981000000000,"state":"active","ping":61}]},{"server_id":403,"name":"Uncletopia | Chicago | 4 | All Maps","name_short":"chi-4","host":"chi-1.us.uncletopia.com","port":27045,"enabled":true,"region":"us-central","cc":"us","latitude":41.881832,"longitude":-87.62318,"reserved":0,"last_update":"0001-01-01T00:00:00Z","name_a2s":"Uncletopia | Chicago | 4 | All Maps","protocol":17,"map":"pl_borneo","folder":"tf","game":"Team Fortress","app_id":440,"player_count":24,"max_players":24,"Bots":0,"server_type":"Dedicated","server_os":"Linux","password":true,"vac":true,"version":"7961495","steam_id":85568392924515193,"keywords":["nocrits","nodmgspread","payload","uncletopia"],"game_id":440,"stv_port":27046,"stv_name":"Uncletopia | Chicago | 4 | All Maps | STV","players":[{"user_id":414,"name":"harambe 101","steam_id":76561198366850003,"connected_time":604000000000,"state":"active","ping":103},{"user_id":399,"name":"PeePeePooPooMan","steam_id":76561198081691802,"connected_time":1266000000000,"state":"active","ping":57},{"user_id":402,"name":"oppenheimer style","steam_id":76561198026664629,"connected_time":1213000000000,"state":"active","ping":59},{"user_id":416,"name":"beerinabox","steam_id":76561198070614450,"connected_time":472000000000,"state":"active","ping":61},{"user_id":373,"name":"goopy goblin","steam_id":76561198323380643,"connected_time":2175000000000,"state":"active","ping":68},{"user_id":255,"name":"mr ploobmeister","steam_id":76561198128908529,"connected_time":10097000000000,"state":"active","ping":76},{"user_id":411,"name":"eeb","steam_id":76561198272354852,"connected_time":727000000000,"state":"active","ping":32},{"user_id":353,"name":"slasher4713","steam_id":76561199033532858,"connected_time":3891000000000,"state":"active","ping":51},{"user_id":418,"name":"Hertz","steam_id":76561198310927351,"connected_time":454000000000,"state":"active","ping":135},{"user_id":367,"name":"silicasandwhich","steam_id":76561198178809821,"connected_time":2994000000000,"state":"active","ping":66},{"user_id":405,"name":"Nixon Me, Dixon Me","steam_id":76561198126519537,"connected_time":1170000000000,"state":"active","ping":75},{"user_id":420,"name":"qory","steam_id":76561198152064890,"connected_time":338000000000,"state":"active","ping":55},{"user_id":375,"name":"Moronicle","steam_id":76561198315671502,"connected_time":2157000000000,"state":"active","ping":142},{"user_id":292,"name":"Elias","steam_id":76561198106431732,"connected_time":7076000000000,"state":"active","ping":59},{"user_id":392,"name":"Zodyxajon","steam_id":76561198165561581,"connected_time":1548000000000,"state":"active","ping":75},{"user_id":329,"name":"Aztea","steam_id":76561198982089893,"connected_time":5002000000000,"state":"active","ping":84},{"user_id":352,"name":"No |HM|","steam_id":76561198181534443,"connected_time":3988000000000,"state":"active","ping":166},{"user_id":412,"name":"FROG NoShen","steam_id":76561198147434663,"connected_time":726000000000,"state":"active","ping":73},{"user_id":398,"name":"Lia_Rein","steam_id":76561198151569597,"connected_time":1393000000000,"state":"active","ping":147},{"user_id":419,"name":"Duncan","steam_id":76561198042148095,"connected_time":434000000000,"state":"active","ping":54},{"user_id":417,"name":"seats","steam_id":76561197998756039,"connected_time":458000000000,"state":"active","ping":99},{"user_id":378,"name":"TableCroissants(YT)","steam_id":76561198402326563,"connected_time":2063000000000,"state":"active","ping":65},{"user_id":413,"name":"tydogzilla","steam_id":76561198054254518,"connected_time":674000000000,"state":"active","ping":64},{"user_id":321,"name":"HumFreY","steam_id":76561198076639682,"connected_time":5279000000000,"state":"active","ping":81}]},{"server_id":36,"name":"Uncletopia | Chicago | 5 | All Maps","name_short":"chi-5","host":"chi-2.us.uncletopia.com","port":27015,"enabled":true,"region":"us-central","cc":"us","latitude":41.881832,"longitude":-87.62318,"reserved":0,"last_update":"0001-01-01T00:00:00Z","name_a2s":"Uncletopia | Chicago | 5 | All Maps","protocol":17,"map":"pl_upward","folder":"tf","game":"Team Fortress","app_id":440,"player_count":24,"max_players":24,"Bots":0,"server_type":"Dedicated","server_os":"Linux","password":true,"vac":true,"version":"7961495","steam_id":85568392924866362,"keywords":["nocrits","nodmgspread","payload","uncletopia"],"game_id":440,"stv_port":27016,"stv_name":"Uncletopia | Chicago | 5 | All Maps | STV","players":[{"user_id":353,"name":"Fredrick","steam_id":76561197981419964,"connected_time":1260000000000,"state":"active","ping":57},{"user_id":385,"name":"Ghost","steam_id":76561198110914180,"connected_time":196000000000,"state":"active","ping":195},{"user_id":305,"name":"Gheeotine","steam_id":76561198010181698,"connected_time":2519000000000,"state":"active","ping":87},{"user_id":329,"name":"Godmode","steam_id":76561198076240365,"connected_time":1707000000000,"state":"active","ping":66},{"user_id":379,"name":"H0wlr","steam_id":76561198012332824,"connected_time":653000000000,"state":"active","ping":59},{"user_id":382,"name":"Professor","steam_id":76561198097038169,"connected_time":606000000000,"state":"active","ping":48},{"user_id":384,"name":"trash star","steam_id":76561198078395002,"connected_time":231000000000,"state":"active","ping":64},{"user_id":330,"name":"MillerWhite","steam_id":76561198076060357,"connected_time":1701000000000,"state":"active","ping":74},{"user_id":348,"name":"SerenityDnB","steam_id":76561198026189583,"connected_time":1304000000000,"state":"active","ping":105},{"user_id":254,"name":"A Rhino with Coronavirus","steam_id":76561197999451366,"connected_time":5400000000000,"state":"active","ping":66},{"user_id":332,"name":"Kitt(eh)  ‚àë:3","steam_id":76561198110858518,"connected_time":1683000000000,"state":"active","ping":63},{"user_id":340,"name":"Krissy","steam_id":76561197960848174,"connected_time":1390000000000,"state":"active","ping":70},{"user_id":386,"name":"chen","steam_id":76561198064872330,"connected_time":184000000000,"state":"active","ping":76},{"user_id":383,"name":"Mr. Pink","steam_id":76561198065858172,"connected_time":365000000000,"state":"active","ping":63},{"user_id":380,"name":"BarrowBaron","steam_id":76561198013633236,"connected_time":651000000000,"state":"active","ping":62},{"user_id":378,"name":"Alpha","steam_id":76561199482290132,"connected_time":694000000000,"state":"active","ping":61},{"user_id":381,"name":"Bobby Ray","steam_id":76561198044131188,"connected_time":647000000000,"state":"active","ping":83},{"user_id":344,"name":"Sleepy Icarus","steam_id":76561198145533630,"connected_time":1350000000000,"state":"active","ping":58},{"user_id":356,"name":"SharpieMan","steam_id":76561198396527475,"connected_time":1167000000000,"state":"active","ping":58},{"user_id":351,"name":"AzurVul","steam_id":76561197991959722,"connected_time":1285000000000,"state":"active","ping":88},{"user_id":345,"name":"A Trigger Happy Chipmunk","steam_id":76561198013608736,"connected_time":1336000000000,"state":"active","ping":42},{"user_id":363,"name":"redarcher42","steam_id":76561199027887687,"connected_time":904000000000,"state":"active","ping":72},{"user_id":331,"name":"Œõlxium","steam_id":76561198131272900,"connected_time":1694000000000,"state":"active","ping":57},{"user_id":370,"name":"THEY DONT KNOWWWWWW","steam_id":76561198062991744,"connected_time":794000000000,"state":"active","ping":74}]},{"server_id":37,"name":"Uncletopia | Chicago | 6 | All Maps","name_short":"chi-6","host":"chi-2.us.uncletopia.com","port":27025,"enabled":true,"region":"us-central","cc":"us","latitude":41.881832,"longitude":-87.62318,"reserved":0,"last_update":"0001-01-01T00:00:00Z","name_a2s":"Uncletopia | Chicago | 6 | All Maps","protocol":17,"map":"cp_dustbowl","folder":"tf","game":"Team Fortress","app_id":440,"player_count":24,"max_players":24,"Bots":0,"server_type":"Dedicated","server_os":"Linux","password":true,"vac":true,"version":"7961495","steam_id":85568392924866363,"keywords":["cp","nocrits","nodmgspread","uncletopia"],"game_id":440,"stv_port":27026,"stv_name":"Uncletopia | Chicago | 6 | All Maps | STV","players":[{"user_id":234,"name":"Dr. Han","steam_id":76561198811130843,"connected_time":884000000000,"state":"active","ping":69},{"user_id":155,"name":"Aegle","steam_id":76561198871463455,"connected_time":5400000000000,"state":"active","ping":92},{"user_id":242,"name":"the unionwave","steam_id":76561198354125620,"connected_time":156000000000,"state":"active","ping":77},{"user_id":250,"name":"GreenApples","steam_id":76561198120559543,"connected_time":64000000000,"state":"active","ping":121},{"user_id":248,"name":"=Silver=","steam_id":76561198292307127,"connected_time":83000000000,"state":"active","ping":95},{"user_id":241,"name":"The Chosen One","steam_id":76561199046984627,"connected_time":183000000000,"state":"active","ping":77},{"user_id":224,"name":"realer","steam_id":76561198203357580,"connected_time":1354000000000,"state":"active","ping":69},{"user_id":243,"name":"Theballman","steam_id":76561199142402851,"connected_time":154000000000,"state":"active","ping":66},{"user_id":214,"name":"astrobob911","steam_id":76561199099110654,"connected_time":1783000000000,"state":"active","ping":60},{"user_id":237,"name":"TrashBoat","steam_id":76561199089671432,"connected_time":782000000000,"state":"active","ping":135},{"user_id":244,"name":"Ricky-Dicky Doo-Da Grimes","steam_id":76561198016095410,"connected_time":152000000000,"state":"active","ping":72},{"user_id":251,"name":"A  cute cat who has a knife and","steam_id":76561199017719018,"connected_time":39000000000,"state":"spawning","ping":71},{"user_id":235,"name":"DusterDan35","steam_id":76561198309129093,"connected_time":870000000000,"state":"active","ping":110},{"user_id":232,"name":"Uncle Majic the Hip Hop Magicia","steam_id":76561198107924303,"connected_time":940000000000,"state":"active","ping":67},{"user_id":246,"name":"CHILL WEED VIBEüòéüçÅ","steam_id":76561198150678492,"connected_time":140000000000,"state":"active","ping":84},{"user_id":222,"name":"hatsune.miku.2004","steam_id":76561198360184510,"connected_time":1454000000000,"state":"active","ping":70},{"user_id":239,"name":"INKED!","steam_id":76561198208926572,"connected_time":495000000000,"state":"active","ping":70},{"user_id":223,"name":"Dirty Hacker Detected","steam_id":76561198086733565,"connected_time":1447000000000,"state":"active","ping":75},{"user_id":225,"name":"Snot Bubble Fan","steam_id":76561198168489637,"connected_time":1325000000000,"state":"active","ping":80},{"user_id":226,"name":"MikeLovesRabbit","steam_id":76561197997742625,"connected_time":1321000000000,"state":"active","ping":58},{"user_id":227,"name":"Dragus","steam_id":76561198032967285,"connected_time":1318000000000,"state":"active","ping":54},{"user_id":228,"name":"Pathologic Classic HD","steam_id":76561198125990511,"connected_time":1295000000000,"state":"active","ping":83},{"user_id":240,"name":"pinkissocool {f2p}","steam_id":76561198989599828,"connected_time":259000000000,"state":"active","ping":49},{"user_id":230,"name":"violent monkey porn","steam_id":76561199285074344,"connected_time":1224000000000,"state":"active","ping":59}]},{"server_id":38,"name":"Uncletopia | Chicago | 7 | Stopwatch","name_short":"chi-7","host":"chi-2.us.uncletopia.com","port":27035,"enabled":true,"region":"us-central","cc":"us","latitude":41.881832,"longitude":-87.62318,"reserved":0,"last_update":"0001-01-01T00:00:00Z","name_a2s":"Uncletopia | Chicago | 7 | Stopwatch","protocol":17,"map":"cp_metalworks","folder":"tf","game":"Team Fortress","app_id":440,"player_count":24,"max_players":24,"Bots":0,"server_type":"Dedicated","server_os":"Linux","password":true,"vac":true,"version":"7961495","steam_id":85568392924866364,"keywords":["cp","nocrits","nodmgspread","uncletopia"],"game_id":440,"stv_port":27036,"stv_name":"Uncletopia | Chicago | 7 | Stopwatch | STV","players":[{"user_id":181,"name":"chunk milk","steam_id":76561199027208532,"connected_time":1821000000000,"state":"active","ping":60},{"user_id":154,"name":"Draekonik","steam_id":76561198327492856,"connected_time":3103000000000,"state":"active","ping":64},{"user_id":199,"name":"Menachem","steam_id":76561198041226420,"connected_time":604000000000,"state":"active","ping":49},{"user_id":197,"name":"Travorski","steam_id":76561198072493142,"connected_time":647000000000,"state":"active","ping":76},{"user_id":172,"name":"cardsfish","steam_id":76561199195316687,"connected_time":2591000000000,"state":"active","ping":47},{"user_id":177,"name":"StillNotGinger","steam_id":76561198063419189,"connected_time":2160000000000,"state":"active","ping":61},{"user_id":198,"name":"freedom staff","steam_id":76561199123218315,"connected_time":646000000000,"state":"active","ping":62},{"user_id":155,"name":"9gon Danmar33","steam_id":76561198056453091,"connected_time":3092000000000,"state":"active","ping":49},{"user_id":179,"name":"Voskei","steam_id":76561197980576820,"connected_time":1891000000000,"state":"active","ping":106},{"user_id":157,"name":"9gon Salt","steam_id":76561198116645978,"connected_time":3072000000000,"state":"active","ping":56},{"user_id":158,"name":"Enderbot64","steam_id":76561198155398070,"connected_time":3068000000000,"state":"active","ping":35},{"user_id":205,"name":"supreme champion","steam_id":76561198072112905,"connected_time":1000000000,"state":"spawning","ping":31},{"user_id":196,"name":"Momo","steam_id":76561198815067088,"connected_time":879000000000,"state":"active","ping":74},{"user_id":201,"name":"Peter griffin","steam_id":76561198277602752,"connected_time":375000000000,"state":"active","ping":171},{"user_id":203,"name":"byte_sized","steam_id":76561198155560837,"connected_time":270000000000,"state":"active","ping":56},{"user_id":204,"name":"War on Drugs Fighter","steam_id":76561198103211035,"connected_time":259000000000,"state":"active","ping":56},{"user_id":193,"name":"MisterJackster999","steam_id":76561198452593271,"connected_time":995000000000,"state":"active","ping":71},{"user_id":200,"name":"nav","steam_id":76561198872608266,"connected_time":563000000000,"state":"active","ping":137},{"user_id":182,"name":"Rock Kickass","steam_id":76561198450510841,"connected_time":1778000000000,"state":"active","ping":110},{"user_id":171,"name":"n√Æsh√©‚Ñ¢ #saveTF2","steam_id":76561198046869760,"connected_time":2667000000000,"state":"active","ping":68},{"user_id":195,"name":"beefmachine","steam_id":76561198001196512,"connected_time":979000000000,"state":"active","ping":60},{"user_id":184,"name":"Gazelle","steam_id":76561198336397088,"connected_time":1653000000000,"state":"active","ping":92},{"user_id":185,"name":"Octafish","steam_id":76561198866038505,"connected_time":1653000000000,"state":"active","ping":52},{"user_id":190,"name":"Willy","steam_id":76561198110445628,"connected_time":1320000000000,"state":"active","ping":76}]},{"server_id":39,"name":"Uncletopia | Chicago | 8 | Community","name_short":"chi-8","host":"chi-2.us.uncletopia.com","port":27045,"enabled":true,"region":"us-central","cc":"us","latitude":41.881832,"longitude":-87.62318,"reserved":0,"last_update":"0001-01-01T00:00:00Z","name_a2s":"Uncletopia | Chicago | 8 | Community","protocol":17,"map":"workshop/pl_barnblitz_pro7.ugc582280235","folder":"tf","game":"Team Fortress","app_id":440,"player_count":0,"max_players":24,"Bots":0,"server_type":"Dedicated","server_os":"Linux","password":true,"vac":true,"version":"7961495","steam_id":85568392924866365,"keywords":["nocrits","nodmgspread","payload","uncletopia"],"game_id":440,"stv_port":27046,"stv_name":"Uncletopia | Chicago | 8 | Community | STV","players":null},{"server_id":8,"name":"Uncletopia | Dallas | 1 | All Maps","name_short":"dal-1","host":"dal-1.us.uncletopia.com","port":27015,"enabled":true,"region":"us-central","cc":"us","latitude":32.779167,"longitude":-96.80889,"reserved":0,"last_update":"0001-01-01T00:00:00Z","name_a2s":"Uncletopia | Dallas | 1 | All Maps","protocol":17,"map":"pl_badwater","folder":"tf","game":"Team Fortress","app_id":440,"player_count":24,"max_players":24,"Bots":0,"server_type":"Dedicated","server_os":"Linux","password":true,"vac":true,"version":"7961495","steam_id":85568392924469986,"keywords":["nocrits","nodmgspread","payload","uncletopia"],"game_id":440,"stv_port":27016,"stv_name":"Uncletopia | Dallas | 1 | All Maps | STV","players":[{"user_id":21,"name":"errant","steam_id":76561197961758410,"connected_time":1946000000000,"state":"active","ping":38},{"user_id":22,"name":"[cf] Captain Terror","steam_id":76561198028034742,"connected_time":1912000000000,"state":"active","ping":102},{"user_id":51,"name":"PotatoSpreadOnBread","steam_id":76561198983175555,"connected_time":426000000000,"state":"active","ping":85},{"user_id":25,"name":"ridge","steam_id":76561198381568825,"connected_time":980000000000,"state":"active","ping":91},{"user_id":26,"name":"MiniatureTrumpet","steam_id":76561198807533157,"connected_time":960000000000,"state":"active","ping":79},{"user_id":47,"name":"Rix FPV","steam_id":76561198299320893,"connected_time":490000000000,"state":"active","ping":69},{"user_id":28,"name":"MILKJUGG","steam_id":76561198153332955,"connected_time":854000000000,"state":"active","ping":88},{"user_id":29,"name":"xanakin skywocker","steam_id":76561198347313393,"connected_time":823000000000,"state":"active","ping":86},{"user_id":36,"name":"paulos231","steam_id":76561198032533302,"connected_time":643000000000,"state":"active","ping":115},{"user_id":38,"name":"TrashPanda (she/her)","steam_id":76561198447864095,"connected_time":571000000000,"state":"active","ping":48},{"user_id":52,"name":"Dwanor","steam_id":76561198039571887,"connected_time":342000000000,"state":"active","ping":90},{"user_id":33,"name":"IsleBound","steam_id":76561198278451717,"connected_time":686000000000,"state":"active","ping":67},{"user_id":34,"name":"turtlewho","steam_id":76561199071366637,"connected_time":673000000000,"state":"active","ping":80},{"user_id":54,"name":"freesia","steam_id":76561198127525888,"connected_time":12000000000,"state":"spawning","ping":46},{"user_id":39,"name":"GabetIV femboy","steam_id":76561198145700338,"connected_time":542000000000,"state":"active","ping":46},{"user_id":50,"name":"arcticzero77","steam_id":76561198040874381,"connected_time":464000000000,"state":"active","ping":59},{"user_id":41,"name":"MrPeanutBetter","steam_id":76561199149697526,"connected_time":531000000000,"state":"active","ping":101},{"user_id":42,"name":"Steak hater","steam_id":76561199103876021,"connected_time":526000000000,"state":"active","ping":118},{"user_id":43,"name":"HasheM","steam_id":76561198090308879,"connected_time":522000000000,"state":"active","ping":158},{"user_id":53,"name":"An Engineer","steam_id":76561198110381643,"connected_time":175000000000,"state":"active","ping":55},{"user_id":45,"name":"Hoodie_85","steam_id":76561199471600489,"connected_time":499000000000,"state":"active","ping":90},{"user_id":46,"name":"000000","steam_id":76561198100942212,"connected_time":491000000000,"state":"active","ping":76},{"user_id":48,"name":"Stupid? Probably :(","steam_id":76561198298310744,"connected_time":485000000000,"state":"active","ping":98},{"user_id":49,"name":"tmm (theManMan)","steam_id":76561199488457138,"connected_time":479000000000,"state":"active","ping":104}]},{"server_id":108,"name":"Uncletopia | Dallas | 2 | All Maps","name_short":"dal-2","host":"dal-1.us.uncletopia.com","port":27025,"enabled":true,"region":"us-central","cc":"us","latitude":32.779167,"longitude":-96.80889,"reserved":0,"last_update":"0001-01-01T00:00:00Z","name_a2s":"Uncletopia | Dallas | 2 | All Maps","protocol":17,"map":"koth_lakeside_final","folder":"tf","game":"Team Fortress","app_id":440,"player_count":24,"max_players":24,"Bots":0,"server_type":"Dedicated","server_os":"Linux","password":true,"vac":true,"version":"7961495","steam_id":85568392924469988,"keywords":["cp","nocrits","nodmgspread","uncletopia"],"game_id":440,"stv_port":27026,"stv_name":"Uncletopia | Dallas | 2 | All Maps | STV","players":[{"user_id":235,"name":"slime ( ,'' w'' )","steam_id":76561198198984282,"connected_time":3525000000000,"state":"active","ping":90},{"user_id":245,"name":"leesh","steam_id":76561198079603938,"connected_time":3225000000000,"state":"active","ping":63},{"user_id":220,"name":"MrSourLemmon","steam_id":76561199367994914,"connected_time":4406000000000,"state":"active","ping":49},{"user_id":226,"name":"qwatta","steam_id":76561198064982327,"connected_time":3882000000000,"state":"active","ping":38},{"user_id":271,"name":"Levin","steam_id":76561198410302974,"connected_time":810000000000,"state":"active","ping":80},{"user_id":276,"name":"Conner","steam_id":76561198042801153,"connected_time":232000000000,"state":"active","ping":260},{"user_id":261,"name":"firefly","steam_id":76561198151308698,"connected_time":1549000000000,"state":"active","ping":40},{"user_id":273,"name":"Lain","steam_id":76561198029303534,"connected_time":365000000000,"state":"active","ping":63},{"user_id":274,"name":"McDonald's drive through","steam_id":76561198152736160,"connected_time":358000000000,"state":"active","ping":80},{"user_id":260,"name":"Chuck Mcgill","steam_id":76561198057454929,"connected_time":1799000000000,"state":"active","ping":100},{"user_id":135,"name":"TacoMan4Life","steam_id":76561198832562728,"connected_time":10003000000000,"state":"active","ping":80},{"user_id":277,"name":"daD","steam_id":76561198188498762,"connected_time":15000000000,"state":"active","ping":59},{"user_id":216,"name":"Steben","steam_id":76561198182247921,"connected_time":4611000000000,"state":"active","ping":47},{"user_id":244,"name":"SecretAgentMoose","steam_id":76561198121657843,"connected_time":3242000000000,"state":"active","ping":89},{"user_id":263,"name":"decompose","steam_id":76561198049258493,"connected_time":1522000000000,"state":"active","ping":111},{"user_id":219,"name":"Legless Amphibian","steam_id":76561198880476222,"connected_time":4427000000000,"state":"active","ping":54},{"user_id":268,"name":"Cyxzar","steam_id":76561198214066477,"connected_time":1135000000000,"state":"active","ping":47},{"user_id":269,"name":"Cassie","steam_id":76561198972619900,"connected_time":1089000000000,"state":"active","ping":36},{"user_id":275,"name":"crankshaft","steam_id":76561197992798282,"connected_time":321000000000,"state":"active","ping":81},{"user_id":258,"name":"Colonel Salt","steam_id":76561198207009563,"connected_time":2290000000000,"state":"active","ping":57},{"user_id":264,"name":"darkvoid","steam_id":76561198094512992,"connected_time":1493000000000,"state":"active","ping":66},{"user_id":272,"name":"Scelo","steam_id":76561197987805095,"connected_time":492000000000,"state":"active","ping":79},{"user_id":254,"name":"Ryzema","steam_id":76561198165594229,"connected_time":2795000000000,"state":"active","ping":79},{"user_id":267,"name":"Alex G Piss Pants","steam_id":76561199406829810,"connected_time":1417000000000,"state":"active","ping":88}]},{"server_id":404,"name":"Uncletopia | Dallas | 3 | All Maps","name_short":"dal-3","host":"dal-1.us.uncletopia.com","port":27035,"enabled":true,"region":"us-central","cc":"us","latitude":32.779167,"longitude":-96.80889,"reserved":0,"last_update":"0001-01-01T00:00:00Z","name_a2s":"Uncletopia | Dallas | 3 | All Maps","protocol":17,"map":"pl_borneo","folder":"tf","game":"Team Fortress","app_id":440,"player_count":24,"max_players":24,"Bots":0,"server_type":"Dedicated","server_os":"Linux","password":true,"vac":true,"version":"7961495","steam_id":85568392924515219,"keywords":["nocrits","nodmgspread","payload","uncletopia"],"game_id":440,"stv_port":27036,"stv_name":"Uncletopia | Dallas | 3 | All Maps | STV","players":[{"user_id":84,"name":"mkl","steam_id":76561197986401685,"connected_time":147000000000,"state":"active","ping":53},{"user_id":83,"name":"Captain Underbelly","steam_id":76561198811270935,"connected_time":217000000000,"state":"active","ping":79},{"user_id":81,"name":"Punk'd 2","steam_id":76561198022353992,"connected_time":649000000000,"state":"active","ping":45},{"user_id":57,"name":"Sanic","steam_id":76561198083124962,"connected_time":3500000000000,"state":"active","ping":76},{"user_id":82,"name":"Snorlax","steam_id":76561198123124356,"connected_time":617000000000,"state":"active","ping":45},{"user_id":73,"name":"plickles","steam_id":76561199032117349,"connected_time":1778000000000,"state":"active","ping":93},{"user_id":17,"name":"Da Policia","steam_id":76561198012762789,"connected_time":6547000000000,"state":"active","ping":45},{"user_id":74,"name":"Phaze","steam_id":76561198025267071,"connected_time":1727000000000,"state":"active","ping":60},{"user_id":71,"name":"[_Dr.Scythe_]","steam_id":76561198845245858,"connected_time":2315000000000,"state":"active","ping":57},{"user_id":43,"name":"Xtar","steam_id":76561198301774048,"connected_time":4778000000000,"state":"active","ping":81},{"user_id":44,"name":"cbagels","steam_id":76561198453866972,"connected_time":4727000000000,"state":"active","ping":93},{"user_id":75,"name":"Anyar","steam_id":76561198160174097,"connected_time":1714000000000,"state":"active","ping":54},{"user_id":79,"name":"Ockulus","steam_id":76561199069638460,"connected_time":946000000000,"state":"active","ping":85},{"user_id":66,"name":"Philo","steam_id":76561198061873341,"connected_time":3212000000000,"state":"active","ping":89},{"user_id":72,"name":"MenInHatz","steam_id":76561198825094263,"connected_time":1812000000000,"state":"active","ping":70},{"user_id":34,"name":"Risky","steam_id":76561198231029328,"connected_time":5172000000000,"state":"active","ping":89},{"user_id":35,"name":"Mr.Pan","steam_id":76561198069030613,"connected_time":5172000000000,"state":"active","ping":70},{"user_id":69,"name":"CeLeb144","steam_id":76561199089907740,"connected_time":2355000000000,"state":"active","ping":52},{"user_id":38,"name":"King Cotton","steam_id":76561198292444376,"connected_time":5041000000000,"state":"active","ping":61},{"user_id":48,"name":"ruyon","steam_id":76561198376916657,"connected_time":4649000000000,"state":"active","ping":141},{"user_id":61,"name":"$2.99 grease cups","steam_id":76561198077272494,"connected_time":3426000000000,"state":"active","ping":71},{"user_id":62,"name":"beardedchinchilla","steam_id":76561198106462464,"connected_time":3364000000000,"state":"active","ping":60},{"user_id":47,"name":"Propaniac Gaming ‚òë","steam_id":76561198133963270,"connected_time":4673000000000,"state":"active","ping":61},{"user_id":78,"name":"Serenue","steam_id":76561199040361250,"connected_time":1298000000000,"state":"active","ping":117}]},{"server_id":405,"name":"Uncletopia | Dallas | 4 | Community","name_short":"dal-4","host":"dal-1.us.uncletopia.com","port":27045,"enabled":true,"region":"us-central","cc":"us","latitude":32.779167,"longitude":-96.80889,"reserved":0,"last_update":"0001-01-01T00:00:00Z","name_a2s":"Uncletopia | Dallas | 4 | Community","protocol":17,"map":"workshop/koth_product_final.ugc454272353","folder":"tf","game":"Team Fortress","app_id":440,"player_count":0,"max_players":24,"Bots":0,"server_type":"Dedicated","server_os":"Linux","password":true,"vac":true,"version":"7961495","steam_id":85568392924515220,"keywords":["cp","nocrits","nodmgspread","uncletopia"],"game_id":440,"stv_port":27046,"stv_name":"Uncletopia | Dallas | 4 | Community | STV","players":null},{"server_id":5,"name":"Uncletopia | Frankfurt | 1 | All Maps","name_short":"frk-1","host":"frk-1.de.uncletopia.com","port":27015,"enabled":true,"region":"eu","cc":"de","latitude":50.110924,"longitude":8.682127,"reserved":0,"last_update":"0001-01-01T00:00:00Z","name_a2s":"Uncletopia | Frankfurt | 1 | All Maps","protocol":17,"map":"koth_cascade","folder":"tf","game":"Team Fortress","app_id":440,"player_count":0,"max_players":24,"Bots":0,"server_type":"Dedicated","server_os":"Linux","password":true,"vac":true,"version":"7961495","steam_id":85568392924469989,"keywords":["cp","nocrits","nodmgspread","uncletopia"],"game_id":440,"stv_port":27016,"stv_name":"Uncletopia | Frankfurt | 1 | All Maps | STV","players":null},{"server_id":110,"name":"Uncletopia | Frankfurt | 2 | All Maps","name_short":"frk-2","host":"frk-1.de.uncletopia.com","port":27025,"enabled":true,"region":"eu","cc":"de","latitude":50.110924,"longitude":8.682127,"reserved":0,"last_update":"0001-01-01T00:00:00Z","name_a2s":"Uncletopia | Frankfurt | 2 | All Maps","protocol":17,"map":"koth_cascade","folder":"tf","game":"Team Fortress","app_id":440,"player_count":0,"max_players":24,"Bots":0,"server_type":"Dedicated","server_os":"Linux","password":true,"vac":true,"version":"7961495","steam_id":85568392924469990,"keywords":["cp","nocrits","nodmgspread","uncletopia"],"game_id":440,"stv_port":27026,"stv_name":"Uncletopia | Frankfurt | 2 | All Maps | STV","players":null},{"server_id":308,"name":"Uncletopia | Frankfurt | 3 | All Maps","name_short":"frk-3","host":"frk-1.de.uncletopia.com","port":27035,"enabled":true,"region":"eu","cc":"de","latitude":50.110924,"longitude":8.682127,"reserved":0,"last_update":"0001-01-01T00:00:00Z","name_a2s":"Uncletopia | Frankfurt | 3 | All Maps","protocol":17,"map":"cp_snakewater_final1","folder":"tf","game":"Team Fortress","app_id":440,"player_count":6,"max_players":24,"Bots":0,"server_type":"Dedicated","server_os":"Linux","password":true,"vac":true,"version":"7961495","steam_id":85568392924504274,"keywords":["cp","nocrits","nodmgspread","uncletopia"],"game_id":440,"stv_port":27036,"stv_name":"Uncletopia | Frankfurt | 3 | All Maps | STV","players":[{"user_id":507,"name":"ChesseKnight","steam_id":76561198102476339,"connected_time":3133000000000,"state":"active","ping":62},{"user_id":542,"name":"nrvvs","steam_id":76561199134714492,"connected_time":12000000000,"state":"spawning","ping":152},{"user_id":539,"name":"Galzra87","steam_id":76561198063414443,"connected_time":191000000000,"state":"active","ping":68},{"user_id":537,"name":"Zoom, Tilt and PAN","steam_id":76561198029627990,"connected_time":416000000000,"state":"active","ping":45},{"user_id":541,"name":"mug","steam_id":76561198128067979,"connected_time":132000000000,"state":"active","ping":30},{"user_id":517,"name":"Dr Bondus Bolongus Dongus","steam_id":76561198378657692,"connected_time":2280000000000,"state":"active","ping":61}]},{"server_id":309,"name":"Uncletopia | Frankfurt | 4 | All Maps","name_short":"frk-4","host":"frk-1.de.uncletopia.com","port":27045,"enabled":true,"region":"eu","cc":"de","latitude":50.110924,"longitude":8.682127,"reserved":0,"last_update":"0001-01-01T00:00:00Z","name_a2s":"Uncletopia | Frankfurt | 4 | All Maps","protocol":17,"map":"koth_lakeside_final","folder":"tf","game":"Team Fortress","app_id":440,"player_count":0,"max_players":24,"Bots":0,"server_type":"Dedicated","server_os":"Linux","password":true,"vac":true,"version":"7961495","steam_id":85568392924504275,"keywords":["cp","nocrits","nodmgspread","uncletopia"],"game_id":440,"stv_port":27046,"stv_name":"Uncletopia | Frankfurt | 4 | All Maps | STV","players":null},{"server_id":310,"name":"Uncletopia | Frankfurt | 5 | All Maps","name_short":"frk-5","host":"frk-1.de.uncletopia.com","port":27055,"enabled":true,"region":"eu","cc":"de","latitude":50.110924,"longitude":8.682127,"reserved":0,"last_update":"0001-01-01T00:00:00Z","name_a2s":"Uncletopia | Frankfurt | 5 | All Maps","protocol":17,"map":"pl_upward","folder":"tf","game":"Team Fortress","app_id":440,"player_count":0,"max_players":24,"Bots":0,"server_type":"Dedicated","server_os":"Linux","password":true,"vac":true,"version":"7961495","steam_id":85568392924504277,"keywords":["nocrits","nodmgspread","payload","uncletopia"],"game_id":440,"stv_port":27056,"stv_name":"Uncletopia | Frankfurt | 5 | All Maps | STV","players":null},{"server_id":311,"name":"Uncletopia | Frankfurt | 6 | All Maps","name_short":"frk-6","host":"frk-1.de.uncletopia.com","port":27065,"enabled":true,"region":"eu","cc":"de","latitude":50.110924,"longitude":8.682127,"reserved":0,"last_update":"0001-01-01T00:00:00Z","name_a2s":"Uncletopia | Frankfurt | 6 | All Maps","protocol":17,"map":"koth_lakeside_final","folder":"tf","game":"Team Fortress","app_id":440,"player_count":0,"max_players":24,"Bots":0,"server_type":"Dedicated","server_os":"Linux","password":true,"vac":true,"version":"7961495","steam_id":85568392924504278,"keywords":["cp","nocrits","nodmgspread","uncletopia"],"game_id":440,"stv_port":27066,"stv_name":"Uncletopia | Frankfurt | 6 | All Maps | STV","players":null},{"server_id":23,"name":"Uncletopia | Frankfurt | 7 | Stopwatch","name_short":"frk-7","host":"frk-1.de.uncletopia.com","port":27075,"enabled":true,"region":"eu","cc":"de","latitude":50.110924,"longitude":8.682127,"reserved":0,"last_update":"0001-01-01T00:00:00Z","name_a2s":"Uncletopia | Frankfurt | 7 | Stopwatch","protocol":17,"map":"cp_metalworks","folder":"tf","game":"Team Fortress","app_id":440,"player_count":24,"max_players":24,"Bots":0,"server_type":"Dedicated","server_os":"Linux","password":true,"vac":true,"version":"7961495","steam_id":85568392924742827,"keywords":["cp","nocrits","nodmgspread","uncletopia"],"game_id":440,"stv_port":27076,"stv_name":"Uncletopia | Frankfurt | 7 | Stopwatch | STV","players":[{"user_id":705,"name":"Voks_","steam_id":76561198159687785,"connected_time":856000000000,"state":"active","ping":58},{"user_id":626,"name":"Wild Meep","steam_id":76561198199271438,"connected_time":7004000000000,"state":"active","ping":145},{"user_id":711,"name":"Wiverny","steam_id":76561198061954999,"connected_time":587000000000,"state":"active","ping":38},{"user_id":694,"name":"h","steam_id":76561198282952165,"connected_time":1753000000000,"state":"active","ping":73},{"user_id":574,"name":"God's Goofiest Goober","steam_id":76561198103175187,"connected_time":10471000000000,"state":"active","ping":58},{"user_id":687,"name":"NHS Issued Amphetamines","steam_id":76561198303429751,"connected_time":2223000000000,"state":"active","ping":60},{"user_id":648,"name":"Ran33","steam_id":76561197991474499,"connected_time":5887000000000,"state":"active","ping":97},{"user_id":662,"name":"MEGOS","steam_id":76561198172740637,"connected_time":4043000000000,"state":"active","ping":54},{"user_id":572,"name":"tapeworms!","steam_id":76561198069649097,"connected_time":10855000000000,"state":"active","ping":61},{"user_id":681,"name":"vi","steam_id":76561198303147966,"connected_time":2582000000000,"state":"active","ping":60},{"user_id":670,"name":"DankDuck","steam_id":76561198160086418,"connected_time":2839000000000,"state":"active","ping":77},{"user_id":688,"name":"Team Fortress","steam_id":76561198058722801,"connected_time":2210000000000,"state":"active","ping":51},{"user_id":671,"name":"‚ù§Speedbump‚ù§","steam_id":76561198388690313,"connected_time":2800000000000,"state":"active","ping":51},{"user_id":712,"name":"Adam","steam_id":76561198083655265,"connected_time":290000000000,"state":"active","ping":60},{"user_id":709,"name":"Bobirulez","steam_id":76561198009125458,"connected_time":653000000000,"state":"active","ping":74},{"user_id":706,"name":"travis","steam_id":76561198138119811,"connected_time":855000000000,"state":"active","ping":58},{"user_id":691,"name":"MrChester","steam_id":76561199213192992,"connected_time":1832000000000,"state":"active","ping":62},{"user_id":707,"name":"joachym","steam_id":76561198428579761,"connected_time":806000000000,"state":"active","ping":49},{"user_id":710,"name":"Coke Himmy","steam_id":76561198397459211,"connected_time":622000000000,"state":"active","ping":132},{"user_id":677,"name":"4kku","steam_id":76561198315976800,"connected_time":2686000000000,"state":"active","ping":74},{"user_id":696,"name":"I-I","steam_id":76561198267969436,"connected_time":1686000000000,"state":"active","ping":51},{"user_id":700,"name":"Summer ‚ô•","steam_id":76561198047723907,"connected_time":1497000000000,"state":"active","ping":49},{"user_id":698,"name":"Snowmotion","steam_id":76561198075022454,"connected_time":1522000000000,"state":"active","ping":48},{"user_id":704,"name":"Geralt","steam_id":76561198312472845,"connected_time":1148000000000,"state":"active","ping":81}]},{"server_id":24,"name":"Uncletopia | Frankfurt | 8 | Community","name_short":"frk-8","host":"frk-1.de.uncletopia.com","port":27085,"enabled":true,"region":"eu","cc":"de","latitude":50.110924,"longitude":8.682127,"reserved":0,"last_update":"0001-01-01T00:00:00Z","name_a2s":"Uncletopia | Frankfurt | 8 | Community","protocol":17,"map":"workshop/koth_trenchfoot_ab1.ugc731436616","folder":"tf","game":"Team Fortress","app_id":440,"player_count":0,"max_players":24,"Bots":0,"server_type":"Dedicated","server_os":"Linux","password":true,"vac":true,"version":"7961495","steam_id":85568392924742828,"keywords":["cp","nocrits","nodmgspread","uncletopia"],"game_id":440,"stv_port":27086,"stv_name":"Uncletopia | Frankfurt | 8 | Community | STV","players":null},{"server_id":202,"name":"Uncletopia | Hong Kong | 1 | All Maps","name_short":"hgk-1","host":"hgk-1.hk.uncletopia.com","port":27015,"enabled":true,"region":"asia","cc":"hk","latitude":22.302711,"longitude":114.177216,"reserved":0,"last_update":"0001-01-01T00:00:00Z","name_a2s":"Uncletopia | Hong Kong | 1 | All Maps","protocol":17,"map":"cp_gravelpit","folder":"tf","game":"Team Fortress","app_id":440,"player_count":0,"max_players":24,"Bots":0,"server_type":"Dedicated","server_os":"Linux","password":true,"vac":true,"version":"7961495","steam_id":85568392924494504,"keywords":["cp","nocrits","nodmgspread","uncletopia"],"game_id":440,"stv_port":27016,"stv_name":"Uncletopia | Hong Kong | 1 | All Maps | STV","players":null},{"server_id":1,"name":"Uncletopia | Los Angeles | 1 | All Maps","name_short":"lax-1","host":"lax-1.us.uncletopia.com","port":27015,"enabled":true,"region":"us-west","cc":"us","latitude":33.94279,"longitude":-118.41004,"reserved":0,"last_update":"0001-01-01T00:00:00Z","name_a2s":"Uncletopia | Los Angeles | 1 | All Maps","protocol":17,"map":"koth_viaduct","folder":"tf","game":"Team Fortress","app_id":440,"player_count":0,"max_players":24,"Bots":0,"server_type":"Dedicated","server_os":"Linux","password":true,"vac":true,"version":"7961495","steam_id":85568392924469991,"keywords":["cp","nocrits","nodmgspread","uncletopia"],"game_id":440,"stv_port":27016,"stv_name":"Uncletopia | Los Angeles | 1 | All Maps | STV","players":null},{"server_id":112,"name":"Uncletopia | Los Angeles | 2 | All Maps","name_short":"lax-2","host":"lax-1.us.uncletopia.com","port":27025,"enabled":true,"region":"us-west","cc":"us","latitude":33.94279,"longitude":-118.41004,"reserved":0,"last_update":"0001-01-01T00:00:00Z","name_a2s":"Uncletopia | Los Angeles | 2 | All Maps","protocol":17,"map":"koth_cascade","folder":"tf","game":"Team Fortress","app_id":440,"player_count":0,"max_players":24,"Bots":0,"server_type":"Dedicated","server_os":"Linux","password":true,"vac":true,"version":"7961495","steam_id":85568392924469992,"keywords":["cp","nocrits","nodmgspread","uncletopia"],"game_id":440,"stv_port":27026,"stv_name":"Uncletopia | Los Angeles | 2 | All Maps | STV","players":null},{"server_id":324,"name":"Uncletopia | Los Angeles | 3 | All Maps","name_short":"lax-3","host":"lax-1.us.uncletopia.com","port":27035,"enabled":true,"region":"us-west","cc":"us","latitude":33.94279,"longitude":-118.41004,"reserved":0,"last_update":"0001-01-01T00:00:00Z","name_a2s":"Uncletopia | Los Angeles | 3 | All Maps","protocol":17,"map":"pl_pier","folder":"tf","game":"Team Fortress","app_id":440,"player_count":24,"max_players":24,"Bots":0,"server_type":"Dedicated","server_os":"Linux","password":true,"vac":true,"version":"7961495","steam_id":85568392924510198,"keywords":["nocrits","nodmgspread","payload","uncletopia"],"game_id":440,"stv_port":27036,"stv_name":"Uncletopia | Los Angeles | 3 | All Maps | STV","players":[{"user_id":57,"name":"Zykron","steam_id":76561199056400800,"connected_time":1640000000000,"state":"active","ping":57},{"user_id":79,"name":"fug","steam_id":76561198105374054,"connected_time":819000000000,"state":"active","ping":73},{"user_id":85,"name":"zinnk","steam_id":76561198092081825,"connected_time":316000000000,"state":"active","ping":56},{"user_id":60,"name":"Creature","steam_id":76561198194585781,"connected_time":1437000000000,"state":"active","ping":35},{"user_id":64,"name":"sora","steam_id":76561198094256973,"connected_time":1390000000000,"state":"active","ping":60},{"user_id":88,"name":"noceof","steam_id":76561198043656816,"connected_time":18000000000,"state":"active","ping":158},{"user_id":44,"name":"'Oddo","steam_id":76561198090866900,"connected_time":2383000000000,"state":"active","ping":92},{"user_id":61,"name":"Weed Dealer","steam_id":76561198418604400,"connected_time":1437000000000,"state":"active","ping":67},{"user_id":72,"name":"KahMei","steam_id":76561198012542769,"connected_time":1250000000000,"state":"active","ping":57},{"user_id":78,"name":"moewa","steam_id":76561198338739253,"connected_time":836000000000,"state":"active","ping":51},{"user_id":65,"name":"Ickly","steam_id":76561198130225025,"connected_time":1386000000000,"state":"active","ping":60},{"user_id":46,"name":"Lancet","steam_id":76561198123700759,"connected_time":2355000000000,"state":"active","ping":46},{"user_id":84,"name":"yippikeeyakeeyeahyuhkyoh","steam_id":76561199196626333,"connected_time":415000000000,"state":"active","ping":39},{"user_id":66,"name":"Pah-Wraith Gul Dukat","steam_id":76561198033918106,"connected_time":1376000000000,"state":"active","ping":46},{"user_id":89,"name":"4Lights","steam_id":76561197979928517,"connected_time":6000000000,"state":"spawning","ping":88},{"user_id":87,"name":"tiddy kong","steam_id":76561198112354850,"connected_time":163000000000,"state":"active","ping":45},{"user_id":49,"name":"Sir Stanger","steam_id":76561198109281673,"connected_time":2328000000000,"state":"active","ping":73},{"user_id":81,"name":"bansheerubber","steam_id":76561198042009362,"connected_time":730000000000,"state":"active","ping":59},{"user_id":71,"name":"Jon Jon Jon Jon Jon Jon Jon Jon","steam_id":76561198424248616,"connected_time":1275000000000,"state":"active","ping":196},{"user_id":74,"name":"axellinag15","steam_id":76561199188113751,"connected_time":1133000000000,"state":"active","ping":113},{"user_id":56,"name":"Arc","steam_id":76561199190149290,"connected_time":1712000000000,"state":"active","ping":78},{"user_id":80,"name":"Babel","steam_id":76561198142683193,"connected_time":773000000000,"state":"active","ping":46},{"user_id":50,"name":"Drake from State Farm","steam_id":76561199069029812,"connected_time":2327000000000,"state":"active","ping":63},{"user_id":82,"name":"SunkenSole9132","steam_id":76561198359562446,"connected_time":728000000000,"state":"active","ping":70}]},{"server_id":25,"name":"Uncletopia | Los Angeles | 4 | Stopwatch","name_short":"lax-4","host":"lax-1.us.uncletopia.com","port":27045,"enabled":true,"region":"us-west","cc":"us","latitude":33.94279,"longitude":-118.41004,"reserved":0,"last_update":"0001-01-01T00:00:00Z","name_a2s":"Uncletopia | Los Angeles | 4 | Stopwatch","protocol":17,"map":"koth_highpass","folder":"tf","game":"Team Fortress","app_id":440,"player_count":0,"max_players":24,"Bots":0,"server_type":"Dedicated","server_os":"Linux","password":true,"vac":true,"version":"7961495","steam_id":85568392924510199,"keywords":["cp","nocrits","nodmgspread","uncletopia"],"game_id":440,"stv_port":27046,"stv_name":"Uncletopia | Los Angeles | 4 | Stopwatch | STV","players":null},{"server_id":11,"name":"Uncletopia | London | 1 | All Maps","name_short":"lon-1","host":"lon-1.uk.uncletopia.com","port":27015,"enabled":true,"region":"eu","cc":"gb","latitude":51.509865,"longitude":-0.118092,"reserved":0,"last_update":"0001-01-01T00:00:00Z","name_a2s":"Uncletopia | London | 1 | All Maps","protocol":17,"map":"pl_upward","folder":"tf","game":"Team Fortress","app_id":440,"player_count":24,"max_players":24,"Bots":0,"server_type":"Dedicated","server_os":"Linux","password":true,"vac":true,"version":"7961495","steam_id":85568392924367362,"keywords":["nocrits","nodmgspread","payload","uncletopia"],"game_id":440,"stv_port":27016,"stv_name":"Uncletopia | London | 1 | All Maps | STV","players":[{"user_id":1171,"name":"Lubrsi","steam_id":76561198040208195,"connected_time":4126000000000,"state":"active","ping":45},{"user_id":1173,"name":"em ‚ù§","steam_id":76561198156678840,"connected_time":3684000000000,"state":"active","ping":44},{"user_id":1190,"name":"\u003e\u003c\u003e","steam_id":76561198152392309,"connected_time":886000000000,"state":"active","ping":45},{"user_id":1140,"name":"Minimi","steam_id":76561198873850443,"connected_time":6734000000000,"state":"active","ping":48},{"user_id":1180,"name":"BreadBubbles","steam_id":76561198174332826,"connected_time":2695000000000,"state":"active","ping":61},{"user_id":1194,"name":"vexo","steam_id":76561198186680410,"connected_time":204000000000,"state":"active","ping":44},{"user_id":1188,"name":"Triploon","steam_id":76561198173304074,"connected_time":1044000000000,"state":"active","ping":47},{"user_id":1181,"name":"Edsuedi","steam_id":76561198074722832,"connected_time":2630000000000,"state":"active","ping":56},{"user_id":1179,"name":"teddy","steam_id":76561198007436837,"connected_time":2707000000000,"state":"active","ping":29},{"user_id":1191,"name":"elijah","steam_id":76561198093936708,"connected_time":850000000000,"state":"active","ping":44},{"user_id":1184,"name":"Aaron","steam_id":76561197990046953,"connected_time":1668000000000,"state":"active","ping":58},{"user_id":1121,"name":"Sandshee","steam_id":76561198088574666,"connected_time":8159000000000,"state":"active","ping":45},{"user_id":1186,"name":"stepbro","steam_id":76561198119607160,"connected_time":1300000000000,"state":"active","ping":104},{"user_id":1195,"name":"SourMyth","steam_id":76561198071818351,"connected_time":198000000000,"state":"active","ping":47},{"user_id":1198,"name":"Xit","steam_id":76561198084458242,"connected_time":45000000000,"state":"active","ping":82},{"user_id":1143,"name":"sora (live)","steam_id":76561198096547662,"connected_time":6682000000000,"state":"active","ping":50},{"user_id":1156,"name":"rat","steam_id":76561198130412963,"connected_time":5529000000000,"state":"active","ping":151},{"user_id":1144,"name":"GIRLBITER alice","steam_id":76561198180361759,"connected_time":6660000000000,"state":"active","ping":37},{"user_id":1159,"name":"Borat","steam_id":76561198122226417,"connected_time":5184000000000,"state":"active","ping":44},{"user_id":1142,"name":"‚úøaura‚úø","steam_id":76561198066258544,"connected_time":6730000000000,"state":"active","ping":58},{"user_id":1197,"name":"goodvibrations","steam_id":76561198123238801,"connected_time":125000000000,"state":"active","ping":54},{"user_id":1187,"name":"RIBS GROW BACK","steam_id":76561198123659806,"connected_time":1096000000000,"state":"active","ping":87},{"user_id":1196,"name":"Purps","steam_id":76561198053886680,"connected_time":129000000000,"state":"active","ping":44},{"user_id":1145,"name":"Laru","steam_id":76561197998838438,"connected_time":6309000000000,"state":"active","ping":86}]},{"server_id":114,"name":"Uncletopia | London | 2 | All Maps","name_short":"lon-2","host":"lon-1.uk.uncletopia.com","port":27025,"enabled":true,"region":"eu","cc":"gb","latitude":51.509865,"longitude":-0.118092,"reserved":0,"last_update":"0001-01-01T00:00:00Z","name_a2s":"Uncletopia | London | 2 | All Maps","protocol":17,"map":"cp_process_final","folder":"tf","game":"Team Fortress","app_id":440,"player_count":24,"max_players":24,"Bots":0,"server_type":"Dedicated","server_os":"Linux","password":true,"vac":true,"version":"7961495","steam_id":85568392924470941,"keywords":["cp","nocrits","nodmgspread","uncletopia"],"game_id":440,"stv_port":27026,"stv_name":"Uncletopia | London | 2 | All Maps | STV","players":[{"user_id":528,"name":"etc","steam_id":76561197998394797,"connected_time":1378000000000,"state":"active","ping":53},{"user_id":539,"name":"Superiumentarius","steam_id":76561198081642249,"connected_time":740000000000,"state":"active","ping":59},{"user_id":529,"name":"Caramel","steam_id":76561198021214844,"connected_time":1281000000000,"state":"active","ping":45},{"user_id":445,"name":"lexi ‚òÖ","steam_id":76561198988695461,"connected_time":6330000000000,"state":"active","ping":85},{"user_id":548,"name":"dools18","steam_id":76561198880768062,"connected_time":96000000000,"state":"active","ping":53},{"user_id":545,"name":"ChrisBast","steam_id":76561198257444693,"connected_time":301000000000,"state":"active","ping":55},{"user_id":517,"name":"ROX","steam_id":76561198272289320,"connected_time":3008000000000,"state":"active","ping":44},{"user_id":525,"name":"Kiogeki","steam_id":76561197996707843,"connected_time":1667000000000,"state":"active","ping":40},{"user_id":542,"name":"Lucky Number 13","steam_id":76561198043951279,"connected_time":450000000000,"state":"active","ping":49},{"user_id":546,"name":"SparkyDoodles - Artist","steam_id":76561198060128235,"connected_time":300000000000,"state":"active","ping":50},{"user_id":505,"name":"doctor sex","steam_id":76561198029044617,"connected_time":3355000000000,"state":"active","ping":70},{"user_id":442,"name":"yuri boy","steam_id":76561198024292352,"connected_time":6410000000000,"state":"active","ping":59},{"user_id":433,"name":"Bubbahüêæ","steam_id":76561198061730609,"connected_time":6874000000000,"state":"active","ping":88},{"user_id":534,"name":"Labracababrador","steam_id":76561198255280285,"connected_time":1170000000000,"state":"active","ping":58},{"user_id":480,"name":"jeff","steam_id":76561198272815746,"connected_time":4593000000000,"state":"active","ping":48},{"user_id":547,"name":"Wilderhammer","steam_id":76561198132133702,"connected_time":256000000000,"state":"active","ping":48},{"user_id":541,"name":"shr1mple","steam_id":76561198173537027,"connected_time":621000000000,"state":"active","ping":45},{"user_id":536,"name":"‚≠êBv","steam_id":76561198048943710,"connected_time":1021000000000,"state":"active","ping":59},{"user_id":520,"name":"Gnome Hunter","steam_id":76561198878206817,"connected_time":2856000000000,"state":"active","ping":59},{"user_id":497,"name":"OutOfDucks","steam_id":76561198166376227,"connected_time":4153000000000,"state":"active","ping":50},{"user_id":549,"name":"Fish Juice Jimmy","steam_id":76561198078638602,"connected_time":10000000000,"state":"active","ping":45},{"user_id":499,"name":"i miss you","steam_id":76561197980736364,"connected_time":3903000000000,"state":"active","ping":80},{"user_id":492,"name":"smiley","steam_id":76561198042245117,"connected_time":4362000000000,"state":"active","ping":61},{"user_id":544,"name":"LLama Money","steam_id":76561199185391100,"connected_time":336000000000,"state":"active","ping":122}]},{"server_id":320,"name":"Uncletopia | London | 3 | All Maps","name_short":"lon-3","host":"lon-1.uk.uncletopia.com","port":27035,"enabled":true,"region":"eu","cc":"gb","latitude":51.509865,"longitude":-0.118092,"reserved":0,"last_update":"0001-01-01T00:00:00Z","name_a2s":"Uncletopia | London | 3 | All Maps","protocol":17,"map":"pl_frontier_final","folder":"tf","game":"Team Fortress","app_id":440,"player_count":0,"max_players":24,"Bots":0,"server_type":"Dedicated","server_os":"Linux","password":true,"vac":true,"version":"7961495","steam_id":85568392924510192,"keywords":["nocrits","nodmgspread","payload","uncletopia"],"game_id":440,"stv_port":27036,"stv_name":"Uncletopia | London | 3 | All Maps | STV","players":null},{"server_id":321,"name":"Uncletopia | London | 4 | All Maps","name_short":"lon-4","host":"lon-1.uk.uncletopia.com","port":27045,"enabled":true,"region":"eu","cc":"gb","latitude":51.509865,"longitude":-0.118092,"reserved":0,"last_update":"0001-01-01T00:00:00Z","name_a2s":"Uncletopia | London | 4 | All Maps","protocol":17,"map":"pl_swiftwater_final1","folder":"tf","game":"Team Fortress","app_id":440,"player_count":24,"max_players":24,"Bots":0,"server_type":"Dedicated","server_os":"Linux","password":true,"vac":true,"version":"7961495","steam_id":85568392924510193,"keywords":["nocrits","nodmgspread","payload","uncletopia"],"game_id":440,"stv_port":27046,"stv_name":"Uncletopia | London | 4 | All Maps | STV","players":[{"user_id":417,"name":"free back real estate","steam_id":76561197999437155,"connected_time":6390000000000,"state":"active","ping":44},{"user_id":481,"name":"Squishie #SaveTF2","steam_id":76561198321025400,"connected_time":2220000000000,"state":"active","ping":49},{"user_id":508,"name":"kalaa ‚Ä†","steam_id":76561198134652336,"connected_time":152000000000,"state":"active","ping":67},{"user_id":496,"name":"GogsCrunchyNuts","steam_id":76561198150599213,"connected_time":829000000000,"state":"active","ping":73},{"user_id":478,"name":"ducks","steam_id":76561198166148685,"connected_time":2532000000000,"state":"active","ping":37},{"user_id":497,"name":"bunga_grunga","steam_id":76561199127325952,"connected_time":812000000000,"state":"active","ping":134},{"user_id":482,"name":"BuzzBees ‚ù§","steam_id":76561198101502273,"connected_time":2220000000000,"state":"active","ping":45},{"user_id":483,"name":"Bombilla","steam_id":76561198084281798,"connected_time":2206000000000,"state":"active","ping":76},{"user_id":505,"name":"agent youppii","steam_id":76561198055264447,"connected_time":309000000000,"state":"active","ping":57},{"user_id":484,"name":"Steen","steam_id":76561198122992510,"connected_time":2202000000000,"state":"active","ping":94},{"user_id":498,"name":"Alantheus","steam_id":76561197977408490,"connected_time":789000000000,"state":"active","ping":75},{"user_id":479,"name":"KittyKate ‚ù§","steam_id":76561198116340817,"connected_time":2351000000000,"state":"active","ping":60},{"user_id":480,"name":"Lemon","steam_id":76561198188535947,"connected_time":2324000000000,"state":"active","ping":70},{"user_id":449,"name":"Luchar","steam_id":76561198065089732,"connected_time":4055000000000,"state":"active","ping":69},{"user_id":471,"name":"Aftiks","steam_id":76561198875182686,"connected_time":3034000000000,"state":"active","ping":82},{"user_id":485,"name":"egc","steam_id":76561198052948489,"connected_time":2195000000000,"state":"active","ping":91},{"user_id":486,"name":"CiVillain","steam_id":76561198059617732,"connected_time":2186000000000,"state":"active","ping":66},{"user_id":487,"name":"Plop_","steam_id":76561198112567921,"connected_time":2149000000000,"state":"active","ping":43},{"user_id":502,"name":"Dota","steam_id":76561197997917267,"connected_time":607000000000,"state":"active","ping":123},{"user_id":506,"name":"Cabbch","steam_id":76561198045955679,"connected_time":217000000000,"state":"active","ping":45},{"user_id":493,"name":"Skinny101","steam_id":76561197985599360,"connected_time":1189000000000,"state":"active","ping":43},{"user_id":503,"name":"Vershal Smershal","steam_id":76561198116223995,"connected_time":544000000000,"state":"active","ping":56},{"user_id":501,"name":"Onions","steam_id":76561198150195195,"connected_time":722000000000,"state":"active","ping":54},{"user_id":495,"name":"(All Muted) Visphiric","steam_id":76561198071938027,"connected_time":992000000000,"state":"active","ping":42}]},{"server_id":21,"name":"Uncletopia | London | 5 | All Maps","name_short":"lon-5","host":"lon-1.uk.uncletopia.com","port":27055,"enabled":true,"region":"eu","cc":"gb","latitude":51.509865,"longitude":-0.118092,"reserved":0,"last_update":"0001-01-01T00:00:00Z","name_a2s":"Uncletopia | London | 5 | All Maps","protocol":17,"map":"pl_pier","folder":"tf","game":"Team Fortress","app_id":440,"player_count":0,"max_players":24,"Bots":0,"server_type":"Dedicated","server_os":"Linux","password":true,"vac":true,"version":"7961495","steam_id":85568392924742829,"keywords":["nocrits","nodmgspread","payload","uncletopia"],"game_id":440,"stv_port":27056,"stv_name":"Uncletopia | London | 5 | All Maps | STV","players":null},{"server_id":22,"name":"Uncletopia | London | 6 | All Maps","name_short":"lon-6","host":"lon-1.uk.uncletopia.com","port":27065,"enabled":true,"region":"eu","cc":"gb","latitude":51.509865,"longitude":-0.118092,"reserved":0,"last_update":"0001-01-01T00:00:00Z","name_a2s":"Uncletopia | London | 6 | All Maps","protocol":17,"map":"koth_highpass","folder":"tf","game":"Team Fortress","app_id":440,"player_count":0,"max_players":24,"Bots":0,"server_type":"Dedicated","server_os":"Linux","password":true,"vac":true,"version":"7961495","steam_id":85568392924742830,"keywords":["cp","nocrits","nodmgspread","uncletopia"],"game_id":440,"stv_port":27066,"stv_name":"Uncletopia | London | 6 | All Maps | STV","players":null},{"server_id":40,"name":"Uncletopia | London | 7 | Stopwatch","name_short":"lon-7","host":"lon-1.uk.uncletopia.com","port":27075,"enabled":true,"region":"eu","cc":"gb","latitude":51.509865,"longitude":-0.118092,"reserved":0,"last_update":"0001-01-01T00:00:00Z","name_a2s":"Uncletopia | London | 7 | Stopwatch","protocol":17,"map":"workshop/koth_clearcut_b15.ugc2107050255","folder":"tf","game":"Team Fortress","app_id":440,"player_count":0,"max_players":24,"Bots":0,"server_type":"Dedicated","server_os":"Linux","password":true,"vac":true,"version":"7961495","steam_id":85568392924964314,"keywords":["cp","nocrits","nodmgspread","uncletopia"],"game_id":440,"stv_port":27076,"stv_name":"Uncletopia | London | 7 | Stopwatch | STV","players":null},{"server_id":41,"name":"Uncletopia | London | 8 | Community","name_short":"lon-8","host":"lon-1.uk.uncletopia.com","port":27085,"enabled":true,"region":"eu","cc":"gb","latitude":51.509865,"longitude":-0.118092,"reserved":0,"last_update":"0001-01-01T00:00:00Z","name_a2s":"Uncletopia | London | 8 | Community","protocol":17,"map":"workshop/pl_boundary_final1.ugc456799153","folder":"tf","game":"Team Fortress","app_id":440,"player_count":0,"max_players":24,"Bots":0,"server_type":"Dedicated","server_os":"Linux","password":true,"vac":true,"version":"7961495","steam_id":85568392924964315,"keywords":["nocrits","nodmgspread","payload","uncletopia"],"game_id":440,"stv_port":27086,"stv_name":"Uncletopia | London | 8 | Community | STV","players":null},{"server_id":300,"name":"Uncletopia | Montr√©al | 1 | One Thousand Uncles","name_short":"mtl-1","host":"mtl-1.ca.uncletopia.com","port":27015,"enabled":true,"region":"us-east","cc":"ca","latitude":45.50889,"longitude":-73.56167,"reserved":0,"last_update":"0001-01-01T00:00:00Z","name_a2s":"Uncletopia | Montr√©al | 1 | One Thousand Uncles","protocol":17,"map":"cp_egypt_final","folder":"tf","game":"Team Fortress","app_id":440,"player_count":30,"max_players":32,"Bots":16,"server_type":"Dedicated","server_os":"Linux","password":true,"vac":true,"version":"7961495","steam_id":85568392924500087,"keywords":["alltalk","bots","cp","danepve","increased_maxplayers","norespawntime","uncletopia"],"game_id":440,"stv_port":0,"stv_name":"","players":[{"user_id":280,"name":"giant_dork (dlc)","steam_id":76561199105606956,"connected_time":2006000000000,"state":"active","ping":77},{"user_id":250,"name":"Robert Nutbar","steam_id":76561198062334757,"connected_time":3670000000000,"state":"active","ping":64},{"user_id":293,"name":"Tim the enchanter","steam_id":76561198140046182,"connected_time":1156000000000,"state":"active","ping":71},{"user_id":240,"name":"tree","steam_id":76561198061189527,"connected_time":4336000000000,"state":"active","ping":75},{"user_id":207,"name":"flamingo","steam_id":76561198854099251,"connected_time":6694000000000,"state":"active","ping":211},{"user_id":298,"name":"antrobot","steam_id":76561198281039672,"connected_time":782000000000,"state":"active","ping":103},{"user_id":274,"name":"Ze Healing","steam_id":76561198292152075,"connected_time":2786000000000,"state":"active","ping":50},{"user_id":300,"name":"CCTV CAMERA","steam_id":76561198079973828,"connected_time":475000000000,"state":"active","ping":88},{"user_id":305,"name":"Spark","steam_id":76561198332947965,"connected_time":56000000000,"state":"active","ping":125},{"user_id":246,"name":"LeFunnyMan","steam_id":76561199081645289,"connected_time":4109000000000,"state":"active","ping":80},{"user_id":279,"name":"con","steam_id":76561198850438326,"connected_time":2436000000000,"state":"active","ping":59},{"user_id":283,"name":"shane (Deluxe Edition)","steam_id":76561198060491451,"connected_time":1975000000000,"state":"active","ping":155},{"user_id":295,"name":"Fenrir","steam_id":76561198856956840,"connected_time":968000000000,"state":"active","ping":116},{"user_id":287,"name":"triangleman","steam_id":76561198972733542,"connected_time":1672000000000,"state":"active","ping":76}]},{"server_id":301,"name":"Uncletopia | Montr√©al | 2 | One Thousand Uncles","name_short":"mtl-2","host":"mtl-1.ca.uncletopia.com","port":27025,"enabled":true,"region":"us-east","cc":"ca","latitude":45.50889,"longitude":-73.56167,"reserved":0,"last_update":"0001-01-01T00:00:00Z","name_a2s":"Uncletopia | Montr√©al | 2 | One Thousand Uncles","protocol":17,"map":"pl_chilly","folder":"tf","game":"Team Fortress","app_id":440,"player_count":0,"max_players":32,"Bots":0,"server_type":"Dedicated","server_os":"Linux","password":true,"vac":true,"version":"7961495","steam_id":85568392924500088,"keywords":["alltalk","danepve","increased_maxplayers","norespawntime","payload","uncletopia"],"game_id":440,"stv_port":0,"stv_name":"","players":null},{"server_id":302,"name":"Uncletopia | Montr√©al | 3 | One Thousand Uncles","name_short":"mtl-3","host":"mtl-1.ca.uncletopia.com","port":27035,"enabled":true,"region":"us-east","cc":"ca","latitude":45.50889,"longitude":-73.56167,"reserved":0,"last_update":"0001-01-01T00:00:00Z","name_a2s":"Uncletopia | Montr√©al | 3 | One Thousand Uncles","protocol":17,"map":"pl_upward","folder":"tf","game":"Team Fortress","app_id":440,"player_count":18,"max_players":32,"Bots":16,"server_type":"Dedicated","server_os":"Linux","password":true,"vac":true,"version":"7961495","steam_id":85568392924500089,"keywords":["alltalk","bots","danepve","increased_maxplayers","norespawntime","payload","uncletopia"],"game_id":440,"stv_port":0,"stv_name":"","players":[{"user_id":182,"name":"kevin_minion","steam_id":76561198801147541,"connected_time":80000000000,"state":"active","ping":83},{"user_id":171,"name":"bruhuk obama","steam_id":76561199465581064,"connected_time":3193000000000,"state":"active","ping":88}]},{"server_id":13,"name":"Uncletopia | New York City | 1 | All Maps","name_short":"nyc-1","host":"nyc-1.us.uncletopia.com","port":27015,"enabled":true,"region":"us-east","cc":"us","latitude":40.73061,"longitude":-73.93524,"reserved":0,"last_update":"0001-01-01T00:00:00Z","name_a2s":"Uncletopia | New York City | 1 | All Maps","protocol":17,"map":"koth_brazil","folder":"tf","game":"Team Fortress","app_id":440,"player_count":0,"max_players":24,"Bots":0,"server_type":"Dedicated","server_os":"Linux","password":true,"vac":true,"version":"7961495","steam_id":85568392924469993,"keywords":["cp","nocrits","nodmgspread","uncletopia"],"game_id":440,"stv_port":27016,"stv_name":"Uncletopia | New York City | 1 | All Maps | STV","players":null},{"server_id":14,"name":"Uncletopia | New York City | 2 | All Maps","name_short":"nyc-2","host":"nyc-1.us.uncletopia.com","port":27025,"enabled":true,"region":"us-east","cc":"us","latitude":40.73061,"longitude":-73.93524,"reserved":0,"last_update":"0001-01-01T00:00:00Z","name_a2s":"Uncletopia | New York City | 2 | All Maps","protocol":17,"map":"pl_rumford_event","folder":"tf","game":"Team Fortress","app_id":440,"player_count":24,"max_players":24,"Bots":0,"server_type":"Dedicated","server_os":"Linux","password":true,"vac":true,"version":"7961495","steam_id":85568392924469994,"keywords":["nocrits","nodmgspread","payload","uncletopia"],"game_id":440,"stv_port":27026,"stv_name":"Uncletopia | New York City | 2 | All Maps | STV","players":[{"user_id":19,"name":"Noobert McGlitchington the 3st","steam_id":76561198073176682,"connected_time":7793000000000,"state":"active","ping":71},{"user_id":20,"name":" è·¥ú·¥ä…™","steam_id":76561198401572620,"connected_time":7746000000000,"state":"active","ping":138},{"user_id":109,"name":"Bacchus","steam_id":76561198113244990,"connected_time":2268000000000,"state":"active","ping":58},{"user_id":139,"name":"NiŒªiwiŒªi, ‚ñºiscount of ‚ñºio","steam_id":76561198009193777,"connected_time":200000000000,"state":"active","ping":62},{"user_id":140,"name":"milk","steam_id":76561198813251405,"connected_time":178000000000,"state":"active","ping":56},{"user_id":142,"name":"general.b","steam_id":76561198162480519,"connected_time":81000000000,"state":"active","ping":65},{"user_id":113,"name":"barry steakfries","steam_id":76561199472218520,"connected_time":1990000000000,"state":"active","ping":49},{"user_id":131,"name":"Lumi","steam_id":76561198089978036,"connected_time":378000000000,"state":"active","ping":47},{"user_id":117,"name":"Barry","steam_id":76561198371953939,"connected_time":1839000000000,"state":"active","ping":47},{"user_id":137,"name":"PK","steam_id":76561198368722500,"connected_time":221000000000,"state":"active","ping":51},{"user_id":128,"name":"Mr. Squirt","steam_id":76561198174755679,"connected_time":918000000000,"state":"active","ping":45},{"user_id":71,"name":"owlbortch","steam_id":76561198042849350,"connected_time":4912000000000,"state":"active","ping":82},{"user_id":120,"name":"YourFriendJessie *REAL*","steam_id":76561198176883097,"connected_time":1276000000000,"state":"active","ping":53},{"user_id":130,"name":"icecxld","steam_id":76561198079018805,"connected_time":841000000000,"state":"active","ping":75},{"user_id":115,"name":"MCATU3","steam_id":76561198210230867,"connected_time":1895000000000,"state":"active","ping":55},{"user_id":108,"name":"Harry S. Truman","steam_id":76561197993339757,"connected_time":2324000000000,"state":"active","ping":61},{"user_id":79,"name":"AquaTsunami","steam_id":76561199085473809,"connected_time":4413000000000,"state":"active","ping":55},{"user_id":99,"name":"Bootes","steam_id":76561197968255551,"connected_time":2648000000000,"state":"active","ping":51},{"user_id":60,"name":"just call me joe","steam_id":76561198043911582,"connected_time":5731000000000,"state":"active","ping":45},{"user_id":121,"name":"Fishybros","steam_id":76561198182045699,"connected_time":1274000000000,"state":"active","ping":52},{"user_id":123,"name":"Berb","steam_id":76561198193911899,"connected_time":1181000000000,"state":"active","ping":103},{"user_id":125,"name":"Tokyo_Timeshift_","steam_id":76561198048677523,"connected_time":999000000000,"state":"active","ping":63},{"user_id":134,"name":"EvilStickGuy","steam_id":76561197985379320,"connected_time":310000000000,"state":"active","ping":51},{"user_id":126,"name":"‚òº girl u my everything bagel","steam_id":76561198074180953,"connected_time":999000000000,"state":"active","ping":45}]},{"server_id":15,"name":"Uncletopia | New York City | 3 | Stopwatch","name_short":"nyc-3","host":"nyc-1.us.uncletopia.com","port":27035,"enabled":true,"region":"us-east","cc":"us","latitude":40.73061,"longitude":-73.93524,"reserved":0,"last_update":"0001-01-01T00:00:00Z","name_a2s":"Uncletopia | New York City | 3 | Stopwatch","protocol":17,"map":"workshop/cp_reckoner_rc6.ugc674719999","folder":"tf","game":"Team Fortress","app_id":440,"player_count":0,"max_players":24,"Bots":0,"server_type":"Dedicated","server_os":"Linux","password":true,"vac":true,"version":"7961495","steam_id":85568392924742820,"keywords":["cp","nocrits","nodmgspread","uncletopia"],"game_id":440,"stv_port":27036,"stv_name":"Uncletopia | New York City | 3 | Stopwatch | STV","players":null},{"server_id":16,"name":"Uncletopia | New York City | 4 | Community","name_short":"nyc-4","host":"nyc-1.us.uncletopia.com","port":27045,"enabled":true,"region":"us-east","cc":"us","latitude":40.73061,"longitude":-73.93524,"reserved":0,"last_update":"0001-01-01T00:00:00Z","name_a2s":"Uncletopia | New York City | 4 | Community","protocol":17,"map":"workshop/cp_indulge.ugc528106646","folder":"tf","game":"Team Fortress","app_id":440,"player_count":0,"max_players":24,"Bots":0,"server_type":"Dedicated","server_os":"Linux","password":true,"vac":true,"version":"7961495","steam_id":85568392924742821,"keywords":["cp","nocrits","nodmgspread","uncletopia"],"game_id":440,"stv_port":27046,"stv_name":"Uncletopia | New York City | 4 | Community | STV","players":null},{"server_id":142,"name":"Uncletopia | S√£o Paulo | 1 | All Maps","name_short":"sao-1","host":"sao-1.br.uncletopia.com","port":27015,"enabled":true,"region":"sa","cc":"br","latitude":-23.533773,"longitude":-46.62529,"reserved":0,"last_update":"0001-01-01T00:00:00Z","name_a2s":"Uncletopia | S√£o Paulo | 1 | All Maps","protocol":17,"map":"cp_granary","folder":"tf","game":"Team Fortress","app_id":440,"player_count":0,"max_players":24,"Bots":0,"server_type":"Dedicated","server_os":"Linux","password":true,"vac":true,"version":"7961495","steam_id":85568392924469996,"keywords":["cp","nocrits","nodmgspread","uncletopia"],"game_id":440,"stv_port":27016,"stv_name":"Uncletopia | S√£o Paulo | 1 | All Maps | STV","players":null},{"server_id":143,"name":"Uncletopia | S√£o Paulo | 2 | Community","name_short":"sao-2","host":"sao-2.br.uncletopia.com","port":27015,"enabled":true,"region":"sa","cc":"br","latitude":-23.533773,"longitude":-46.62529,"reserved":0,"last_update":"0001-01-01T00:00:00Z","name_a2s":"Uncletopia | S√£o Paulo | 2 | Community","protocol":17,"map":"workshop/koth_product_final.ugc454272353","folder":"tf","game":"Team Fortress","app_id":440,"player_count":0,"max_players":24,"Bots":0,"server_type":"Dedicated","server_os":"Linux","password":true,"vac":true,"version":"7961495","steam_id":85568392924485349,"keywords":["cp","nocrits","nodmgspread","uncletopia"],"game_id":440,"stv_port":27016,"stv_name":"Uncletopia | S√£o Paulo | 2 | Community | STV","players":null},{"server_id":7,"name":"Uncletopia | Seattle | 1 | All Maps","name_short":"sea-1","host":"sea-1.us.uncletopia.com","port":27015,"enabled":true,"region":"us-west","cc":"us","latitude":47.608013,"longitude":-122.33517,"reserved":0,"last_update":"0001-01-01T00:00:00Z","name_a2s":"Uncletopia | Seattle | 1 | All Maps","protocol":17,"map":"pl_borneo","folder":"tf","game":"Team Fortress","app_id":440,"player_count":24,"max_players":24,"Bots":0,"server_type":"Dedicated","server_os":"Linux","password":true,"vac":true,"version":"7961495","steam_id":85568392924469997,"keywords":["nocrits","nodmgspread","payload","uncletopia"],"game_id":440,"stv_port":27016,"stv_name":"Uncletopia | Seattle | 1 | All Maps | STV","players":[{"user_id":489,"name":"Douglass Mackey","steam_id":76561198254668621,"connected_time":2891000000000,"state":"active","ping":50},{"user_id":441,"name":"RiceFarmer","steam_id":76561198869180993,"connected_time":5791000000000,"state":"active","ping":46},{"user_id":450,"name":"OGBobbyJohns","steam_id":76561197964339077,"connected_time":5115000000000,"state":"active","ping":45},{"user_id":512,"name":"Frank","steam_id":76561198126681511,"connected_time":990000000000,"state":"active","ping":72},{"user_id":492,"name":"Dongus","steam_id":76561197979056451,"connected_time":2870000000000,"state":"active","ping":49},{"user_id":504,"name":"Greenwood RN","steam_id":76561198088641060,"connected_time":1078000000000,"state":"active","ping":41},{"user_id":491,"name":"Ridley","steam_id":76561198014857463,"connected_time":2878000000000,"state":"active","ping":114},{"user_id":517,"name":"InterplanetaryGentlemann","steam_id":76561198146559390,"connected_time":190000000000,"state":"active","ping":50},{"user_id":487,"name":"smeasly","steam_id":76561198028718812,"connected_time":2969000000000,"state":"active","ping":44},{"user_id":518,"name":"ATHEIST TIL I REALIZED I AM GOD","steam_id":76561199190800520,"connected_time":177000000000,"state":"active","ping":41},{"user_id":505,"name":"Smile","steam_id":76561198110008786,"connected_time":1063000000000,"state":"active","ping":59},{"user_id":470,"name":"Derblitz","steam_id":76561198040953176,"connected_time":4283000000000,"state":"active","ping":80},{"user_id":486,"name":"Nom Skirrett","steam_id":76561198014600788,"connected_time":2973000000000,"state":"active","ping":61},{"user_id":515,"name":"MrYadaization","steam_id":76561198050770818,"connected_time":886000000000,"state":"active","ping":55},{"user_id":511,"name":"help","steam_id":76561199056338917,"connected_time":1036000000000,"state":"active","ping":99},{"user_id":336,"name":"Katie XXII","steam_id":76561198135534297,"connected_time":13049000000000,"state":"active","ping":48},{"user_id":404,"name":"top 10 sidewalks","steam_id":76561198844273999,"connected_time":7298000000000,"state":"active","ping":45},{"user_id":508,"name":"Papa Panda","steam_id":76561198159061475,"connected_time":1055000000000,"state":"active","ping":70},{"user_id":485,"name":"JawnyMac","steam_id":76561198179529599,"connected_time":3027000000000,"state":"active","ping":76},{"user_id":499,"name":"GriddyCity1","steam_id":76561199228634040,"connected_time":1950000000000,"state":"active","ping":83},{"user_id":500,"name":"sagekiss","steam_id":76561198038831240,"connected_time":1812000000000,"state":"active","ping":52},{"user_id":506,"name":"0","steam_id":76561198450073779,"connected_time":1062000000000,"state":"active","ping":46},{"user_id":503,"name":"alexander the just ok","steam_id":76561199256886895,"connected_time":1473000000000,"state":"active","ping":102},{"user_id":519,"name":"Rude Dog","steam_id":76561197980385816,"connected_time":176000000000,"state":"active","ping":51}]},{"server_id":119,"name":"Uncletopia | Seattle | 2 | All Maps","name_short":"sea-2","host":"sea-1.us.uncletopia.com","port":27025,"enabled":true,"region":"us-west","cc":"us","latitude":47.608013,"longitude":-122.33517,"reserved":0,"last_update":"0001-01-01T00:00:00Z","name_a2s":"Uncletopia | Seattle | 2 | All Maps","protocol":17,"map":"koth_lakeside_final","folder":"tf","game":"Team Fortress","app_id":440,"player_count":0,"max_players":24,"Bots":0,"server_type":"Dedicated","server_os":"Linux","password":true,"vac":true,"version":"7961495","steam_id":85568392924469998,"keywords":["cp","nocrits","nodmgspread","uncletopia"],"game_id":440,"stv_port":27026,"stv_name":"Uncletopia | Seattle | 2 | All Maps | STV","players":null},{"server_id":406,"name":"Uncletopia | Seattle | 3 | Stopwatch","name_short":"sea-3","host":"sea-1.us.uncletopia.com","port":27035,"enabled":true,"region":"us-west","cc":"us","latitude":47.608013,"longitude":-122.33517,"reserved":0,"last_update":"0001-01-01T00:00:00Z","name_a2s":"Uncletopia | Seattle | 3 | Stopwatch","protocol":17,"map":"workshop/koth_jamram_rc1a.ugc2964065613","folder":"tf","game":"Team Fortress","app_id":440,"player_count":0,"max_players":24,"Bots":0,"server_type":"Dedicated","server_os":"Linux","password":true,"vac":true,"version":"7961495","steam_id":85568392924515217,"keywords":["cp","nocrits","nodmgspread","uncletopia"],"game_id":440,"stv_port":27036,"stv_name":"Uncletopia | Seattle | 3 | Stopwatch | STV","players":null},{"server_id":17,"name":"Uncletopia | San Francisco | 1 | All Maps","name_short":"sfo-1","host":"sfo-1.us.uncletopia.com","port":27015,"enabled":true,"region":"us-west","cc":"us","latitude":37.77397,"longitude":-122.4313,"reserved":0,"last_update":"0001-01-01T00:00:00Z","name_a2s":"Uncletopia | San Francisco | 1 | All Maps","protocol":17,"map":"koth_highpass","folder":"tf","game":"Team Fortress","app_id":440,"player_count":2,"max_players":24,"Bots":0,"server_type":"Dedicated","server_os":"Linux","password":true,"vac":true,"version":"7961495","steam_id":85568392924469999,"keywords":["cp","nocrits","nodmgspread","uncletopia"],"game_id":440,"stv_port":27016,"stv_name":"Uncletopia | San Francisco | 1 | All Maps | STV","players":[{"user_id":13,"name":"Yackaboi","steam_id":76561199444911765,"connected_time":138000000000,"state":"active","ping":67},{"user_id":14,"name":"Mix56374","steam_id":76561199093717909,"connected_time":36000000000,"state":"active","ping":58}]},{"server_id":18,"name":"Uncletopia | San Francisco | 2 | All Maps","name_short":"sfo-2","host":"sfo-1.us.uncletopia.com","port":27025,"enabled":true,"region":"us-west","cc":"us","latitude":37.77397,"longitude":-122.4313,"reserved":0,"last_update":"0001-01-01T00:00:00Z","name_a2s":"Uncletopia | San Francisco | 2 | All Maps","protocol":17,"map":"koth_cascade","folder":"tf","game":"Team Fortress","app_id":440,"player_count":0,"max_players":24,"Bots":0,"server_type":"Dedicated","server_os":"Linux","password":true,"vac":true,"version":"7961495","steam_id":85568392924470000,"keywords":["cp","nocrits","nodmgspread","uncletopia"],"game_id":440,"stv_port":27026,"stv_name":"Uncletopia | San Francisco | 2 | All Maps | STV","players":null},{"server_id":19,"name":"Uncletopia | San Francisco | 3 | Stopwatch","name_short":"sfo-3","host":"sfo-1.us.uncletopia.com","port":27035,"enabled":true,"region":"us-west","cc":"us","latitude":37.77397,"longitude":-122.4313,"reserved":0,"last_update":"0001-01-01T00:00:00Z","name_a2s":"Uncletopia | San Francisco | 3 | Stopwatch","protocol":17,"map":"pl_swiftwater_final1","folder":"tf","game":"Team Fortress","app_id":440,"player_count":0,"max_players":24,"Bots":0,"server_type":"Dedicated","server_os":"Linux","password":true,"vac":true,"version":"7961495","steam_id":85568392924742824,"keywords":["nocrits","nodmgspread","payload","uncletopia"],"game_id":440,"stv_port":27036,"stv_name":"Uncletopia | San Francisco | 3 | Stopwatch | STV","players":null},{"server_id":20,"name":"Uncletopia | San Francisco | 4 | Community","name_short":"sfo-4","host":"sfo-1.us.uncletopia.com","port":27045,"enabled":true,"region":"us-west","cc":"us","latitude":37.77397,"longitude":-122.4313,"reserved":0,"last_update":"0001-01-01T00:00:00Z","name_a2s":"Uncletopia | San Francisco | 4 | Community","protocol":17,"map":"workshop/pl_shoreleave_rc2.ugc1238849347","folder":"tf","game":"Team Fortress","app_id":440,"player_count":0,"max_players":24,"Bots":0,"server_type":"Dedicated","server_os":"Linux","password":true,"vac":true,"version":"7961495","steam_id":85568392924742826,"keywords":["nocrits","nodmgspread","payload","uncletopia"],"game_id":440,"stv_port":27046,"stv_name":"Uncletopia | San Francisco | 4 | Community | STV","players":null},{"server_id":141,"name":"Uncletopia | Sydney | 1 | All Maps","name_short":"syd-1","host":"syd-1.au.uncletopia.com","port":27015,"enabled":true,"region":"au","cc":"au","latitude":-33.865143,"longitude":151.2099,"reserved":0,"last_update":"0001-01-01T00:00:00Z","name_a2s":"Uncletopia | Sydney | 1 | All Maps","protocol":17,"map":"koth_nucleus","folder":"tf","game":"Team Fortress","app_id":440,"player_count":0,"max_players":24,"Bots":0,"server_type":"Dedicated","server_os":"Linux","password":true,"vac":true,"version":"7961495","steam_id":85568392924470001,"keywords":["cp","nocrits","nodmgspread","uncletopia"],"game_id":440,"stv_port":27016,"stv_name":"Uncletopia | Sydney | 1 | All Maps | STV","players":null},{"server_id":123,"name":"Uncletopia | Sydney | 2 | All Maps","name_short":"syd-2","host":"syd-1.au.uncletopia.com","port":27025,"enabled":true,"region":"au","cc":"au","latitude":-33.865143,"longitude":151.2099,"reserved":0,"last_update":"0001-01-01T00:00:00Z","name_a2s":"Uncletopia | Sydney | 2 | All Maps","protocol":17,"map":"cp_fastlane","folder":"tf","game":"Team Fortress","app_id":440,"player_count":0,"max_players":24,"Bots":0,"server_type":"Dedicated","server_os":"Linux","password":true,"vac":true,"version":"7961495","steam_id":85568392924470002,"keywords":["cp","nocrits","nodmgspread","uncletopia"],"game_id":440,"stv_port":27026,"stv_name":"Uncletopia | Sydney | 2 | All Maps | STV","players":null},{"server_id":395,"name":"Uncletopia | Sydney | 3 | All Maps","name_short":"syd-3","host":"syd-1.au.uncletopia.com","port":27035,"enabled":true,"region":"au","cc":"au","latitude":-33.865143,"longitude":151.2099,"reserved":0,"last_update":"0001-01-01T00:00:00Z","name_a2s":"Uncletopia | Sydney | 3 | All Maps","protocol":17,"map":"cp_metalworks","folder":"tf","game":"Team Fortress","app_id":440,"player_count":0,"max_players":24,"Bots":0,"server_type":"Dedicated","server_os":"Linux","password":true,"vac":true,"version":"7961495","steam_id":85568392925194467,"keywords":["cp","nocrits","nodmgspread","uncletopia"],"game_id":440,"stv_port":27036,"stv_name":"Uncletopia | Sydney | 3 | All Maps | STV","players":null},{"server_id":396,"name":"Uncletopia | Sydney | 4 | All Maps","name_short":"syd-4","host":"syd-1.au.uncletopia.com","port":27045,"enabled":true,"region":"au","cc":"au","latitude":-33.865143,"longitude":151.2099,"reserved":0,"last_update":"0001-01-01T00:00:00Z","name_a2s":"Uncletopia | Sydney | 4 | All Maps","protocol":17,"map":"koth_cascade","folder":"tf","game":"Team Fortress","app_id":440,"player_count":0,"max_players":24,"Bots":0,"server_type":"Dedicated","server_os":"Linux","password":true,"vac":true,"version":"7961495","steam_id":85568392925397958,"keywords":["cp","nocrits","nodmgspread","uncletopia"],"game_id":440,"stv_port":27046,"stv_name":"Uncletopia | Sydney | 4 | All Maps | STV","players":null},{"server_id":58,"name":"Uncletopia | Sydney | 5 | Stopwatch","name_short":"syd-5","host":"syd-1.au.uncletopia.com","port":27055,"enabled":true,"region":"au","cc":"au","latitude":-33.865143,"longitude":151.2099,"reserved":0,"last_update":"0001-01-01T00:00:00Z","name_a2s":"Uncletopia | Sydney | 5 | Stopwatch","protocol":17,"map":"workshop/koth_product_final.ugc454272353","folder":"tf","game":"Team Fortress","app_id":440,"player_count":0,"max_players":24,"Bots":0,"server_type":"Dedicated","server_os":"Linux","password":true,"vac":true,"version":"7961495","steam_id":85568392925397959,"keywords":["cp","nocrits","nodmgspread","uncletopia"],"game_id":440,"stv_port":27056,"stv_name":"Uncletopia | Sydney | 5 | Stopwatch | STV","players":null},{"server_id":59,"name":"Uncletopia | Sydney | 6 | Community","name_short":"syd-6","host":"syd-1.au.uncletopia.com","port":27065,"enabled":true,"region":"au","cc":"au","latitude":-33.865143,"longitude":151.2099,"reserved":0,"last_update":"0001-01-01T00:00:00Z","name_a2s":"Uncletopia | Sydney | 6 | Community","protocol":17,"map":"workshop/koth_trenchfoot_ab1.ugc731436616","folder":"tf","game":"Team Fortress","app_id":440,"player_count":0,"max_players":24,"Bots":0,"server_type":"Dedicated","server_os":"Linux","password":true,"vac":true,"version":"7961495","steam_id":85568392925397960,"keywords":["cp","nocrits","nodmgspread","uncletopia"],"game_id":440,"stv_port":27066,"stv_name":"Uncletopia | Sydney | 6 | Community | STV","players":null},{"server_id":49,"name":"Uncletopia | Warsaw | 1 | One Thousand Uncles","name_short":"waw-1","host":"waw-1.pl.uncletopia.com","port":27015,"enabled":true,"region":"eu","cc":"pl","latitude":52.2297,"longitude":21.017532,"reserved":0,"last_update":"0001-01-01T00:00:00Z","name_a2s":"Uncletopia | Warsaw | 1 | One Thousand Uncles","protocol":17,"map":"pl_swiftwater_final1","folder":"tf","game":"Team Fortress","app_id":440,"player_count":0,"max_players":32,"Bots":0,"server_type":"Dedicated","server_os":"Linux","password":true,"vac":true,"version":"7961495","steam_id":85568392925397850,"keywords":["alltalk","danepve","increased_maxplayers","norespawntime","payload","uncletopia"],"game_id":440,"stv_port":0,"stv_name":"","players":null},{"server_id":50,"name":"Uncletopia | Warsaw | 2 | One Thousand Uncles","name_short":"waw-2","host":"waw-1.pl.uncletopia.com","port":27025,"enabled":true,"region":"eu","cc":"pl","latitude":52.2297,"longitude":21.017532,"reserved":0,"last_update":"0001-01-01T00:00:00Z","name_a2s":"Uncletopia | Warsaw | 2 | One Thousand Uncles","protocol":17,"map":"pl_pier","folder":"tf","game":"Team Fortress","app_id":440,"player_count":0,"max_players":32,"Bots":0,"server_type":"Dedicated","server_os":"Linux","password":true,"vac":true,"version":"7961495","steam_id":85568392925397851,"keywords":["alltalk","danepve","increased_maxplayers","norespawntime","payload","uncletopia"],"game_id":440,"stv_port":0,"stv_name":"","players":null},{"server_id":51,"name":"Uncletopia | Warsaw | 3 | All Maps","name_short":"waw-3","host":"waw-1.pl.uncletopia.com","port":27035,"enabled":true,"region":"eu","cc":"pl","latitude":52.2297,"longitude":21.017532,"reserved":0,"last_update":"0001-01-01T00:00:00Z","name_a2s":"Uncletopia | Warsaw | 3 | All Maps","protocol":17,"map":"cp_dustbowl","folder":"tf","game":"Team Fortress","app_id":440,"player_count":0,"max_players":24,"Bots":0,"server_type":"Dedicated","server_os":"Linux","password":true,"vac":true,"version":"7961495","steam_id":85568392925397852,"keywords":["cp","nocrits","nodmgspread","uncletopia"],"game_id":440,"stv_port":27036,"stv_name":"Uncletopia | Warsaw | 3 | All Maps | STV","players":null},{"server_id":52,"name":"Uncletopia | Warsaw | 4 | All Maps","name_short":"waw-4","host":"waw-1.pl.uncletopia.com","port":27045,"enabled":true,"region":"eu","cc":"pl","latitude":52.2297,"longitude":21.017532,"reserved":0,"last_update":"0001-01-01T00:00:00Z","name_a2s":"Uncletopia | Warsaw | 4 | All Maps","protocol":17,"map":"koth_cascade","folder":"tf","game":"Team Fortress","app_id":440,"player_count":0,"max_players":24,"Bots":0,"server_type":"Dedicated","server_os":"Linux","password":true,"vac":true,"version":"7961495","steam_id":85568392925397853,"keywords":["cp","nocrits","nodmgspread","uncletopia"],"game_id":440,"stv_port":27046,"stv_name":"Uncletopia | Warsaw | 4 | All Maps | STV","players":null},{"server_id":53,"name":"Uncletopia | Warsaw | 5 | Stopwatch","name_short":"waw-5","host":"waw-1.pl.uncletopia.com","port":27055,"enabled":true,"region":"eu","cc":"pl","latitude":52.2297,"longitude":21.017532,"reserved":0,"last_update":"0001-01-01T00:00:00Z","name_a2s":"Uncletopia | Warsaw | 5 | Stopwatch","protocol":17,"map":"koth_highpass","folder":"tf","game":"Team Fortress","app_id":440,"player_count":0,"max_players":24,"Bots":0,"server_type":"Dedicated","server_os":"Linux","password":true,"vac":true,"version":"7961495","steam_id":85568392925397854,"keywords":["cp","nocrits","nodmgspread","uncletopia"],"game_id":440,"stv_port":27056,"stv_name":"Uncletopia | Warsaw | 5 | Stopwatch | STV","players":null},{"server_id":54,"name":"Uncletopia | Warsaw | 6 | Community","name_short":"waw-6","host":"waw-1.pl.uncletopia.com","port":27065,"enabled":true,"region":"eu","cc":"pl","latitude":52.2297,"longitude":21.017532,"reserved":0,"last_update":"0001-01-01T00:00:00Z","name_a2s":"Uncletopia | Warsaw | 6 | Community","protocol":17,"map":"workshop/cp_overgrown_rc8.ugc503939302","folder":"tf","game":"Team Fortress","app_id":440,"player_count":0,"max_players":24,"Bots":0,"server_type":"Dedicated","server_os":"Linux","password":true,"vac":true,"version":"7961495","steam_id":85568392925397856,"keywords":["cp","nocrits","nodmgspread","uncletopia"],"game_id":440,"stv_port":27066,"stv_name":"Uncletopia | Warsaw | 6 | Community | STV","players":null}]}