{"status":true,"message":"","result":[{"server_id":9,"name":"Uncletopia | Atlanta | 1 | All Maps","name_short":"atl-1","host":"atl-1.us.uncletopia.com","port":27015,"enabled":true,"region":"us-east","cc":"us","latitude":33.753746,"longitude":-84.38633,"reserved":0,"last_update":"0001-01-01T00:00:00Z","name_a2s":"Uncletopia | Atlanta | 1 | All Maps","protocol":17,"map":"cp_dustbowl","folder":"tf","game":"Team Fortress","app_id":440,"player_count":0,"max_players":24,"Bots":0,"server_type":"Dedicated","server_os":"Linux","password":true,"vac":true,"version":"7757534","steam_id":85568392924469982,"keywords":["cp","nocrits","nodmgspread","uncletopia"],"game_id":440,"stv_port":27016,"stv_name":"Uncletopia | Atlanta | 1 | All Maps | STV","players":null},{"server_id":400,"name":"Uncletopia | Atlanta | 3 | Stopwatch Beta","name_short":"atl-3","host":"atl-1.us.uncletopia.com","port":27035,"enabled":true,"region":"us-east","cc":"us","latitude":33.753746,"longitude":-84.38633,"reserved":0,"last_update":"0001-01-01T00:00:00Z","name_a2s":"Uncletopia | Atlanta | 3 | Stopwatch Beta","protocol":17,"map":"pl_upward","folder":"tf","game":"Team Fortress","app_id":440,"player_count":0,"max_players":24,"Bots":0,"server_type":"Dedicated","server_os":"Linux","password":true,"vac":true,"version":"7757534","steam_id":85568392924515187,"keywords":["nocrits","nodmgspread","payload","uncletopia"],"game_id":440,"stv_port":27036,"stv_name":"Uncletopia | Atlanta | 3 | Stopwatch Beta | STV","players":null},{"server_id":401,"name":"Uncletopia | Atlanta | 4 | No Payload","name_short":"atl-4","host":"atl-1.us.uncletopia.com","port":27045,"enabled":true,"region":"us-east","cc":"us","latitude":33.753746,"longitude":-84.38633,"reserved":0,"last_update":"0001-01-01T00:00:00Z","name_a2s":"Uncletopia | Atlanta | 4 | No Payload","protocol":17,"map":"pl_pier","folder":"tf","game":"Team Fortress","app_id":440,"player_count":0,"max_players":24,"Bots":0,"server_type":"Dedicated","server_os":"Linux","password":true,"vac":true,"version":"7723704","steam_id":85568392924515188,"keywords":["nocrits","nodmgspread","payload","uncletopia"],"game_id":440,"stv_port":27046,"stv_name":"Uncletopia | Atlanta | 4 | No Payload | STV","players":null},{"server_id":2,"name":"Uncletopia | Chicago | 1 | All Maps","name_short":"chi-1","host":"chi-1.us.uncletopia.com","port":27015,"enabled":true,"region":"us-central","cc":"us","latitude":41.881832,"longitude":-87.62318,"reserved":0,"last_update":"0001-01-01T00:00:00Z","name_a2s":"Uncletopia | Chicago | 1 | All Maps","protocol":17,"map":"pl_pier","folder":"tf","game":"Team Fortress","app_id":440,"player_count":20,"max_players":24,"Bots":0,"server_type":"Dedicated","server_os":"Linux","password":true,"vac":true,"version":"7757534","steam_id":85568392924469984,"keywords":["cp","nocrits","nodmgspread","uncletopia"],"game_id":440,"stv_port":27016,"stv_name":"Uncletopia | Chicago | 1 | All Maps | STV","players":[{"user_id":1075,"name":"fridolin","steam_id":76561198005806915,"connected_time":2384000000000,"state":"connecting","ping":72},{"user_id":1096,"name":"Alexx","steam_id":76561198258332607,"connected_time":30000000000,"state":"connecting","ping":123},{"user_id":1095,"name":"R0","steam_id":76561198136861017,"connected_time":84000000000,"state":"connecting","ping":62},{"user_id":1063,"name":"Drunkskunk77","steam_id":76561198077842522,"connected_time":2641000000000,"state":"connecting","ping":81},{"user_id":1059,"name":"I'm Cloaked","steam_id":76561198039763676,"connected_time":3136000000000,"state":"connecting","ping":121},{"user_id":1042,"name":"stockhack","steam_id":76561198050220225,"connected_time":4628000000000,"state":"connecting","ping":83},{"user_id":1082,"name":"TheSickSalmon","steam_id":76561198120659984,"connected_time":2123000000000,"state":"connecting","ping":63},{"user_id":1085,"name":"shaderoses","steam_id":76561198070800500,"connected_time":1820000000000,"state":"connecting","ping":75},{"user_id":1026,"name":"xyt0nix","steam_id":76561199437938235,"connected_time":5742000000000,"state":"connecting","ping":92},{"user_id":1015,"name":"Tarofel","steam_id":76561198051888035,"connected_time":6908000000000,"state":"connecting","ping":67},{"user_id":1092,"name":"Tenori","steam_id":76561198046773795,"connected_time":553000000000,"state":"connecting","ping":88},{"user_id":1053,"name":"Um...Can I come too?","steam_id":76561198035698704,"connected_time":4435000000000,"state":"connecting","ping":130},{"user_id":1025,"name":"BitterSweet","steam_id":76561198161342377,"connected_time":6207000000000,"state":"connecting","ping":86},{"user_id":1031,"name":"Shrek is Kek","steam_id":76561198126373933,"connected_time":5559000000000,"state":"connecting","ping":98},{"user_id":1090,"name":"Kyzer","steam_id":76561198048034600,"connected_time":772000000000,"state":"connecting","ping":81},{"user_id":1091,"name":"Jello","steam_id":76561198890633732,"connected_time":739000000000,"state":"connecting","ping":118},{"user_id":1018,"name":"ScoutBox","steam_id":76561198111539895,"connected_time":6282000000000,"state":"connecting","ping":128},{"user_id":1084,"name":"Resistance","steam_id":76561198146782074,"connected_time":1991000000000,"state":"connecting","ping":66},{"user_id":1094,"name":"snail","steam_id":76561198312155722,"connected_time":152000000000,"state":"connecting","ping":192}]},{"server_id":106,"name":"Uncletopia | Chicago | 2 | All Maps","name_short":"chi-2","host":"chi-1.us.uncletopia.com","port":27025,"enabled":true,"region":"us-central","cc":"us","latitude":41.881832,"longitude":-87.62318,"reserved":0,"last_update":"0001-01-01T00:00:00Z","name_a2s":"Uncletopia | Chicago | 2 | All Maps","protocol":17,"map":"cp_mountainlab","folder":"tf","game":"Team Fortress","app_id":440,"player_count":24,"max_players":24,"Bots":0,"server_type":"Dedicated","server_os":"Linux","password":true,"vac":true,"version":"7757534","steam_id":85568392924469985,"keywords":["cp","nocrits","nodmgspread","uncletopia"],"game_id":440,"stv_port":27026,"stv_name":"Uncletopia | Chicago | 2 | All Maps | STV","players":[{"user_id":1124,"name":"Dari","steam_id":76561198085207509,"connected_time":70000000000,"state":"active","ping":88},{"user_id":1106,"name":"Buttsniffer","steam_id":76561198160957929,"connected_time":1392000000000,"state":"active","ping":112},{"user_id":1113,"name":"roo the observer","steam_id":76561198120684348,"connected_time":758000000000,"state":"active","ping":52},{"user_id":1058,"name":"TrainTheSizeOfTheChryslerBuildi","steam_id":76561198053730310,"connected_time":4701000000000,"state":"active","ping":72},{"user_id":1121,"name":"WhiteBoyRick","steam_id":76561198050157927,"connected_time":209000000000,"state":"active","ping":79},{"user_id":1062,"name":"_DrunkenGibberish_","steam_id":76561199123070071,"connected_time":4274000000000,"state":"active","ping":97},{"user_id":1098,"name":"Thaatsovietguy","steam_id":76561199262265522,"connected_time":1861000000000,"state":"active","ping":106},{"user_id":1108,"name":"Chemo","steam_id":76561197961308370,"connected_time":1339000000000,"state":"active","ping":70},{"user_id":1123,"name":"Xylemon","steam_id":76561197965297420,"connected_time":129000000000,"state":"active","ping":112},{"user_id":1122,"name":"Elizabeth truss","steam_id":76561198058250979,"connected_time":169000000000,"state":"active","ping":67},{"user_id":1059,"name":"Quandale Dingle","steam_id":76561198055068244,"connected_time":4682000000000,"state":"active","ping":55},{"user_id":1109,"name":"☂Bliffenstimmers☂","steam_id":76561198059984896,"connected_time":926000000000,"state":"active","ping":84},{"user_id":1112,"name":"s___ on the grass","steam_id":76561198008453104,"connected_time":792000000000,"state":"active","ping":60},{"user_id":1118,"name":"BLU1 l Epifiny","steam_id":76561198027958086,"connected_time":346000000000,"state":"active","ping":67},{"user_id":1077,"name":"Sud","steam_id":76561199102300588,"connected_time":2855000000000,"state":"active","ping":84},{"user_id":1125,"name":"crexorz","steam_id":76561198890949432,"connected_time":37000000000,"state":"active","ping":54},{"user_id":1110,"name":"Quakedad","steam_id":76561198055811307,"connected_time":921000000000,"state":"active","ping":133},{"user_id":1111,"name":"Greencoffee","steam_id":76561198842090589,"connected_time":855000000000,"state":"active","ping":156},{"user_id":1090,"name":"teh mummy","steam_id":76561198044123636,"connected_time":2064000000000,"state":"active","ping":92},{"user_id":1107,"name":"buttsniffers","steam_id":76561198069394112,"connected_time":1364000000000,"state":"active","ping":112},{"user_id":1089,"name":"The Sheriff","steam_id":76561198413125750,"connected_time":2144000000000,"state":"active","ping":65},{"user_id":1091,"name":"Sebastian","steam_id":76561199357425450,"connected_time":2026000000000,"state":"active","ping":74},{"user_id":1114,"name":"Oddjob","steam_id":76561198976160793,"connected_time":697000000000,"state":"active","ping":77},{"user_id":1102,"name":"iAmBack!\u003c3","steam_id":76561198004525276,"connected_time":1758000000000,"state":"active","ping":168}]},{"server_id":402,"name":"Uncletopia | Chicago | 3 | All Maps","name_short":"chi-3","host":"chi-1.us.uncletopia.com","port":27035,"enabled":true,"region":"us-central","cc":"us","latitude":41.881832,"longitude":-87.62318,"reserved":0,"last_update":"0001-01-01T00:00:00Z","name_a2s":"Uncletopia | Chicago | 3 | All Maps","protocol":17,"map":"koth_cascade","folder":"tf","game":"Team Fortress","app_id":440,"player_count":0,"max_players":24,"Bots":0,"server_type":"Dedicated","server_os":"Linux","password":true,"vac":true,"version":"7757534","steam_id":85568392924515191,"keywords":["cp","nocrits","nodmgspread","uncletopia"],"game_id":440,"stv_port":27036,"stv_name":"Uncletopia | Chicago | 3 | All Maps | STV","players":null},{"server_id":403,"name":"Uncletopia | Chicago | 4 | All Maps","name_short":"chi-4","host":"chi-1.us.uncletopia.com","port":27045,"enabled":true,"region":"us-central","cc":"us","latitude":41.881832,"longitude":-87.62318,"reserved":0,"last_update":"0001-01-01T00:00:00Z","name_a2s":"Uncletopia | Chicago | 4 | All Maps","protocol":17,"map":"koth_lakeside_final","folder":"tf","game":"Team Fortress","app_id":440,"player_count":0,"max_players":24,"Bots":0,"server_type":"Dedicated","server_os":"Linux","password":true,"vac":true,"version":"7757534","steam_id":85568392924515193,"keywords":["cp","nocrits","nodmgspread","uncletopia"],"game_id":440,"stv_port":27046,"stv_name":"Uncletopia | Chicago | 4 | All Maps | STV","players":null},{"server_id":36,"name":"Uncletopia | Chicago | 5 | All Maps","name_short":"chi-5","host":"chi-2.us.uncletopia.com","port":27015,"enabled":true,"region":"us-central","cc":"us","latitude":41.881832,"longitude":-87.62318,"reserved":0,"last_update":"0001-01-01T00:00:00Z","name_a2s":"Uncletopia | Chicago | 5 | All Maps","protocol":17,"map":"koth_viaduct","folder":"tf","game":"Team Fortress","app_id":440,"player_count":0,"max_players":24,"Bots":0,"server_type":"Dedicated","server_os":"Linux","password":true,"vac":true,"version":"7757534","steam_id":85568392924866362,"keywords":["cp","nocrits","nodmgspread","uncletopia"],"game_id":440,"stv_port":27016,"stv_name":"Uncletopia | Chicago | 5 | All Maps | STV","players":null},{"server_id":37,"name":"Uncletopia | Chicago | 6 | All Maps","name_short":"chi-6","host":"chi-2.us.uncletopia.com","port":27025,"enabled":true,"region":"us-central","cc":"us","latitude":41.881832,"longitude":-87.62318,"reserved":0,"last_update":"0001-01-01T00:00:00Z","name_a2s":"Uncletopia | Chicago | 6 | All Maps","protocol":17,"map":"cp_sunshine","folder":"tf","game":"Team Fortress","app_id":440,"player_count":0,"max_players":24,"Bots":0,"server_type":"Dedicated","server_os":"Linux","password":true,"vac":true,"version":"7757534","steam_id":85568392924866363,"keywords":["cp","nocrits","nodmgspread","uncletopia"],"game_id":440,"stv_port":27026,"stv_name":"Uncletopia | Chicago | 6 | All Maps | STV","players":null},{"server_id":38,"name":"Uncletopia | Chicago | 7 | Stopwatch Beta","name_short":"chi-7","host":"chi-2.us.uncletopia.com","port":27035,"enabled":true,"region":"us-central","cc":"us","latitude":41.881832,"longitude":-87.62318,"reserved":0,"last_update":"0001-01-01T00:00:00Z","name_a2s":"Uncletopia | Chicago | 7 | Stopwatch Beta","protocol":17,"map":"workshop/pl_vigil_rc9.ugc1266210012","folder":"tf","game":"Team Fortress","app_id":440,"player_count":0,"max_players":24,"Bots":0,"server_type":"Dedicated","server_os":"Linux","password":true,"vac":true,"version":"7757534","steam_id":85568392924866364,"keywords":["nocrits","nodmgspread","payload","uncletopia"],"game_id":440,"stv_port":27036,"stv_name":"Uncletopia | Chicago | 7 | Stopwatch Beta | STV","players":null},{"server_id":39,"name":"Uncletopia | Chicago | 8 | Community","name_short":"chi-8","host":"chi-2.us.uncletopia.com","port":27045,"enabled":true,"region":"us-central","cc":"us","latitude":41.881832,"longitude":-87.62318,"reserved":0,"last_update":"0001-01-01T00:00:00Z","name_a2s":"Uncletopia | Chicago | 8 | Community","protocol":17,"map":"workshop/koth_bagel_rc5.ugc2514036946","folder":"tf","game":"Team Fortress","app_id":440,"player_count":0,"max_players":24,"Bots":0,"server_type":"Dedicated","server_os":"Linux","password":true,"vac":true,"version":"7757534","steam_id":85568392924866365,"keywords":["cp","nocrits","nodmgspread","uncletopia"],"game_id":440,"stv_port":27046,"stv_name":"Uncletopia | Chicago | 8 | Community | STV","players":null},{"server_id":8,"name":"Uncletopia | Dallas | 1 | All Maps","name_short":"dal-1","host":"dal-1.us.uncletopia.com","port":27015,"enabled":true,"region":"us-central","cc":"us","latitude":32.779167,"longitude":-96.80889,"reserved":0,"last_update":"0001-01-01T00:00:00Z","name_a2s":"Uncletopia | Dallas | 1 | All Maps","protocol":17,"map":"koth_highpass","folder":"tf","game":"Team Fortress","app_id":440,"player_count":0,"max_players":24,"Bots":0,"server_type":"Dedicated","server_os":"Linux","password":true,"vac":true,"version":"7757534","steam_id":85568392924469986,"keywords":["cp","nocrits","nodmgspread","uncletopia"],"game_id":440,"stv_port":27016,"stv_name":"Uncletopia | Dallas | 1 | All Maps | STV","players":null},{"server_id":108,"name":"Uncletopia | Dallas | 2 | All Maps","name_short":"dal-2","host":"dal-1.us.uncletopia.com","port":27025,"enabled":true,"region":"us-central","cc":"us","latitude":32.779167,"longitude":-96.80889,"reserved":0,"last_update":"0001-01-01T00:00:00Z","name_a2s":"Uncletopia | Dallas | 2 | All Maps","protocol":17,"map":"pl_barnblitz","folder":"tf","game":"Team Fortress","app_id":440,"player_count":0,"max_players":24,"Bots":0,"server_type":"Dedicated","server_os":"Linux","password":true,"vac":true,"version":"7757534","steam_id":85568392924469988,"keywords":["nocrits","nodmgspread","payload","uncletopia"],"game_id":440,"stv_port":27026,"stv_name":"Uncletopia | Dallas | 2 | All Maps | STV","players":null},{"server_id":5,"name":"Uncletopia | Frankfurt | 1 | All Maps","name_short":"frk-1","host":"frk-1.de.uncletopia.com","port":27015,"enabled":true,"region":"eu","cc":"de","latitude":50.110924,"longitude":8.682127,"reserved":0,"last_update":"0001-01-01T00:00:00Z","name_a2s":"Uncletopia | Frankfurt | 1 | All Maps","protocol":17,"map":"pl_pier","folder":"tf","game":"Team Fortress","app_id":440,"player_count":24,"max_players":24,"Bots":0,"server_type":"Dedicated","server_os":"Linux","password":true,"vac":true,"version":"7757534","steam_id":85568392924469989,"keywords":["nocrits","nodmgspread","payload","uncletopia"],"game_id":440,"stv_port":27016,"stv_name":"Uncletopia | Frankfurt | 1 | All Maps | STV","players":[{"user_id":159,"name":"Yarozak","steam_id":76561198138215623,"connected_time":6000000000,"state":"spawning","ping":80},{"user_id":99,"name":"TonTon","steam_id":76561198145468895,"connected_time":4590000000000,"state":"active","ping":47},{"user_id":148,"name":"jovi_","steam_id":76561198449280552,"connected_time":489000000000,"state":"active","ping":60},{"user_id":152,"name":"SirNeeco \u003c3","steam_id":76561198103014203,"connected_time":410000000000,"state":"active","ping":45},{"user_id":125,"name":"Allereinan","steam_id":76561198342239906,"connected_time":2368000000000,"state":"active","ping":124},{"user_id":16,"name":"Orochi","steam_id":76561198265192382,"connected_time":9681000000000,"state":"active","ping":60},{"user_id":115,"name":"G/3","steam_id":76561198234844188,"connected_time":3435000000000,"state":"active","ping":56},{"user_id":149,"name":"kornetov.vitalya","steam_id":76561199286034833,"connected_time":486000000000,"state":"active","ping":85},{"user_id":120,"name":"Ｍａｃｉｎｔｏｓｈ","steam_id":76561198074294565,"connected_time":3017000000000,"state":"active","ping":76},{"user_id":130,"name":"Dolcelatte","steam_id":76561198038501770,"connected_time":2162000000000,"state":"active","ping":53},{"user_id":145,"name":"Malok","steam_id":76561198371117880,"connected_time":579000000000,"state":"active","ping":55},{"user_id":95,"name":"HwK!","steam_id":76561198287835588,"connected_time":5128000000000,"state":"active","ping":88},{"user_id":147,"name":"Вадим Какашкин","steam_id":76561198383509320,"connected_time":516000000000,"state":"active","ping":78},{"user_id":156,"name":"[K.sTyLe] fabinhO;","steam_id":76561197982416891,"connected_time":357000000000,"state":"active","ping":57},{"user_id":98,"name":"murderwow","steam_id":76561198024566944,"connected_time":4633000000000,"state":"active","ping":105},{"user_id":142,"name":"Fales","steam_id":76561198126124929,"connected_time":830000000000,"state":"active","ping":74},{"user_id":157,"name":"veronika.lj","steam_id":76561198320518282,"connected_time":315000000000,"state":"active","ping":89},{"user_id":150,"name":"Sordid Stan","steam_id":76561198406360399,"connected_time":481000000000,"state":"active","ping":58},{"user_id":136,"name":".::[SerafeTTiN]::.","steam_id":76561198009471724,"connected_time":1496000000000,"state":"active","ping":87},{"user_id":158,"name":"p!ke","steam_id":76561198416081952,"connected_time":165000000000,"state":"active","ping":58},{"user_id":154,"name":"MAKENTAKEN","steam_id":76561199127359587,"connected_time":391000000000,"state":"active","ping":90},{"user_id":151,"name":"enesven","steam_id":76561199466839845,"connected_time":473000000000,"state":"active","ping":90},{"user_id":117,"name":"Xilef TV","steam_id":76561198454267023,"connected_time":3148000000000,"state":"active","ping":80},{"user_id":144,"name":"AviK","steam_id":76561198310822598,"connected_time":719000000000,"state":"active","ping":176}]},{"server_id":110,"name":"Uncletopia | Frankfurt | 2 | All Maps","name_short":"frk-2","host":"frk-1.de.uncletopia.com","port":27025,"enabled":true,"region":"eu","cc":"de","latitude":50.110924,"longitude":8.682127,"reserved":0,"last_update":"0001-01-01T00:00:00Z","name_a2s":"Uncletopia | Frankfurt | 2 | All Maps","protocol":17,"map":"pl_badwater","folder":"tf","game":"Team Fortress","app_id":440,"player_count":24,"max_players":24,"Bots":0,"server_type":"Dedicated","server_os":"Linux","password":true,"vac":true,"version":"7757534","steam_id":85568392924469990,"keywords":["nocrits","nodmgspread","payload","uncletopia"],"game_id":440,"stv_port":27026,"stv_name":"Uncletopia | Frankfurt | 2 | All Maps | STV","players":[{"user_id":116,"name":"shr1mple","steam_id":76561198173537027,"connected_time":1138000000000,"state":"active","ping":35},{"user_id":115,"name":"static","steam_id":76561198836825741,"connected_time":1201000000000,"state":"active","ping":57},{"user_id":123,"name":"Chambersite","steam_id":76561198197022399,"connected_time":991000000000,"state":"active","ping":68},{"user_id":121,"name":"ValtaistuinEpeli","steam_id":76561199135245452,"connected_time":1054000000000,"state":"active","ping":108},{"user_id":104,"name":"erobrine2","steam_id":76561198173218318,"connected_time":2407000000000,"state":"active","ping":49},{"user_id":103,"name":"aGreedGryphon","steam_id":76561198245175308,"connected_time":2541000000000,"state":"active","ping":68},{"user_id":118,"name":"epic gamer moment","steam_id":76561198299515070,"connected_time":1100000000000,"state":"active","ping":103},{"user_id":119,"name":"Sheerluck Holmes","steam_id":76561198051161936,"connected_time":1088000000000,"state":"active","ping":64},{"user_id":120,"name":"Cobb Salads","steam_id":76561197971140507,"connected_time":1087000000000,"state":"active","ping":64},{"user_id":108,"name":"banankgh","steam_id":76561199108845534,"connected_time":1732000000000,"state":"active","ping":80},{"user_id":124,"name":"a sticky situation","steam_id":76561198011692496,"connected_time":984000000000,"state":"active","ping":56},{"user_id":129,"name":"tsundora | ツンドラ","steam_id":76561198086997247,"connected_time":63000000000,"state":"active","ping":62},{"user_id":111,"name":"Deacon Dracul","steam_id":76561198046880663,"connected_time":1575000000000,"state":"active","ping":91},{"user_id":86,"name":"árvíztűrő tükörfúrógép","steam_id":76561198296643061,"connected_time":3395000000000,"state":"active","ping":61},{"user_id":122,"name":"Pls.do.it!","steam_id":76561198211638119,"connected_time":1029000000000,"state":"active","ping":54},{"user_id":79,"name":"You slumber","steam_id":76561198344639692,"connected_time":4103000000000,"state":"active","ping":88},{"user_id":128,"name":"I'm high on crack","steam_id":76561198175433731,"connected_time":93000000000,"state":"active","ping":73},{"user_id":126,"name":"Fish 'n' Chips","steam_id":76561198033476886,"connected_time":624000000000,"state":"active","ping":45},{"user_id":88,"name":"luma","steam_id":76561198081649669,"connected_time":3156000000000,"state":"active","ping":60},{"user_id":127,"name":"JohnTraveltime","steam_id":76561199244281754,"connected_time":603000000000,"state":"active","ping":83},{"user_id":65,"name":"Tata Cobraz0r","steam_id":76561198017693962,"connected_time":4938000000000,"state":"active","ping":86},{"user_id":112,"name":"kill john lennon","steam_id":76561198452111945,"connected_time":1447000000000,"state":"active","ping":56},{"user_id":96,"name":"Wedgeridoo","steam_id":76561198082813907,"connected_time":2815000000000,"state":"active","ping":85},{"user_id":109,"name":"dddd","steam_id":76561198120894372,"connected_time":1693000000000,"state":"active","ping":103}]},{"server_id":308,"name":"Uncletopia | Frankfurt | 3 | All Maps","name_short":"frk-3","host":"frk-1.de.uncletopia.com","port":27035,"enabled":true,"region":"eu","cc":"de","latitude":50.110924,"longitude":8.682127,"reserved":0,"last_update":"0001-01-01T00:00:00Z","name_a2s":"Uncletopia | Frankfurt | 3 | All Maps","protocol":17,"map":"koth_highpass","folder":"tf","game":"Team Fortress","app_id":440,"player_count":0,"max_players":24,"Bots":0,"server_type":"Dedicated","server_os":"Linux","password":true,"vac":true,"version":"7757534","steam_id":85568392924504274,"keywords":["cp","nocrits","nodmgspread","uncletopia"],"game_id":440,"stv_port":27036,"stv_name":"Uncletopia | Frankfurt | 3 | All Maps | STV","players":null},{"server_id":309,"name":"Uncletopia | Frankfurt | 4 | All Maps","name_short":"frk-4","host":"frk-1.de.uncletopia.com","port":27045,"enabled":true,"region":"eu","cc":"de","latitude":50.110924,"longitude":8.682127,"reserved":0,"last_update":"0001-01-01T00:00:00Z","name_a2s":"Uncletopia | Frankfurt | 4 | All Maps","protocol":17,"map":"pl_snowycoast","folder":"tf","game":"Team Fortress","app_id":440,"player_count":0,"max_players":24,"Bots":0,"server_type":"Dedicated","server_os":"Linux","password":true,"vac":true,"version":"7757534","steam_id":85568392924504275,"keywords":["nocrits","nodmgspread","payload","uncletopia"],"game_id":440,"stv_port":27046,"stv_name":"Uncletopia | Frankfurt | 4 | All Maps | STV","players":null},{"server_id":310,"name":"Uncletopia | Frankfurt | 5 | All Maps","name_short":"frk-5","host":"frk-1.de.uncletopia.com","port":27055,"enabled":true,"region":"eu","cc":"de","latitude":50.110924,"longitude":8.682127,"reserved":0,"last_update":"0001-01-01T00:00:00Z","name_a2s":"Uncletopia | Frankfurt | 5 | All Maps","protocol":17,"map":"pl_borneo","folder":"tf","game":"Team Fortress","app_id":440,"player_count":0,"max_players":24,"Bots":0,"server_type":"Dedicated","server_os":"Linux","password":true,"vac":true,"version":"7757534","steam_id":85568392924504277,"keywords":["nocrits","nodmgspread","payload","uncletopia"],"game_id":440,"stv_port":27056,"stv_name":"Uncletopia | Frankfurt | 5 | All Maps | STV","players":null},{"server_id":311,"name":"Uncletopia | Frankfurt | 6 | All Maps","name_short":"frk-6","host":"frk-1.de.uncletopia.com","port":27065,"enabled":true,"region":"eu","cc":"de","latitude":50.110924,"longitude":8.682127,"reserved":0,"last_update":"0001-01-01T00:00:00Z","name_a2s":"Uncletopia | Frankfurt | 6 | All Maps","protocol":17,"map":"koth_highpass","folder":"tf","game":"Team Fortress","app_id":440,"player_count":2,"max_players":24,"Bots":0,"server_type":"Dedicated","server_os":"Linux","password":true,"vac":true,"version":"7757534","steam_id":85568392924504278,"keywords":["cp","nocrits","nodmgspread","uncletopia"],"game_id":440,"stv_port":27066,"stv_name":"Uncletopia | Frankfurt | 6 | All Maps | STV","players":[{"user_id":16,"name":"dbdtorden","steam_id":76561199121238334,"connected_time":83000000000,"state":"active","ping":63},{"user_id":14,"name":"Vaselineum","steam_id":76561199404585461,"connected_time":216000000000,"state":"active","ping":76}]},{"server_id":23,"name":"Uncletopia | Frankfurt | 7 | Stopwatch Beta","name_short":"frk-7","host":"frk-1.de.uncletopia.com","port":27075,"enabled":true,"region":"eu","cc":"de","latitude":50.110924,"longitude":8.682127,"reserved":0,"last_update":"0001-01-01T00:00:00Z","name_a2s":"Uncletopia | Frankfurt | 7 | Stopwatch Beta","protocol":17,"map":"pl_borneo","folder":"tf","game":"Team Fortress","app_id":440,"player_count":0,"max_players":24,"Bots":0,"server_type":"Dedicated","server_os":"Linux","password":true,"vac":true,"version":"7757534","steam_id":85568392924742827,"keywords":["nocrits","nodmgspread","payload","uncletopia"],"game_id":440,"stv_port":27076,"stv_name":"Uncletopia | Frankfurt | 7 | Stopwatch Beta | STV","players":null},{"server_id":24,"name":"Uncletopia | Frankfurt | 8 | Community","name_short":"frk-8","host":"frk-1.de.uncletopia.com","port":27085,"enabled":true,"region":"eu","cc":"de","latitude":50.110924,"longitude":8.682127,"reserved":0,"last_update":"0001-01-01T00:00:00Z","name_a2s":"Uncletopia | Frankfurt | 8 | Community","protocol":17,"map":"koth_cascade","folder":"tf","game":"Team Fortress","app_id":440,"player_count":0,"max_players":24,"Bots":0,"server_type":"Dedicated","server_os":"Linux","password":true,"vac":true,"version":"7757534","steam_id":85568392924742828,"keywords":["cp","nocrits","nodmgspread","uncletopia"],"game_id":440,"stv_port":27086,"stv_name":"Uncletopia | Frankfurt | 8 | Community | STV","players":null},{"server_id":202,"name":"Uncletopia | Hong Kong | 1 | All Maps","name_short":"hgk-1","host":"hgk-1.hk.uncletopia.com","port":27015,"enabled":true,"region":"asia","cc":"hk","latitude":22.302711,"longitude":114.177216,"reserved":0,"last_update":"0001-01-01T00:00:00Z","name_a2s":"Uncletopia | Hong Kong | 1 | All Maps","protocol":17,"map":"pl_snowycoast","folder":"tf","game":"Team Fortress","app_id":440,"player_count":24,"max_players":24,"Bots":0,"server_type":"Dedicated","server_os":"Linux","password":true,"vac":true,"version":"7757534","steam_id":85568392924494504,"keywords":["nocrits","nodmgspread","payload","uncletopia"],"game_id":440,"stv_port":27016,"stv_name":"Uncletopia | Hong Kong | 1 | All Maps | STV","players":[{"user_id":399,"name":"Cá Tháng 4","steam_id":76561198047162026,"connected_time":2141000000000,"state":"active","ping":74},{"user_id":286,"name":"帕","steam_id":76561198439343999,"connected_time":10734000000000,"state":"active","ping":76},{"user_id":411,"name":"Lym0n","steam_id":76561199192420260,"connected_time":898000000000,"state":"active","ping":122},{"user_id":340,"name":"SunShine","steam_id":76561198323642446,"connected_time":6906000000000,"state":"active","ping":97},{"user_id":412,"name":"can we get much higher","steam_id":76561199390507975,"connected_time":719000000000,"state":"active","ping":52},{"user_id":394,"name":"BoxCann0n","steam_id":76561199153390130,"connected_time":2824000000000,"state":"active","ping":123},{"user_id":375,"name":"マグナス","steam_id":76561198208990721,"connected_time":4545000000000,"state":"active","ping":174},{"user_id":354,"name":"qb","steam_id":76561198412329672,"connected_time":5966000000000,"state":"active","ping":102},{"user_id":402,"name":"mutwo","steam_id":76561198077043500,"connected_time":1615000000000,"state":"active","ping":77},{"user_id":391,"name":"cellum95","steam_id":76561198172146871,"connected_time":3124000000000,"state":"active","ping":70},{"user_id":403,"name":"SICSIN","steam_id":76561198083923462,"connected_time":1602000000000,"state":"active","ping":76},{"user_id":410,"name":"god of cum (platinum cum arc)","steam_id":76561199161406614,"connected_time":1050000000000,"state":"active","ping":102},{"user_id":413,"name":"ey","steam_id":76561198413116920,"connected_time":686000000000,"state":"active","ping":75},{"user_id":376,"name":"Noyour","steam_id":76561198323259830,"connected_time":4526000000000,"state":"active","ping":116},{"user_id":306,"name":"Bertengkar","steam_id":76561198213031155,"connected_time":8507000000000,"state":"active","ping":99},{"user_id":358,"name":"let cook","steam_id":76561198055553140,"connected_time":5916000000000,"state":"active","ping":79},{"user_id":395,"name":"Sai","steam_id":76561199069225036,"connected_time":2791000000000,"state":"active","ping":57},{"user_id":408,"name":"smol - est","steam_id":76561198293775978,"connected_time":1292000000000,"state":"active","ping":100},{"user_id":382,"name":"AmaiToxic","steam_id":76561199122491157,"connected_time":3686000000000,"state":"active","ping":124},{"user_id":296,"name":"greeny","steam_id":76561198024666371,"connected_time":10007000000000,"state":"active","ping":205},{"user_id":179,"name":"loreley","steam_id":76561198230213828,"connected_time":23042000000000,"state":"active","ping":70},{"user_id":284,"name":"Urotsuki","steam_id":76561198074339034,"connected_time":11202000000000,"state":"active","ping":79},{"user_id":409,"name":"Cipher(#savetf2)","steam_id":76561198796591492,"connected_time":1217000000000,"state":"active","ping":124},{"user_id":398,"name":"nick","steam_id":76561198400698408,"connected_time":2306000000000,"state":"active","ping":92}]},{"server_id":1,"name":"Uncletopia | Los Angeles | 1 | All Maps","name_short":"lax-1","host":"lax-1.us.uncletopia.com","port":27015,"enabled":true,"region":"us-west","cc":"us","latitude":33.94279,"longitude":-118.41004,"reserved":0,"last_update":"0001-01-01T00:00:00Z","name_a2s":"Uncletopia | Los Angeles | 1 | All Maps","protocol":17,"map":"cp_sunshine","folder":"tf","game":"Team Fortress","app_id":440,"player_count":0,"max_players":24,"Bots":0,"server_type":"Dedicated","server_os":"Linux","password":true,"vac":true,"version":"7757534","steam_id":85568392924469991,"keywords":["cp","nocrits","nodmgspread","uncletopia"],"game_id":440,"stv_port":27016,"stv_name":"Uncletopia | Los Angeles | 1 | All Maps | STV","players":null},{"server_id":112,"name":"Uncletopia | Los Angeles | 2 | All Maps","name_short":"lax-2","host":"lax-1.us.uncletopia.com","port":27025,"enabled":true,"region":"us-west","cc":"us","latitude":33.94279,"longitude":-118.41004,"reserved":0,"last_update":"0001-01-01T00:00:00Z","name_a2s":"Uncletopia | Los Angeles | 2 | All Maps","protocol":17,"map":"cp_dustbowl","folder":"tf","game":"Team Fortress","app_id":440,"player_count":5,"max_players":24,"Bots":0,"server_type":"Dedicated","server_os":"Linux","password":true,"vac":true,"version":"7757534","steam_id":85568392924469992,"keywords":["cp","nocrits","nodmgspread","uncletopia"],"game_id":440,"stv_port":27026,"stv_name":"Uncletopia | Los Angeles | 2 | All Maps | STV","players":[{"user_id":421,"name":"daemon","steam_id":76561198001541433,"connected_time":1908000000000,"state":"active","ping":105},{"user_id":432,"name":"IggyYT","steam_id":76561198317980567,"connected_time":816000000000,"state":"active","ping":115},{"user_id":420,"name":"☆Stardust☆","steam_id":76561198277262753,"connected_time":1957000000000,"state":"active","ping":67},{"user_id":430,"name":"Pudsla","steam_id":76561198258974036,"connected_time":1522000000000,"state":"active","ping":45},{"user_id":411,"name":"thespringbunny","steam_id":76561198453680089,"connected_time":3614000000000,"state":"active","ping":60}]},{"server_id":324,"name":"Uncletopia | Los Angeles | 3 | All Maps","name_short":"lax-3","host":"lax-1.us.uncletopia.com","port":27035,"enabled":true,"region":"us-west","cc":"us","latitude":33.94279,"longitude":-118.41004,"reserved":0,"last_update":"0001-01-01T00:00:00Z","name_a2s":"Uncletopia | Los Angeles | 3 | All Maps","protocol":17,"map":"cp_sunshine","folder":"tf","game":"Team Fortress","app_id":440,"player_count":0,"max_players":24,"Bots":0,"server_type":"Dedicated","server_os":"Linux","password":true,"vac":true,"version":"7757534","steam_id":85568392924510198,"keywords":["cp","nocrits","nodmgspread","uncletopia"],"game_id":440,"stv_port":27036,"stv_name":"Uncletopia | Los Angeles | 3 | All Maps | STV","players":null},{"server_id":25,"name":"Uncletopia | Los Angeles | 4 | Stopwatch Beta","name_short":"lax-4","host":"lax-1.us.uncletopia.com","port":27045,"enabled":true,"region":"us-west","cc":"us","latitude":33.94279,"longitude":-118.41004,"reserved":0,"last_update":"0001-01-01T00:00:00Z","name_a2s":"Uncletopia | Los Angeles | 4 | Stopwatch Beta","protocol":17,"map":"koth_viaduct","folder":"tf","game":"Team Fortress","app_id":440,"player_count":0,"max_players":24,"Bots":0,"server_type":"Dedicated","server_os":"Linux","password":true,"vac":true,"version":"7757534","steam_id":85568392924510199,"keywords":["cp","nocrits","nodmgspread","uncletopia"],"game_id":440,"stv_port":27046,"stv_name":"Uncletopia | Los Angeles | 4 | Stopwatch Beta | STV","players":null},{"server_id":11,"name":"Uncletopia | London | 1 | All Maps","name_short":"lon-1","host":"lon-1.uk.uncletopia.com","port":27015,"enabled":true,"region":"eu","cc":"gb","latitude":51.509865,"longitude":-0.118092,"reserved":0,"last_update":"0001-01-01T00:00:00Z","name_a2s":"Uncletopia | London | 1 | All Maps","protocol":17,"map":"pl_frontier_final","folder":"tf","game":"Team Fortress","app_id":440,"player_count":24,"max_players":24,"Bots":0,"server_type":"Dedicated","server_os":"Linux","password":true,"vac":true,"version":"7757534","steam_id":85568392924367362,"keywords":["nocrits","nodmgspread","payload","uncletopia"],"game_id":440,"stv_port":27016,"stv_name":"Uncletopia | London | 1 | All Maps | STV","players":[{"user_id":146,"name":"Aspect","steam_id":76561198238625372,"connected_time":688000000000,"state":"active","ping":70},{"user_id":106,"name":"Walter Griffin","steam_id":76561199415989636,"connected_time":2873000000000,"state":"active","ping":100},{"user_id":90,"name":"alex47ka","steam_id":76561198117847251,"connected_time":4580000000000,"state":"active","ping":75},{"user_id":95,"name":"lvl. 50 honkler","steam_id":76561198061688660,"connected_time":4419000000000,"state":"active","ping":106},{"user_id":135,"name":"Overhaul","steam_id":76561198878610347,"connected_time":1485000000000,"state":"active","ping":103},{"user_id":15,"name":"poliakov.noam","steam_id":76561199259322961,"connected_time":8396000000000,"state":"active","ping":101},{"user_id":140,"name":"Repays","steam_id":76561198082993000,"connected_time":865000000000,"state":"active","ping":45},{"user_id":148,"name":"Sandshee","steam_id":76561198088574666,"connected_time":489000000000,"state":"active","ping":35},{"user_id":141,"name":"Nanitus","steam_id":76561198241772340,"connected_time":848000000000,"state":"active","ping":118},{"user_id":143,"name":"Vezage","steam_id":76561198064916164,"connected_time":769000000000,"state":"active","ping":70},{"user_id":113,"name":"Skagzilla| trade.tf","steam_id":76561198260114743,"connected_time":2668000000000,"state":"active","ping":49},{"user_id":129,"name":"Miczu555PL","steam_id":76561198058500895,"connected_time":2149000000000,"state":"active","ping":68},{"user_id":152,"name":"Pancakes","steam_id":76561198196259989,"connected_time":93000000000,"state":"active","ping":45},{"user_id":123,"name":"Carrot","steam_id":76561198119340863,"connected_time":2366000000000,"state":"active","ping":43},{"user_id":132,"name":"Dr Ultraman","steam_id":76561198060787567,"connected_time":1948000000000,"state":"active","ping":62},{"user_id":116,"name":"Firearms","steam_id":76561197989867612,"connected_time":2564000000000,"state":"active","ping":48},{"user_id":133,"name":"Mr.Man","steam_id":76561199175688390,"connected_time":1932000000000,"state":"active","ping":88},{"user_id":134,"name":"VEH-DEH-VEH","steam_id":76561198010978989,"connected_time":1571000000000,"state":"active","ping":72},{"user_id":150,"name":"Nexosert","steam_id":76561198941142018,"connected_time":370000000000,"state":"active","ping":71},{"user_id":126,"name":"the discord call sound. (real)","steam_id":76561198139404261,"connected_time":2360000000000,"state":"active","ping":45},{"user_id":125,"name":"Noosie","steam_id":76561198108612349,"connected_time":2363000000000,"state":"active","ping":60},{"user_id":130,"name":"PASTAMANIA!","steam_id":76561197967858558,"connected_time":2149000000000,"state":"active","ping":43},{"user_id":153,"name":"Jarate Man","steam_id":76561198122801176,"connected_time":42000000000,"state":"active","ping":47},{"user_id":145,"name":"[No Class]","steam_id":76561199019412162,"connected_time":695000000000,"state":"active","ping":51}]},{"server_id":114,"name":"Uncletopia | London | 2 | All Maps","name_short":"lon-2","host":"lon-1.uk.uncletopia.com","port":27025,"enabled":true,"region":"eu","cc":"gb","latitude":51.509865,"longitude":-0.118092,"reserved":0,"last_update":"0001-01-01T00:00:00Z","name_a2s":"Uncletopia | London | 2 | All Maps","protocol":17,"map":"pl_borneo","folder":"tf","game":"Team Fortress","app_id":440,"player_count":24,"max_players":24,"Bots":0,"server_type":"Dedicated","server_os":"Linux","password":true,"vac":true,"version":"7757534","steam_id":85568392924470941,"keywords":["nocrits","nodmgspread","payload","uncletopia"],"game_id":440,"stv_port":27026,"stv_name":"Uncletopia | London | 2 | All Maps | STV","players":[{"user_id":293,"name":"dotdotdot","steam_id":76561198057628751,"connected_time":898000000000,"state":"active","ping":61},{"user_id":290,"name":"ricky pee pee","steam_id":76561198152620745,"connected_time":1084000000000,"state":"active","ping":55},{"user_id":216,"name":"TheGreenWolf","steam_id":76561198170607033,"connected_time":6515000000000,"state":"active","ping":68},{"user_id":264,"name":"n0ne","steam_id":76561198114899125,"connected_time":2889000000000,"state":"active","ping":74},{"user_id":280,"name":"hi team","steam_id":76561198796600155,"connected_time":1668000000000,"state":"active","ping":95},{"user_id":278,"name":"joachym","steam_id":76561198428579761,"connected_time":1763000000000,"state":"active","ping":67},{"user_id":279,"name":"magiluli","steam_id":76561199126600639,"connected_time":1745000000000,"state":"active","ping":105},{"user_id":245,"name":"Taez","steam_id":76561198261820803,"connected_time":4573000000000,"state":"active","ping":72},{"user_id":281,"name":"markus","steam_id":76561198186791643,"connected_time":1654000000000,"state":"active","ping":89},{"user_id":269,"name":"Amiriki","steam_id":76561198005050734,"connected_time":2637000000000,"state":"active","ping":51},{"user_id":288,"name":"somehow danced","steam_id":76561198128250460,"connected_time":1142000000000,"state":"active","ping":105},{"user_id":291,"name":"coPe","steam_id":76561198869055760,"connected_time":1072000000000,"state":"active","ping":118},{"user_id":292,"name":"Kevin","steam_id":76561198035625423,"connected_time":1071000000000,"state":"active","ping":77},{"user_id":282,"name":"Higgs Monaghan","steam_id":76561198251045774,"connected_time":1641000000000,"state":"active","ping":159},{"user_id":283,"name":"Gustavo","steam_id":76561198310387331,"connected_time":1637000000000,"state":"active","ping":131},{"user_id":284,"name":"Ze","steam_id":76561198314901652,"connected_time":1580000000000,"state":"active","ping":71},{"user_id":296,"name":"blue mean-eyes","steam_id":76561198060105180,"connected_time":574000000000,"state":"active","ping":62},{"user_id":268,"name":"Zerfesh","steam_id":76561198117534358,"connected_time":2715000000000,"state":"active","ping":100},{"user_id":261,"name":"free to play","steam_id":76561199466181311,"connected_time":2974000000000,"state":"active","ping":160},{"user_id":270,"name":"[CiC] FU2Max","steam_id":76561197960282327,"connected_time":2550000000000,"state":"active","ping":44},{"user_id":228,"name":"The Dark Destoryer","steam_id":76561198831440921,"connected_time":5919000000000,"state":"active","ping":28},{"user_id":287,"name":"The True Man of Sex#SAVE TF2","steam_id":76561199093477280,"connected_time":1445000000000,"state":"active","ping":80},{"user_id":215,"name":"no bitches nigusman","steam_id":76561199466723428,"connected_time":6604000000000,"state":"active","ping":92},{"user_id":295,"name":"Johnny Sack","steam_id":76561198364121077,"connected_time":780000000000,"state":"active","ping":87}]},{"server_id":320,"name":"Uncletopia | London | 3 | All Maps","name_short":"lon-3","host":"lon-1.uk.uncletopia.com","port":27035,"enabled":true,"region":"eu","cc":"gb","latitude":51.509865,"longitude":-0.118092,"reserved":0,"last_update":"0001-01-01T00:00:00Z","name_a2s":"Uncletopia | London | 3 | All Maps","protocol":17,"map":"pl_snowycoast","folder":"tf","game":"Team Fortress","app_id":440,"player_count":0,"max_players":24,"Bots":0,"server_type":"Dedicated","server_os":"Linux","password":true,"vac":true,"version":"7757534","steam_id":85568392924510192,"keywords":["nocrits","nodmgspread","payload","uncletopia"],"game_id":440,"stv_port":27036,"stv_name":"Uncletopia | London | 3 | All Maps | STV","players":null},{"server_id":321,"name":"Uncletopia | London | 4 | All Maps","name_short":"lon-4","host":"lon-1.uk.uncletopia.com","port":27045,"enabled":true,"region":"eu","cc":"gb","latitude":51.509865,"longitude":-0.118092,"reserved":0,"last_update":"0001-01-01T00:00:00Z","name_a2s":"Uncletopia | London | 4 | All Maps","protocol":17,"map":"cp_snakewater_final1","folder":"tf","game":"Team Fortress","app_id":440,"player_count":0,"max_players":24,"Bots":0,"server_type":"Dedicated","server_os":"Linux","password":true,"vac":true,"version":"7757534","steam_id":85568392924510193,"keywords":["cp","nocrits","nodmgspread","uncletopia"],"game_id":440,"stv_port":27046,"stv_name":"Uncletopia | London | 4 | All Maps | STV","players":null},{"server_id":21,"name":"Uncletopia | London | 5 | All Maps","name_short":"lon-5","host":"lon-1.uk.uncletopia.com","port":27055,"enabled":true,"region":"eu","cc":"gb","latitude":51.509865,"longitude":-0.118092,"reserved":0,"last_update":"0001-01-01T00:00:00Z","name_a2s":"Uncletopia | London | 5 | All Maps","protocol":17,"map":"pl_borneo","folder":"tf","game":"Team Fortress","app_id":440,"player_count":0,"max_players":24,"Bots":0,"server_type":"Dedicated","server_os":"Linux","password":true,"vac":true,"version":"7757534","steam_id":85568392924742829,"keywords":["nocrits","nodmgspread","payload","uncletopia"],"game_id":440,"stv_port":27056,"stv_name":"Uncletopia | London | 5 | All Maps | STV","players":null},{"server_id":22,"name":"Uncletopia | London | 6 | All Maps","name_short":"lon-6","host":"lon-1.uk.uncletopia.com","port":27065,"enabled":true,"region":"eu","cc":"gb","latitude":51.509865,"longitude":-0.118092,"reserved":0,"last_update":"0001-01-01T00:00:00Z","name_a2s":"Uncletopia | London | 6 | All Maps","protocol":17,"map":"pl_badwater","folder":"tf","game":"Team Fortress","app_id":440,"player_count":24,"max_players":24,"Bots":0,"server_type":"Dedicated","server_os":"Linux","password":true,"vac":true,"version":"7757534","steam_id":85568392924742830,"keywords":["nocrits","nodmgspread","payload","uncletopia"],"game_id":440,"stv_port":27066,"stv_name":"Uncletopia | London | 6 | All Maps | STV","players":[{"user_id":69,"name":"Some dude","steam_id":76561199122174227,"connected_time":2596000000000,"state":"active","ping":81},{"user_id":83,"name":"Pan Pan","steam_id":76561199074670515,"connected_time":1736000000000,"state":"active","ping":90},{"user_id":74,"name":"NotExactlyAName","steam_id":76561199131759230,"connected_time":2498000000000,"state":"active","ping":91},{"user_id":79,"name":"Fit Crow mark","steam_id":76561198309246388,"connected_time":1942000000000,"state":"active","ping":56},{"user_id":97,"name":"Posture Check","steam_id":76561198053897197,"connected_time":984000000000,"state":"active","ping":44},{"user_id":95,"name":"cosmetical","steam_id":76561198444036574,"connected_time":1039000000000,"state":"active","ping":73},{"user_id":99,"name":"Fat Pigeon","steam_id":76561198817940142,"connected_time":466000000000,"state":"active","ping":45},{"user_id":94,"name":"Videogamer","steam_id":76561198106012909,"connected_time":1131000000000,"state":"active","ping":68},{"user_id":96,"name":"Dogface","steam_id":76561198118379559,"connected_time":1025000000000,"state":"active","ping":84},{"user_id":81,"name":"Elfie","steam_id":76561198206802255,"connected_time":1843000000000,"state":"active","ping":74},{"user_id":56,"name":"Tea","steam_id":76561198417636184,"connected_time":3347000000000,"state":"active","ping":99},{"user_id":82,"name":"Silungar","steam_id":76561199043530432,"connected_time":1829000000000,"state":"active","ping":63},{"user_id":93,"name":"Kyiro","steam_id":76561198276691193,"connected_time":1365000000000,"state":"active","ping":74},{"user_id":24,"name":"minn","steam_id":76561198099101232,"connected_time":4805000000000,"state":"active","ping":55},{"user_id":70,"name":"LOBZIK","steam_id":76561198114830120,"connected_time":2592000000000,"state":"active","ping":76},{"user_id":85,"name":"Luke SpyWalker","steam_id":76561198008643276,"connected_time":1676000000000,"state":"active","ping":62},{"user_id":86,"name":"Lord Commissar Drac","steam_id":76561198030371218,"connected_time":1540000000000,"state":"active","ping":69},{"user_id":87,"name":"TerraformerBeing","steam_id":76561198281011934,"connected_time":1506000000000,"state":"active","ping":92},{"user_id":89,"name":"simon","steam_id":76561198880361394,"connected_time":1489000000000,"state":"active","ping":65},{"user_id":90,"name":"JP","steam_id":76561199175268268,"connected_time":1481000000000,"state":"active","ping":73},{"user_id":91,"name":"understatement","steam_id":76561199216923710,"connected_time":1479000000000,"state":"active","ping":147},{"user_id":59,"name":"Innocent Bystander","steam_id":76561198259885007,"connected_time":3264000000000,"state":"active","ping":45},{"user_id":51,"name":"zek","steam_id":76561198862763731,"connected_time":3570000000000,"state":"active","ping":61},{"user_id":92,"name":"JUST_A_PLAYER","steam_id":76561199080852801,"connected_time":1465000000000,"state":"active","ping":139}]},{"server_id":40,"name":"Uncletopia | London | 7 | No Payload","name_short":"lon-7","host":"lon-1.uk.uncletopia.com","port":27075,"enabled":true,"region":"eu","cc":"gb","latitude":51.509865,"longitude":-0.118092,"reserved":0,"last_update":"0001-01-01T00:00:00Z","name_a2s":"Uncletopia | London | 7 | No Payload","protocol":17,"map":"cp_dustbowl","folder":"tf","game":"Team Fortress","app_id":440,"player_count":23,"max_players":24,"Bots":0,"server_type":"Dedicated","server_os":"Linux","password":true,"vac":true,"version":"7757534","steam_id":85568392924964314,"keywords":["cp","nocrits","nodmgspread","uncletopia"],"game_id":440,"stv_port":27076,"stv_name":"Uncletopia | London | 7 | No Payload | STV","players":[{"user_id":8,"name":"GMsU | Rebikas","steam_id":76561198077053764,"connected_time":3584000000000,"state":"active","ping":47},{"user_id":61,"name":"SEMIK","steam_id":76561199088506542,"connected_time":921000000000,"state":"active","ping":60},{"user_id":86,"name":"dafydd","steam_id":76561198052200325,"connected_time":11000000000,"state":"active","ping":86},{"user_id":62,"name":"Na'vi Misato (by popular demand","steam_id":76561198130860698,"connected_time":906000000000,"state":"active","ping":58},{"user_id":79,"name":"Panzerwaffle","steam_id":76561198030382800,"connected_time":150000000000,"state":"active","ping":54},{"user_id":80,"name":"Benny the Ball","steam_id":76561198043104532,"connected_time":148000000000,"state":"active","ping":54},{"user_id":77,"name":"cheezus","steam_id":76561198891046692,"connected_time":181000000000,"state":"active","ping":70},{"user_id":56,"name":"Jay.k","steam_id":76561198079387590,"connected_time":1248000000000,"state":"active","ping":49},{"user_id":76,"name":"Lalo Salamanca","steam_id":76561199116882319,"connected_time":197000000000,"state":"active","ping":47},{"user_id":51,"name":"Bouncy :3","steam_id":76561199047004064,"connected_time":1413000000000,"state":"active","ping":77},{"user_id":65,"name":"Gyro Zeppeli","steam_id":76561198143600606,"connected_time":776000000000,"state":"active","ping":73},{"user_id":67,"name":"SexyHotChocolate","steam_id":76561198164087698,"connected_time":755000000000,"state":"active","ping":89},{"user_id":39,"name":"Tomau5","steam_id":76561198027409468,"connected_time":1899000000000,"state":"active","ping":50},{"user_id":81,"name":"DSL","steam_id":76561198186770547,"connected_time":137000000000,"state":"active","ping":92},{"user_id":29,"name":"Craig Crusade","steam_id":76561199225918086,"connected_time":2210000000000,"state":"active","ping":57},{"user_id":30,"name":"spy gaming","steam_id":76561198410955546,"connected_time":2199000000000,"state":"active","ping":62},{"user_id":68,"name":"Mata","steam_id":76561198308191713,"connected_time":749000000000,"state":"active","ping":75},{"user_id":82,"name":"3xample","steam_id":76561198805049375,"connected_time":102000000000,"state":"active","ping":59},{"user_id":83,"name":"Madree","steam_id":76561199443143457,"connected_time":89000000000,"state":"active","ping":105},{"user_id":69,"name":"Chikapu Xek #savetf2","steam_id":76561198428023493,"connected_time":725000000000,"state":"active","ping":81},{"user_id":85,"name":"wolffy","steam_id":76561198083145076,"connected_time":76000000000,"state":"active","ping":70},{"user_id":45,"name":"ninjadapraia","steam_id":76561198845411254,"connected_time":1714000000000,"state":"active","ping":103},{"user_id":48,"name":"Vibing Wave [IRAN]","steam_id":76561198866358613,"connected_time":1481000000000,"state":"active","ping":155}]},{"server_id":41,"name":"Uncletopia | London | 8 | Community","name_short":"lon-8","host":"lon-1.uk.uncletopia.com","port":27085,"enabled":true,"region":"eu","cc":"gb","latitude":51.509865,"longitude":-0.118092,"reserved":0,"last_update":"0001-01-01T00:00:00Z","name_a2s":"Uncletopia | London | 8 | Community","protocol":17,"map":"workshop/koth_ashville_final.ugc2130459942","folder":"tf","game":"Team Fortress","app_id":440,"player_count":0,"max_players":24,"Bots":0,"server_type":"Dedicated","server_os":"Linux","password":true,"vac":true,"version":"7757534","steam_id":85568392924964315,"keywords":["cp","nocrits","nodmgspread","uncletopia"],"game_id":440,"stv_port":27086,"stv_name":"Uncletopia | London | 8 | Community | STV","players":null},{"server_id":300,"name":"Uncletopia | Montréal | 1 | All Maps","name_short":"mtl-1","host":"mtl-1.ca.uncletopia.com","port":27015,"enabled":true,"region":"us-east","cc":"ca","latitude":45.50889,"longitude":-73.56167,"reserved":0,"last_update":"0001-01-01T00:00:00Z","name_a2s":"Uncletopia | Montréal | 1 | All Maps","protocol":17,"map":"koth_cascade","folder":"tf","game":"Team Fortress","app_id":440,"player_count":0,"max_players":24,"Bots":0,"server_type":"Dedicated","server_os":"Linux","password":true,"vac":true,"version":"7757534","steam_id":85568392924500087,"keywords":["cp","nocrits","nodmgspread","uncletopia"],"game_id":440,"stv_port":27016,"stv_name":"Uncletopia | Montréal | 1 | All Maps | STV","players":null},{"server_id":301,"name":"Uncletopia | Montréal | 2 | All Maps","name_short":"mtl-2","host":"mtl-1.ca.uncletopia.com","port":27025,"enabled":true,"region":"us-east","cc":"ca","latitude":45.50889,"longitude":-73.56167,"reserved":0,"last_update":"0001-01-01T00:00:00Z","name_a2s":"Uncletopia | Montréal | 2 | All Maps","protocol":17,"map":"pl_borneo","folder":"tf","game":"Team Fortress","app_id":440,"player_count":0,"max_players":24,"Bots":0,"server_type":"Dedicated","server_os":"Linux","password":true,"vac":true,"version":"7757534","steam_id":85568392924500088,"keywords":["nocrits","nodmgspread","payload","uncletopia"],"game_id":440,"stv_port":27026,"stv_name":"Uncletopia | Montréal | 2 | All Maps | STV","players":null},{"server_id":302,"name":"Uncletopia | Montréal | 3 | All Maps","name_short":"mtl-3","host":"mtl-1.ca.uncletopia.com","port":27035,"enabled":true,"region":"us-east","cc":"ca","latitude":45.50889,"longitude":-73.56167,"reserved":0,"last_update":"0001-01-01T00:00:00Z","name_a2s":"Uncletopia | Montréal | 3 | All Maps","protocol":17,"map":"cp_sunshine","folder":"tf","game":"Team Fortress","app_id":440,"player_count":0,"max_players":24,"Bots":0,"server_type":"Dedicated","server_os":"Linux","password":true,"vac":true,"version":"7757534","steam_id":85568392924500089,"keywords":["cp","nocrits","nodmgspread","uncletopia"],"game_id":440,"stv_port":27036,"stv_name":"Uncletopia | Montréal | 3 | All Maps | STV","players":null},{"server_id":303,"name":"Uncletopia | Montréal | 4 | No Payload","name_short":"mtl-4","host":"mtl-1.ca.uncletopia.com","port":27045,"enabled":true,"region":"us-east","cc":"ca","latitude":45.50889,"longitude":-73.56167,"reserved":0,"last_update":"0001-01-01T00:00:00Z","name_a2s":"Uncletopia | Montréal | 4 | No Payload","protocol":17,"map":"koth_lakeside_final","folder":"tf","game":"Team Fortress","app_id":440,"player_count":0,"max_players":24,"Bots":0,"server_type":"Dedicated","server_os":"Linux","password":true,"vac":true,"version":"7757534","steam_id":85568392924500090,"keywords":["cp","nocrits","nodmgspread","uncletopia"],"game_id":440,"stv_port":27046,"stv_name":"Uncletopia | Montréal | 4 | No Payload | STV","players":null},{"server_id":13,"name":"Uncletopia | New York City | 1 | All Maps","name_short":"nyc-1","host":"nyc-1.us.uncletopia.com","port":27015,"enabled":true,"region":"us-east","cc":"us","latitude":40.73061,"longitude":-73.93524,"reserved":0,"last_update":"0001-01-01T00:00:00Z","name_a2s":"Uncletopia | New York City | 1 | All Maps","protocol":17,"map":"pl_borneo","folder":"tf","game":"Team Fortress","app_id":440,"player_count":0,"max_players":24,"Bots":0,"server_type":"Dedicated","server_os":"Linux","password":true,"vac":true,"version":"7757534","steam_id":85568392924469993,"keywords":["nocrits","nodmgspread","payload","uncletopia"],"game_id":440,"stv_port":27016,"stv_name":"Uncletopia | New York City | 1 | All Maps | STV","players":null},{"server_id":14,"name":"Uncletopia | New York City | 2 | All Maps","name_short":"nyc-2","host":"nyc-1.us.uncletopia.com","port":27025,"enabled":true,"region":"us-east","cc":"us","latitude":40.73061,"longitude":-73.93524,"reserved":0,"last_update":"0001-01-01T00:00:00Z","name_a2s":"Uncletopia | New York City | 2 | All Maps","protocol":17,"map":"pl_snowycoast","folder":"tf","game":"Team Fortress","app_id":440,"player_count":0,"max_players":24,"Bots":0,"server_type":"Dedicated","server_os":"Linux","password":true,"vac":true,"version":"7757534","steam_id":85568392924469994,"keywords":["nocrits","nodmgspread","payload","uncletopia"],"game_id":440,"stv_port":27026,"stv_name":"Uncletopia | New York City | 2 | All Maps | STV","players":null},{"server_id":15,"name":"Uncletopia | New York City | 3 | Stopwatch Beta","name_short":"nyc-3","host":"nyc-1.us.uncletopia.com","port":27035,"enabled":true,"region":"us-east","cc":"us","latitude":40.73061,"longitude":-73.93524,"reserved":0,"last_update":"0001-01-01T00:00:00Z","name_a2s":"Uncletopia | New York City | 3 | Stopwatch Beta","protocol":17,"map":"koth_lakeside_final","folder":"tf","game":"Team Fortress","app_id":440,"player_count":0,"max_players":24,"Bots":0,"server_type":"Dedicated","server_os":"Linux","password":true,"vac":true,"version":"7757534","steam_id":85568392924742820,"keywords":["cp","nocrits","nodmgspread","uncletopia"],"game_id":440,"stv_port":27036,"stv_name":"Uncletopia | New York City | 3 | Stopwatch Beta | STV","players":null},{"server_id":16,"name":"Uncletopia | New York City | 4 | Community","name_short":"nyc-4","host":"nyc-1.us.uncletopia.com","port":27045,"enabled":true,"region":"us-east","cc":"us","latitude":40.73061,"longitude":-73.93524,"reserved":0,"last_update":"0001-01-01T00:00:00Z","name_a2s":"Uncletopia | New York City | 4 | Community","protocol":17,"map":"pl_borneo","folder":"tf","game":"Team Fortress","app_id":440,"player_count":0,"max_players":24,"Bots":0,"server_type":"Dedicated","server_os":"Linux","password":true,"vac":true,"version":"7757534","steam_id":85568392924742821,"keywords":["nocrits","nodmgspread","payload","uncletopia"],"game_id":440,"stv_port":27046,"stv_name":"Uncletopia | New York City | 4 | Community | STV","players":null},{"server_id":142,"name":"Uncletopia | São Paulo | 1 | All Maps","name_short":"sao-1","host":"sao-1.br.uncletopia.com","port":27015,"enabled":true,"region":"sa","cc":"br","latitude":-23.533773,"longitude":-46.62529,"reserved":0,"last_update":"0001-01-01T00:00:00Z","name_a2s":"Uncletopia | São Paulo | 1 | All Maps","protocol":17,"map":"pl_barnblitz","folder":"tf","game":"Team Fortress","app_id":440,"player_count":0,"max_players":24,"Bots":0,"server_type":"Dedicated","server_os":"Linux","password":true,"vac":true,"version":"7757534","steam_id":85568392924469996,"keywords":["nocrits","nodmgspread","payload","uncletopia"],"game_id":440,"stv_port":27016,"stv_name":"Uncletopia | São Paulo | 1 | All Maps | STV","players":null},{"server_id":143,"name":"Uncletopia | São Paulo | 2 | All Maps","name_short":"sao-2","host":"sao-2.br.uncletopia.com","port":27015,"enabled":true,"region":"sa","cc":"br","latitude":-23.533773,"longitude":-46.62529,"reserved":0,"last_update":"0001-01-01T00:00:00Z","name_a2s":"Uncletopia | São Paulo | 2 | All Maps","protocol":17,"map":"cp_altitude","folder":"tf","game":"Team Fortress","app_id":440,"player_count":0,"max_players":24,"Bots":0,"server_type":"Dedicated","server_os":"Linux","password":true,"vac":true,"version":"7757534","steam_id":85568392924485349,"keywords":["cp","nocrits","nodmgspread","uncletopia"],"game_id":440,"stv_port":27016,"stv_name":"Uncletopia | São Paulo | 2 | All Maps | STV","players":null},{"server_id":7,"name":"Uncletopia | Seattle | 1 | All Maps","name_short":"sea-1","host":"sea-1.us.uncletopia.com","port":27015,"enabled":true,"region":"us-west","cc":"us","latitude":47.608013,"longitude":-122.33517,"reserved":0,"last_update":"0001-01-01T00:00:00Z","name_a2s":"Uncletopia | Seattle | 1 | All Maps","protocol":17,"map":"pl_snowycoast","folder":"tf","game":"Team Fortress","app_id":440,"player_count":19,"max_players":24,"Bots":0,"server_type":"Dedicated","server_os":"Linux","password":true,"vac":true,"version":"7757534","steam_id":85568392924469997,"keywords":["nocrits","nodmgspread","payload","uncletopia"],"game_id":440,"stv_port":27016,"stv_name":"Uncletopia | Seattle | 1 | All Maps | STV","players":[{"user_id":1005,"name":"delight","steam_id":76561197980280272,"connected_time":1332000000000,"state":"active","ping":45},{"user_id":1004,"name":"Starkiller","steam_id":76561198101643120,"connected_time":1440000000000,"state":"active","ping":67},{"user_id":978,"name":"goopgrabber","steam_id":76561199029951083,"connected_time":3821000000000,"state":"active","ping":60},{"user_id":1019,"name":"OH JIMMY I'M HOME #SaveTf2","steam_id":76561198396658806,"connected_time":429000000000,"state":"active","ping":75},{"user_id":1020,"name":"ItsDifficultttt","steam_id":76561199402730529,"connected_time":201000000000,"state":"active","ping":124},{"user_id":1006,"name":"Marv_L","steam_id":76561198035709541,"connected_time":1287000000000,"state":"active","ping":73},{"user_id":997,"name":"rorywashere /ᐠ - ˕ -マ Ⳋ","steam_id":76561198065825165,"connected_time":2086000000000,"state":"active","ping":103},{"user_id":1002,"name":"Noah","steam_id":76561198059048749,"connected_time":1521000000000,"state":"active","ping":54},{"user_id":996,"name":"Greenpikmin","steam_id":76561198137310107,"connected_time":2415000000000,"state":"active","ping":79},{"user_id":980,"name":"CMDR Osowiec","steam_id":76561198267752855,"connected_time":3756000000000,"state":"active","ping":57},{"user_id":1024,"name":"nomocantgame","steam_id":76561198865074599,"connected_time":75000000000,"state":"active","ping":82},{"user_id":1018,"name":"Femboyuwu","steam_id":76561199042734489,"connected_time":594000000000,"state":"active","ping":78},{"user_id":1025,"name":"The Troglodyte","steam_id":76561198283566719,"connected_time":71000000000,"state":"active","ping":62},{"user_id":995,"name":"HAT-WEARING™ Maggot Gamer Cat","steam_id":76561197973992705,"connected_time":2479000000000,"state":"active","ping":73},{"user_id":1009,"name":"Schnitz(Lost my Glasses)","steam_id":76561198265484253,"connected_time":1172000000000,"state":"active","ping":81},{"user_id":962,"name":"Stranger Danger","steam_id":76561198115242460,"connected_time":5459000000000,"state":"active","ping":45},{"user_id":1015,"name":"Kaluka","steam_id":76561198036861445,"connected_time":908000000000,"state":"active","ping":121},{"user_id":1011,"name":"One Horned Bitch Destroyer","steam_id":76561198045810191,"connected_time":1005000000000,"state":"active","ping":38},{"user_id":1003,"name":"p9 jorts","steam_id":76561199041179985,"connected_time":1509000000000,"state":"active","ping":58}]},{"server_id":119,"name":"Uncletopia | Seattle | 2 | All Maps","name_short":"sea-2","host":"sea-1.us.uncletopia.com","port":27025,"enabled":true,"region":"us-west","cc":"us","latitude":47.608013,"longitude":-122.33517,"reserved":0,"last_update":"0001-01-01T00:00:00Z","name_a2s":"Uncletopia | Seattle | 2 | All Maps","protocol":17,"map":"koth_cascade","folder":"tf","game":"Team Fortress","app_id":440,"player_count":0,"max_players":24,"Bots":0,"server_type":"Dedicated","server_os":"Linux","password":true,"vac":true,"version":"7757534","steam_id":85568392924469998,"keywords":["cp","nocrits","nodmgspread","uncletopia"],"game_id":440,"stv_port":27026,"stv_name":"Uncletopia | Seattle | 2 | All Maps | STV","players":null},{"server_id":406,"name":"Uncletopia | Seattle | 3 | Stopwatch Beta","name_short":"sea-3","host":"sea-1.us.uncletopia.com","port":27035,"enabled":true,"region":"us-west","cc":"us","latitude":47.608013,"longitude":-122.33517,"reserved":0,"last_update":"0001-01-01T00:00:00Z","name_a2s":"Uncletopia | Seattle | 3 | Stopwatch Beta","protocol":17,"map":"workshop/pl_summercoast_rc8e.ugc1761528829","folder":"tf","game":"Team Fortress","app_id":440,"player_count":3,"max_players":24,"Bots":0,"server_type":"Dedicated","server_os":"Linux","password":true,"vac":true,"version":"7757534","steam_id":85568392924515217,"keywords":["nocrits","nodmgspread","payload","uncletopia"],"game_id":440,"stv_port":27036,"stv_name":"Uncletopia | Seattle | 3 | Stopwatch Beta | STV","players":[{"user_id":31,"name":"Lil Glac (Inept)","steam_id":76561198105395149,"connected_time":1681000000000,"state":"active","ping":44},{"user_id":32,"name":"Dastardly_Devious","steam_id":76561198103939491,"connected_time":1585000000000,"state":"active","ping":52},{"user_id":33,"name":"xXiNSanEXx_CoBrA","steam_id":76561199036450881,"connected_time":1485000000000,"state":"active","ping":57}]},{"server_id":17,"name":"Uncletopia | San Francisco | 1 | All Maps","name_short":"sfo-1","host":"sfo-1.us.uncletopia.com","port":27015,"enabled":true,"region":"us-west","cc":"us","latitude":37.77397,"longitude":-122.4313,"reserved":0,"last_update":"0001-01-01T00:00:00Z","name_a2s":"Uncletopia | San Francisco | 1 | All Maps","protocol":17,"map":"koth_highpass","folder":"tf","game":"Team Fortress","app_id":440,"player_count":0,"max_players":24,"Bots":0,"server_type":"Dedicated","server_os":"Linux","password":true,"vac":true,"version":"7757534","steam_id":85568392924469999,"keywords":["cp","nocrits","nodmgspread","uncletopia"],"game_id":440,"stv_port":27016,"stv_name":"Uncletopia | San Francisco | 1 | All Maps | STV","players":null},{"server_id":18,"name":"Uncletopia | San Francisco | 2 | All Maps","name_short":"sfo-2","host":"sfo-1.us.uncletopia.com","port":27025,"enabled":true,"region":"us-west","cc":"us","latitude":37.77397,"longitude":-122.4313,"reserved":0,"last_update":"0001-01-01T00:00:00Z","name_a2s":"Uncletopia | San Francisco | 2 | All Maps","protocol":17,"map":"cp_sunshine","folder":"tf","game":"Team Fortress","app_id":440,"player_count":0,"max_players":24,"Bots":0,"server_type":"Dedicated","server_os":"Linux","password":true,"vac":true,"version":"7757534","steam_id":85568392924470000,"keywords":["cp","nocrits","nodmgspread","uncletopia"],"game_id":440,"stv_port":27026,"stv_name":"Uncletopia | San Francisco | 2 | All Maps | STV","players":null},{"server_id":19,"name":"Uncletopia | San Francisco | 3 | Stopwatch Beta","name_short":"sfo-3","host":"sfo-1.us.uncletopia.com","port":27035,"enabled":true,"region":"us-west","cc":"us","latitude":37.77397,"longitude":-122.4313,"reserved":0,"last_update":"0001-01-01T00:00:00Z","name_a2s":"Uncletopia | San Francisco | 3 | Stopwatch Beta","protocol":17,"map":"koth_viaduct","folder":"tf","game":"Team Fortress","app_id":440,"player_count":0,"max_players":24,"Bots":0,"server_type":"Dedicated","server_os":"Linux","password":true,"vac":true,"version":"7757534","steam_id":85568392924742824,"keywords":["cp","nocrits","nodmgspread","uncletopia"],"game_id":440,"stv_port":27036,"stv_name":"Uncletopia | San Francisco | 3 | Stopwatch Beta | STV","players":null},{"server_id":20,"name":"Uncletopia | San Francisco | 4 | Community","name_short":"sfo-4","host":"sfo-1.us.uncletopia.com","port":27045,"enabled":true,"region":"us-west","cc":"us","latitude":37.77397,"longitude":-122.4313,"reserved":0,"last_update":"0001-01-01T00:00:00Z","name_a2s":"Uncletopia | San Francisco | 4 | Community","protocol":17,"map":"workshop/koth_slaughter_rc1.ugc1712845210","folder":"tf","game":"Team Fortress","app_id":440,"player_count":0,"max_players":24,"Bots":0,"server_type":"Dedicated","server_os":"Linux","password":true,"vac":true,"version":"7757534","steam_id":85568392924742826,"keywords":["cp","nocrits","nodmgspread","uncletopia"],"game_id":440,"stv_port":27046,"stv_name":"Uncletopia | San Francisco | 4 | Community | STV","players":null},{"server_id":141,"name":"Uncletopia | Sydney | 1 | All Maps","name_short":"syd-1","host":"syd-1.au.uncletopia.com","port":27015,"enabled":true,"region":"au","cc":"au","latitude":-33.865143,"longitude":151.2099,"reserved":0,"last_update":"0001-01-01T00:00:00Z","name_a2s":"Uncletopia | Sydney | 1 | All Maps","protocol":17,"map":"pl_goldrush","folder":"tf","game":"Team Fortress","app_id":440,"player_count":24,"max_players":24,"Bots":0,"server_type":"Dedicated","server_os":"Linux","password":true,"vac":true,"version":"7757534","steam_id":85568392924470001,"keywords":["nocrits","nodmgspread","payload","uncletopia"],"game_id":440,"stv_port":27016,"stv_name":"Uncletopia | Sydney | 1 | All Maps | STV","players":[{"user_id":380,"name":"Editor_Billy","steam_id":76561199165608946,"connected_time":2537000000000,"state":"active","ping":55},{"user_id":396,"name":"dad","steam_id":76561198063032696,"connected_time":1391000000000,"state":"active","ping":61},{"user_id":343,"name":"Fatass Yoshi","steam_id":76561198033784848,"connected_time":5837000000000,"state":"active","ping":55},{"user_id":291,"name":"Piklz","steam_id":76561198043384139,"connected_time":9239000000000,"state":"active","ping":54},{"user_id":292,"name":"Bobby Bigman","steam_id":76561198044679656,"connected_time":9085000000000,"state":"active","ping":60},{"user_id":394,"name":"DAsh ツ","steam_id":76561198073070676,"connected_time":1573000000000,"state":"active","ping":53},{"user_id":340,"name":"jim :)","steam_id":76561198127508905,"connected_time":5911000000000,"state":"active","ping":37},{"user_id":397,"name":"pants money","steam_id":76561198066256359,"connected_time":1376000000000,"state":"active","ping":56},{"user_id":412,"name":"Corrupt","steam_id":76561198008567328,"connected_time":336000000000,"state":"active","ping":107},{"user_id":379,"name":"seiran","steam_id":76561198880907232,"connected_time":2549000000000,"state":"active","ping":104},{"user_id":395,"name":"Raven","steam_id":76561198428025966,"connected_time":1534000000000,"state":"active","ping":67},{"user_id":411,"name":"Kanga Bangas","steam_id":76561198162187264,"connected_time":513000000000,"state":"active","ping":76},{"user_id":382,"name":"normans on sabbatical honey","steam_id":76561198082423230,"connected_time":2513000000000,"state":"active","ping":77},{"user_id":402,"name":"soupy","steam_id":76561198073734936,"connected_time":1039000000000,"state":"active","ping":90},{"user_id":360,"name":"Cup","steam_id":76561198038485845,"connected_time":3934000000000,"state":"active","ping":36},{"user_id":399,"name":"sadgasm","steam_id":76561198008230563,"connected_time":1322000000000,"state":"active","ping":48},{"user_id":383,"name":"Bernard Bear","steam_id":76561199229248492,"connected_time":2398000000000,"state":"active","ping":133},{"user_id":384,"name":"Im the biggest bird","steam_id":76561198254754182,"connected_time":2367000000000,"state":"active","ping":82},{"user_id":408,"name":"enoeht","steam_id":76561198054187483,"connected_time":778000000000,"state":"active","ping":67},{"user_id":352,"name":"East","steam_id":76561197998179587,"connected_time":4517000000000,"state":"active","ping":103},{"user_id":386,"name":"Consolidated Fart","steam_id":76561198924101909,"connected_time":2303000000000,"state":"active","ping":68},{"user_id":403,"name":"fritzz_2343","steam_id":76561198284667941,"connected_time":1009000000000,"state":"active","ping":67},{"user_id":372,"name":"Jett","steam_id":76561198969434128,"connected_time":2806000000000,"state":"active","ping":83},{"user_id":410,"name":"SewerStalker","steam_id":76561199253363005,"connected_time":649000000000,"state":"active","ping":128}]},{"server_id":123,"name":"Uncletopia | Sydney | 2 | All Maps","name_short":"syd-2","host":"syd-1.au.uncletopia.com","port":27025,"enabled":true,"region":"au","cc":"au","latitude":-33.865143,"longitude":151.2099,"reserved":0,"last_update":"0001-01-01T00:00:00Z","name_a2s":"Uncletopia | Sydney | 2 | All Maps","protocol":17,"map":"koth_cascade","folder":"tf","game":"Team Fortress","app_id":440,"player_count":0,"max_players":24,"Bots":0,"server_type":"Dedicated","server_os":"Linux","password":true,"vac":true,"version":"7757534","steam_id":85568392924470002,"keywords":["cp","nocrits","nodmgspread","uncletopia"],"game_id":440,"stv_port":27026,"stv_name":"Uncletopia | Sydney | 2 | All Maps | STV","players":null},{"server_id":395,"name":"Uncletopia | Sydney | 3 | All Maps","name_short":"syd-3","host":"syd-1.au.uncletopia.com","port":27035,"enabled":true,"region":"au","cc":"au","latitude":-33.865143,"longitude":151.2099,"reserved":0,"last_update":"0001-01-01T00:00:00Z","name_a2s":"Uncletopia | Sydney | 3 | All Maps","protocol":17,"map":"pl_badwater","folder":"tf","game":"Team Fortress","app_id":440,"player_count":24,"max_players":24,"Bots":0,"server_type":"Dedicated","server_os":"Linux","password":true,"vac":true,"version":"7757534","steam_id":85568392925194467,"keywords":["nocrits","nodmgspread","payload","uncletopia"],"game_id":440,"stv_port":27036,"stv_name":"Uncletopia | Sydney | 3 | All Maps | STV","players":[{"user_id":127,"name":"KILLER WHALES","steam_id":76561198012422705,"connected_time":444000000000,"state":"active","ping":57},{"user_id":115,"name":"Yucky controller user","steam_id":76561198152210509,"connected_time":1555000000000,"state":"active","ping":39},{"user_id":119,"name":"FriskyPotato","steam_id":76561198061320611,"connected_time":885000000000,"state":"active","ping":50},{"user_id":120,"name":"Sover blw.tf","steam_id":76561198136347837,"connected_time":687000000000,"state":"active","ping":129},{"user_id":121,"name":"SWAG DRAGON","steam_id":76561197960279341,"connected_time":621000000000,"state":"active","ping":72},{"user_id":123,"name":"krandlez` (Any/All)","steam_id":76561198044839726,"connected_time":550000000000,"state":"active","ping":41},{"user_id":55,"name":"SaltierThanYou","steam_id":76561198444395188,"connected_time":5434000000000,"state":"active","ping":77},{"user_id":61,"name":"ryderpro","steam_id":76561199435031335,"connected_time":5167000000000,"state":"active","ping":64},{"user_id":57,"name":"blicky","steam_id":76561198029829077,"connected_time":5411000000000,"state":"active","ping":91},{"user_id":78,"name":"Faston J Finch","steam_id":76561198811524641,"connected_time":4706000000000,"state":"active","ping":87},{"user_id":114,"name":"Zeron","steam_id":76561198125778202,"connected_time":1658000000000,"state":"active","ping":45},{"user_id":124,"name":"Zec","steam_id":76561198314489959,"connected_time":523000000000,"state":"active","ping":117},{"user_id":69,"name":"eefee","steam_id":76561197997078384,"connected_time":4835000000000,"state":"active","ping":89},{"user_id":125,"name":"ToadFungus","steam_id":76561199219667039,"connected_time":474000000000,"state":"active","ping":101},{"user_id":108,"name":"Catto","steam_id":76561197999111589,"connected_time":1854000000000,"state":"active","ping":34},{"user_id":128,"name":"Atlas","steam_id":76561198069332870,"connected_time":419000000000,"state":"active","ping":57},{"user_id":130,"name":"操你祖宗十八代","steam_id":76561198368740777,"connected_time":396000000000,"state":"active","ping":60},{"user_id":116,"name":"shadowyknight","steam_id":76561198963934206,"connected_time":1504000000000,"state":"active","ping":106},{"user_id":134,"name":"wirthy","steam_id":76561198061532381,"connected_time":122000000000,"state":"active","ping":52},{"user_id":90,"name":"Corrade","steam_id":76561198088865883,"connected_time":4283000000000,"state":"active","ping":58},{"user_id":133,"name":"table","steam_id":76561199218095319,"connected_time":285000000000,"state":"active","ping":50},{"user_id":91,"name":"iv","steam_id":76561198288602412,"connected_time":4270000000000,"state":"active","ping":71},{"user_id":117,"name":"voxii","steam_id":76561198099698281,"connected_time":1145000000000,"state":"active","ping":69},{"user_id":107,"name":"Alty","steam_id":76561198041490623,"connected_time":2105000000000,"state":"active","ping":76}]},{"server_id":396,"name":"Uncletopia | Sydney | 4 | All Maps","name_short":"syd-4","host":"syd-1.au.uncletopia.com","port":27045,"enabled":true,"region":"au","cc":"au","latitude":-33.865143,"longitude":151.2099,"reserved":0,"last_update":"0001-01-01T00:00:00Z","name_a2s":"Uncletopia | Sydney | 4 | All Maps","protocol":17,"map":"koth_highpass","folder":"tf","game":"Team Fortress","app_id":440,"player_count":0,"max_players":24,"Bots":0,"server_type":"Dedicated","server_os":"Linux","password":true,"vac":true,"version":"7757534","steam_id":85568392925397958,"keywords":["cp","nocrits","nodmgspread","uncletopia"],"game_id":440,"stv_port":27046,"stv_name":"Uncletopia | Sydney | 4 | All Maps | STV","players":null},{"server_id":58,"name":"Uncletopia | Sydney | 5 | Stopwatch Beta","name_short":"syd-5","host":"syd-1.au.uncletopia.com","port":27055,"enabled":true,"region":"au","cc":"au","latitude":-33.865143,"longitude":151.2099,"reserved":0,"last_update":"0001-01-01T00:00:00Z","name_a2s":"Uncletopia | Sydney | 5 | Stopwatch Beta","protocol":17,"map":"koth_lakeside_final","folder":"tf","game":"Team Fortress","app_id":440,"player_count":0,"max_players":24,"Bots":0,"server_type":"Dedicated","server_os":"Linux","password":true,"vac":true,"version":"7757534","steam_id":85568392925397959,"keywords":["cp","nocrits","nodmgspread","uncletopia"],"game_id":440,"stv_port":27056,"stv_name":"Uncletopia | Sydney | 5 | Stopwatch Beta | STV","players":null},{"server_id":59,"name":"Uncletopia | Sydney | 6 | Community","name_short":"syd-6","host":"syd-1.au.uncletopia.com","port":27065,"enabled":true,"region":"au","cc":"au","latitude":-33.865143,"longitude":151.2099,"reserved":0,"last_update":"0001-01-01T00:00:00Z","name_a2s":"Uncletopia | Sydney | 6 | Community","protocol":17,"map":"workshop/koth_ashville_final.ugc2130459942","folder":"tf","game":"Team Fortress","app_id":440,"player_count":13,"max_players":24,"Bots":0,"server_type":"Dedicated","server_os":"Linux","password":true,"vac":true,"version":"7757534","steam_id":85568392925397960,"keywords":["cp","nocrits","nodmgspread","uncletopia"],"game_id":440,"stv_port":27066,"stv_name":"Uncletopia | Sydney | 6 | Community | STV","players":[{"user_id":16,"name":"alien!! ahhh!!!","steam_id":76561198816343768,"connected_time":4192000000000,"state":"active","ping":71},{"user_id":17,"name":"Sstikky","steam_id":76561198240792076,"connected_time":4185000000000,"state":"active","ping":39},{"user_id":19,"name":"jiv","steam_id":76561198802347473,"connected_time":4128000000000,"state":"active","ping":180},{"user_id":20,"name":"The Bisoneer TF2","steam_id":76561199446773766,"connected_time":4011000000000,"state":"active","ping":84},{"user_id":29,"name":"✿trippy","steam_id":76561197994110447,"connected_time":1671000000000,"state":"active","ping":61},{"user_id":32,"name":"GregoryCool2007","steam_id":76561199028542666,"connected_time":705000000000,"state":"active","ping":36},{"user_id":30,"name":"Fps","steam_id":76561198077651488,"connected_time":1631000000000,"state":"active","ping":46},{"user_id":26,"name":"Cris.p bacon","steam_id":76561199230423491,"connected_time":2705000000000,"state":"active","ping":169},{"user_id":31,"name":"D J","steam_id":76561198337506106,"connected_time":1357000000000,"state":"active","ping":42},{"user_id":33,"name":"[SS] Fsh","steam_id":76561198057345275,"connected_time":259000000000,"state":"active","ping":29},{"user_id":35,"name":"sydney sydney","steam_id":76561199057568663,"connected_time":153000000000,"state":"active","ping":55},{"user_id":36,"name":"Johngamer2418","steam_id":76561198377832282,"connected_time":105000000000,"state":"active","ping":45},{"user_id":37,"name":"Shimmel","steam_id":76561198343050242,"connected_time":82000000000,"state":"active","ping":55}]},{"server_id":49,"name":"Uncletopia | Warsaw | 1 | All Maps","name_short":"waw-1","host":"waw-1.pl.uncletopia.com","port":27015,"enabled":true,"region":"eu","cc":"pl","latitude":52.2297,"longitude":21.017532,"reserved":0,"last_update":"0001-01-01T00:00:00Z","name_a2s":"","protocol":0,"map":"","folder":"","game":"","app_id":0,"player_count":0,"max_players":0,"Bots":0,"server_type":"","server_os":"","password":false,"vac":false,"version":"","steam_id":0,"keywords":null,"game_id":0,"stv_port":0,"stv_name":"","players":null},{"server_id":50,"name":"Uncletopia | Warsaw | 2 | All Maps","name_short":"waw-2","host":"waw-1.pl.uncletopia.com","port":27025,"enabled":true,"region":"eu","cc":"pl","latitude":52.2297,"longitude":21.017532,"reserved":0,"last_update":"0001-01-01T00:00:00Z","name_a2s":"Uncletopia | Warsaw | 2 | All Maps","protocol":17,"map":"koth_highpass","folder":"tf","game":"Team Fortress","app_id":440,"player_count":0,"max_players":24,"Bots":0,"server_type":"Dedicated","server_os":"Linux","password":true,"vac":true,"version":"7757534","steam_id":85568392925397851,"keywords":["cp","nocrits","nodmgspread","uncletopia"],"game_id":440,"stv_port":27026,"stv_name":"Uncletopia | Warsaw | 2 | All Maps | STV","players":null},{"server_id":51,"name":"Uncletopia | Warsaw | 3 | All Maps","name_short":"waw-3","host":"waw-1.pl.uncletopia.com","port":27035,"enabled":true,"region":"eu","cc":"pl","latitude":52.2297,"longitude":21.017532,"reserved":0,"last_update":"0001-01-01T00:00:00Z","name_a2s":"Uncletopia | Warsaw | 3 | All Maps","protocol":17,"map":"koth_highpass","folder":"tf","game":"Team Fortress","app_id":440,"player_count":0,"max_players":24,"Bots":0,"server_type":"Dedicated","server_os":"Linux","password":true,"vac":true,"version":"7757534","steam_id":85568392925397852,"keywords":["cp","nocrits","nodmgspread","uncletopia"],"game_id":440,"stv_port":27036,"stv_name":"Uncletopia | Warsaw | 3 | All Maps | STV","players":null},{"server_id":52,"name":"Uncletopia | Warsaw | 4 | All Maps","name_short":"waw-4","host":"waw-1.pl.uncletopia.com","port":27045,"enabled":true,"region":"eu","cc":"pl","latitude":52.2297,"longitude":21.017532,"reserved":0,"last_update":"0001-01-01T00:00:00Z","name_a2s":"Uncletopia | Warsaw | 4 | All Maps","protocol":17,"map":"cp_dustbowl","folder":"tf","game":"Team Fortress","app_id":440,"player_count":0,"max_players":24,"Bots":0,"server_type":"Dedicated","server_os":"Linux","password":true,"vac":true,"version":"7757534","steam_id":85568392925397853,"keywords":["cp","nocrits","nodmgspread","uncletopia"],"game_id":440,"stv_port":27046,"stv_name":"Uncletopia | Warsaw | 4 | All Maps | STV","players":null},{"server_id":53,"name":"Uncletopia | Warsaw | 5 | Stopwatch Beta","name_short":"waw-5","host":"waw-1.pl.uncletopia.com","port":27055,"enabled":true,"region":"eu","cc":"pl","latitude":52.2297,"longitude":21.017532,"reserved":0,"last_update":"0001-01-01T00:00:00Z","name_a2s":"Uncletopia | Warsaw | 5 | Stopwatch Beta","protocol":17,"map":"workshop/pl_barnblitz_pro7.ugc582280235","folder":"tf","game":"Team Fortress","app_id":440,"player_count":0,"max_players":24,"Bots":0,"server_type":"Dedicated","server_os":"Linux","password":true,"vac":true,"version":"7757534","steam_id":85568392925397854,"keywords":["nocrits","nodmgspread","payload","uncletopia"],"game_id":440,"stv_port":27056,"stv_name":"Uncletopia | Warsaw | 5 | Stopwatch Beta | STV","players":null},{"server_id":54,"name":"Uncletopia | Warsaw | 6 | Community","name_short":"waw-6","host":"waw-1.pl.uncletopia.com","port":27065,"enabled":true,"region":"eu","cc":"pl","latitude":52.2297,"longitude":21.017532,"reserved":0,"last_update":"0001-01-01T00:00:00Z","name_a2s":"Uncletopia | Warsaw | 6 | Community","protocol":17,"map":"pl_barnblitz","folder":"tf","game":"Team Fortress","app_id":440,"player_count":0,"max_players":24,"Bots":0,"server_type":"Dedicated","server_os":"Linux","password":true,"vac":true,"version":"7757534","steam_id":85568392925397856,"keywords":["nocrits","nodmgspread","payload","uncletopia"],"game_id":440,"stv_port":27066,"stv_name":"Uncletopia | Warsaw | 6 | Community | STV","players":null}]}