{"status":true,"message":"","result":[{"server_id":0,"name_short":"","name":"Uncletopia | Frankfurt | 5 | All Maps","host":"","port":0,"enabled":false,"region":"","cc":"","latitude":0,"longitude":0,"reserved":0,"last_update":"0001-01-01T00:00:00Z","protocol":17,"map":"cp_mossrock","folder":"tf","game":"Team Fortress","app_id":440,"player_count":24,"max_players":24,"Bots":0,"server_type":"Dedicated","server_os":"Linux","password":true,"vac":true,"version":"7961495","steam_id":85568392924504277,"keywords":["cp","nocrits","nodmgspread","uncletopia"],"edicts":[772,2048],"game_id":440,"stv_port":27056,"stv_name":"Uncletopia | Frankfurt | 5 | All Maps | STV","players":[{"user_id":594,"name":"Rumedrongi","steam_id":76561198199325577,"connected_time":104000000000,"state":"active","ping":71},{"user_id":514,"name":"Squidgy","steam_id":76561198074676268,"connected_time":5895000000000,"state":"active","ping":47},{"user_id":571,"name":"KALACH","steam_id":76561198028664460,"connected_time":1069000000000,"state":"active","ping":91},{"user_id":591,"name":"cult","steam_id":76561198188647690,"connected_time":144000000000,"state":"active","ping":73},{"user_id":589,"name":"The King","steam_id":76561198117344758,"connected_time":190000000000,"state":"active","ping":154},{"user_id":530,"name":"Nox Equites","steam_id":76561198115438449,"connected_time":4789000000000,"state":"active","ping":86},{"user_id":573,"name":"Pighead_08","steam_id":76561199060466647,"connected_time":1040000000000,"state":"active","ping":98},{"user_id":588,"name":"AsianPersuasion","steam_id":76561198202112536,"connected_time":200000000000,"state":"active","ping":65},{"user_id":572,"name":"Tupac alive in serbia","steam_id":76561198010978989,"connected_time":1069000000000,"state":"active","ping":59},{"user_id":586,"name":"James Gandalfini","steam_id":76561198064123302,"connected_time":387000000000,"state":"active","ping":45},{"user_id":578,"name":"Lowqualitybeans","steam_id":76561198069405114,"connected_time":873000000000,"state":"active","ping":71},{"user_id":562,"name":"Germanium_Ge","steam_id":76561198130561775,"connected_time":2736000000000,"state":"active","ping":57},{"user_id":590,"name":"pyrofightermag","steam_id":76561198089228732,"connected_time":190000000000,"state":"active","ping":60},{"user_id":592,"name":"eep","steam_id":76561198111134021,"connected_time":144000000000,"state":"active","ping":69},{"user_id":584,"name":"Outdm'ing open noobs","steam_id":76561199042470246,"connected_time":578000000000,"state":"active","ping":56},{"user_id":587,"name":"Sir lime","steam_id":76561198220392531,"connected_time":301000000000,"state":"active","ping":153},{"user_id":539,"name":"Carry Krypl","steam_id":76561198136938121,"connected_time":4527000000000,"state":"active","ping":47},{"user_id":540,"name":"citronous","steam_id":76561198093290934,"connected_time":4509000000000,"state":"active","ping":50},{"user_id":581,"name":"Seb, Comrade","steam_id":76561198040279587,"connected_time":673000000000,"state":"active","ping":82},{"user_id":593,"name":"literallyjasonx","steam_id":76561198835895387,"connected_time":140000000000,"state":"active","ping":67},{"user_id":583,"name":"—Ç–æ—á–Ω–æ –ø—Ä–æ–≤–µ—Ä–µ–Ω–æ","steam_id":76561198005742337,"connected_time":583000000000,"state":"active","ping":59},{"user_id":585,"name":"Nymph","steam_id":76561198042801329,"connected_time":561000000000,"state":"active","ping":64},{"user_id":568,"name":"German Prick","steam_id":76561198181410637,"connected_time":2060000000000,"state":"active","ping":47},{"user_id":570,"name":"Sunduchek","steam_id":76561198067934157,"connected_time":1712000000000,"state":"active","ping":130}]},{"server_id":0,"name_short":"","name":"Uncletopia | S√£o Paulo | 1 | All Maps","host":"","port":0,"enabled":false,"region":"","cc":"","latitude":0,"longitude":0,"reserved":0,"last_update":"0001-01-01T00:00:00Z","protocol":17,"map":"pl_upward","folder":"tf","game":"Team Fortress","app_id":440,"player_count":0,"max_players":24,"Bots":0,"server_type":"Dedicated","server_os":"Linux","password":true,"vac":true,"version":"7961495","steam_id":85568392924469996,"keywords":["nocrits","nodmgspread","payload","uncletopia"],"edicts":[659,2048],"game_id":440,"stv_port":27016,"stv_name":"Uncletopia | S√£o Paulo | 1 | All Maps | STV","players":null},{"server_id":0,"name_short":"","name":"Uncletopia | Sydney | 3 | All Maps","host":"","port":0,"enabled":false,"region":"","cc":"","latitude":0,"longitude":0,"reserved":0,"last_update":"0001-01-01T00:00:00Z","protocol":17,"map":"koth_cascade","folder":"tf","game":"Team Fortress","app_id":440,"player_count":0,"max_players":24,"Bots":0,"server_type":"Dedicated","server_os":"Linux","password":true,"vac":true,"version":"7961495","steam_id":85568392925194467,"keywords":["cp","nocrits","nodmgspread","uncletopia"],"edicts":[546,2048],"game_id":440,"stv_port":27036,"stv_name":"Uncletopia | Sydney | 3 | All Maps | STV","players":null},{"server_id":0,"name_short":"","name":"Uncletopia | Chicago | 5 | All Maps","host":"","port":0,"enabled":false,"region":"","cc":"","latitude":0,"longitude":0,"reserved":0,"last_update":"0001-01-01T00:00:00Z","protocol":17,"map":"cp_mercenarypark","folder":"tf","game":"Team Fortress","app_id":440,"player_count":0,"max_players":24,"Bots":0,"server_type":"Dedicated","server_os":"Linux","password":true,"vac":true,"version":"7961495","steam_id":85568392924866362,"keywords":["cp","nocrits","nodmgspread","uncletopia"],"edicts":[554,2048],"game_id":440,"stv_port":27016,"stv_name":"Uncletopia | Chicago | 5 | All Maps | STV","players":null},{"server_id":0,"name_short":"","name":"Uncletopia | Los Angeles | 4 | Stopwatch","host":"","port":0,"enabled":false,"region":"","cc":"","latitude":0,"longitude":0,"reserved":0,"last_update":"0001-01-01T00:00:00Z","protocol":17,"map":"pl_upward","folder":"tf","game":"Team Fortress","app_id":440,"player_count":0,"max_players":24,"Bots":0,"server_type":"Dedicated","server_os":"Linux","password":true,"vac":true,"version":"7961495","steam_id":85568392924510199,"keywords":["nocrits","nodmgspread","payload","uncletopia"],"edicts":[659,2048],"game_id":440,"stv_port":27046,"stv_name":"Uncletopia | Los Angeles | 4 | Stopwatch | STV","players":null},{"server_id":0,"name_short":"","name":"Uncletopia | London | 4 | All Maps","host":"","port":0,"enabled":false,"region":"","cc":"","latitude":0,"longitude":0,"reserved":0,"last_update":"0001-01-01T00:00:00Z","protocol":17,"map":"pl_badwater","folder":"tf","game":"Team Fortress","app_id":440,"player_count":24,"max_players":24,"Bots":0,"server_type":"Dedicated","server_os":"Linux","password":true,"vac":true,"version":"7961495","steam_id":85568392924510193,"keywords":["nocrits","nodmgspread","payload","uncletopia"],"edicts":[1006,2048],"game_id":440,"stv_port":27046,"stv_name":"Uncletopia | London | 4 | All Maps | STV","players":[{"user_id":199,"name":"mommyüñ§x_x","steam_id":76561199204257697,"connected_time":3826000000000,"state":"active","ping":44},{"user_id":256,"name":"rag","steam_id":76561198083505031,"connected_time":271000000000,"state":"active","ping":42},{"user_id":230,"name":"Micha≈Ç","steam_id":76561198320346362,"connected_time":1561000000000,"state":"active","ping":61},{"user_id":200,"name":"dfcv rftgvb ghtb","steam_id":76561198397764042,"connected_time":3821000000000,"state":"active","ping":93},{"user_id":216,"name":"Celemin","steam_id":76561198031814665,"connected_time":2367000000000,"state":"active","ping":67},{"user_id":248,"name":"oultimosuicida","steam_id":76561198051429942,"connected_time":921000000000,"state":"active","ping":75},{"user_id":235,"name":"ACG_Dubsy","steam_id":76561198797308565,"connected_time":1290000000000,"state":"active","ping":58},{"user_id":234,"name":"Cocsam","steam_id":76561198050827179,"connected_time":1396000000000,"state":"active","ping":76},{"user_id":255,"name":"Ve stylu","steam_id":76561198218257120,"connected_time":512000000000,"state":"active","ping":68},{"user_id":251,"name":"Larkos","steam_id":76561198070849213,"connected_time":866000000000,"state":"active","ping":56},{"user_id":221,"name":"Arizona Ranger","steam_id":76561198982674420,"connected_time":2006000000000,"state":"active","ping":38},{"user_id":215,"name":"skullkid","steam_id":76561198044127589,"connected_time":2403000000000,"state":"active","ping":93},{"user_id":237,"name":"Reihenhausbewohner","steam_id":76561198049820307,"connected_time":1128000000000,"state":"active","ping":65},{"user_id":194,"name":"SVIFT Joe","steam_id":76561198061717026,"connected_time":4003000000000,"state":"active","ping":41},{"user_id":246,"name":"tapio.niemel","steam_id":76561199510641657,"connected_time":952000000000,"state":"active","ping":94},{"user_id":151,"name":"LuckyHappyGuy","steam_id":76561198353023996,"connected_time":6963000000000,"state":"active","ping":68},{"user_id":254,"name":"silicon based life form","steam_id":76561199127121346,"connected_time":672000000000,"state":"active","ping":54},{"user_id":258,"name":"Plep","steam_id":76561198840259819,"connected_time":222000000000,"state":"active","ping":60},{"user_id":253,"name":"(1)TFBot","steam_id":76561197994310420,"connected_time":791000000000,"state":"active","ping":74},{"user_id":245,"name":"N5LH","steam_id":76561199112528775,"connected_time":964000000000,"state":"active","ping":105},{"user_id":247,"name":"Shawty","steam_id":76561198256704286,"connected_time":943000000000,"state":"active","ping":72},{"user_id":227,"name":"dongy","steam_id":76561198050319619,"connected_time":1819000000000,"state":"active","ping":59},{"user_id":249,"name":"(All Muted) Visphiric","steam_id":76561198071938027,"connected_time":913000000000,"state":"active","ping":43},{"user_id":257,"name":"General Petrov","steam_id":76561198027204104,"connected_time":261000000000,"state":"active","ping":80}]},{"server_id":0,"name_short":"","name":"Uncletopia | Chicago | 8 | Community","host":"","port":0,"enabled":false,"region":"","cc":"","latitude":0,"longitude":0,"reserved":0,"last_update":"0001-01-01T00:00:00Z","protocol":17,"map":"cp_caldera_rc3","folder":"tf","game":"Team Fortress","app_id":440,"player_count":0,"max_players":24,"Bots":0,"server_type":"Dedicated","server_os":"Linux","password":true,"vac":true,"version":"7961495","steam_id":85568392924866365,"keywords":["cp","nocrits","nodmgspread","uncletopia"],"edicts":[716,2048],"game_id":440,"stv_port":27046,"stv_name":"Uncletopia | Chicago | 8 | Community | STV","players":null},{"server_id":0,"name_short":"","name":"Uncletopia | Dallas | 1 | All Maps","host":"","port":0,"enabled":false,"region":"","cc":"","latitude":0,"longitude":0,"reserved":0,"last_update":"0001-01-01T00:00:00Z","protocol":17,"map":"cp_process_final","folder":"tf","game":"Team Fortress","app_id":440,"player_count":0,"max_players":24,"Bots":0,"server_type":"Dedicated","server_os":"Linux","password":true,"vac":true,"version":"7961495","steam_id":85568392924469986,"keywords":["cp","nocrits","nodmgspread","uncletopia"],"edicts":[537,2048],"game_id":440,"stv_port":27016,"stv_name":"Uncletopia | Dallas | 1 | All Maps | STV","players":null},{"server_id":0,"name_short":"","name":"Uncletopia | Atlanta | 2 | All Maps","host":"","port":0,"enabled":false,"region":"","cc":"","latitude":0,"longitude":0,"reserved":0,"last_update":"0001-01-01T00:00:00Z","protocol":17,"map":"pl_pier","folder":"tf","game":"Team Fortress","app_id":440,"player_count":5,"max_players":24,"Bots":0,"server_type":"Dedicated","server_os":"Linux","password":true,"vac":true,"version":"7961495","steam_id":85568392924469983,"keywords":["nocrits","nodmgspread","payload","uncletopia"],"edicts":[1021,2048],"game_id":440,"stv_port":27026,"stv_name":"Uncletopia | Atlanta | 2 | All Maps | STV","players":[{"user_id":9,"name":"Congcrab","steam_id":76561198078687685,"connected_time":2456000000000,"state":"active","ping":65},{"user_id":34,"name":"icm2008 #SaveTF2","steam_id":76561199277408836,"connected_time":340000000000,"state":"active","ping":67},{"user_id":12,"name":"That Girl With a K","steam_id":76561198317602350,"connected_time":2232000000000,"state":"active","ping":97},{"user_id":36,"name":"Ripe_and_ready","steam_id":76561198196128781,"connected_time":69000000000,"state":"active","ping":72},{"user_id":26,"name":"Lowtidey","steam_id":76561198994887486,"connected_time":1121000000000,"state":"active","ping":209}]},{"server_id":0,"name_short":"","name":"Uncletopia | London | 1 | All Maps","host":"","port":0,"enabled":false,"region":"","cc":"","latitude":0,"longitude":0,"reserved":0,"last_update":"0001-01-01T00:00:00Z","protocol":17,"map":"pl_frontier_final","folder":"tf","game":"Team Fortress","app_id":440,"player_count":24,"max_players":24,"Bots":0,"server_type":"Dedicated","server_os":"Linux","password":true,"vac":true,"version":"7961495","steam_id":85568392924367362,"keywords":["nocrits","nodmgspread","payload","uncletopia"],"edicts":[1051,2048],"game_id":440,"stv_port":27016,"stv_name":"Uncletopia | London | 1 | All Maps | STV","players":[{"user_id":485,"name":"Snake-chan","steam_id":76561199044755854,"connected_time":417000000000,"state":"active","ping":85},{"user_id":480,"name":"luma","steam_id":76561198081649669,"connected_time":948000000000,"state":"active","ping":76},{"user_id":454,"name":"Guru","steam_id":76561198093853069,"connected_time":2639000000000,"state":"active","ping":62},{"user_id":491,"name":"Random","steam_id":76561199079951047,"connected_time":36000000000,"state":"active","ping":90},{"user_id":488,"name":"naaji","steam_id":76561198087821533,"connected_time":352000000000,"state":"active","ping":45},{"user_id":383,"name":"Laru","steam_id":76561197998838438,"connected_time":6129000000000,"state":"active","ping":76},{"user_id":487,"name":"Anus01","steam_id":76561198101884780,"connected_time":366000000000,"state":"active","ping":71},{"user_id":492,"name":"Stolas uwu","steam_id":76561199081218542,"connected_time":32000000000,"state":"active","ping":78},{"user_id":393,"name":"Carbon Monoxide Detector","steam_id":76561198055608801,"connected_time":5237000000000,"state":"active","ping":67},{"user_id":453,"name":"yush","steam_id":76561198121688934,"connected_time":2686000000000,"state":"active","ping":78},{"user_id":465,"name":"jones","steam_id":76561198044434971,"connected_time":1992000000000,"state":"active","ping":71},{"user_id":493,"name":"Saken","steam_id":76561198049075295,"connected_time":13000000000,"state":"spawning","ping":72},{"user_id":476,"name":"Zamorocian","steam_id":76561198076604017,"connected_time":977000000000,"state":"active","ping":38},{"user_id":489,"name":"GogsCrunchyNuts","steam_id":76561198150599213,"connected_time":185000000000,"state":"active","ping":80},{"user_id":401,"name":"finn","steam_id":76561198366652456,"connected_time":4217000000000,"state":"active","ping":79},{"user_id":405,"name":"Boil em mash em","steam_id":76561198026508026,"connected_time":4135000000000,"state":"active","ping":82},{"user_id":449,"name":"Junkrat simp","steam_id":76561198134378108,"connected_time":2899000000000,"state":"active","ping":82},{"user_id":481,"name":"gamerkiddo","steam_id":76561198047380360,"connected_time":939000000000,"state":"active","ping":60},{"user_id":475,"name":"edmund","steam_id":76561198378470149,"connected_time":1180000000000,"state":"active","ping":54},{"user_id":490,"name":"‚ô•Medical student‚ô•","steam_id":76561199119401415,"connected_time":149000000000,"state":"active","ping":117},{"user_id":451,"name":"GhastlyPann","steam_id":76561198825373404,"connected_time":2837000000000,"state":"active","ping":111},{"user_id":388,"name":"SuntanPikachu","steam_id":76561198121242476,"connected_time":5716000000000,"state":"active","ping":100},{"user_id":463,"name":"SirVitek","steam_id":76561198142961758,"connected_time":2152000000000,"state":"active","ping":66}]},{"server_id":0,"name_short":"","name":"Uncletopia | Warsaw | 3 | All Maps","host":"","port":0,"enabled":false,"region":"","cc":"","latitude":0,"longitude":0,"reserved":0,"last_update":"0001-01-01T00:00:00Z","protocol":17,"map":"pl_swiftwater_final1","folder":"tf","game":"Team Fortress","app_id":440,"player_count":0,"max_players":24,"Bots":0,"server_type":"Dedicated","server_os":"Linux","password":true,"vac":true,"version":"7961495","steam_id":85568392925397852,"keywords":["nocrits","nodmgspread","payload","uncletopia"],"edicts":[902,2048],"game_id":440,"stv_port":27036,"stv_name":"Uncletopia | Warsaw | 3 | All Maps | STV","players":null},{"server_id":0,"name_short":"","name":"Uncletopia | Warsaw | 2 | One Thousand Uncles","host":"","port":0,"enabled":false,"region":"","cc":"","latitude":0,"longitude":0,"reserved":0,"last_update":"0001-01-01T00:00:00Z","protocol":17,"map":"koth_highpass","folder":"tf","game":"Team Fortress","app_id":440,"player_count":0,"max_players":32,"Bots":0,"server_type":"Dedicated","server_os":"Linux","password":true,"vac":true,"version":"7961495","steam_id":85568392925397851,"keywords":["alltalk","cp","danepve","increased_maxplayers","norespawntime","uncletopia"],"edicts":[415,2048],"game_id":440,"stv_port":0,"stv_name":"","players":null},{"server_id":0,"name_short":"","name":"Uncletopia | Warsaw | 5 | Stopwatch","host":"","port":0,"enabled":false,"region":"","cc":"","latitude":0,"longitude":0,"reserved":0,"last_update":"0001-01-01T00:00:00Z","protocol":17,"map":"cp_process_final","folder":"tf","game":"Team Fortress","app_id":440,"player_count":0,"max_players":24,"Bots":0,"server_type":"Dedicated","server_os":"Linux","password":true,"vac":true,"version":"7961495","steam_id":85568392925397854,"keywords":["cp","nocrits","nodmgspread","uncletopia"],"edicts":[537,2048],"game_id":440,"stv_port":27056,"stv_name":"Uncletopia | Warsaw | 5 | Stopwatch | STV","players":null},{"server_id":0,"name_short":"","name":"Uncletopia | S√£o Paulo | 2 | Community","host":"","port":0,"enabled":false,"region":"","cc":"","latitude":0,"longitude":0,"reserved":0,"last_update":"0001-01-01T00:00:00Z","protocol":17,"map":"koth_slaughter_rc1","folder":"tf","game":"Team Fortress","app_id":440,"player_count":0,"max_players":24,"Bots":0,"server_type":"Dedicated","server_os":"Linux","password":true,"vac":true,"version":"7961495","steam_id":85568392924485349,"keywords":["cp","nocrits","nodmgspread","uncletopia"],"edicts":[966,2048],"game_id":440,"stv_port":27016,"stv_name":"Uncletopia | S√£o Paulo | 2 | Community | STV","players":null},{"server_id":0,"name_short":"","name":"Uncletopia | Chicago | 2 | All Maps","host":"","port":0,"enabled":false,"region":"","cc":"","latitude":0,"longitude":0,"reserved":0,"last_update":"0001-01-01T00:00:00Z","protocol":17,"map":"pl_borneo","folder":"tf","game":"Team Fortress","app_id":440,"player_count":24,"max_players":24,"Bots":0,"server_type":"Dedicated","server_os":"Linux","password":true,"vac":true,"version":"7961495","steam_id":85568392924469985,"keywords":["nocrits","nodmgspread","payload","uncletopia"],"edicts":[909,2048],"game_id":440,"stv_port":27026,"stv_name":"Uncletopia | Chicago | 2 | All Maps | STV","players":[{"user_id":7,"name":"Hovg9000","steam_id":76561199191556710,"connected_time":4904000000000,"state":"active","ping":81},{"user_id":92,"name":"if i miss I WILL KILL MYSELF!!!","steam_id":76561198253747839,"connected_time":759000000000,"state":"active","ping":40},{"user_id":63,"name":"Dwanor","steam_id":76561198039571887,"connected_time":2394000000000,"state":"active","ping":60},{"user_id":86,"name":"Aztea","steam_id":76561198982089893,"connected_time":996000000000,"state":"active","ping":81},{"user_id":65,"name":"botato","steam_id":76561198079925551,"connected_time":2302000000000,"state":"active","ping":74},{"user_id":89,"name":"Dallas","steam_id":76561198066542919,"connected_time":850000000000,"state":"active","ping":79},{"user_id":76,"name":"Harry S. Truman","steam_id":76561197993339757,"connected_time":1412000000000,"state":"active","ping":72},{"user_id":83,"name":"Sentry Gun","steam_id":76561198026975287,"connected_time":1173000000000,"state":"active","ping":77},{"user_id":96,"name":"Ayphi","steam_id":76561198288030412,"connected_time":96000000000,"state":"active","ping":82},{"user_id":22,"name":"Free2Play","steam_id":76561198065920486,"connected_time":3940000000000,"state":"active","ping":56},{"user_id":20,"name":"thezranger","steam_id":76561198454086460,"connected_time":4143000000000,"state":"active","ping":118},{"user_id":100,"name":"BurgerPizza","steam_id":76561198151256410,"connected_time":41000000000,"state":"active","ping":146},{"user_id":68,"name":"Morgster","steam_id":76561198131697761,"connected_time":2180000000000,"state":"active","ping":65},{"user_id":58,"name":"Chadmander","steam_id":76561197974136337,"connected_time":2774000000000,"state":"active","ping":43},{"user_id":30,"name":"Brandino!","steam_id":76561198000446932,"connected_time":3755000000000,"state":"active","ping":69},{"user_id":91,"name":"Female Gamer","steam_id":76561199366482682,"connected_time":770000000000,"state":"active","ping":100},{"user_id":95,"name":"Orb","steam_id":76561198353963523,"connected_time":401000000000,"state":"active","ping":81},{"user_id":77,"name":"Rein","steam_id":76561198300340427,"connected_time":1410000000000,"state":"active","ping":60},{"user_id":80,"name":"epitome","steam_id":76561198834412436,"connected_time":1357000000000,"state":"active","ping":70},{"user_id":98,"name":"Borderinvader","steam_id":76561197969809273,"connected_time":62000000000,"state":"active","ping":34},{"user_id":88,"name":"thebestman982","steam_id":76561199001698710,"connected_time":885000000000,"state":"active","ping":74},{"user_id":39,"name":"ting ting johnson","steam_id":76561198063099828,"connected_time":3697000000000,"state":"active","ping":50},{"user_id":97,"name":"jorjor wells","steam_id":76561199073429082,"connected_time":87000000000,"state":"active","ping":71},{"user_id":99,"name":"Orange","steam_id":76561198282214019,"connected_time":62000000000,"state":"active","ping":66}]},{"server_id":0,"name_short":"","name":"Uncletopia | Atlanta | 1 | All Maps","host":"","port":0,"enabled":false,"region":"","cc":"","latitude":0,"longitude":0,"reserved":0,"last_update":"0001-01-01T00:00:00Z","protocol":17,"map":"cp_dustbowl","folder":"tf","game":"Team Fortress","app_id":440,"player_count":24,"max_players":24,"Bots":0,"server_type":"Dedicated","server_os":"Linux","password":true,"vac":true,"version":"7961495","steam_id":85568392924469982,"keywords":["cp","nocrits","nodmgspread","uncletopia"],"edicts":[1037,2048],"game_id":440,"stv_port":27016,"stv_name":"Uncletopia | Atlanta | 1 | All Maps | STV","players":[{"user_id":216,"name":"BOUZENZEL","steam_id":76561198095000722,"connected_time":988000000000,"state":"active","ping":58},{"user_id":225,"name":"PyroTechno","steam_id":76561198060929872,"connected_time":587000000000,"state":"active","ping":58},{"user_id":198,"name":"Sinta","steam_id":76561198098398841,"connected_time":3059000000000,"state":"active","ping":60},{"user_id":197,"name":"Albino Jellyfish","steam_id":76561198208561097,"connected_time":3166000000000,"state":"active","ping":50},{"user_id":179,"name":"Obelisk","steam_id":76561198049416866,"connected_time":5156000000000,"state":"active","ping":50},{"user_id":189,"name":"Inworth","steam_id":76561197999777003,"connected_time":4199000000000,"state":"active","ping":77},{"user_id":207,"name":"TheLonliestThelonius","steam_id":76561198097657243,"connected_time":2522000000000,"state":"active","ping":99},{"user_id":218,"name":"metalfan666","steam_id":76561198386344068,"connected_time":943000000000,"state":"active","ping":74},{"user_id":219,"name":"el wey","steam_id":76561199233057936,"connected_time":936000000000,"state":"active","ping":77},{"user_id":220,"name":"TheMightyWoz","steam_id":76561198428397322,"connected_time":927000000000,"state":"active","ping":129},{"user_id":180,"name":"Heathcliff","steam_id":76561198044288534,"connected_time":4984000000000,"state":"active","ping":79},{"user_id":221,"name":"Large  Hassy","steam_id":76561197995714103,"connected_time":876000000000,"state":"active","ping":73},{"user_id":182,"name":"who ate the cheese","steam_id":76561198275408467,"connected_time":4271000000000,"state":"active","ping":51},{"user_id":214,"name":"He rolls his own","steam_id":76561198058162684,"connected_time":1729000000000,"state":"active","ping":74},{"user_id":149,"name":"Luci‚òÖFer","steam_id":76561199030343810,"connected_time":7144000000000,"state":"active","ping":43},{"user_id":193,"name":"shaderoses","steam_id":76561198070800500,"connected_time":3921000000000,"state":"active","ping":61},{"user_id":222,"name":"FrostWare","steam_id":76561198187077534,"connected_time":847000000000,"state":"active","ping":81},{"user_id":208,"name":"hazel","steam_id":76561198879911815,"connected_time":2509000000000,"state":"active","ping":60},{"user_id":215,"name":"Trevj1012","steam_id":76561198107906712,"connected_time":1613000000000,"state":"active","ping":81},{"user_id":223,"name":"Duke Big Balls","steam_id":76561198043784068,"connected_time":787000000000,"state":"active","ping":62},{"user_id":210,"name":"the pest","steam_id":76561198826298849,"connected_time":2424000000000,"state":"active","ping":95},{"user_id":211,"name":"xX_BimboSwallower_Xx","steam_id":76561198016029965,"connected_time":2281000000000,"state":"active","ping":60},{"user_id":195,"name":"lu","steam_id":76561198080731872,"connected_time":3381000000000,"state":"active","ping":75},{"user_id":213,"name":"johnny wang","steam_id":76561198969143876,"connected_time":1772000000000,"state":"active","ping":75}]},{"server_id":0,"name_short":"","name":"Uncletopia | Frankfurt | 3 | All Maps","host":"","port":0,"enabled":false,"region":"","cc":"","latitude":0,"longitude":0,"reserved":0,"last_update":"0001-01-01T00:00:00Z","protocol":17,"map":"cp_gorge","folder":"tf","game":"Team Fortress","app_id":440,"player_count":24,"max_players":24,"Bots":0,"server_type":"Dedicated","server_os":"Linux","password":true,"vac":true,"version":"7961495","steam_id":85568392924504274,"keywords":["cp","nocrits","nodmgspread","uncletopia"],"edicts":[548,2048],"game_id":440,"stv_port":27036,"stv_name":"Uncletopia | Frankfurt | 3 | All Maps | STV","players":[{"user_id":234,"name":"redditor_gaming","steam_id":76561198176507538,"connected_time":146000000000,"state":"active","ping":78},{"user_id":221,"name":"Belly itcher","steam_id":76561198188744894,"connected_time":537000000000,"state":"active","ping":60},{"user_id":116,"name":"–ú–°–ú–ö –ø–æ –ú–ì–ï","steam_id":76561199025316887,"connected_time":6970000000000,"state":"active","ping":117},{"user_id":235,"name":"Dictatorial Karelian","steam_id":76561198196736457,"connected_time":134000000000,"state":"active","ping":76},{"user_id":156,"name":"rigel_","steam_id":76561198148640847,"connected_time":4904000000000,"state":"active","ping":75},{"user_id":236,"name":"Dr. Cox","steam_id":76561198246629218,"connected_time":113000000000,"state":"active","ping":83},{"user_id":227,"name":"II.Wheatley","steam_id":76561198400657925,"connected_time":250000000000,"state":"active","ping":105},{"user_id":149,"name":"jorge","steam_id":76561198107460765,"connected_time":5641000000000,"state":"active","ping":48},{"user_id":180,"name":"bolsonaro","steam_id":76561198074917015,"connected_time":3251000000000,"state":"active","ping":72},{"user_id":228,"name":"usuikui","steam_id":76561198093304268,"connected_time":243000000000,"state":"active","ping":73},{"user_id":232,"name":"Healix","steam_id":76561198130270161,"connected_time":167000000000,"state":"active","ping":52},{"user_id":196,"name":"flying gun spy","steam_id":76561199143891158,"connected_time":2065000000000,"state":"active","ping":93},{"user_id":233,"name":"duckington duck","steam_id":76561199157117063,"connected_time":156000000000,"state":"active","ping":54},{"user_id":176,"name":"naah you off the Google+ perc","steam_id":76561198190583242,"connected_time":3326000000000,"state":"active","ping":64},{"user_id":194,"name":"kaiji_saleh","steam_id":76561199274325425,"connected_time":2163000000000,"state":"active","ping":158},{"user_id":224,"name":"Loona my beloved","steam_id":76561198067182918,"connected_time":435000000000,"state":"active","ping":92},{"user_id":210,"name":"wavelength","steam_id":76561198154677956,"connected_time":1151000000000,"state":"active","ping":66},{"user_id":207,"name":"ifre3","steam_id":76561198052545817,"connected_time":1242000000000,"state":"active","ping":99},{"user_id":229,"name":"Yozeb","steam_id":76561198035000345,"connected_time":237000000000,"state":"active","ping":68},{"user_id":237,"name":"uber for spies","steam_id":76561199036865103,"connected_time":25000000000,"state":"active","ping":91},{"user_id":230,"name":"Mr. Data","steam_id":76561198039083551,"connected_time":216000000000,"state":"active","ping":59},{"user_id":208,"name":"stankboxers #savetf2","steam_id":76561198058609582,"connected_time":1231000000000,"state":"active","ping":163},{"user_id":231,"name":"Kirk","steam_id":76561198039210226,"connected_time":213000000000,"state":"active","ping":57},{"user_id":158,"name":"eNine","steam_id":76561198890193313,"connected_time":4659000000000,"state":"active","ping":57}]},{"server_id":0,"name_short":"","name":"Uncletopia | Sydney | 6 | Community","host":"","port":0,"enabled":false,"region":"","cc":"","latitude":0,"longitude":0,"reserved":0,"last_update":"0001-01-01T00:00:00Z","protocol":17,"map":"koth_soot_final1","folder":"tf","game":"Team Fortress","app_id":440,"player_count":0,"max_players":24,"Bots":0,"server_type":"Dedicated","server_os":"Linux","password":true,"vac":true,"version":"7961495","steam_id":85568392925397960,"keywords":["cp","nocrits","nodmgspread","uncletopia"],"edicts":[242,2048],"game_id":440,"stv_port":27066,"stv_name":"Uncletopia | Sydney | 6 | Community | STV","players":null},{"server_id":0,"name_short":"","name":"Uncletopia | Hong Kong | 1 | All Maps","host":"","port":0,"enabled":false,"region":"","cc":"","latitude":0,"longitude":0,"reserved":0,"last_update":"0001-01-01T00:00:00Z","protocol":17,"map":"pl_upward","folder":"tf","game":"Team Fortress","app_id":440,"player_count":0,"max_players":24,"Bots":0,"server_type":"Dedicated","server_os":"Linux","password":true,"vac":true,"version":"7961495","steam_id":85568392924494504,"keywords":["nocrits","nodmgspread","payload","uncletopia"],"edicts":[657,2048],"game_id":440,"stv_port":27016,"stv_name":"Uncletopia | Hong Kong | 1 | All Maps | STV","players":null},{"server_id":0,"name_short":"","name":"Uncletopia | Atlanta | 3 | Stopwatch","host":"","port":0,"enabled":false,"region":"","cc":"","latitude":0,"longitude":0,"reserved":0,"last_update":"0001-01-01T00:00:00Z","protocol":17,"map":"cp_process_final","folder":"tf","game":"Team Fortress","app_id":440,"player_count":0,"max_players":24,"Bots":0,"server_type":"Dedicated","server_os":"Linux","password":true,"vac":true,"version":"7961495","steam_id":85568392924515187,"keywords":["cp","nocrits","nodmgspread","uncletopia"],"edicts":[537,2048],"game_id":440,"stv_port":27036,"stv_name":"Uncletopia | Atlanta | 3 | Stopwatch | STV","players":null},{"server_id":0,"name_short":"","name":"Uncletopia | San Francisco | 4 | Community","host":"","port":0,"enabled":false,"region":"","cc":"","latitude":0,"longitude":0,"reserved":0,"last_update":"0001-01-01T00:00:00Z","protocol":17,"map":"cp_reckoner_rc6","folder":"tf","game":"Team Fortress","app_id":440,"player_count":0,"max_players":24,"Bots":0,"server_type":"Dedicated","server_os":"Linux","password":true,"vac":true,"version":"7961495","steam_id":85568392924742826,"keywords":["cp","nocrits","nodmgspread","uncletopia"],"edicts":[657,2048],"game_id":440,"stv_port":27046,"stv_name":"Uncletopia | San Francisco | 4 | Community | STV","players":null},{"server_id":0,"name_short":"","name":"Uncletopia | Frankfurt | 7 | Stopwatch","host":"","port":0,"enabled":false,"region":"","cc":"","latitude":0,"longitude":0,"reserved":0,"last_update":"0001-01-01T00:00:00Z","protocol":17,"map":"koth_lakeside_final","folder":"tf","game":"Team Fortress","app_id":440,"player_count":0,"max_players":24,"Bots":0,"server_type":"Dedicated","server_os":"Linux","password":true,"vac":true,"version":"7961495","steam_id":85568392924742827,"keywords":["cp","nocrits","nodmgspread","uncletopia"],"edicts":[303,2048],"game_id":440,"stv_port":27076,"stv_name":"Uncletopia | Frankfurt | 7 | Stopwatch | STV","players":null},{"server_id":0,"name_short":"","name":"Uncletopia | London | 7 | Stopwatch","host":"","port":0,"enabled":false,"region":"","cc":"","latitude":0,"longitude":0,"reserved":0,"last_update":"0001-01-01T00:00:00Z","protocol":17,"map":"pl_swiftwater_final1","folder":"tf","game":"Team Fortress","app_id":440,"player_count":0,"max_players":24,"Bots":0,"server_type":"Dedicated","server_os":"Linux","password":true,"vac":true,"version":"7961495","steam_id":85568392924964314,"keywords":["nocrits","nodmgspread","payload","uncletopia"],"edicts":[902,2048],"game_id":440,"stv_port":27076,"stv_name":"Uncletopia | London | 7 | Stopwatch | STV","players":null},{"server_id":0,"name_short":"","name":"Uncletopia | Frankfurt | 2 | All Maps","host":"","port":0,"enabled":false,"region":"","cc":"","latitude":0,"longitude":0,"reserved":0,"last_update":"0001-01-01T00:00:00Z","protocol":17,"map":"cp_mossrock","folder":"tf","game":"Team Fortress","app_id":440,"player_count":24,"max_players":24,"Bots":0,"server_type":"Dedicated","server_os":"Linux","password":true,"vac":true,"version":"7961495","steam_id":85568392924469990,"keywords":["cp","nocrits","nodmgspread","uncletopia"],"edicts":[725,2048],"game_id":440,"stv_port":27026,"stv_name":"Uncletopia | Frankfurt | 2 | All Maps | STV","players":[{"user_id":83,"name":"that hamster has been dead for ","steam_id":76561198346638308,"connected_time":3227000000000,"state":"active","ping":58},{"user_id":117,"name":"X_Knight-06","steam_id":76561199420898469,"connected_time":579000000000,"state":"active","ping":83},{"user_id":107,"name":"[Enter Creative Name Here]","steam_id":76561198203804431,"connected_time":1219000000000,"state":"active","ping":93},{"user_id":125,"name":"Drip-O-bama","steam_id":76561199135631057,"connected_time":362000000000,"state":"active","ping":66},{"user_id":97,"name":"Gran","steam_id":76561198044912350,"connected_time":2200000000000,"state":"active","ping":47},{"user_id":98,"name":"Milk02","steam_id":76561199484753251,"connected_time":2153000000000,"state":"active","ping":134},{"user_id":119,"name":"veltek","steam_id":76561198112681438,"connected_time":476000000000,"state":"active","ping":66},{"user_id":120,"name":"METhOphetamine","steam_id":76561198068216224,"connected_time":475000000000,"state":"active","ping":45},{"user_id":121,"name":"Spectral Sloth","steam_id":76561198170083139,"connected_time":457000000000,"state":"active","ping":79},{"user_id":84,"name":"DXD Tech","steam_id":76561198358379587,"connected_time":3056000000000,"state":"active","ping":85},{"user_id":75,"name":"gio","steam_id":76561198219185620,"connected_time":3696000000000,"state":"active","ping":92},{"user_id":126,"name":"Mr. Man","steam_id":76561198012947085,"connected_time":345000000000,"state":"active","ping":47},{"user_id":128,"name":"–†–µ–î–∞–ù–æ–í–µ–¶ ^_^","steam_id":76561199032612973,"connected_time":171000000000,"state":"active","ping":64},{"user_id":100,"name":"Sm0ukr","steam_id":76561198131932419,"connected_time":2127000000000,"state":"active","ping":66},{"user_id":106,"name":"Jiwi","steam_id":76561198007791101,"connected_time":1260000000000,"state":"active","ping":62},{"user_id":111,"name":"JkouvolauxxHQYT","steam_id":76561198135428304,"connected_time":944000000000,"state":"active","ping":87},{"user_id":114,"name":"Gregor Samsa","steam_id":76561198973069177,"connected_time":720000000000,"state":"active","ping":49},{"user_id":104,"name":"kirisame","steam_id":76561198273358760,"connected_time":1366000000000,"state":"active","ping":60},{"user_id":66,"name":"MeSeaBass","steam_id":76561198390822393,"connected_time":4175000000000,"state":"active","ping":112},{"user_id":122,"name":"DarthPaul8181","steam_id":76561198373050455,"connected_time":436000000000,"state":"active","ping":50},{"user_id":123,"name":"OTF","steam_id":76561198117552294,"connected_time":422000000000,"state":"active","ping":73},{"user_id":95,"name":"Vitamin Weee","steam_id":76561199183937747,"connected_time":2322000000000,"state":"active","ping":80},{"user_id":62,"name":"‚ù§Speedbump‚ù§","steam_id":76561198388690313,"connected_time":4274000000000,"state":"active","ping":56},{"user_id":127,"name":"Extra Soup","steam_id":76561199217973825,"connected_time":302000000000,"state":"active","ping":137}]},{"server_id":0,"name_short":"","name":"Uncletopia | Sydney | 2 | All Maps","host":"","port":0,"enabled":false,"region":"","cc":"","latitude":0,"longitude":0,"reserved":0,"last_update":"0001-01-01T00:00:00Z","protocol":17,"map":"koth_cascade","folder":"tf","game":"Team Fortress","app_id":440,"player_count":0,"max_players":24,"Bots":0,"server_type":"Dedicated","server_os":"Linux","password":true,"vac":true,"version":"7961495","steam_id":85568392924470002,"keywords":["cp","nocrits","nodmgspread","uncletopia"],"edicts":[544,2048],"game_id":440,"stv_port":27026,"stv_name":"Uncletopia | Sydney | 2 | All Maps | STV","players":null},{"server_id":0,"name_short":"","name":"Uncletopia | New York City | 3 | Stopwatch","host":"","port":0,"enabled":false,"region":"","cc":"","latitude":0,"longitude":0,"reserved":0,"last_update":"0001-01-01T00:00:00Z","protocol":17,"map":"koth_highpass","folder":"tf","game":"Team Fortress","app_id":440,"player_count":0,"max_players":24,"Bots":0,"server_type":"Dedicated","server_os":"Linux","password":true,"vac":true,"version":"7961495","steam_id":85568392924742820,"keywords":["cp","nocrits","nodmgspread","uncletopia"],"edicts":[415,2048],"game_id":440,"stv_port":27036,"stv_name":"Uncletopia | New York City | 3 | Stopwatch | STV","players":null},{"server_id":0,"name_short":"","name":"Uncletopia | New York City | 4 | Community","host":"","port":0,"enabled":false,"region":"","cc":"","latitude":0,"longitude":0,"reserved":0,"last_update":"0001-01-01T00:00:00Z","protocol":17,"map":"pl_cactuscanyon_redux_final2","folder":"tf","game":"Team Fortress","app_id":440,"player_count":0,"max_players":24,"Bots":0,"server_type":"Dedicated","server_os":"Linux","password":true,"vac":true,"version":"7961495","steam_id":85568392924742821,"keywords":["nocrits","nodmgspread","payload","uncletopia"],"edicts":[978,2048],"game_id":440,"stv_port":27046,"stv_name":"Uncletopia | New York City | 4 | Community | STV","players":null},{"server_id":0,"name_short":"","name":"Uncletopia | Seattle | 2 | All Maps","host":"","port":0,"enabled":false,"region":"","cc":"","latitude":0,"longitude":0,"reserved":0,"last_update":"0001-01-01T00:00:00Z","protocol":17,"map":"pl_upward","folder":"tf","game":"Team Fortress","app_id":440,"player_count":0,"max_players":24,"Bots":0,"server_type":"Dedicated","server_os":"Linux","password":true,"vac":true,"version":"7961495","steam_id":85568392924469998,"keywords":["nocrits","nodmgspread","payload","uncletopia"],"edicts":[659,2048],"game_id":440,"stv_port":27026,"stv_name":"Uncletopia | Seattle | 2 | All Maps | STV","players":null},{"server_id":0,"name_short":"","name":"Uncletopia | Frankfurt | 6 | All Maps","host":"","port":0,"enabled":false,"region":"","cc":"","latitude":0,"longitude":0,"reserved":0,"last_update":"0001-01-01T00:00:00Z","protocol":17,"map":"cp_snakewater_final1","folder":"tf","game":"Team Fortress","app_id":440,"player_count":0,"max_players":24,"Bots":0,"server_type":"Dedicated","server_os":"Linux","password":true,"vac":true,"version":"7961495","steam_id":85568392924504278,"keywords":["cp","nocrits","nodmgspread","uncletopia"],"edicts":[634,2048],"game_id":440,"stv_port":27066,"stv_name":"Uncletopia | Frankfurt | 6 | All Maps | STV","players":null},{"server_id":0,"name_short":"","name":"Uncletopia | Warsaw | 1 | One Thousand Uncles","host":"","port":0,"enabled":false,"region":"","cc":"","latitude":0,"longitude":0,"reserved":0,"last_update":"0001-01-01T00:00:00Z","protocol":17,"map":"pl_badwater","folder":"tf","game":"Team Fortress","app_id":440,"player_count":26,"max_players":32,"Bots":20,"server_type":"Dedicated","server_os":"Linux","password":true,"vac":true,"version":"7961495","steam_id":85568392925397850,"keywords":["alltalk","bots","danepve","increased_maxplayers","norespawntime","payload","uncletopia"],"edicts":[1127,2048],"game_id":440,"stv_port":0,"stv_name":"","players":[{"user_id":445,"name":"puffy","steam_id":76561198411347037,"connected_time":825000000000,"state":"active","ping":150},{"user_id":447,"name":"fish","steam_id":76561199175173199,"connected_time":419000000000,"state":"active","ping":74},{"user_id":444,"name":"Bordt258","steam_id":76561199038280717,"connected_time":1076000000000,"state":"active","ping":70},{"user_id":451,"name":"bigreed7262","steam_id":76561199057298231,"connected_time":15000000000,"state":"spawning","ping":74},{"user_id":410,"name":"Rayco","steam_id":76561198048013129,"connected_time":5388000000000,"state":"active","ping":78},{"user_id":450,"name":"engienier gaimng","steam_id":76561199211028490,"connected_time":203000000000,"state":"active","ping":64}]},{"server_id":0,"name_short":"","name":"Uncletopia | Montr√©al | 2 | One Thousand Uncles","host":"","port":0,"enabled":false,"region":"","cc":"","latitude":0,"longitude":0,"reserved":0,"last_update":"0001-01-01T00:00:00Z","protocol":17,"map":"cp_mossrock","folder":"tf","game":"Team Fortress","app_id":440,"player_count":0,"max_players":32,"Bots":0,"server_type":"Dedicated","server_os":"Linux","password":true,"vac":true,"version":"7961495","steam_id":85568392924500088,"keywords":["alltalk","cp","danepve","increased_maxplayers","norespawntime","uncletopia"],"edicts":[445,2048],"game_id":440,"stv_port":0,"stv_name":"","players":null},{"server_id":0,"name_short":"","name":"Uncletopia | Dallas | 3 | All Maps","host":"","port":0,"enabled":false,"region":"","cc":"","latitude":0,"longitude":0,"reserved":0,"last_update":"0001-01-01T00:00:00Z","protocol":17,"map":"pl_pier","folder":"tf","game":"Team Fortress","app_id":440,"player_count":24,"max_players":24,"Bots":0,"server_type":"Dedicated","server_os":"Linux","password":true,"vac":true,"version":"7961495","steam_id":85568392924515219,"keywords":["nocrits","nodmgspread","payload","uncletopia"],"edicts":[1262,2048],"game_id":440,"stv_port":27036,"stv_name":"Uncletopia | Dallas | 3 | All Maps | STV","players":[{"user_id":53,"name":"darkgentleman1","steam_id":76561199368295990,"connected_time":1986000000000,"state":"active","ping":93},{"user_id":58,"name":"Looge","steam_id":76561198155483586,"connected_time":1671000000000,"state":"active","ping":68},{"user_id":67,"name":"Deep Peepus","steam_id":76561198205395757,"connected_time":1398000000000,"state":"active","ping":89},{"user_id":49,"name":"BL√òRG","steam_id":76561198036126673,"connected_time":2485000000000,"state":"active","ping":73},{"user_id":57,"name":"Betty Fucking White","steam_id":76561198046069348,"connected_time":1744000000000,"state":"active","ping":68},{"user_id":80,"name":"Chobin","steam_id":76561198046942778,"connected_time":365000000000,"state":"active","ping":96},{"user_id":60,"name":"Harold","steam_id":76561198254879231,"connected_time":1661000000000,"state":"active","ping":93},{"user_id":83,"name":"Caoticaos","steam_id":76561198114800227,"connected_time":244000000000,"state":"active","ping":131},{"user_id":73,"name":"Boxxed","steam_id":76561198255787237,"connected_time":871000000000,"state":"active","ping":57},{"user_id":50,"name":"Goblin64","steam_id":76561198969156830,"connected_time":2114000000000,"state":"active","ping":85},{"user_id":81,"name":"ThiccKomodoAss","steam_id":76561198037830114,"connected_time":362000000000,"state":"active","ping":86},{"user_id":26,"name":"IM@S! Kael","steam_id":76561197971968764,"connected_time":3343000000000,"state":"active","ping":90},{"user_id":68,"name":"An Engineer","steam_id":76561198110381643,"connected_time":1304000000000,"state":"active","ping":44},{"user_id":62,"name":"green rain 57","steam_id":76561199404849068,"connected_time":1620000000000,"state":"active","ping":91},{"user_id":52,"name":"Rin \"Hindwing\" Redtail","steam_id":76561199074865638,"connected_time":2047000000000,"state":"active","ping":51},{"user_id":78,"name":"considering pizza hut again","steam_id":76561198183811990,"connected_time":410000000000,"state":"active","ping":85},{"user_id":74,"name":"henrat4","steam_id":76561199131516758,"connected_time":855000000000,"state":"active","ping":47},{"user_id":84,"name":"DYGIILYIAHSPJTOS (She/Her)","steam_id":76561198042177809,"connected_time":175000000000,"state":"active","ping":91},{"user_id":79,"name":"LACTAID","steam_id":76561198276585202,"connected_time":403000000000,"state":"active","ping":86},{"user_id":75,"name":"short bus enthusiast","steam_id":76561198069380992,"connected_time":714000000000,"state":"active","ping":59},{"user_id":42,"name":"Habber The Quesomancer","steam_id":76561198049642751,"connected_time":2795000000000,"state":"active","ping":46},{"user_id":82,"name":"Commissar","steam_id":76561198137223253,"connected_time":300000000000,"state":"active","ping":58},{"user_id":48,"name":"pokie","steam_id":76561198799651697,"connected_time":2620000000000,"state":"active","ping":77},{"user_id":47,"name":"Gibs Degrossi","steam_id":76561198066152609,"connected_time":2638000000000,"state":"active","ping":89}]},{"server_id":0,"name_short":"","name":"Uncletopia | San Francisco | 3 | Stopwatch","host":"","port":0,"enabled":false,"region":"","cc":"","latitude":0,"longitude":0,"reserved":0,"last_update":"0001-01-01T00:00:00Z","protocol":17,"map":"koth_clearcut_b15","folder":"tf","game":"Team Fortress","app_id":440,"player_count":0,"max_players":24,"Bots":0,"server_type":"Dedicated","server_os":"Linux","password":true,"vac":true,"version":"7961495","steam_id":85568392924742824,"keywords":["cp","nocrits","nodmgspread","uncletopia"],"edicts":[445,2048],"game_id":440,"stv_port":27036,"stv_name":"Uncletopia | San Francisco | 3 | Stopwatch | STV","players":null},{"server_id":0,"name_short":"","name":"Uncletopia | New York City | 2 | All Maps","host":"","port":0,"enabled":false,"region":"","cc":"","latitude":0,"longitude":0,"reserved":0,"last_update":"0001-01-01T00:00:00Z","protocol":17,"map":"koth_suijin","folder":"tf","game":"Team Fortress","app_id":440,"player_count":0,"max_players":24,"Bots":0,"server_type":"Dedicated","server_os":"Linux","password":true,"vac":true,"version":"7961495","steam_id":85568392924469994,"keywords":["cp","nocrits","nodmgspread","uncletopia"],"edicts":[421,2048],"game_id":440,"stv_port":27026,"stv_name":"Uncletopia | New York City | 2 | All Maps | STV","players":null},{"server_id":0,"name_short":"","name":"Uncletopia | Sydney | 5 | Stopwatch","host":"","port":0,"enabled":false,"region":"","cc":"","latitude":0,"longitude":0,"reserved":0,"last_update":"0001-01-01T00:00:00Z","protocol":17,"map":"pl_swiftwater_final1","folder":"tf","game":"Team Fortress","app_id":440,"player_count":0,"max_players":24,"Bots":0,"server_type":"Dedicated","server_os":"Linux","password":true,"vac":true,"version":"7961495","steam_id":85568392925397959,"keywords":["nocrits","nodmgspread","payload","uncletopia"],"edicts":[902,2048],"game_id":440,"stv_port":27056,"stv_name":"Uncletopia | Sydney | 5 | Stopwatch | STV","players":null},{"server_id":0,"name_short":"","name":"Uncletopia | London | 8 | Community","host":"","port":0,"enabled":false,"region":"","cc":"","latitude":0,"longitude":0,"reserved":0,"last_update":"0001-01-01T00:00:00Z","protocol":17,"map":"cp_propaganda_b18","folder":"tf","game":"Team Fortress","app_id":440,"player_count":0,"max_players":24,"Bots":0,"server_type":"Dedicated","server_os":"Linux","password":true,"vac":true,"version":"7961495","steam_id":85568392924964315,"keywords":["cp","nocrits","nodmgspread","uncletopia"],"edicts":[412,2048],"game_id":440,"stv_port":27086,"stv_name":"Uncletopia | London | 8 | Community | STV","players":null},{"server_id":0,"name_short":"","name":"Uncletopia | Montr√©al | 3 | One Thousand Uncles","host":"","port":0,"enabled":false,"region":"","cc":"","latitude":0,"longitude":0,"reserved":0,"last_update":"0001-01-01T00:00:00Z","protocol":17,"map":"pl_upward","folder":"tf","game":"Team Fortress","app_id":440,"player_count":0,"max_players":32,"Bots":0,"server_type":"Dedicated","server_os":"Linux","password":true,"vac":true,"version":"7961495","steam_id":85568392924500089,"keywords":["alltalk","danepve","increased_maxplayers","norespawntime","payload","uncletopia"],"edicts":[656,2048],"game_id":440,"stv_port":0,"stv_name":"","players":null},{"server_id":0,"name_short":"","name":"Uncletopia | Chicago | 7 | Stopwatch","host":"","port":0,"enabled":false,"region":"","cc":"","latitude":0,"longitude":0,"reserved":0,"last_update":"0001-01-01T00:00:00Z","protocol":17,"map":"koth_product_final","folder":"tf","game":"Team Fortress","app_id":440,"player_count":3,"max_players":24,"Bots":0,"server_type":"Dedicated","server_os":"Linux","password":true,"vac":true,"version":"7961495","steam_id":85568392924866364,"keywords":["cp","nocrits","nodmgspread","uncletopia"],"edicts":[392,2048],"game_id":440,"stv_port":27036,"stv_name":"Uncletopia | Chicago | 7 | Stopwatch | STV","players":[{"user_id":4,"name":"RoboticPyroRobo","steam_id":76561198355732200,"connected_time":368000000000,"state":"active","ping":75},{"user_id":5,"name":"spiderfat","steam_id":76561198957917221,"connected_time":350000000000,"state":"active","ping":81},{"user_id":7,"name":"shmungus","steam_id":76561198134321792,"connected_time":130000000000,"state":"active","ping":54}]},{"server_id":0,"name_short":"","name":"Uncletopia | Seattle | 1 | All Maps","host":"","port":0,"enabled":false,"region":"","cc":"","latitude":0,"longitude":0,"reserved":0,"last_update":"0001-01-01T00:00:00Z","protocol":17,"map":"cp_dustbowl","folder":"tf","game":"Team Fortress","app_id":440,"player_count":24,"max_players":24,"Bots":0,"server_type":"Dedicated","server_os":"Linux","password":true,"vac":true,"version":"7961495","steam_id":85568392924469997,"keywords":["cp","nocrits","nodmgspread","uncletopia"],"edicts":[1000,2048],"game_id":440,"stv_port":27016,"stv_name":"Uncletopia | Seattle | 1 | All Maps | STV","players":[{"user_id":205,"name":"Varislay","steam_id":76561198104924108,"connected_time":17000000000,"state":"spawning","ping":99},{"user_id":186,"name":"prostate tickler (you are next)","steam_id":76561198095121758,"connected_time":1970000000000,"state":"active","ping":68},{"user_id":188,"name":"peachy","steam_id":76561198028721790,"connected_time":1853000000000,"state":"active","ping":60},{"user_id":192,"name":"Wang of Wall St","steam_id":76561198047460598,"connected_time":1780000000000,"state":"active","ping":123},{"user_id":199,"name":"Rommel2007","steam_id":76561198041744631,"connected_time":1059000000000,"state":"active","ping":81},{"user_id":111,"name":"hearthian","steam_id":76561198113235260,"connected_time":6242000000000,"state":"active","ping":120},{"user_id":153,"name":"Penis Man","steam_id":76561198947885613,"connected_time":4083000000000,"state":"active","ping":68},{"user_id":167,"name":"Bobby Ray","steam_id":76561198044131188,"connected_time":3241000000000,"state":"active","ping":75},{"user_id":170,"name":"SilverRooftop","steam_id":76561198086369782,"connected_time":3163000000000,"state":"active","ping":111},{"user_id":138,"name":"L. Ron Hoyabembe","steam_id":76561198306393090,"connected_time":4727000000000,"state":"active","ping":90},{"user_id":204,"name":"Erbbew","steam_id":76561198014787195,"connected_time":42000000000,"state":"active","ping":58},{"user_id":158,"name":"Ethanol Buttchugger","steam_id":76561199127590316,"connected_time":3672000000000,"state":"active","ping":81},{"user_id":198,"name":"Kylar","steam_id":76561198196979431,"connected_time":1168000000000,"state":"active","ping":81},{"user_id":184,"name":"rilby","steam_id":76561198132755619,"connected_time":2122000000000,"state":"active","ping":69},{"user_id":176,"name":"Schmupp","steam_id":76561198150928115,"connected_time":2782000000000,"state":"active","ping":74},{"user_id":164,"name":"Shark Sandwich","steam_id":76561198025007938,"connected_time":3414000000000,"state":"active","ping":57},{"user_id":202,"name":"Wolfman","steam_id":76561198095264646,"connected_time":397000000000,"state":"active","ping":109},{"user_id":185,"name":"Gumpy","steam_id":76561198144747235,"connected_time":2085000000000,"state":"active","ping":83},{"user_id":183,"name":"valley people dyna-mite","steam_id":76561199190800520,"connected_time":2280000000000,"state":"active","ping":38},{"user_id":194,"name":"Jovo","steam_id":76561197993265970,"connected_time":1681000000000,"state":"active","ping":25},{"user_id":203,"name":"choi","steam_id":76561198053669887,"connected_time":247000000000,"state":"active","ping":89},{"user_id":191,"name":"Draco6257","steam_id":76561199147322448,"connected_time":1800000000000,"state":"active","ping":104},{"user_id":146,"name":"toes","steam_id":76561198221151676,"connected_time":4605000000000,"state":"active","ping":52},{"user_id":196,"name":"Firedust19","steam_id":76561198153238631,"connected_time":1507000000000,"state":"active","ping":100}]},{"server_id":0,"name_short":"","name":"Uncletopia | Sydney | 4 | All Maps","host":"","port":0,"enabled":false,"region":"","cc":"","latitude":0,"longitude":0,"reserved":0,"last_update":"0001-01-01T00:00:00Z","protocol":17,"map":"koth_lakeside_final","folder":"tf","game":"Team Fortress","app_id":440,"player_count":0,"max_players":24,"Bots":0,"server_type":"Dedicated","server_os":"Linux","password":true,"vac":true,"version":"7961495","steam_id":85568392925397958,"keywords":["cp","nocrits","nodmgspread","uncletopia"],"edicts":[303,2048],"game_id":440,"stv_port":27046,"stv_name":"Uncletopia | Sydney | 4 | All Maps | STV","players":null},{"server_id":0,"name_short":"","name":"Uncletopia | Dallas | 2 | All Maps","host":"","port":0,"enabled":false,"region":"","cc":"","latitude":0,"longitude":0,"reserved":0,"last_update":"0001-01-01T00:00:00Z","protocol":17,"map":"cp_gorge","folder":"tf","game":"Team Fortress","app_id":440,"player_count":24,"max_players":24,"Bots":0,"server_type":"Dedicated","server_os":"Linux","password":true,"vac":true,"version":"7961495","steam_id":85568392924469988,"keywords":["cp","nocrits","nodmgspread","uncletopia"],"edicts":[602,2048],"game_id":440,"stv_port":27026,"stv_name":"Uncletopia | Dallas | 2 | All Maps | STV","players":[{"user_id":232,"name":"Phil","steam_id":76561198398918486,"connected_time":2820000000000,"state":"active","ping":85},{"user_id":228,"name":"ricky bandz","steam_id":76561198327633561,"connected_time":3566000000000,"state":"active","ping":73},{"user_id":258,"name":"GreySweaterCat","steam_id":76561198351860293,"connected_time":184000000000,"state":"active","ping":68},{"user_id":176,"name":"AWGER","steam_id":76561198284683624,"connected_time":8096000000000,"state":"active","ping":79},{"user_id":221,"name":"SCREAMS ECHO FROM THE DUNGEON","steam_id":76561198310811821,"connected_time":4026000000000,"state":"active","ping":71},{"user_id":247,"name":"Trapilicious","steam_id":76561198061430457,"connected_time":853000000000,"state":"active","ping":50},{"user_id":249,"name":"Temujin","steam_id":76561198030936583,"connected_time":707000000000,"state":"active","ping":70},{"user_id":255,"name":"NinjaLalito","steam_id":76561198801858634,"connected_time":451000000000,"state":"active","ping":65},{"user_id":246,"name":"Whoopsy","steam_id":76561198128103529,"connected_time":1204000000000,"state":"active","ping":97},{"user_id":250,"name":"upset gamer","steam_id":76561198882758067,"connected_time":685000000000,"state":"active","ping":84},{"user_id":251,"name":"BooGotShot","steam_id":76561198039062270,"connected_time":650000000000,"state":"active","ping":63},{"user_id":242,"name":"vueko","steam_id":76561199001918194,"connected_time":1817000000000,"state":"active","ping":91},{"user_id":256,"name":"ash","steam_id":76561198127890645,"connected_time":348000000000,"state":"active","ping":75},{"user_id":231,"name":"BatMatt","steam_id":76561198045910433,"connected_time":2972000000000,"state":"active","ping":46},{"user_id":252,"name":"New Mercenary","steam_id":76561198065921539,"connected_time":643000000000,"state":"active","ping":75},{"user_id":260,"name":"NamelessBear‚Ñ¢","steam_id":76561198014564006,"connected_time":53000000000,"state":"active","ping":92},{"user_id":253,"name":"DualiTea","steam_id":76561198081733870,"connected_time":523000000000,"state":"active","ping":60},{"user_id":254,"name":"dreamySylph","steam_id":76561199000573308,"connected_time":496000000000,"state":"active","ping":54},{"user_id":257,"name":"Primal","steam_id":76561197983118203,"connected_time":271000000000,"state":"active","ping":86},{"user_id":223,"name":"name","steam_id":76561199153026367,"connected_time":3916000000000,"state":"active","ping":96},{"user_id":244,"name":"rat","steam_id":76561198272622003,"connected_time":1409000000000,"state":"active","ping":92},{"user_id":220,"name":"IchigoDolphin","steam_id":76561198319769482,"connected_time":4040000000000,"state":"active","ping":47},{"user_id":227,"name":"Dr Oshawott","steam_id":76561198042021629,"connected_time":3756000000000,"state":"active","ping":83},{"user_id":154,"name":"Mr. Noodle","steam_id":76561198037803087,"connected_time":9914000000000,"state":"active","ping":66}]},{"server_id":0,"name_short":"","name":"Uncletopia | San Francisco | 1 | All Maps","host":"","port":0,"enabled":false,"region":"","cc":"","latitude":0,"longitude":0,"reserved":0,"last_update":"0001-01-01T00:00:00Z","protocol":17,"map":"cp_gullywash_final1","folder":"tf","game":"Team Fortress","app_id":440,"player_count":0,"max_players":24,"Bots":0,"server_type":"Dedicated","server_os":"Linux","password":true,"vac":true,"version":"7961495","steam_id":85568392924469999,"keywords":["cp","nocrits","nodmgspread","uncletopia"],"edicts":[544,2048],"game_id":440,"stv_port":27016,"stv_name":"Uncletopia | San Francisco | 1 | All Maps | STV","players":null},{"server_id":0,"name_short":"","name":"Uncletopia | Los Angeles | 2 | All Maps","host":"","port":0,"enabled":false,"region":"","cc":"","latitude":0,"longitude":0,"reserved":0,"last_update":"0001-01-01T00:00:00Z","protocol":17,"map":"koth_lazarus","folder":"tf","game":"Team Fortress","app_id":440,"player_count":0,"max_players":24,"Bots":0,"server_type":"Dedicated","server_os":"Linux","password":true,"vac":true,"version":"7961495","steam_id":85568392924469992,"keywords":["cp","nocrits","nodmgspread","uncletopia"],"edicts":[861,2048],"game_id":440,"stv_port":27026,"stv_name":"Uncletopia | Los Angeles | 2 | All Maps | STV","players":null},{"server_id":0,"name_short":"","name":"Uncletopia | London | 3 | All Maps","host":"","port":0,"enabled":false,"region":"","cc":"","latitude":0,"longitude":0,"reserved":0,"last_update":"0001-01-01T00:00:00Z","protocol":17,"map":"pl_upward","folder":"tf","game":"Team Fortress","app_id":440,"player_count":24,"max_players":24,"Bots":0,"server_type":"Dedicated","server_os":"Linux","password":true,"vac":true,"version":"7961495","steam_id":85568392924510192,"keywords":["nocrits","nodmgspread","payload","uncletopia"],"edicts":[962,2048],"game_id":440,"stv_port":27036,"stv_name":"Uncletopia | London | 3 | All Maps | STV","players":[{"user_id":26,"name":"NESS","steam_id":76561197995225318,"connected_time":1444000000000,"state":"active","ping":40},{"user_id":17,"name":"Dispenser(Dispenser)","steam_id":76561199211831658,"connected_time":2411000000000,"state":"active","ping":60},{"user_id":30,"name":"[UiF] BafTac r/f*ckcars","steam_id":76561198060547050,"connected_time":1083000000000,"state":"active","ping":62},{"user_id":47,"name":"redlix","steam_id":76561198119413461,"connected_time":366000000000,"state":"active","ping":63},{"user_id":28,"name":"Ray Lilith","steam_id":76561198133946866,"connected_time":1225000000000,"state":"active","ping":60},{"user_id":19,"name":"GMsU | Rebikas","steam_id":76561198077053764,"connected_time":1740000000000,"state":"active","ping":60},{"user_id":20,"name":"GMsU | Smiley","steam_id":76561198121494414,"connected_time":1735000000000,"state":"active","ping":96},{"user_id":21,"name":"GMsU | Acoul","steam_id":76561198229222992,"connected_time":1735000000000,"state":"active","ping":53},{"user_id":31,"name":"Technic","steam_id":76561198128096130,"connected_time":1034000000000,"state":"active","ping":54},{"user_id":48,"name":"KhornateDoom","steam_id":76561198127530619,"connected_time":326000000000,"state":"active","ping":65},{"user_id":25,"name":"Skyrim mod addict","steam_id":76561198173218318,"connected_time":1554000000000,"state":"active","ping":47},{"user_id":32,"name":"Meat Dragon","steam_id":76561198120319256,"connected_time":978000000000,"state":"active","ping":134},{"user_id":35,"name":"IndigoJones","steam_id":76561198050284262,"connected_time":844000000000,"state":"active","ping":45},{"user_id":34,"name":"the quotient rule","steam_id":76561198188642265,"connected_time":904000000000,"state":"active","ping":56},{"user_id":50,"name":"Yuval","steam_id":76561198241802390,"connected_time":277000000000,"state":"active","ping":114},{"user_id":49,"name":"andy","steam_id":76561198054288197,"connected_time":300000000000,"state":"active","ping":63},{"user_id":38,"name":"ToniGAM3S","steam_id":76561198128605351,"connected_time":668000000000,"state":"active","ping":69},{"user_id":39,"name":"Dolcelatte","steam_id":76561198038501770,"connected_time":652000000000,"state":"active","ping":60},{"user_id":41,"name":"M7md4916","steam_id":76561199087378396,"connected_time":582000000000,"state":"active","ping":103},{"user_id":42,"name":"Alex","steam_id":76561198011189877,"connected_time":582000000000,"state":"active","ping":58},{"user_id":43,"name":"night.s","steam_id":76561198326287823,"connected_time":579000000000,"state":"active","ping":76},{"user_id":44,"name":"Big Mean Muther Hubbard","steam_id":76561199223016965,"connected_time":575000000000,"state":"active","ping":50},{"user_id":45,"name":"golfmastr","steam_id":76561198993144124,"connected_time":570000000000,"state":"active","ping":62},{"user_id":46,"name":"NALA","steam_id":76561198039806469,"connected_time":562000000000,"state":"active","ping":77}]},{"server_id":0,"name_short":"","name":"Uncletopia | Montr√©al | 1 | One Thousand Uncles","host":"","port":0,"enabled":false,"region":"","cc":"","latitude":0,"longitude":0,"reserved":0,"last_update":"0001-01-01T00:00:00Z","protocol":17,"map":"pl_barnblitz","folder":"tf","game":"Team Fortress","app_id":440,"player_count":0,"max_players":32,"Bots":0,"server_type":"Dedicated","server_os":"Linux","password":true,"vac":true,"version":"7961495","steam_id":85568392924500087,"keywords":["alltalk","danepve","increased_maxplayers","norespawntime","payload","uncletopia"],"edicts":[803,2048],"game_id":440,"stv_port":0,"stv_name":"","players":null},{"server_id":0,"name_short":"","name":"Uncletopia | Dallas | 4 | Community","host":"","port":0,"enabled":false,"region":"","cc":"","latitude":0,"longitude":0,"reserved":0,"last_update":"0001-01-01T00:00:00Z","protocol":17,"map":"pl_stallberg_rc3","folder":"tf","game":"Team Fortress","app_id":440,"player_count":0,"max_players":24,"Bots":0,"server_type":"Dedicated","server_os":"Linux","password":true,"vac":true,"version":"7961495","steam_id":85568392924515220,"keywords":["nocrits","nodmgspread","payload","uncletopia"],"edicts":[603,2048],"game_id":440,"stv_port":27046,"stv_name":"Uncletopia | Dallas | 4 | Community | STV","players":null},{"server_id":0,"name_short":"","name":"Uncletopia | Los Angeles | 1 | All Maps","host":"","port":0,"enabled":false,"region":"","cc":"","latitude":0,"longitude":0,"reserved":0,"last_update":"0001-01-01T00:00:00Z","protocol":17,"map":"koth_lakeside_final","folder":"tf","game":"Team Fortress","app_id":440,"player_count":0,"max_players":24,"Bots":0,"server_type":"Dedicated","server_os":"Linux","password":true,"vac":true,"version":"7961495","steam_id":85568392924469991,"keywords":["cp","nocrits","nodmgspread","uncletopia"],"edicts":[301,2048],"game_id":440,"stv_port":27016,"stv_name":"Uncletopia | Los Angeles | 1 | All Maps | STV","players":null},{"server_id":0,"name_short":"","name":"Uncletopia | San Francisco | 2 | All Maps","host":"","port":0,"enabled":false,"region":"","cc":"","latitude":0,"longitude":0,"reserved":0,"last_update":"0001-01-01T00:00:00Z","protocol":17,"map":"pl_hoodoo_final","folder":"tf","game":"Team Fortress","app_id":440,"player_count":0,"max_players":24,"Bots":0,"server_type":"Dedicated","server_os":"Linux","password":true,"vac":true,"version":"7961495","steam_id":85568392924470000,"keywords":["nocrits","nodmgspread","payload","uncletopia"],"edicts":[1123,2048],"game_id":440,"stv_port":27026,"stv_name":"Uncletopia | San Francisco | 2 | All Maps | STV","players":null},{"server_id":0,"name_short":"","name":"Uncletopia | Frankfurt | 4 | All Maps","host":"","port":0,"enabled":false,"region":"","cc":"","latitude":0,"longitude":0,"reserved":0,"last_update":"0001-01-01T00:00:00Z","protocol":17,"map":"pl_badwater","folder":"tf","game":"Team Fortress","app_id":440,"player_count":24,"max_players":24,"Bots":0,"server_type":"Dedicated","server_os":"Linux","password":true,"vac":true,"version":"7961495","steam_id":85568392924504275,"keywords":["nocrits","nodmgspread","payload","uncletopia"],"edicts":[1004,2048],"game_id":440,"stv_port":27046,"stv_name":"Uncletopia | Frankfurt | 4 | All Maps | STV","players":[{"user_id":353,"name":"oskaroku00","steam_id":76561199025360128,"connected_time":554000000000,"state":"active","ping":75},{"user_id":366,"name":"TRISROCK77","steam_id":76561198159203962,"connected_time":51000000000,"state":"active","ping":201},{"user_id":364,"name":"Fat Pigeon","steam_id":76561198817940142,"connected_time":267000000000,"state":"active","ping":51},{"user_id":361,"name":"Mr. Mundy","steam_id":76561198132008918,"connected_time":302000000000,"state":"active","ping":68},{"user_id":256,"name":"tired","steam_id":76561198046838168,"connected_time":6684000000000,"state":"active","ping":45},{"user_id":332,"name":"I use Vim btw","steam_id":76561198016042113,"connected_time":1592000000000,"state":"active","ping":68},{"user_id":352,"name":"grim reaper","steam_id":76561199389114520,"connected_time":595000000000,"state":"active","ping":153},{"user_id":350,"name":"Milk","steam_id":76561198125876588,"connected_time":656000000000,"state":"active","ping":53},{"user_id":255,"name":"lugi","steam_id":76561198026903673,"connected_time":6812000000000,"state":"active","ping":58},{"user_id":344,"name":"PAN MAN","steam_id":76561199086525293,"connected_time":844000000000,"state":"active","ping":61},{"user_id":359,"name":"Xtis","steam_id":76561198043837480,"connected_time":362000000000,"state":"active","ping":70},{"user_id":312,"name":"mr.resetti","steam_id":76561198974520642,"connected_time":2488000000000,"state":"active","ping":63},{"user_id":345,"name":"rockBustaz","steam_id":76561198088290698,"connected_time":843000000000,"state":"active","ping":61},{"user_id":205,"name":"African Animosity","steam_id":76561198094483253,"connected_time":9364000000000,"state":"active","ping":48},{"user_id":360,"name":"Nittugai","steam_id":76561198067366462,"connected_time":352000000000,"state":"active","ping":61},{"user_id":337,"name":"UID","steam_id":76561198104634775,"connected_time":1335000000000,"state":"active","ping":76},{"user_id":298,"name":"Ymir","steam_id":76561198076719730,"connected_time":3773000000000,"state":"active","ping":82},{"user_id":333,"name":"bombo112","steam_id":76561198059743551,"connected_time":1529000000000,"state":"active","ping":73},{"user_id":346,"name":"Hundehunde (137)","steam_id":76561198028683991,"connected_time":839000000000,"state":"active","ping":53},{"user_id":358,"name":"the_Bulgarian_Badger","steam_id":76561199067348424,"connected_time":397000000000,"state":"active","ping":99},{"user_id":348,"name":"pupa trzmiela","steam_id":76561198364607266,"connected_time":813000000000,"state":"active","ping":73},{"user_id":336,"name":"KajaStorm","steam_id":76561199215842872,"connected_time":1462000000000,"state":"active","ping":145},{"user_id":365,"name":"Mr Doctor","steam_id":76561199014497193,"connected_time":132000000000,"state":"active","ping":160},{"user_id":363,"name":"Someone","steam_id":76561199030195879,"connected_time":292000000000,"state":"active","ping":73}]},{"server_id":0,"name_short":"","name":"Uncletopia | Sydney | 1 | All Maps","host":"","port":0,"enabled":false,"region":"","cc":"","latitude":0,"longitude":0,"reserved":0,"last_update":"0001-01-01T00:00:00Z","protocol":17,"map":"koth_viaduct","folder":"tf","game":"Team Fortress","app_id":440,"player_count":0,"max_players":24,"Bots":0,"server_type":"Dedicated","server_os":"Linux","password":true,"vac":true,"version":"7961495","steam_id":85568392924470001,"keywords":["cp","nocrits","nodmgspread","uncletopia"],"edicts":[218,2048],"game_id":440,"stv_port":27016,"stv_name":"Uncletopia | Sydney | 1 | All Maps | STV","players":null},{"server_id":0,"name_short":"","name":"Uncletopia | Chicago | 3 | All Maps","host":"","port":0,"enabled":false,"region":"","cc":"","latitude":0,"longitude":0,"reserved":0,"last_update":"0001-01-01T00:00:00Z","protocol":17,"map":"cp_process_final","folder":"tf","game":"Team Fortress","app_id":440,"player_count":1,"max_players":24,"Bots":0,"server_type":"Dedicated","server_os":"Linux","password":true,"vac":true,"version":"7961495","steam_id":85568392924515191,"keywords":["cp","nocrits","nodmgspread","uncletopia"],"edicts":[537,2048],"game_id":440,"stv_port":27036,"stv_name":"Uncletopia | Chicago | 3 | All Maps | STV","players":[{"user_id":7,"name":"muselk (real)","steam_id":76561199094011002,"connected_time":19000000000,"state":"spawning","ping":42}]},{"server_id":0,"name_short":"","name":"Uncletopia | Chicago | 1 | All Maps","host":"","port":0,"enabled":false,"region":"","cc":"","latitude":0,"longitude":0,"reserved":0,"last_update":"0001-01-01T00:00:00Z","protocol":17,"map":"pl_badwater","folder":"tf","game":"Team Fortress","app_id":440,"player_count":24,"max_players":24,"Bots":0,"server_type":"Dedicated","server_os":"Linux","password":true,"vac":true,"version":"7961495","steam_id":85568392924469984,"keywords":["nocrits","nodmgspread","payload","uncletopia"],"edicts":[1039,2048],"game_id":440,"stv_port":27016,"stv_name":"Uncletopia | Chicago | 1 | All Maps | STV","players":[{"user_id":99,"name":"go","steam_id":76561198167390315,"connected_time":1238000000000,"state":"active","ping":47},{"user_id":57,"name":"ndvr (femboy (REAL))","steam_id":76561199379200102,"connected_time":4326000000000,"state":"active","ping":63},{"user_id":93,"name":"donatello „ÉÑ","steam_id":76561198091157081,"connected_time":1385000000000,"state":"active","ping":47},{"user_id":89,"name":"Ninjoth","steam_id":76561198038611753,"connected_time":1864000000000,"state":"active","ping":69},{"user_id":48,"name":"NinjagirlOH","steam_id":76561198964107245,"connected_time":5238000000000,"state":"active","ping":85},{"user_id":90,"name":"Rummy the Blargh-gineer","steam_id":76561197997192800,"connected_time":1843000000000,"state":"active","ping":77},{"user_id":52,"name":"Reed the Flame Shadow","steam_id":76561198348354629,"connected_time":4782000000000,"state":"active","ping":100},{"user_id":91,"name":"Retarded loan shark","steam_id":76561198272948471,"connected_time":1742000000000,"state":"active","ping":54},{"user_id":95,"name":"The Idiot","steam_id":76561198049837377,"connected_time":1323000000000,"state":"active","ping":46},{"user_id":97,"name":"MetalTao","steam_id":76561198189408110,"connected_time":1292000000000,"state":"active","ping":80},{"user_id":94,"name":"SpongedSocks","steam_id":76561198374009086,"connected_time":1338000000000,"state":"active","ping":74},{"user_id":78,"name":"MackDaddy69","steam_id":76561198060121935,"connected_time":3054000000000,"state":"active","ping":61},{"user_id":67,"name":"twinbl0ck","steam_id":76561198157414556,"connected_time":3844000000000,"state":"active","ping":79},{"user_id":102,"name":"4 Geese in a Trenchcoat","steam_id":76561198256235028,"connected_time":1061000000000,"state":"active","ping":45},{"user_id":100,"name":"ShortenedName","steam_id":76561198079337360,"connected_time":1201000000000,"state":"active","ping":71},{"user_id":101,"name":"BloodyRedstone","steam_id":76561198125332511,"connected_time":1184000000000,"state":"active","ping":49},{"user_id":158,"name":"soup","steam_id":76561198880568662,"connected_time":123000000000,"state":"active","ping":67},{"user_id":50,"name":"nefarious criminal","steam_id":76561198077506415,"connected_time":4822000000000,"state":"active","ping":60},{"user_id":51,"name":"mkl","steam_id":76561197986401685,"connected_time":4803000000000,"state":"active","ping":80},{"user_id":45,"name":"NinjaboySC","steam_id":76561198157305426,"connected_time":5396000000000,"state":"active","ping":64},{"user_id":39,"name":"Jfrvl Gvl","steam_id":76561199013465852,"connected_time":5985000000000,"state":"active","ping":69},{"user_id":62,"name":"Laurbler","steam_id":76561198132094572,"connected_time":4234000000000,"state":"active","ping":61},{"user_id":72,"name":"Milkmur","steam_id":76561198210043821,"connected_time":3122000000000,"state":"active","ping":60},{"user_id":92,"name":"rat eater","steam_id":76561199216874750,"connected_time":1504000000000,"state":"active","ping":59}]},{"server_id":0,"name_short":"","name":"Uncletopia | Seattle | 3 | Stopwatch","host":"","port":0,"enabled":false,"region":"","cc":"","latitude":0,"longitude":0,"reserved":0,"last_update":"0001-01-01T00:00:00Z","protocol":17,"map":"koth_product_final","folder":"tf","game":"Team Fortress","app_id":440,"player_count":0,"max_players":24,"Bots":0,"server_type":"Dedicated","server_os":"Linux","password":true,"vac":true,"version":"7961495","steam_id":85568392924515217,"keywords":["cp","nocrits","nodmgspread","uncletopia"],"edicts":[352,2048],"game_id":440,"stv_port":27036,"stv_name":"Uncletopia | Seattle | 3 | Stopwatch | STV","players":null},{"server_id":0,"name_short":"","name":"Uncletopia | Warsaw | 6 | Community","host":"","port":0,"enabled":false,"region":"","cc":"","latitude":0,"longitude":0,"reserved":0,"last_update":"0001-01-01T00:00:00Z","protocol":17,"map":"cp_glacier_rc6","folder":"tf","game":"Team Fortress","app_id":440,"player_count":0,"max_players":24,"Bots":0,"server_type":"Dedicated","server_os":"Linux","password":true,"vac":true,"version":"7961495","steam_id":85568392925397856,"keywords":["cp","nocrits","nodmgspread","uncletopia"],"edicts":[719,2048],"game_id":440,"stv_port":27066,"stv_name":"Uncletopia | Warsaw | 6 | Community | STV","players":null},{"server_id":0,"name_short":"","name":"Uncletopia | Warsaw | 4 | All Maps","host":"","port":0,"enabled":false,"region":"","cc":"","latitude":0,"longitude":0,"reserved":0,"last_update":"0001-01-01T00:00:00Z","protocol":17,"map":"cp_gorge","folder":"tf","game":"Team Fortress","app_id":440,"player_count":0,"max_players":24,"Bots":0,"server_type":"Dedicated","server_os":"Linux","password":true,"vac":true,"version":"7961495","steam_id":85568392925397853,"keywords":["cp","nocrits","nodmgspread","uncletopia"],"edicts":[305,2048],"game_id":440,"stv_port":27046,"stv_name":"Uncletopia | Warsaw | 4 | All Maps | STV","players":null},{"server_id":0,"name_short":"","name":"Uncletopia | London | 6 | All Maps","host":"","port":0,"enabled":false,"region":"","cc":"","latitude":0,"longitude":0,"reserved":0,"last_update":"0001-01-01T00:00:00Z","protocol":17,"map":"pl_borneo","folder":"tf","game":"Team Fortress","app_id":440,"player_count":5,"max_players":24,"Bots":0,"server_type":"Dedicated","server_os":"Linux","password":true,"vac":true,"version":"7961495","steam_id":85568392924742830,"keywords":["nocrits","nodmgspread","payload","uncletopia"],"edicts":[773,2048],"game_id":440,"stv_port":27066,"stv_name":"Uncletopia | London | 6 | All Maps | STV","players":[{"user_id":37,"name":"smexypingu","steam_id":76561199371289915,"connected_time":710000000000,"state":"active","ping":57},{"user_id":38,"name":"TimeForPastries","steam_id":76561199056751909,"connected_time":585000000000,"state":"active","ping":36},{"user_id":42,"name":"Rice Lee","steam_id":76561198313734012,"connected_time":35000000000,"state":"active","ping":69},{"user_id":40,"name":"0.01 of Germs","steam_id":76561199006462039,"connected_time":384000000000,"state":"active","ping":71},{"user_id":43,"name":"Autism creature","steam_id":76561198216853553,"connected_time":18000000000,"state":"active","ping":98}]},{"server_id":0,"name_short":"","name":"Uncletopia | London | 5 | All Maps","host":"","port":0,"enabled":false,"region":"","cc":"","latitude":0,"longitude":0,"reserved":0,"last_update":"0001-01-01T00:00:00Z","protocol":17,"map":"pl_badwater","folder":"tf","game":"Team Fortress","app_id":440,"player_count":23,"max_players":24,"Bots":0,"server_type":"Dedicated","server_os":"Linux","password":true,"vac":true,"version":"7961495","steam_id":85568392924742829,"keywords":["nocrits","nodmgspread","payload","uncletopia"],"edicts":[959,2048],"game_id":440,"stv_port":27056,"stv_name":"Uncletopia | London | 5 | All Maps | STV","players":[{"user_id":316,"name":"etc","steam_id":76561197998394797,"connected_time":169000000000,"state":"active","ping":46},{"user_id":319,"name":"lumiukko","steam_id":76561199103891073,"connected_time":150000000000,"state":"active","ping":103},{"user_id":247,"name":"Edsuedi","steam_id":76561198074722832,"connected_time":1851000000000,"state":"active","ping":60},{"user_id":321,"name":"Daktylowski","steam_id":76561198303877969,"connected_time":108000000000,"state":"active","ping":71},{"user_id":318,"name":"Flight of the Blonde Giraffes","steam_id":76561198451585571,"connected_time":157000000000,"state":"active","ping":74},{"user_id":248,"name":"capetanunito","steam_id":76561199364524852,"connected_time":1819000000000,"state":"active","ping":101},{"user_id":202,"name":"nug","steam_id":76561198055396568,"connected_time":3707000000000,"state":"active","ping":53},{"user_id":207,"name":"Owlet","steam_id":76561198065613974,"connected_time":3524000000000,"state":"active","ping":72},{"user_id":246,"name":"Woman (Real)","steam_id":76561199151823932,"connected_time":1955000000000,"state":"active","ping":75},{"user_id":320,"name":"mrbeast109385079350229083479082","steam_id":76561198370687830,"connected_time":122000000000,"state":"active","ping":122},{"user_id":323,"name":"p!ke","steam_id":76561198416081952,"connected_time":76000000000,"state":"active","ping":53},{"user_id":250,"name":"Karol_K","steam_id":76561198101038624,"connected_time":1810000000000,"state":"active","ping":56},{"user_id":315,"name":"Femboy Butt","steam_id":76561198115496457,"connected_time":177000000000,"state":"active","ping":38},{"user_id":313,"name":"Saucisse","steam_id":76561198119955969,"connected_time":183000000000,"state":"active","ping":65},{"user_id":298,"name":"Spajro","steam_id":76561198257383813,"connected_time":658000000000,"state":"active","ping":58},{"user_id":212,"name":"hyvakii705","steam_id":76561198086630552,"connected_time":3418000000000,"state":"active","ping":88},{"user_id":258,"name":"hawkblob","steam_id":76561198803720565,"connected_time":1682000000000,"state":"active","ping":78},{"user_id":178,"name":"CyMeryy/TTV","steam_id":76561197984986540,"connected_time":4383000000000,"state":"active","ping":156},{"user_id":276,"name":"Spurt","steam_id":76561198078523852,"connected_time":1196000000000,"state":"active","ping":57},{"user_id":301,"name":"Siegmeyer","steam_id":76561198328543549,"connected_time":563000000000,"state":"active","ping":106},{"user_id":254,"name":"Ceramic","steam_id":76561199007624194,"connected_time":1779000000000,"state":"active","ping":144},{"user_id":314,"name":"def","steam_id":76561198857396812,"connected_time":181000000000,"state":"active","ping":57},{"user_id":257,"name":"hasky","steam_id":76561197986052798,"connected_time":1724000000000,"state":"active","ping":77}]},{"server_id":0,"name_short":"","name":"Uncletopia | London | 2 | All Maps","host":"","port":0,"enabled":false,"region":"","cc":"","latitude":0,"longitude":0,"reserved":0,"last_update":"0001-01-01T00:00:00Z","protocol":17,"map":"koth_cascade","folder":"tf","game":"Team Fortress","app_id":440,"player_count":0,"max_players":24,"Bots":0,"server_type":"Dedicated","server_os":"Linux","password":true,"vac":true,"version":"7961495","steam_id":85568392924470941,"keywords":["cp","nocrits","nodmgspread","uncletopia"],"edicts":[546,2048],"game_id":440,"stv_port":27026,"stv_name":"Uncletopia | London | 2 | All Maps | STV","players":null},{"server_id":0,"name_short":"","name":"Uncletopia | Frankfurt | 1 | All Maps","host":"","port":0,"enabled":false,"region":"","cc":"","latitude":0,"longitude":0,"reserved":0,"last_update":"0001-01-01T00:00:00Z","protocol":17,"map":"pl_badwater","folder":"tf","game":"Team Fortress","app_id":440,"player_count":24,"max_players":24,"Bots":0,"server_type":"Dedicated","server_os":"Linux","password":true,"vac":true,"version":"7961495","steam_id":85568392924469989,"keywords":["nocrits","nodmgspread","payload","uncletopia"],"edicts":[1010,2048],"game_id":440,"stv_port":27016,"stv_name":"Uncletopia | Frankfurt | 1 | All Maps | STV","players":[{"user_id":492,"name":"IT'S OVER","steam_id":76561198808871349,"connected_time":897000000000,"state":"active","ping":82},{"user_id":462,"name":"Egor Pomidor","steam_id":76561199175688390,"connected_time":3510000000000,"state":"active","ping":76},{"user_id":466,"name":"Gearless","steam_id":76561198362367074,"connected_time":3188000000000,"state":"active","ping":87},{"user_id":495,"name":"Yupsilon","steam_id":76561198215004651,"connected_time":459000000000,"state":"active","ping":60},{"user_id":491,"name":"Caruzon - Obismal","steam_id":76561198036211170,"connected_time":964000000000,"state":"active","ping":75},{"user_id":494,"name":"Ace","steam_id":76561198979117577,"connected_time":540000000000,"state":"active","ping":71},{"user_id":430,"name":"Pabs :D","steam_id":76561198000016962,"connected_time":6464000000000,"state":"active","ping":53},{"user_id":496,"name":"Michael","steam_id":76561198003146906,"connected_time":406000000000,"state":"active","ping":60},{"user_id":480,"name":"Kewlan","steam_id":76561198042775020,"connected_time":1675000000000,"state":"active","ping":79},{"user_id":497,"name":"Theia","steam_id":76561198144403125,"connected_time":405000000000,"state":"active","ping":77},{"user_id":498,"name":"Dr. Josef","steam_id":76561198171353373,"connected_time":387000000000,"state":"active","ping":91},{"user_id":484,"name":"Zulik92","steam_id":76561198152442373,"connected_time":1426000000000,"state":"active","ping":62},{"user_id":471,"name":"Eme","steam_id":76561198171619442,"connected_time":2725000000000,"state":"active","ping":75},{"user_id":479,"name":"=^..^= | cosmetical","steam_id":76561198444036574,"connected_time":1822000000000,"state":"active","ping":59},{"user_id":460,"name":"Optimist 50","steam_id":76561198039631442,"connected_time":3578000000000,"state":"active","ping":81},{"user_id":445,"name":"LILY-CHAN","steam_id":76561198035085893,"connected_time":4764000000000,"state":"active","ping":99},{"user_id":477,"name":"GET REKT","steam_id":76561198368543007,"connected_time":1904000000000,"state":"active","ping":81},{"user_id":467,"name":"R8N - Obismal","steam_id":76561198007482714,"connected_time":3182000000000,"state":"active","ping":70},{"user_id":489,"name":"Xenophon","steam_id":76561198158781327,"connected_time":1255000000000,"state":"active","ping":63},{"user_id":485,"name":"Dmitry Kerman","steam_id":76561198300020540,"connected_time":1321000000000,"state":"active","ping":123},{"user_id":474,"name":"Vene","steam_id":76561198018116338,"connected_time":2143000000000,"state":"active","ping":84},{"user_id":490,"name":"YuraGreek","steam_id":76561198050182252,"connected_time":1030000000000,"state":"active","ping":79},{"user_id":476,"name":"DHD - Obismal","steam_id":76561198000356530,"connected_time":2065000000000,"state":"active","ping":65},{"user_id":413,"name":"—Ç—É–∫–∫—É –∏—Ä–º–∞","steam_id":76561197998715016,"connected_time":7670000000000,"state":"active","ping":47}]},{"server_id":0,"name_short":"","name":"Uncletopia | Chicago | 4 | All Maps","host":"","port":0,"enabled":false,"region":"","cc":"","latitude":0,"longitude":0,"reserved":0,"last_update":"0001-01-01T00:00:00Z","protocol":17,"map":"koth_viaduct","folder":"tf","game":"Team Fortress","app_id":440,"player_count":0,"max_players":24,"Bots":0,"server_type":"Dedicated","server_os":"Linux","password":true,"vac":true,"version":"7961495","steam_id":85568392924515193,"keywords":["cp","nocrits","nodmgspread","uncletopia"],"edicts":[215,2048],"game_id":440,"stv_port":27046,"stv_name":"Uncletopia | Chicago | 4 | All Maps | STV","players":null},{"server_id":0,"name_short":"","name":"Uncletopia | Atlanta | 4 | Community","host":"","port":0,"enabled":false,"region":"","cc":"","latitude":0,"longitude":0,"reserved":0,"last_update":"0001-01-01T00:00:00Z","protocol":17,"map":"cp_alloy_rc3","folder":"tf","game":"Team Fortress","app_id":440,"player_count":0,"max_players":24,"Bots":0,"server_type":"Dedicated","server_os":"Linux","password":true,"vac":true,"version":"7961495","steam_id":85568392924515188,"keywords":["cp","nocrits","nodmgspread","uncletopia"],"edicts":[506,2048],"game_id":440,"stv_port":27046,"stv_name":"Uncletopia | Atlanta | 4 | Community | STV","players":null},{"server_id":0,"name_short":"","name":"Uncletopia | Los Angeles | 3 | All Maps","host":"","port":0,"enabled":false,"region":"","cc":"","latitude":0,"longitude":0,"reserved":0,"last_update":"0001-01-01T00:00:00Z","protocol":17,"map":"cp_snakewater_final1","folder":"tf","game":"Team Fortress","app_id":440,"player_count":0,"max_players":24,"Bots":0,"server_type":"Dedicated","server_os":"Linux","password":true,"vac":true,"version":"7961495","steam_id":85568392924510198,"keywords":["cp","nocrits","nodmgspread","uncletopia"],"edicts":[634,2048],"game_id":440,"stv_port":27036,"stv_name":"Uncletopia | Los Angeles | 3 | All Maps | STV","players":null},{"server_id":0,"name_short":"","name":"Uncletopia | New York City | 1 | All Maps","host":"","port":0,"enabled":false,"region":"","cc":"","latitude":0,"longitude":0,"reserved":0,"last_update":"0001-01-01T00:00:00Z","protocol":17,"map":"cp_process_final","folder":"tf","game":"Team Fortress","app_id":440,"player_count":0,"max_players":24,"Bots":0,"server_type":"Dedicated","server_os":"Linux","password":true,"vac":true,"version":"7961495","steam_id":85568392924469993,"keywords":["cp","nocrits","nodmgspread","uncletopia"],"edicts":[537,2048],"game_id":440,"stv_port":27016,"stv_name":"Uncletopia | New York City | 1 | All Maps | STV","players":null},{"server_id":0,"name_short":"","name":"Uncletopia | Chicago | 6 | All Maps","host":"","port":0,"enabled":false,"region":"","cc":"","latitude":0,"longitude":0,"reserved":0,"last_update":"0001-01-01T00:00:00Z","protocol":17,"map":"koth_king","folder":"tf","game":"Team Fortress","app_id":440,"player_count":0,"max_players":24,"Bots":0,"server_type":"Dedicated","server_os":"Linux","password":true,"vac":true,"version":"7961495","steam_id":85568392924866363,"keywords":["cp","nocrits","nodmgspread","uncletopia"],"edicts":[466,2048],"game_id":440,"stv_port":27026,"stv_name":"Uncletopia | Chicago | 6 | All Maps | STV","players":null},{"server_id":0,"name_short":"","name":"Uncletopia | Frankfurt | 8 | Community","host":"","port":0,"enabled":false,"region":"","cc":"","latitude":0,"longitude":0,"reserved":0,"last_update":"0001-01-01T00:00:00Z","protocol":17,"map":"pl_stallberg_rc3","folder":"tf","game":"Team Fortress","app_id":440,"player_count":0,"max_players":24,"Bots":0,"server_type":"Dedicated","server_os":"Linux","password":true,"vac":true,"version":"7961495","steam_id":85568392924742828,"keywords":["nocrits","nodmgspread","payload","uncletopia"],"edicts":[603,2048],"game_id":440,"stv_port":27086,"stv_name":"Uncletopia | Frankfurt | 8 | Community | STV","players":null}]}