{"status":true,"message":"","result":[{"server_id":9,"name":"Uncletopia | Atlanta | 1 | All Maps","name_short":"atl-1","host":"atl-1.us.uncletopia.com","port":27015,"enabled":true,"region":"us-east","cc":"us","latitude":33.753746,"longitude":-84.38633,"reserved":0,"last_update":"0001-01-01T00:00:00Z","name_a2s":"Uncletopia | Atlanta | 1 | All Maps","protocol":17,"map":"koth_cascade","folder":"tf","game":"Team Fortress","app_id":440,"player_count":0,"max_players":24,"Bots":0,"server_type":"Dedicated","server_os":"Linux","password":true,"vac":true,"version":"7695204","steam_id":85568392924469982,"keywords":["cp","nocrits","nodmgspread","uncletopia"],"game_id":440,"stv_port":0,"stv_name":"","players":null},{"server_id":400,"name":"Uncletopia | Atlanta | 3 | All Maps","name_short":"atl-3","host":"atl-1.us.uncletopia.com","port":27035,"enabled":true,"region":"us-east","cc":"us","latitude":33.753746,"longitude":-84.38633,"reserved":0,"last_update":"0001-01-01T00:00:00Z","name_a2s":"Uncletopia | Atlanta | 3 | All Maps","protocol":17,"map":"pl_frontier_final","folder":"tf","game":"Team Fortress","app_id":440,"player_count":0,"max_players":24,"Bots":0,"server_type":"Dedicated","server_os":"Linux","password":true,"vac":true,"version":"7695204","steam_id":85568392924515187,"keywords":["nocrits","nodmgspread","payload","uncletopia"],"game_id":440,"stv_port":0,"stv_name":"","players":null},{"server_id":401,"name":"Uncletopia | Atlanta | 4 | No Payload","name_short":"atl-4","host":"atl-1.us.uncletopia.com","port":27045,"enabled":true,"region":"us-east","cc":"us","latitude":33.753746,"longitude":-84.38633,"reserved":0,"last_update":"0001-01-01T00:00:00Z","name_a2s":"Uncletopia | Atlanta | 4 | No Payload","protocol":17,"map":"cp_snakewater_final1","folder":"tf","game":"Team Fortress","app_id":440,"player_count":0,"max_players":24,"Bots":0,"server_type":"Dedicated","server_os":"Linux","password":true,"vac":true,"version":"7695204","steam_id":85568392924515188,"keywords":["cp","nocrits","nodmgspread","uncletopia"],"game_id":440,"stv_port":0,"stv_name":"","players":null},{"server_id":2,"name":"Uncletopia | Chicago | 1 | All Maps","name_short":"chi-1","host":"chi-1.us.uncletopia.com","port":27015,"enabled":true,"region":"us-central","cc":"us","latitude":41.881832,"longitude":-87.62318,"reserved":0,"last_update":"0001-01-01T00:00:00Z","name_a2s":"Uncletopia | Chicago | 1 | All Maps","protocol":17,"map":"koth_harvest_final","folder":"tf","game":"Team Fortress","app_id":440,"player_count":24,"max_players":24,"Bots":0,"server_type":"Dedicated","server_os":"Linux","password":true,"vac":true,"version":"7695204","steam_id":85568392924469984,"keywords":["cp","nocrits","nodmgspread","uncletopia"],"game_id":440,"stv_port":27016,"stv_name":"Uncletopia | Chicago | 1 | All Maps | STV","players":[{"user_id":44,"name":"rat gets the cheese","steam_id":76561198031234032,"connected_time":1889000000000,"state":"active","ping":45},{"user_id":3,"name":"ÒwÓ","steam_id":76561197997304387,"connected_time":4919000000000,"state":"active","ping":68},{"user_id":80,"name":"Yoyo","steam_id":76561199122577289,"connected_time":582000000000,"state":"active","ping":60},{"user_id":86,"name":"zzz","steam_id":76561198034560063,"connected_time":314000000000,"state":"active","ping":77},{"user_id":81,"name":"floppy muppet","steam_id":76561198003076261,"connected_time":577000000000,"state":"active","ping":81},{"user_id":75,"name":"♦WestHarlow♦","steam_id":76561198251977820,"connected_time":868000000000,"state":"active","ping":112},{"user_id":88,"name":"Your Local Queer Librarian","steam_id":76561198013077080,"connected_time":159000000000,"state":"active","ping":48},{"user_id":82,"name":"Tourmaline Lazuli","steam_id":76561198987049358,"connected_time":436000000000,"state":"active","ping":35},{"user_id":46,"name":"reiidaya","steam_id":76561198325306660,"connected_time":1839000000000,"state":"active","ping":98},{"user_id":56,"name":"Kritzburgh","steam_id":76561198149466938,"connected_time":1457000000000,"state":"active","ping":63},{"user_id":66,"name":"realheavy","steam_id":76561198114603745,"connected_time":1089000000000,"state":"active","ping":90},{"user_id":68,"name":"Herr Müller","steam_id":76561198064876829,"connected_time":1032000000000,"state":"active","ping":80},{"user_id":89,"name":"[S7UPID]","steam_id":76561197982564931,"connected_time":123000000000,"state":"active","ping":81},{"user_id":58,"name":"Jesus Loves You57","steam_id":76561199058833769,"connected_time":1324000000000,"state":"active","ping":99},{"user_id":77,"name":"ShiYor","steam_id":76561199117260032,"connected_time":704000000000,"state":"active","ping":147},{"user_id":78,"name":"BaguetteThief","steam_id":76561197962257656,"connected_time":675000000000,"state":"active","ping":71},{"user_id":21,"name":"dumbass","steam_id":76561198410957728,"connected_time":4512000000000,"state":"active","ping":41},{"user_id":30,"name":"able","steam_id":76561198292552182,"connected_time":3591000000000,"state":"active","ping":45},{"user_id":76,"name":"*something in russian*","steam_id":76561198964471859,"connected_time":835000000000,"state":"active","ping":67},{"user_id":62,"name":"Fungus","steam_id":76561198310515669,"connected_time":1259000000000,"state":"active","ping":62},{"user_id":31,"name":"KingToaster","steam_id":76561198007903802,"connected_time":3476000000000,"state":"active","ping":74},{"user_id":27,"name":"obbeymaster19","steam_id":76561199197244143,"connected_time":3937000000000,"state":"active","ping":85},{"user_id":83,"name":"Griffin","steam_id":76561198159339442,"connected_time":417000000000,"state":"active","ping":65},{"user_id":84,"name":"GREG","steam_id":76561198073021168,"connected_time":397000000000,"state":"active","ping":63}]},{"server_id":106,"name":"Uncletopia | Chicago | 2 | All Maps","name_short":"chi-2","host":"chi-1.us.uncletopia.com","port":27025,"enabled":true,"region":"us-central","cc":"us","latitude":41.881832,"longitude":-87.62318,"reserved":0,"last_update":"0001-01-01T00:00:00Z","name_a2s":"Uncletopia | Chicago | 2 | All Maps","protocol":17,"map":"cp_process_final","folder":"tf","game":"Team Fortress","app_id":440,"player_count":0,"max_players":24,"Bots":0,"server_type":"Dedicated","server_os":"Linux","password":true,"vac":true,"version":"7695204","steam_id":85568392924469985,"keywords":["cp","nocrits","nodmgspread","uncletopia"],"game_id":440,"stv_port":0,"stv_name":"","players":null},{"server_id":402,"name":"Uncletopia | Chicago | 3 | All Maps","name_short":"chi-3","host":"chi-1.us.uncletopia.com","port":27035,"enabled":true,"region":"us-central","cc":"us","latitude":41.881832,"longitude":-87.62318,"reserved":0,"last_update":"0001-01-01T00:00:00Z","name_a2s":"Uncletopia | Chicago | 3 | All Maps","protocol":17,"map":"pl_upward","folder":"tf","game":"Team Fortress","app_id":440,"player_count":0,"max_players":24,"Bots":0,"server_type":"Dedicated","server_os":"Linux","password":true,"vac":true,"version":"7695204","steam_id":85568392924515191,"keywords":["nocrits","nodmgspread","payload","uncletopia"],"game_id":440,"stv_port":0,"stv_name":"","players":null},{"server_id":403,"name":"Uncletopia | Chicago | 4 | All Maps","name_short":"chi-4","host":"chi-1.us.uncletopia.com","port":27045,"enabled":true,"region":"us-central","cc":"us","latitude":41.881832,"longitude":-87.62318,"reserved":0,"last_update":"0001-01-01T00:00:00Z","name_a2s":"Uncletopia | Chicago | 4 | All Maps","protocol":17,"map":"koth_highpass","folder":"tf","game":"Team Fortress","app_id":440,"player_count":0,"max_players":24,"Bots":0,"server_type":"Dedicated","server_os":"Linux","password":true,"vac":true,"version":"7695204","steam_id":85568392924515193,"keywords":["cp","nocrits","nodmgspread","uncletopia"],"game_id":440,"stv_port":0,"stv_name":"","players":null},{"server_id":36,"name":"Uncletopia | Chicago | 5 | All Maps","name_short":"chi-5","host":"chi-2.us.uncletopia.com","port":27015,"enabled":true,"region":"us-central","cc":"us","latitude":41.881832,"longitude":-87.62318,"reserved":0,"last_update":"0001-01-01T00:00:00Z","name_a2s":"Uncletopia | Chicago | 5 | All Maps","protocol":17,"map":"cp_altitude","folder":"tf","game":"Team Fortress","app_id":440,"player_count":0,"max_players":24,"Bots":0,"server_type":"Dedicated","server_os":"Linux","password":true,"vac":true,"version":"7695204","steam_id":85568392924866362,"keywords":["cp","nocrits","nodmgspread","uncletopia"],"game_id":440,"stv_port":0,"stv_name":"","players":null},{"server_id":37,"name":"Uncletopia | Chicago | 6 | All Maps","name_short":"chi-6","host":"chi-2.us.uncletopia.com","port":27025,"enabled":true,"region":"us-central","cc":"us","latitude":41.881832,"longitude":-87.62318,"reserved":0,"last_update":"0001-01-01T00:00:00Z","name_a2s":"Uncletopia | Chicago | 6 | All Maps","protocol":17,"map":"cp_snakewater_final1","folder":"tf","game":"Team Fortress","app_id":440,"player_count":0,"max_players":24,"Bots":0,"server_type":"Dedicated","server_os":"Linux","password":true,"vac":true,"version":"7695204","steam_id":85568392924866363,"keywords":["cp","nocrits","nodmgspread","uncletopia"],"game_id":440,"stv_port":0,"stv_name":"","players":null},{"server_id":38,"name":"Uncletopia | Chicago | 7 | No Payload","name_short":"chi-7","host":"chi-2.us.uncletopia.com","port":27035,"enabled":true,"region":"us-central","cc":"us","latitude":41.881832,"longitude":-87.62318,"reserved":0,"last_update":"0001-01-01T00:00:00Z","name_a2s":"Uncletopia | Chicago | 7 | No Payload","protocol":17,"map":"cp_altitude","folder":"tf","game":"Team Fortress","app_id":440,"player_count":0,"max_players":24,"Bots":0,"server_type":"Dedicated","server_os":"Linux","password":true,"vac":true,"version":"7695204","steam_id":85568392924866364,"keywords":["cp","nocrits","nodmgspread","uncletopia"],"game_id":440,"stv_port":0,"stv_name":"","players":null},{"server_id":39,"name":"Uncletopia | Chicago | 8 | Community","name_short":"chi-8","host":"chi-2.us.uncletopia.com","port":27045,"enabled":true,"region":"us-central","cc":"us","latitude":41.881832,"longitude":-87.62318,"reserved":0,"last_update":"0001-01-01T00:00:00Z","name_a2s":"Uncletopia | Chicago | 8 | Community","protocol":17,"map":"cp_altitude","folder":"tf","game":"Team Fortress","app_id":440,"player_count":0,"max_players":24,"Bots":0,"server_type":"Dedicated","server_os":"Linux","password":true,"vac":true,"version":"7695204","steam_id":85568392924866365,"keywords":["cp","nocrits","nodmgspread","uncletopia"],"game_id":440,"stv_port":0,"stv_name":"","players":null},{"server_id":8,"name":"Uncletopia | Dallas | 1 | All Maps","name_short":"dal-1","host":"dal-1.us.uncletopia.com","port":27015,"enabled":true,"region":"us-central","cc":"us","latitude":32.779167,"longitude":-96.80889,"reserved":0,"last_update":"0001-01-01T00:00:00Z","name_a2s":"Uncletopia | Dallas | 1 | All Maps","protocol":17,"map":"pl_snowycoast","folder":"tf","game":"Team Fortress","app_id":440,"player_count":0,"max_players":24,"Bots":0,"server_type":"Dedicated","server_os":"Linux","password":true,"vac":true,"version":"7695204","steam_id":85568392924469986,"keywords":["nocrits","nodmgspread","payload","uncletopia"],"game_id":440,"stv_port":0,"stv_name":"","players":null},{"server_id":108,"name":"Uncletopia | Dallas | 2 | All Maps","name_short":"dal-2","host":"dal-1.us.uncletopia.com","port":27025,"enabled":true,"region":"us-central","cc":"us","latitude":32.779167,"longitude":-96.80889,"reserved":0,"last_update":"0001-01-01T00:00:00Z","name_a2s":"Uncletopia | Dallas | 2 | All Maps","protocol":17,"map":"cp_mountainlab","folder":"tf","game":"Team Fortress","app_id":440,"player_count":0,"max_players":24,"Bots":0,"server_type":"Dedicated","server_os":"Linux","password":true,"vac":true,"version":"7695204","steam_id":85568392924469988,"keywords":["cp","nocrits","nodmgspread","uncletopia"],"game_id":440,"stv_port":0,"stv_name":"","players":null},{"server_id":5,"name":"Uncletopia | Frankfurt | 1 | All Maps","name_short":"frk-1","host":"frk-1.de.uncletopia.com","port":27015,"enabled":true,"region":"eu","cc":"de","latitude":50.110924,"longitude":8.682127,"reserved":0,"last_update":"0001-01-01T00:00:00Z","name_a2s":"Uncletopia | Frankfurt | 1 | All Maps","protocol":17,"map":"pl_barnblitz","folder":"tf","game":"Team Fortress","app_id":440,"player_count":24,"max_players":24,"Bots":0,"server_type":"Dedicated","server_os":"Linux","password":true,"vac":true,"version":"7695204","steam_id":85568392924469989,"keywords":["nocrits","nodmgspread","payload","uncletopia"],"game_id":440,"stv_port":27016,"stv_name":"Uncletopia | Frankfurt | 1 | All Maps | STV","players":[{"user_id":235,"name":"DoraTheExplora","steam_id":76561198059319529,"connected_time":2674000000000,"state":"active","ping":72},{"user_id":219,"name":"Cippo95","steam_id":76561198255311582,"connected_time":4267000000000,"state":"active","ping":61},{"user_id":209,"name":"El_Kommadante","steam_id":76561198079551685,"connected_time":5331000000000,"state":"active","ping":65},{"user_id":252,"name":"Futaba","steam_id":76561199000012281,"connected_time":1006000000000,"state":"active","ping":92},{"user_id":253,"name":"The brown part of the banana","steam_id":76561198323425034,"connected_time":970000000000,"state":"active","ping":62},{"user_id":245,"name":"Mogwai","steam_id":76561198078832314,"connected_time":1605000000000,"state":"active","ping":88},{"user_id":262,"name":"Saul Goodsex","steam_id":76561198173218318,"connected_time":89000000000,"state":"active","ping":59},{"user_id":243,"name":"NoobfromHell","steam_id":76561198394221491,"connected_time":1983000000000,"state":"active","ping":62},{"user_id":196,"name":"big potato #savetf2","steam_id":76561199009525001,"connected_time":6738000000000,"state":"active","ping":56},{"user_id":188,"name":"lvl. 50 honkler","steam_id":76561198061688660,"connected_time":7118000000000,"state":"active","ping":107},{"user_id":255,"name":"chilemann","steam_id":76561199006812725,"connected_time":896000000000,"state":"active","ping":56},{"user_id":231,"name":"actual sex with animals","steam_id":76561198247058346,"connected_time":2982000000000,"state":"active","ping":76},{"user_id":214,"name":"Marukuso","steam_id":76561198154229845,"connected_time":4814000000000,"state":"active","ping":60},{"user_id":258,"name":"partizan","steam_id":76561198440837262,"connected_time":508000000000,"state":"active","ping":61},{"user_id":256,"name":"actually polish","steam_id":76561198267579078,"connected_time":888000000000,"state":"active","ping":70},{"user_id":232,"name":"TheFlames","steam_id":76561198179314694,"connected_time":2979000000000,"state":"active","ping":59},{"user_id":249,"name":"swallowed 10 pennies please hel","steam_id":76561198055816412,"connected_time":1252000000000,"state":"active","ping":65},{"user_id":261,"name":"Tryhard","steam_id":76561198970762992,"connected_time":256000000000,"state":"active","ping":62},{"user_id":198,"name":"jorj3821","steam_id":76561198844794367,"connected_time":6571000000000,"state":"active","ping":61},{"user_id":236,"name":"Rin-Nakaret","steam_id":76561197971051188,"connected_time":2671000000000,"state":"active","ping":73},{"user_id":260,"name":"where is my egg?","steam_id":76561198172542535,"connected_time":468000000000,"state":"active","ping":64},{"user_id":173,"name":"Sham!","steam_id":76561198050434275,"connected_time":8044000000000,"state":"active","ping":45},{"user_id":224,"name":"Mr.O","steam_id":76561198039567498,"connected_time":4064000000000,"state":"active","ping":60},{"user_id":248,"name":"B@yka","steam_id":76561198986736592,"connected_time":1440000000000,"state":"active","ping":60}]},{"server_id":110,"name":"Uncletopia | Frankfurt | 2 | All Maps","name_short":"frk-2","host":"frk-1.de.uncletopia.com","port":27025,"enabled":true,"region":"eu","cc":"de","latitude":50.110924,"longitude":8.682127,"reserved":0,"last_update":"0001-01-01T00:00:00Z","name_a2s":"Uncletopia | Frankfurt | 2 | All Maps","protocol":17,"map":"cp_process_final","folder":"tf","game":"Team Fortress","app_id":440,"player_count":25,"max_players":24,"Bots":0,"server_type":"Dedicated","server_os":"Linux","password":true,"vac":true,"version":"7695204","steam_id":85568392924469990,"keywords":["cp","nocrits","nodmgspread","uncletopia"],"game_id":440,"stv_port":27026,"stv_name":"Uncletopia | Frankfurt | 2 | All Maps | STV","players":[{"user_id":46,"name":"NaN","steam_id":76561198071098413,"connected_time":1836000000000,"state":"active","ping":45},{"user_id":61,"name":"granny basher","steam_id":76561198049405872,"connected_time":571000000000,"state":"active","ping":38},{"user_id":62,"name":"Lokei","steam_id":76561198248557120,"connected_time":546000000000,"state":"active","ping":85},{"user_id":73,"name":"rudolph","steam_id":76561198057399765,"connected_time":114000000000,"state":"active","ping":50},{"user_id":58,"name":"pandeux","steam_id":76561198343527617,"connected_time":1138000000000,"state":"active","ping":52},{"user_id":59,"name":"smug prick","steam_id":76561197996718813,"connected_time":887000000000,"state":"active","ping":43},{"user_id":64,"name":"Alien","steam_id":76561198984102084,"connected_time":509000000000,"state":"active","ping":112},{"user_id":20,"name":"Chief","steam_id":76561198047643687,"connected_time":2694000000000,"state":"active","ping":124},{"user_id":21,"name":"Hexagon","steam_id":76561198151205758,"connected_time":2685000000000,"state":"active","ping":64},{"user_id":24,"name":"christmas eve","steam_id":76561197973182789,"connected_time":2547000000000,"state":"active","ping":62},{"user_id":72,"name":"bigwish | bmod.tf","steam_id":76561197997859723,"connected_time":177000000000,"state":"active","ping":70},{"user_id":52,"name":"Montana","steam_id":76561198449437002,"connected_time":1614000000000,"state":"active","ping":78},{"user_id":29,"name":"Blink","steam_id":76561198144033005,"connected_time":2359000000000,"state":"active","ping":61},{"user_id":65,"name":"Shimas","steam_id":76561198867546842,"connected_time":465000000000,"state":"active","ping":65},{"user_id":30,"name":"Löysä Masa","steam_id":76561198343396172,"connected_time":2245000000000,"state":"active","ping":88},{"user_id":31,"name":"rosepinkyfuzz","steam_id":76561198018546334,"connected_time":2202000000000,"state":"active","ping":73},{"user_id":60,"name":"herbal tea","steam_id":76561197980736364,"connected_time":807000000000,"state":"active","ping":77},{"user_id":40,"name":"thebananabomb00","steam_id":76561198296409283,"connected_time":2038000000000,"state":"active","ping":78},{"user_id":66,"name":"Kafu","steam_id":76561198163666902,"connected_time":449000000000,"state":"active","ping":111},{"user_id":36,"name":"Derniemalslacht","steam_id":76561198871103245,"connected_time":2117000000000,"state":"active","ping":54},{"user_id":67,"name":"Fauli™","steam_id":76561198125109310,"connected_time":445000000000,"state":"active","ping":59},{"user_id":70,"name":"löncsfasz","steam_id":76561198420809602,"connected_time":252000000000,"state":"connecting","ping":0},{"user_id":71,"name":"SomaZ","steam_id":76561198034694581,"connected_time":194000000000,"state":"active","ping":61},{"user_id":42,"name":"Voŭkaŭ","steam_id":76561198149202416,"connected_time":2009000000000,"state":"active","ping":92},{"user_id":43,"name":"Local crack distributor","steam_id":76561199213654225,"connected_time":2007000000000,"state":"active","ping":60}]},{"server_id":308,"name":"Uncletopia | Frankfurt | 3 | All Maps","name_short":"frk-3","host":"frk-1.de.uncletopia.com","port":27035,"enabled":true,"region":"eu","cc":"de","latitude":50.110924,"longitude":8.682127,"reserved":0,"last_update":"0001-01-01T00:00:00Z","name_a2s":"Uncletopia | Frankfurt | 3 | All Maps","protocol":17,"map":"pl_swiftwater_final1","folder":"tf","game":"Team Fortress","app_id":440,"player_count":17,"max_players":24,"Bots":0,"server_type":"Dedicated","server_os":"Linux","password":true,"vac":true,"version":"7695204","steam_id":85568392924504274,"keywords":["nocrits","nodmgspread","payload","uncletopia"],"game_id":440,"stv_port":27036,"stv_name":"Uncletopia | Frankfurt | 3 | All Maps | STV","players":[{"user_id":71,"name":"ViktorYoshi","steam_id":76561199157555246,"connected_time":5712000000000,"state":"active","ping":69},{"user_id":74,"name":"MoltioN","steam_id":76561198092747292,"connected_time":5483000000000,"state":"active","ping":89},{"user_id":130,"name":"Standingo","steam_id":76561198035642311,"connected_time":918000000000,"state":"active","ping":89},{"user_id":90,"name":"marken","steam_id":76561198311282846,"connected_time":4602000000000,"state":"active","ping":62},{"user_id":102,"name":"Bobby Wasabi 2007","steam_id":76561197988085026,"connected_time":3682000000000,"state":"active","ping":67},{"user_id":112,"name":"Recurracy","steam_id":76561197993421597,"connected_time":2697000000000,"state":"active","ping":51},{"user_id":121,"name":"Biały","steam_id":76561197996016988,"connected_time":1623000000000,"state":"active","ping":65},{"user_id":92,"name":"tacgod (read backwards)","steam_id":76561198312739604,"connected_time":4526000000000,"state":"active","ping":75},{"user_id":114,"name":"VIN WEASEL","steam_id":76561198014387066,"connected_time":2523000000000,"state":"active","ping":49},{"user_id":132,"name":"Joomig","steam_id":76561198798066767,"connected_time":708000000000,"state":"active","ping":67},{"user_id":137,"name":"Dora","steam_id":76561198072207649,"connected_time":156000000000,"state":"active","ping":69},{"user_id":109,"name":"Appelflap64","steam_id":76561198012819017,"connected_time":3178000000000,"state":"active","ping":60},{"user_id":133,"name":"Bones","steam_id":76561198065081225,"connected_time":701000000000,"state":"active","ping":38},{"user_id":118,"name":"M76030","steam_id":76561198046651252,"connected_time":1688000000000,"state":"active","ping":45},{"user_id":138,"name":"adam","steam_id":76561198042980135,"connected_time":143000000000,"state":"active","ping":72},{"user_id":98,"name":"Glocket","steam_id":76561198068460684,"connected_time":4290000000000,"state":"active","ping":63},{"user_id":135,"name":"Nithle","steam_id":76561198025372740,"connected_time":693000000000,"state":"active","ping":75}]},{"server_id":309,"name":"Uncletopia | Frankfurt | 4 | All Maps","name_short":"frk-4","host":"frk-1.de.uncletopia.com","port":27045,"enabled":true,"region":"eu","cc":"de","latitude":50.110924,"longitude":8.682127,"reserved":0,"last_update":"0001-01-01T00:00:00Z","name_a2s":"Uncletopia | Frankfurt | 4 | All Maps","protocol":17,"map":"koth_highpass","folder":"tf","game":"Team Fortress","app_id":440,"player_count":0,"max_players":24,"Bots":0,"server_type":"Dedicated","server_os":"Linux","password":true,"vac":true,"version":"7695204","steam_id":85568392924504275,"keywords":["cp","nocrits","nodmgspread","uncletopia"],"game_id":440,"stv_port":0,"stv_name":"","players":null},{"server_id":310,"name":"Uncletopia | Frankfurt | 5 | All Maps","name_short":"frk-5","host":"frk-1.de.uncletopia.com","port":27055,"enabled":true,"region":"eu","cc":"de","latitude":50.110924,"longitude":8.682127,"reserved":0,"last_update":"0001-01-01T00:00:00Z","name_a2s":"Uncletopia | Frankfurt | 5 | All Maps","protocol":17,"map":"pl_borneo","folder":"tf","game":"Team Fortress","app_id":440,"player_count":0,"max_players":24,"Bots":0,"server_type":"Dedicated","server_os":"Linux","password":true,"vac":true,"version":"7695204","steam_id":85568392924504277,"keywords":["nocrits","nodmgspread","payload","uncletopia"],"game_id":440,"stv_port":27056,"stv_name":"Uncletopia | Frankfurt | 5 | All Maps | STV","players":null},{"server_id":311,"name":"Uncletopia | Frankfurt | 6 | All Maps","name_short":"frk-6","host":"frk-1.de.uncletopia.com","port":27065,"enabled":true,"region":"eu","cc":"de","latitude":50.110924,"longitude":8.682127,"reserved":0,"last_update":"0001-01-01T00:00:00Z","name_a2s":"Uncletopia | Frankfurt | 6 | All Maps","protocol":17,"map":"pl_thundermountain","folder":"tf","game":"Team Fortress","app_id":440,"player_count":24,"max_players":24,"Bots":0,"server_type":"Dedicated","server_os":"Linux","password":true,"vac":true,"version":"7695204","steam_id":85568392924504278,"keywords":["nocrits","nodmgspread","payload","uncletopia"],"game_id":440,"stv_port":27066,"stv_name":"Uncletopia | Frankfurt | 6 | All Maps | STV","players":[{"user_id":175,"name":"Regan","steam_id":76561198100631086,"connected_time":1616000000000,"state":"active","ping":81},{"user_id":151,"name":"simon","steam_id":76561198880361394,"connected_time":3549000000000,"state":"active","ping":51},{"user_id":187,"name":"muZ","steam_id":76561198060145190,"connected_time":866000000000,"state":"active","ping":52},{"user_id":107,"name":"Swayer","steam_id":76561198056192460,"connected_time":6785000000000,"state":"active","ping":72},{"user_id":155,"name":"JoghurtTheKiller","steam_id":76561198063647918,"connected_time":3328000000000,"state":"active","ping":51},{"user_id":184,"name":"Him","steam_id":76561198155314925,"connected_time":1180000000000,"state":"active","ping":69},{"user_id":76,"name":"XfarisGamerX","steam_id":76561198367579380,"connected_time":10384000000000,"state":"active","ping":124},{"user_id":180,"name":"Mean Green Peen","steam_id":76561198228455736,"connected_time":1329000000000,"state":"active","ping":61},{"user_id":173,"name":"Trytard","steam_id":76561198094507220,"connected_time":2053000000000,"state":"active","ping":66},{"user_id":163,"name":"crolee","steam_id":76561198865817316,"connected_time":2798000000000,"state":"active","ping":59},{"user_id":115,"name":"El Gato Volador","steam_id":76561198021296882,"connected_time":6328000000000,"state":"active","ping":53},{"user_id":182,"name":"j o n","steam_id":76561199229511741,"connected_time":1231000000000,"state":"active","ping":65},{"user_id":102,"name":"Jonkheervanflep","steam_id":76561198006853101,"connected_time":7417000000000,"state":"active","ping":83},{"user_id":183,"name":"goofy goober","steam_id":76561198013237629,"connected_time":1220000000000,"state":"active","ping":87},{"user_id":137,"name":"Meem","steam_id":76561199088570961,"connected_time":4486000000000,"state":"active","ping":92},{"user_id":181,"name":"sentry man","steam_id":76561197993103138,"connected_time":1297000000000,"state":"active","ping":50},{"user_id":186,"name":"3xample","steam_id":76561198805049375,"connected_time":922000000000,"state":"active","ping":69},{"user_id":95,"name":"GMsU | Rebikas","steam_id":76561198077053764,"connected_time":7573000000000,"state":"active","ping":47},{"user_id":178,"name":"mt","steam_id":76561197961319303,"connected_time":1434000000000,"state":"active","ping":58},{"user_id":164,"name":"Devil hater","steam_id":76561198110470565,"connected_time":2674000000000,"state":"active","ping":103},{"user_id":179,"name":"LAMC","steam_id":76561199066888917,"connected_time":1430000000000,"state":"active","ping":52},{"user_id":185,"name":"Numbe","steam_id":76561198269614930,"connected_time":986000000000,"state":"active","ping":85},{"user_id":165,"name":"I fucking love ketamine","steam_id":76561198148919150,"connected_time":2623000000000,"state":"active","ping":86},{"user_id":172,"name":"GMsU | Acoul","steam_id":76561198229222992,"connected_time":2379000000000,"state":"active","ping":45}]},{"server_id":23,"name":"Uncletopia | Frankfurt | 7 | No Payload","name_short":"frk-7","host":"frk-1.de.uncletopia.com","port":27075,"enabled":true,"region":"eu","cc":"de","latitude":50.110924,"longitude":8.682127,"reserved":0,"last_update":"0001-01-01T00:00:00Z","name_a2s":"Uncletopia | Frankfurt | 7 | No Payload","protocol":17,"map":"ctf_landfall","folder":"tf","game":"Team Fortress","app_id":440,"player_count":22,"max_players":24,"Bots":0,"server_type":"Dedicated","server_os":"Linux","password":true,"vac":true,"version":"7695204","steam_id":85568392924742827,"keywords":["ctf","nocrits","nodmgspread","uncletopia"],"game_id":440,"stv_port":27076,"stv_name":"Uncletopia | Frankfurt | 7 | No Payload | STV","players":[{"user_id":142,"name":"DVD i want a life","steam_id":76561198338129578,"connected_time":5675000000000,"state":"active","ping":50},{"user_id":187,"name":"Salih","steam_id":76561198287934839,"connected_time":2959000000000,"state":"active","ping":53},{"user_id":215,"name":"Herzeleid","steam_id":76561198148668665,"connected_time":914000000000,"state":"active","ping":71},{"user_id":225,"name":"IanCliff","steam_id":76561198217056368,"connected_time":25000000000,"state":"active","ping":63},{"user_id":213,"name":"eka","steam_id":76561198132995289,"connected_time":1161000000000,"state":"active","ping":78},{"user_id":212,"name":"hot texan builder","steam_id":76561198887446161,"connected_time":1283000000000,"state":"active","ping":112},{"user_id":192,"name":"Velarowo","steam_id":76561198349373445,"connected_time":2346000000000,"state":"active","ping":65},{"user_id":112,"name":"Hoks","steam_id":76561198126442242,"connected_time":7565000000000,"state":"active","ping":120},{"user_id":224,"name":"Crimea a bridge","steam_id":76561198030898371,"connected_time":67000000000,"state":"active","ping":67},{"user_id":221,"name":"*DEAD* dusty","steam_id":76561199011977567,"connected_time":220000000000,"state":"active","ping":55},{"user_id":183,"name":"Dangerousbros","steam_id":76561198088952519,"connected_time":3150000000000,"state":"active","ping":46},{"user_id":220,"name":"UltimateAura","steam_id":76561198338361324,"connected_time":281000000000,"state":"active","ping":45},{"user_id":210,"name":"John Daly","steam_id":76561197993849325,"connected_time":1347000000000,"state":"active","ping":75},{"user_id":205,"name":"Bob Salami","steam_id":76561198150681340,"connected_time":1512000000000,"state":"active","ping":75},{"user_id":165,"name":"guys do you","steam_id":76561198077827849,"connected_time":4756000000000,"state":"active","ping":83},{"user_id":222,"name":"Pipkins","steam_id":76561199177223922,"connected_time":218000000000,"state":"active","ping":73},{"user_id":194,"name":"robbob","steam_id":76561198137375391,"connected_time":2271000000000,"state":"active","ping":76},{"user_id":198,"name":"W.Foster","steam_id":76561198153890902,"connected_time":2162000000000,"state":"active","ping":66},{"user_id":54,"name":"Him","steam_id":76561198086400484,"connected_time":11033000000000,"state":"active","ping":82},{"user_id":223,"name":"pardner","steam_id":76561198451471161,"connected_time":76000000000,"state":"active","ping":71},{"user_id":197,"name":"Rimx","steam_id":76561198053034840,"connected_time":2199000000000,"state":"active","ping":87},{"user_id":214,"name":"SvbK","steam_id":76561198201478866,"connected_time":1072000000000,"state":"active","ping":83}]},{"server_id":24,"name":"Uncletopia | Frankfurt | 8 | Community","name_short":"frk-8","host":"frk-1.de.uncletopia.com","port":27085,"enabled":true,"region":"eu","cc":"de","latitude":50.110924,"longitude":8.682127,"reserved":0,"last_update":"0001-01-01T00:00:00Z","name_a2s":"Uncletopia | Frankfurt | 8 | Community","protocol":17,"map":"koth_lakeside_final","folder":"tf","game":"Team Fortress","app_id":440,"player_count":0,"max_players":24,"Bots":0,"server_type":"Dedicated","server_os":"Linux","password":true,"vac":true,"version":"7695204","steam_id":85568392924742828,"keywords":["cp","nocrits","nodmgspread","uncletopia"],"game_id":440,"stv_port":0,"stv_name":"","players":null},{"server_id":202,"name":"Uncletopia | Hong Kong | 1 | All Maps","name_short":"hgk-1","host":"hgk-1.hk.uncletopia.com","port":27015,"enabled":true,"region":"asia","cc":"hk","latitude":22.302711,"longitude":114.177216,"reserved":0,"last_update":"0001-01-01T00:00:00Z","name_a2s":"Uncletopia | Hong Kong | 1 | All Maps","protocol":17,"map":"pl_badwater","folder":"tf","game":"Team Fortress","app_id":440,"player_count":24,"max_players":24,"Bots":0,"server_type":"Dedicated","server_os":"Linux","password":true,"vac":true,"version":"7695204","steam_id":85568392924494504,"keywords":["nocrits","nodmgspread","payload","uncletopia"],"game_id":440,"stv_port":27016,"stv_name":"Uncletopia | Hong Kong | 1 | All Maps | STV","players":[{"user_id":746,"name":"+W+","steam_id":76561197997220367,"connected_time":1181000000000,"state":"active","ping":51},{"user_id":741,"name":"BOK","steam_id":76561198095872644,"connected_time":1343000000000,"state":"active","ping":74},{"user_id":753,"name":"TomProPlayer","steam_id":76561199223292521,"connected_time":696000000000,"state":"active","ping":68},{"user_id":755,"name":"paga","steam_id":76561198296718007,"connected_time":519000000000,"state":"active","ping":109},{"user_id":715,"name":"Banana Milk","steam_id":76561198005156257,"connected_time":2842000000000,"state":"active","ping":123},{"user_id":698,"name":"Violezine","steam_id":76561199000502615,"connected_time":3693000000000,"state":"active","ping":77},{"user_id":736,"name":"Shotgun Only Engineer","steam_id":76561198150995080,"connected_time":1468000000000,"state":"active","ping":50},{"user_id":680,"name":"hombre","steam_id":76561198264819554,"connected_time":5329000000000,"state":"active","ping":43},{"user_id":754,"name":"hpeed","steam_id":76561198808595586,"connected_time":674000000000,"state":"active","ping":71},{"user_id":733,"name":"Puddin","steam_id":76561198140052918,"connected_time":1592000000000,"state":"active","ping":91},{"user_id":740,"name":"Saggle","steam_id":76561198056075147,"connected_time":1404000000000,"state":"active","ping":121},{"user_id":747,"name":"CaptainBozo","steam_id":76561199151959977,"connected_time":1145000000000,"state":"active","ping":65},{"user_id":728,"name":"Corn_Archer","steam_id":76561199185044554,"connected_time":2036000000000,"state":"active","ping":63},{"user_id":697,"name":"Banagi [F2P]","steam_id":76561199373908273,"connected_time":3739000000000,"state":"active","ping":140},{"user_id":756,"name":"piyoko no english","steam_id":76561198088403016,"connected_time":508000000000,"state":"active","ping":102},{"user_id":675,"name":"Lúd","steam_id":76561198828840546,"connected_time":5520000000000,"state":"active","ping":101},{"user_id":744,"name":"Larry Jones buying with 400 key","steam_id":76561198254410537,"connected_time":1230000000000,"state":"active","ping":83},{"user_id":745,"name":"tuxy","steam_id":76561198996816684,"connected_time":1227000000000,"state":"active","ping":80},{"user_id":723,"name":"Crazywayne","steam_id":76561198056504010,"connected_time":2370000000000,"state":"active","ping":78},{"user_id":668,"name":"TechMaster12(F2P) #savetf2","steam_id":76561199244754236,"connected_time":5933000000000,"state":"active","ping":97},{"user_id":726,"name":"AmaiToxic","steam_id":76561199122491157,"connected_time":2190000000000,"state":"active","ping":102},{"user_id":750,"name":"Joe","steam_id":76561199206081904,"connected_time":998000000000,"state":"active","ping":76},{"user_id":717,"name":"JayJ","steam_id":76561198324008555,"connected_time":2829000000000,"state":"active","ping":56},{"user_id":752,"name":"Alan the Annihilator","steam_id":76561198346128694,"connected_time":770000000000,"state":"active","ping":73}]},{"server_id":1,"name":"Uncletopia | Los Angeles | 1 | All Maps","name_short":"lax-1","host":"lax-1.us.uncletopia.com","port":27015,"enabled":true,"region":"us-west","cc":"us","latitude":33.94279,"longitude":-118.41004,"reserved":0,"last_update":"0001-01-01T00:00:00Z","name_a2s":"Uncletopia | Los Angeles | 1 | All Maps","protocol":17,"map":"pl_frontier_final","folder":"tf","game":"Team Fortress","app_id":440,"player_count":0,"max_players":24,"Bots":0,"server_type":"Dedicated","server_os":"Linux","password":true,"vac":true,"version":"7695204","steam_id":85568392924469991,"keywords":["nocrits","nodmgspread","payload","uncletopia"],"game_id":440,"stv_port":27016,"stv_name":"Uncletopia | Los Angeles | 1 | All Maps | STV","players":null},{"server_id":112,"name":"Uncletopia | Los Angeles | 2 | All Maps","name_short":"lax-2","host":"lax-1.us.uncletopia.com","port":27025,"enabled":true,"region":"us-west","cc":"us","latitude":33.94279,"longitude":-118.41004,"reserved":0,"last_update":"0001-01-01T00:00:00Z","name_a2s":"Uncletopia | Los Angeles | 2 | All Maps","protocol":17,"map":"koth_highpass","folder":"tf","game":"Team Fortress","app_id":440,"player_count":0,"max_players":24,"Bots":0,"server_type":"Dedicated","server_os":"Linux","password":true,"vac":true,"version":"7695204","steam_id":85568392924469992,"keywords":["cp","nocrits","nodmgspread","uncletopia"],"game_id":440,"stv_port":27026,"stv_name":"Uncletopia | Los Angeles | 2 | All Maps | STV","players":null},{"server_id":324,"name":"Uncletopia | Los Angeles | 3 | All Maps","name_short":"lax-3","host":"lax-1.us.uncletopia.com","port":27035,"enabled":true,"region":"us-west","cc":"us","latitude":33.94279,"longitude":-118.41004,"reserved":0,"last_update":"0001-01-01T00:00:00Z","name_a2s":"Uncletopia | Los Angeles | 3 | All Maps","protocol":17,"map":"cp_mountainlab","folder":"tf","game":"Team Fortress","app_id":440,"player_count":0,"max_players":24,"Bots":0,"server_type":"Dedicated","server_os":"Linux","password":true,"vac":true,"version":"7695204","steam_id":85568392924510198,"keywords":["cp","nocrits","nodmgspread","uncletopia"],"game_id":440,"stv_port":27036,"stv_name":"Uncletopia | Los Angeles | 3 | All Maps | STV","players":null},{"server_id":25,"name":"Uncletopia | Los Angeles | 4 | No Payload","name_short":"lax-4","host":"lax-1.us.uncletopia.com","port":27045,"enabled":true,"region":"us-west","cc":"us","latitude":33.94279,"longitude":-118.41004,"reserved":0,"last_update":"0001-01-01T00:00:00Z","name_a2s":"Uncletopia | Los Angeles | 4 | No Payload","protocol":17,"map":"cp_standin_final","folder":"tf","game":"Team Fortress","app_id":440,"player_count":0,"max_players":24,"Bots":0,"server_type":"Dedicated","server_os":"Linux","password":true,"vac":true,"version":"7695204","steam_id":85568392924510199,"keywords":["cp","nocrits","nodmgspread","uncletopia"],"game_id":440,"stv_port":27046,"stv_name":"Uncletopia | Los Angeles | 4 | No Payload | STV","players":null},{"server_id":11,"name":"Uncletopia | London | 1 | All Maps","name_short":"lon-1","host":"lon-1.uk.uncletopia.com","port":27015,"enabled":true,"region":"eu","cc":"gb","latitude":51.509865,"longitude":-0.118092,"reserved":0,"last_update":"0001-01-01T00:00:00Z","name_a2s":"Uncletopia | London | 1 | All Maps","protocol":17,"map":"pl_badwater","folder":"tf","game":"Team Fortress","app_id":440,"player_count":24,"max_players":24,"Bots":0,"server_type":"Dedicated","server_os":"Linux","password":true,"vac":true,"version":"7695204","steam_id":85568392924367362,"keywords":["nocrits","nodmgspread","payload","uncletopia"],"game_id":440,"stv_port":27016,"stv_name":"Uncletopia | London | 1 | All Maps | STV","players":[{"user_id":10,"name":"Fred","steam_id":76561198107137362,"connected_time":4725000000000,"state":"active","ping":45},{"user_id":59,"name":"(っ◔◡◔)っ ♥","steam_id":76561199026097466,"connected_time":1158000000000,"state":"active","ping":75},{"user_id":57,"name":"Giga Chad Revi","steam_id":76561198288444777,"connected_time":1354000000000,"state":"active","ping":97},{"user_id":15,"name":"sergiazo","steam_id":76561199081954697,"connected_time":4130000000000,"state":"active","ping":64},{"user_id":76,"name":"Blurry","steam_id":76561198115918417,"connected_time":90000000000,"state":"active","ping":58},{"user_id":77,"name":"Hkitchen","steam_id":76561198194779526,"connected_time":74000000000,"state":"active","ping":37},{"user_id":56,"name":"blurst of times","steam_id":76561197972325640,"connected_time":1609000000000,"state":"active","ping":47},{"user_id":55,"name":"DrExplosive","steam_id":76561198063678579,"connected_time":1656000000000,"state":"active","ping":32},{"user_id":78,"name":"jelle.de.alternatief","steam_id":76561199405861337,"connected_time":60000000000,"state":"active","ping":51},{"user_id":50,"name":"crazyweaponizer","steam_id":76561198250362150,"connected_time":2738000000000,"state":"active","ping":103},{"user_id":67,"name":"Zahn","steam_id":76561198101479964,"connected_time":891000000000,"state":"active","ping":78},{"user_id":73,"name":";;yn","steam_id":76561198088624259,"connected_time":222000000000,"state":"active","ping":56},{"user_id":45,"name":"Mor'du","steam_id":76561198274105878,"connected_time":3249000000000,"state":"active","ping":79},{"user_id":66,"name":"Demolag","steam_id":76561198070502025,"connected_time":1087000000000,"state":"active","ping":71},{"user_id":62,"name":"wxyz kapıcı izzet","steam_id":76561198241873438,"connected_time":1133000000000,"state":"active","ping":88},{"user_id":46,"name":"Lyell","steam_id":76561198350329389,"connected_time":3243000000000,"state":"active","ping":78},{"user_id":58,"name":"Cillian","steam_id":76561199046965320,"connected_time":1181000000000,"state":"active","ping":76},{"user_id":79,"name":"Belgorodec","steam_id":76561199383879505,"connected_time":60000000000,"state":"active","ping":104},{"user_id":69,"name":"Grim the lemon","steam_id":76561199083433988,"connected_time":807000000000,"state":"active","ping":50},{"user_id":64,"name":"lulu","steam_id":76561199147764133,"connected_time":1110000000000,"state":"active","ping":78},{"user_id":39,"name":"Communisam extremist","steam_id":76561199034293112,"connected_time":3456000000000,"state":"active","ping":69},{"user_id":52,"name":"Wardruna96","steam_id":76561199057083828,"connected_time":1887000000000,"state":"active","ping":75},{"user_id":60,"name":"Maul","steam_id":76561198071844928,"connected_time":1155000000000,"state":"active","ping":157},{"user_id":70,"name":"frozen bag","steam_id":76561198171865957,"connected_time":807000000000,"state":"active","ping":67}]},{"server_id":114,"name":"Uncletopia | London | 2 | All Maps","name_short":"lon-2","host":"lon-1.uk.uncletopia.com","port":27025,"enabled":true,"region":"eu","cc":"gb","latitude":51.509865,"longitude":-0.118092,"reserved":0,"last_update":"0001-01-01T00:00:00Z","name_a2s":"Uncletopia | London | 2 | All Maps","protocol":17,"map":"pl_barnblitz","folder":"tf","game":"Team Fortress","app_id":440,"player_count":23,"max_players":24,"Bots":0,"server_type":"Dedicated","server_os":"Linux","password":true,"vac":true,"version":"7695204","steam_id":85568392924470941,"keywords":["nocrits","nodmgspread","payload","uncletopia"],"game_id":440,"stv_port":27026,"stv_name":"Uncletopia | London | 2 | All Maps | STV","players":[{"user_id":106,"name":"tralalaOuiOui","steam_id":76561197963471507,"connected_time":195000000000,"state":"active","ping":47},{"user_id":113,"name":"BIG TONY FROM LOCAL","steam_id":76561198027033926,"connected_time":17000000000,"state":"active","ping":56},{"user_id":102,"name":"Milky","steam_id":76561198966906629,"connected_time":471000000000,"state":"active","ping":43},{"user_id":109,"name":"wardex","steam_id":76561198058776834,"connected_time":136000000000,"state":"active","ping":54},{"user_id":103,"name":"basil gaming","steam_id":76561198164554641,"connected_time":359000000000,"state":"active","ping":54},{"user_id":82,"name":"sumweeb","steam_id":76561198311624395,"connected_time":2150000000000,"state":"active","ping":43},{"user_id":98,"name":"Scarlet","steam_id":76561198075966579,"connected_time":584000000000,"state":"active","ping":45},{"user_id":110,"name":"Washburne","steam_id":76561198032810579,"connected_time":134000000000,"state":"active","ping":45},{"user_id":18,"name":"VK2124 :D","steam_id":76561198111130688,"connected_time":5849000000000,"state":"active","ping":59},{"user_id":90,"name":"Octis","steam_id":76561198015536917,"connected_time":1760000000000,"state":"active","ping":87},{"user_id":105,"name":"❤ s2 ❤","steam_id":76561198139952351,"connected_time":209000000000,"state":"active","ping":85},{"user_id":89,"name":"KeNNy L.O.L","steam_id":76561198041918418,"connected_time":1808000000000,"state":"active","ping":98},{"user_id":66,"name":"[F2P] MalCo","steam_id":76561197994930440,"connected_time":3669000000000,"state":"active","ping":45},{"user_id":84,"name":"Mike","steam_id":76561198055459984,"connected_time":2140000000000,"state":"active","ping":53},{"user_id":85,"name":"dorak","steam_id":76561198818037965,"connected_time":2118000000000,"state":"active","ping":106},{"user_id":107,"name":"Crusade","steam_id":76561199192979051,"connected_time":194000000000,"state":"active","ping":147},{"user_id":88,"name":"thekoolest88","steam_id":76561199022415672,"connected_time":1977000000000,"state":"active","ping":141},{"user_id":108,"name":"Kvikk","steam_id":76561198063104117,"connected_time":190000000000,"state":"active","ping":77},{"user_id":111,"name":"OmR","steam_id":76561198015792609,"connected_time":129000000000,"state":"active","ping":60},{"user_id":87,"name":"Tort","steam_id":76561198329646769,"connected_time":2078000000000,"state":"active","ping":47},{"user_id":50,"name":"nyanezt","steam_id":76561198253734265,"connected_time":5000000000000,"state":"active","ping":102},{"user_id":112,"name":"TheNerdman","steam_id":76561198097576111,"connected_time":119000000000,"state":"active","ping":62},{"user_id":63,"name":"Jafoul","steam_id":76561199383437138,"connected_time":3819000000000,"state":"active","ping":121}]},{"server_id":320,"name":"Uncletopia | London | 3 | All Maps","name_short":"lon-3","host":"lon-1.uk.uncletopia.com","port":27035,"enabled":true,"region":"eu","cc":"gb","latitude":51.509865,"longitude":-0.118092,"reserved":0,"last_update":"0001-01-01T00:00:00Z","name_a2s":"Uncletopia | London | 3 | All Maps","protocol":17,"map":"pl_badwater","folder":"tf","game":"Team Fortress","app_id":440,"player_count":24,"max_players":24,"Bots":0,"server_type":"Dedicated","server_os":"Linux","password":true,"vac":true,"version":"7695204","steam_id":85568392924510192,"keywords":["nocrits","nodmgspread","payload","uncletopia"],"game_id":440,"stv_port":27036,"stv_name":"Uncletopia | London | 3 | All Maps | STV","players":[{"user_id":327,"name":"moon","steam_id":76561199212557251,"connected_time":2231000000000,"state":"active","ping":112},{"user_id":358,"name":"xSprinkle","steam_id":76561198002723550,"connected_time":293000000000,"state":"active","ping":43},{"user_id":335,"name":"Mr.Schnittlauch","steam_id":76561198295868113,"connected_time":1857000000000,"state":"active","ping":64},{"user_id":332,"name":"Nedge","steam_id":76561197963549701,"connected_time":1900000000000,"state":"active","ping":47},{"user_id":317,"name":"Kili","steam_id":76561198138456346,"connected_time":2657000000000,"state":"active","ping":68},{"user_id":357,"name":"alvinulv","steam_id":76561198024487177,"connected_time":318000000000,"state":"active","ping":60},{"user_id":348,"name":"Flare","steam_id":76561198039098320,"connected_time":753000000000,"state":"active","ping":45},{"user_id":337,"name":"WolfmanCZ","steam_id":76561199157141414,"connected_time":1743000000000,"state":"active","ping":77},{"user_id":359,"name":"Burpman","steam_id":76561198022897937,"connected_time":278000000000,"state":"active","ping":48},{"user_id":333,"name":"Brinnck","steam_id":76561198340776600,"connected_time":1888000000000,"state":"active","ping":60},{"user_id":345,"name":"Shrimpeee","steam_id":76561199012689768,"connected_time":899000000000,"state":"active","ping":57},{"user_id":298,"name":"JOHN GAMING (based)","steam_id":76561199085822219,"connected_time":3992000000000,"state":"active","ping":90},{"user_id":354,"name":"russell","steam_id":76561198879773477,"connected_time":519000000000,"state":"active","ping":49},{"user_id":293,"name":"Sonnakai","steam_id":76561198051688749,"connected_time":4624000000000,"state":"active","ping":45},{"user_id":304,"name":"Ｒ Ｏ Ｂ Ｂ Ｅ Ｒ Ｔ","steam_id":76561198134404830,"connected_time":3293000000000,"state":"active","ping":144},{"user_id":319,"name":"Bottomest","steam_id":76561198091734693,"connected_time":2632000000000,"state":"active","ping":62},{"user_id":339,"name":"soil.dirt.earth","steam_id":76561198014377623,"connected_time":1593000000000,"state":"active","ping":56},{"user_id":321,"name":"LOBZIK","steam_id":76561198114830120,"connected_time":2600000000000,"state":"active","ping":81},{"user_id":349,"name":"Mike Ehrmantraut","steam_id":76561198164783481,"connected_time":747000000000,"state":"active","ping":59},{"user_id":311,"name":"Umme","steam_id":76561198053809566,"connected_time":2742000000000,"state":"active","ping":89},{"user_id":351,"name":"Karsapaali","steam_id":76561198322322739,"connected_time":603000000000,"state":"active","ping":81},{"user_id":352,"name":"Custom_Name","steam_id":76561198324488763,"connected_time":592000000000,"state":"active","ping":123},{"user_id":356,"name":"KuhlerKarl","steam_id":76561198411211564,"connected_time":405000000000,"state":"active","ping":69},{"user_id":344,"name":"Jet","steam_id":76561198061518477,"connected_time":1202000000000,"state":"active","ping":54}]},{"server_id":321,"name":"Uncletopia | London | 4 | All Maps","name_short":"lon-4","host":"lon-1.uk.uncletopia.com","port":27045,"enabled":true,"region":"eu","cc":"gb","latitude":51.509865,"longitude":-0.118092,"reserved":0,"last_update":"0001-01-01T00:00:00Z","name_a2s":"Uncletopia | London | 4 | All Maps","protocol":17,"map":"koth_king","folder":"tf","game":"Team Fortress","app_id":440,"player_count":0,"max_players":24,"Bots":0,"server_type":"Dedicated","server_os":"Linux","password":true,"vac":true,"version":"7695204","steam_id":85568392924510193,"keywords":["cp","nocrits","nodmgspread","uncletopia"],"game_id":440,"stv_port":27046,"stv_name":"Uncletopia | London | 4 | All Maps | STV","players":null},{"server_id":21,"name":"Uncletopia | London | 5 | All Maps","name_short":"lon-5","host":"lon-1.uk.uncletopia.com","port":27055,"enabled":true,"region":"eu","cc":"gb","latitude":51.509865,"longitude":-0.118092,"reserved":0,"last_update":"0001-01-01T00:00:00Z","name_a2s":"Uncletopia | London | 5 | All Maps","protocol":17,"map":"koth_cascade","folder":"tf","game":"Team Fortress","app_id":440,"player_count":0,"max_players":24,"Bots":0,"server_type":"Dedicated","server_os":"Linux","password":true,"vac":true,"version":"7695204","steam_id":85568392924742829,"keywords":["cp","nocrits","nodmgspread","uncletopia"],"game_id":440,"stv_port":0,"stv_name":"","players":null},{"server_id":22,"name":"Uncletopia | London | 6 | All Maps","name_short":"lon-6","host":"lon-1.uk.uncletopia.com","port":27065,"enabled":true,"region":"eu","cc":"gb","latitude":51.509865,"longitude":-0.118092,"reserved":0,"last_update":"0001-01-01T00:00:00Z","name_a2s":"Uncletopia | London | 6 | All Maps","protocol":17,"map":"pl_frontier_final","folder":"tf","game":"Team Fortress","app_id":440,"player_count":0,"max_players":24,"Bots":0,"server_type":"Dedicated","server_os":"Linux","password":true,"vac":true,"version":"7695204","steam_id":85568392924742830,"keywords":["nocrits","nodmgspread","payload","uncletopia"],"game_id":440,"stv_port":27066,"stv_name":"Uncletopia | London | 6 | All Maps | STV","players":null},{"server_id":40,"name":"Uncletopia | London | 7 | No Payload","name_short":"lon-7","host":"lon-1.uk.uncletopia.com","port":27075,"enabled":true,"region":"eu","cc":"gb","latitude":51.509865,"longitude":-0.118092,"reserved":0,"last_update":"0001-01-01T00:00:00Z","name_a2s":"Uncletopia | London | 7 | No Payload","protocol":17,"map":"koth_lakeside_final","folder":"tf","game":"Team Fortress","app_id":440,"player_count":2,"max_players":24,"Bots":0,"server_type":"Dedicated","server_os":"Linux","password":true,"vac":true,"version":"7695204","steam_id":85568392924964314,"keywords":["cp","nocrits","nodmgspread","uncletopia"],"game_id":440,"stv_port":27076,"stv_name":"Uncletopia | London | 7 | No Payload | STV","players":[{"user_id":3,"name":"Sentry","steam_id":76561198797688627,"connected_time":894000000000,"state":"active","ping":81},{"user_id":7,"name":"sangth","steam_id":76561198032787233,"connected_time":379000000000,"state":"active","ping":79}]},{"server_id":41,"name":"Uncletopia | London | 8 | Community","name_short":"lon-8","host":"lon-1.uk.uncletopia.com","port":27085,"enabled":true,"region":"eu","cc":"gb","latitude":51.509865,"longitude":-0.118092,"reserved":0,"last_update":"0001-01-01T00:00:00Z","name_a2s":"Uncletopia | London | 8 | Community","protocol":17,"map":"cp_dustbowl","folder":"tf","game":"Team Fortress","app_id":440,"player_count":0,"max_players":24,"Bots":0,"server_type":"Dedicated","server_os":"Linux","password":true,"vac":true,"version":"7695204","steam_id":85568392924964315,"keywords":["cp","nocrits","nodmgspread","uncletopia"],"game_id":440,"stv_port":0,"stv_name":"","players":null},{"server_id":300,"name":"Uncletopia | Montréal | 1 | All Maps","name_short":"mtl-1","host":"mtl-1.ca.uncletopia.com","port":27015,"enabled":true,"region":"us-east","cc":"ca","latitude":45.50889,"longitude":-73.56167,"reserved":0,"last_update":"0001-01-01T00:00:00Z","name_a2s":"Uncletopia | Montréal | 1 | All Maps","protocol":17,"map":"cp_dustbowl","folder":"tf","game":"Team Fortress","app_id":440,"player_count":0,"max_players":24,"Bots":0,"server_type":"Dedicated","server_os":"Linux","password":true,"vac":true,"version":"7695204","steam_id":85568392924500087,"keywords":["cp","nocrits","nodmgspread","uncletopia"],"game_id":440,"stv_port":0,"stv_name":"","players":null},{"server_id":301,"name":"Uncletopia | Montréal | 2 | All Maps","name_short":"mtl-2","host":"mtl-1.ca.uncletopia.com","port":27025,"enabled":true,"region":"us-east","cc":"ca","latitude":45.50889,"longitude":-73.56167,"reserved":0,"last_update":"0001-01-01T00:00:00Z","name_a2s":"Uncletopia | Montréal | 2 | All Maps","protocol":17,"map":"pl_snowycoast","folder":"tf","game":"Team Fortress","app_id":440,"player_count":0,"max_players":24,"Bots":0,"server_type":"Dedicated","server_os":"Linux","password":true,"vac":true,"version":"7695204","steam_id":85568392924500088,"keywords":["nocrits","nodmgspread","payload","uncletopia"],"game_id":440,"stv_port":0,"stv_name":"","players":null},{"server_id":302,"name":"Uncletopia | Montréal | 3 | All Maps","name_short":"mtl-3","host":"mtl-1.ca.uncletopia.com","port":27035,"enabled":true,"region":"us-east","cc":"ca","latitude":45.50889,"longitude":-73.56167,"reserved":0,"last_update":"0001-01-01T00:00:00Z","name_a2s":"Uncletopia | Montréal | 3 | All Maps","protocol":17,"map":"koth_viaduct","folder":"tf","game":"Team Fortress","app_id":440,"player_count":0,"max_players":24,"Bots":0,"server_type":"Dedicated","server_os":"Linux","password":true,"vac":true,"version":"7695204","steam_id":85568392924500089,"keywords":["cp","nocrits","nodmgspread","uncletopia"],"game_id":440,"stv_port":0,"stv_name":"","players":null},{"server_id":303,"name":"Uncletopia | Montréal | 4 | No Payload","name_short":"mtl-4","host":"mtl-1.ca.uncletopia.com","port":27045,"enabled":true,"region":"us-east","cc":"ca","latitude":45.50889,"longitude":-73.56167,"reserved":0,"last_update":"0001-01-01T00:00:00Z","name_a2s":"Uncletopia | Montréal | 4 | No Payload","protocol":17,"map":"cp_dustbowl","folder":"tf","game":"Team Fortress","app_id":440,"player_count":0,"max_players":24,"Bots":0,"server_type":"Dedicated","server_os":"Linux","password":true,"vac":true,"version":"7695204","steam_id":85568392924500090,"keywords":["cp","nocrits","nodmgspread","uncletopia"],"game_id":440,"stv_port":0,"stv_name":"","players":null},{"server_id":13,"name":"Uncletopia | New York City | 1 | All Maps","name_short":"nyc-1","host":"nyc-1.us.uncletopia.com","port":27015,"enabled":true,"region":"us-east","cc":"us","latitude":40.73061,"longitude":-73.93524,"reserved":0,"last_update":"0001-01-01T00:00:00Z","name_a2s":"Uncletopia | New York City | 1 | All Maps","protocol":17,"map":"cp_snakewater_final1","folder":"tf","game":"Team Fortress","app_id":440,"player_count":0,"max_players":24,"Bots":0,"server_type":"Dedicated","server_os":"Linux","password":true,"vac":true,"version":"7695204","steam_id":85568392924469993,"keywords":["cp","nocrits","nodmgspread","uncletopia"],"game_id":440,"stv_port":0,"stv_name":"","players":null},{"server_id":14,"name":"Uncletopia | New York City | 2 | All Maps","name_short":"nyc-2","host":"nyc-1.us.uncletopia.com","port":27025,"enabled":true,"region":"us-east","cc":"us","latitude":40.73061,"longitude":-73.93524,"reserved":0,"last_update":"0001-01-01T00:00:00Z","name_a2s":"Uncletopia | New York City | 2 | All Maps","protocol":17,"map":"pl_borneo","folder":"tf","game":"Team Fortress","app_id":440,"player_count":0,"max_players":24,"Bots":0,"server_type":"Dedicated","server_os":"Linux","password":true,"vac":true,"version":"7695204","steam_id":85568392924469994,"keywords":["nocrits","nodmgspread","payload","uncletopia"],"game_id":440,"stv_port":0,"stv_name":"","players":null},{"server_id":15,"name":"Uncletopia | New York City | 3 | All Maps","name_short":"nyc-3","host":"nyc-1.us.uncletopia.com","port":27035,"enabled":true,"region":"us-east","cc":"us","latitude":40.73061,"longitude":-73.93524,"reserved":0,"last_update":"0001-01-01T00:00:00Z","name_a2s":"Uncletopia | New York City | 3 | All Maps","protocol":17,"map":"pl_snowycoast","folder":"tf","game":"Team Fortress","app_id":440,"player_count":0,"max_players":24,"Bots":0,"server_type":"Dedicated","server_os":"Linux","password":true,"vac":true,"version":"7695204","steam_id":85568392924742820,"keywords":["nocrits","nodmgspread","payload","uncletopia"],"game_id":440,"stv_port":0,"stv_name":"","players":null},{"server_id":16,"name":"Uncletopia | New York City | 4 | Community","name_short":"nyc-4","host":"nyc-1.us.uncletopia.com","port":27045,"enabled":true,"region":"us-east","cc":"us","latitude":40.73061,"longitude":-73.93524,"reserved":0,"last_update":"0001-01-01T00:00:00Z","name_a2s":"Uncletopia | New York City | 4 | Community","protocol":17,"map":"pl_barnblitz","folder":"tf","game":"Team Fortress","app_id":440,"player_count":0,"max_players":24,"Bots":0,"server_type":"Dedicated","server_os":"Linux","password":true,"vac":true,"version":"7695204","steam_id":85568392924742821,"keywords":["nocrits","nodmgspread","payload","uncletopia"],"game_id":440,"stv_port":0,"stv_name":"","players":null},{"server_id":142,"name":"Uncletopia | São Paulo | 1 | All Maps","name_short":"sao-1","host":"sao-1.br.uncletopia.com","port":27015,"enabled":true,"region":"sa","cc":"br","latitude":-23.533773,"longitude":-46.62529,"reserved":0,"last_update":"0001-01-01T00:00:00Z","name_a2s":"Uncletopia | São Paulo | 1 | All Maps","protocol":17,"map":"koth_cascade","folder":"tf","game":"Team Fortress","app_id":440,"player_count":0,"max_players":24,"Bots":0,"server_type":"Dedicated","server_os":"Linux","password":true,"vac":true,"version":"7695204","steam_id":85568392924469996,"keywords":["cp","nocrits","nodmgspread","uncletopia"],"game_id":440,"stv_port":0,"stv_name":"","players":null},{"server_id":143,"name":"Uncletopia | São Paulo | 2 | All Maps","name_short":"sao-2","host":"sao-2.br.uncletopia.com","port":27015,"enabled":true,"region":"sa","cc":"br","latitude":-23.533773,"longitude":-46.62529,"reserved":0,"last_update":"0001-01-01T00:00:00Z","name_a2s":"Uncletopia | São Paulo | 2 | All Maps","protocol":17,"map":"cp_mountainlab","folder":"tf","game":"Team Fortress","app_id":440,"player_count":0,"max_players":24,"Bots":0,"server_type":"Dedicated","server_os":"Linux","password":true,"vac":true,"version":"7695204","steam_id":85568392924485349,"keywords":["cp","nocrits","nodmgspread","uncletopia"],"game_id":440,"stv_port":27016,"stv_name":"Uncletopia | São Paulo | 2 | All Maps | STV","players":null},{"server_id":7,"name":"Uncletopia | Seattle | 1 | All Maps","name_short":"sea-1","host":"sea-1.us.uncletopia.com","port":27015,"enabled":true,"region":"us-west","cc":"us","latitude":47.608013,"longitude":-122.33517,"reserved":0,"last_update":"0001-01-01T00:00:00Z","name_a2s":"Uncletopia | Seattle | 1 | All Maps","protocol":17,"map":"koth_cascade","folder":"tf","game":"Team Fortress","app_id":440,"player_count":0,"max_players":24,"Bots":0,"server_type":"Dedicated","server_os":"Linux","password":true,"vac":true,"version":"7695204","steam_id":85568392924469997,"keywords":["cp","nocrits","nodmgspread","uncletopia"],"game_id":440,"stv_port":27016,"stv_name":"Uncletopia | Seattle | 1 | All Maps | STV","players":null},{"server_id":119,"name":"Uncletopia | Seattle | 2 | All Maps","name_short":"sea-2","host":"sea-1.us.uncletopia.com","port":27025,"enabled":true,"region":"us-west","cc":"us","latitude":47.608013,"longitude":-122.33517,"reserved":0,"last_update":"0001-01-01T00:00:00Z","name_a2s":"Uncletopia | Seattle | 2 | All Maps","protocol":17,"map":"koth_cascade","folder":"tf","game":"Team Fortress","app_id":440,"player_count":0,"max_players":24,"Bots":0,"server_type":"Dedicated","server_os":"Linux","password":true,"vac":true,"version":"7695204","steam_id":85568392924469998,"keywords":["cp","nocrits","nodmgspread","uncletopia"],"game_id":440,"stv_port":27026,"stv_name":"Uncletopia | Seattle | 2 | All Maps | STV","players":null},{"server_id":17,"name":"Uncletopia | San Francisco | 1 | All Maps","name_short":"sfo-1","host":"sfo-1.us.uncletopia.com","port":27015,"enabled":true,"region":"us-west","cc":"us","latitude":37.77397,"longitude":-122.4313,"reserved":0,"last_update":"0001-01-01T00:00:00Z","name_a2s":"Uncletopia | San Francisco | 1 | All Maps","protocol":17,"map":"pl_pier","folder":"tf","game":"Team Fortress","app_id":440,"player_count":24,"max_players":24,"Bots":0,"server_type":"Dedicated","server_os":"Linux","password":true,"vac":true,"version":"7695204","steam_id":85568392924469999,"keywords":["nocrits","nodmgspread","payload","uncletopia"],"game_id":440,"stv_port":27016,"stv_name":"Uncletopia | San Francisco | 1 | All Maps | STV","players":[{"user_id":560,"name":"Schizo Femboy","steam_id":76561199162627150,"connected_time":2880000000000,"state":"active","ping":91},{"user_id":534,"name":"Giant","steam_id":76561198851536991,"connected_time":5212000000000,"state":"active","ping":55},{"user_id":578,"name":"TigeR","steam_id":76561198087673124,"connected_time":360000000000,"state":"active","ping":99},{"user_id":567,"name":"Weenehr","steam_id":76561198169935867,"connected_time":2472000000000,"state":"active","ping":97},{"user_id":537,"name":"Sad Sapling","steam_id":76561198075612150,"connected_time":4953000000000,"state":"active","ping":65},{"user_id":559,"name":"pyotr ❄","steam_id":76561198803785984,"connected_time":2893000000000,"state":"active","ping":105},{"user_id":553,"name":"Some Genius","steam_id":76561198101868089,"connected_time":3462000000000,"state":"active","ping":45},{"user_id":523,"name":"Tyco","steam_id":76561197978414167,"connected_time":6032000000000,"state":"active","ping":105},{"user_id":437,"name":"Dr_Minty","steam_id":76561199043644449,"connected_time":10889000000000,"state":"active","ping":58},{"user_id":545,"name":"Omega\"Hell's Wall\"EXE","steam_id":76561198395291970,"connected_time":4668000000000,"state":"active","ping":60},{"user_id":577,"name":"Chad","steam_id":76561198007048233,"connected_time":367000000000,"state":"active","ping":63},{"user_id":544,"name":"im peter griffin (REAL)","steam_id":76561198059408215,"connected_time":4717000000000,"state":"active","ping":65},{"user_id":570,"name":"WONDER.","steam_id":76561198092527854,"connected_time":1880000000000,"state":"active","ping":48},{"user_id":568,"name":"Papillon","steam_id":76561198049725849,"connected_time":2168000000000,"state":"active","ping":117},{"user_id":542,"name":"paj","steam_id":76561198080026026,"connected_time":4843000000000,"state":"active","ping":63},{"user_id":579,"name":"nightcore","steam_id":76561198072420585,"connected_time":62000000000,"state":"active","ping":61},{"user_id":531,"name":"twitch.tv/HelloAnon_","steam_id":76561198109740776,"connected_time":5463000000000,"state":"active","ping":69},{"user_id":574,"name":"Raian","steam_id":76561199138048671,"connected_time":472000000000,"state":"active","ping":59},{"user_id":571,"name":"Antreuse","steam_id":76561198219721132,"connected_time":1593000000000,"state":"active","ping":50},{"user_id":550,"name":"Ellie Goulding","steam_id":76561198035380358,"connected_time":3934000000000,"state":"active","ping":45},{"user_id":572,"name":"HK | KitKat |","steam_id":76561198196793415,"connected_time":1154000000000,"state":"active","ping":73},{"user_id":569,"name":"Don william","steam_id":76561199066025998,"connected_time":1931000000000,"state":"active","ping":160},{"user_id":541,"name":"Tyler\u0026Fingers","steam_id":76561198085154485,"connected_time":4877000000000,"state":"active","ping":114},{"user_id":566,"name":"TheDubby","steam_id":76561198054380460,"connected_time":2488000000000,"state":"active","ping":102}]},{"server_id":18,"name":"Uncletopia | San Francisco | 2 | All Maps","name_short":"sfo-2","host":"sfo-1.us.uncletopia.com","port":27025,"enabled":true,"region":"us-west","cc":"us","latitude":37.77397,"longitude":-122.4313,"reserved":0,"last_update":"0001-01-01T00:00:00Z","name_a2s":"Uncletopia | San Francisco | 2 | All Maps","protocol":17,"map":"cp_sunshine","folder":"tf","game":"Team Fortress","app_id":440,"player_count":0,"max_players":24,"Bots":0,"server_type":"Dedicated","server_os":"Linux","password":true,"vac":true,"version":"7695204","steam_id":85568392924470000,"keywords":["cp","nocrits","nodmgspread","uncletopia"],"game_id":440,"stv_port":27026,"stv_name":"Uncletopia | San Francisco | 2 | All Maps | STV","players":null},{"server_id":19,"name":"Uncletopia | San Francisco | 3 | No Payload","name_short":"sfo-3","host":"sfo-1.us.uncletopia.com","port":27035,"enabled":true,"region":"us-west","cc":"us","latitude":37.77397,"longitude":-122.4313,"reserved":0,"last_update":"0001-01-01T00:00:00Z","name_a2s":"Uncletopia | San Francisco | 3 | No Payload","protocol":17,"map":"cp_freight_final1","folder":"tf","game":"Team Fortress","app_id":440,"player_count":0,"max_players":24,"Bots":0,"server_type":"Dedicated","server_os":"Linux","password":true,"vac":true,"version":"7695204","steam_id":85568392924742824,"keywords":["cp","nocrits","nodmgspread","uncletopia"],"game_id":440,"stv_port":27036,"stv_name":"Uncletopia | San Francisco | 3 | No Payload | STV","players":null},{"server_id":20,"name":"Uncletopia | San Francisco | 4 | Community","name_short":"sfo-4","host":"sfo-1.us.uncletopia.com","port":27045,"enabled":true,"region":"us-west","cc":"us","latitude":37.77397,"longitude":-122.4313,"reserved":0,"last_update":"0001-01-01T00:00:00Z","name_a2s":"Uncletopia | San Francisco | 4 | Community","protocol":17,"map":"koth_highpass","folder":"tf","game":"Team Fortress","app_id":440,"player_count":0,"max_players":24,"Bots":0,"server_type":"Dedicated","server_os":"Linux","password":true,"vac":true,"version":"7695204","steam_id":85568392924742826,"keywords":["cp","nocrits","nodmgspread","uncletopia"],"game_id":440,"stv_port":0,"stv_name":"","players":null},{"server_id":141,"name":"Uncletopia | Sydney | 1 | All Maps","name_short":"syd-1","host":"syd-1.au.uncletopia.com","port":27015,"enabled":true,"region":"au","cc":"au","latitude":-33.865143,"longitude":151.2099,"reserved":0,"last_update":"0001-01-01T00:00:00Z","name_a2s":"Uncletopia | Sydney | 1 | All Maps","protocol":17,"map":"pl_badwater","folder":"tf","game":"Team Fortress","app_id":440,"player_count":3,"max_players":24,"Bots":0,"server_type":"Dedicated","server_os":"Linux","password":true,"vac":true,"version":"7695204","steam_id":85568392924470001,"keywords":["nocrits","nodmgspread","payload","uncletopia"],"game_id":440,"stv_port":27016,"stv_name":"Uncletopia | Sydney | 1 | All Maps | STV","players":[{"user_id":712,"name":"Clint Eastwood","steam_id":76561199262196710,"connected_time":4776000000000,"state":"active","ping":225},{"user_id":706,"name":"frawg","steam_id":76561197963763869,"connected_time":5636000000000,"state":"active","ping":65},{"user_id":708,"name":"The Crust","steam_id":76561198029406708,"connected_time":5589000000000,"state":"active","ping":60}]},{"server_id":123,"name":"Uncletopia | Sydney | 2 | All Maps","name_short":"syd-2","host":"syd-1.au.uncletopia.com","port":27025,"enabled":true,"region":"au","cc":"au","latitude":-33.865143,"longitude":151.2099,"reserved":0,"last_update":"0001-01-01T00:00:00Z","name_a2s":"Uncletopia | Sydney | 2 | All Maps","protocol":17,"map":"pl_barnblitz","folder":"tf","game":"Team Fortress","app_id":440,"player_count":15,"max_players":24,"Bots":0,"server_type":"Dedicated","server_os":"Linux","password":true,"vac":true,"version":"7695204","steam_id":85568392924470002,"keywords":["nocrits","nodmgspread","payload","uncletopia"],"game_id":440,"stv_port":27026,"stv_name":"Uncletopia | Sydney | 2 | All Maps | STV","players":[{"user_id":383,"name":"The Gumminator","steam_id":76561198840161667,"connected_time":372000000000,"state":"active","ping":403},{"user_id":372,"name":"xfol","steam_id":76561197973048879,"connected_time":1129000000000,"state":"active","ping":59},{"user_id":384,"name":"Jad","steam_id":76561198453862581,"connected_time":318000000000,"state":"active","ping":80},{"user_id":375,"name":"ItsSnakey","steam_id":76561199187623513,"connected_time":586000000000,"state":"active","ping":63},{"user_id":380,"name":"YEP!","steam_id":76561198090628232,"connected_time":487000000000,"state":"active","ping":48},{"user_id":387,"name":"Pizzaray","steam_id":76561198005075102,"connected_time":166000000000,"state":"active","ping":30},{"user_id":386,"name":"jay916326","steam_id":76561199120460761,"connected_time":257000000000,"state":"active","ping":120},{"user_id":385,"name":"elot","steam_id":76561199038630847,"connected_time":316000000000,"state":"active","ping":144},{"user_id":370,"name":"las","steam_id":76561198039162155,"connected_time":1236000000000,"state":"active","ping":51},{"user_id":366,"name":"campbell","steam_id":76561197982503303,"connected_time":2060000000000,"state":"active","ping":59},{"user_id":388,"name":"MikkyD","steam_id":76561198043452962,"connected_time":53000000000,"state":"active","ping":68},{"user_id":377,"name":"YakZu","steam_id":76561198021396608,"connected_time":554000000000,"state":"active","ping":46},{"user_id":369,"name":"DelHasMangoes/yt","steam_id":76561198047183797,"connected_time":1743000000000,"state":"active","ping":83},{"user_id":319,"name":"LightningBlock","steam_id":76561198289997742,"connected_time":4859000000000,"state":"active","ping":36},{"user_id":368,"name":"A threat unbeknownst","steam_id":76561198293776102,"connected_time":1805000000000,"state":"active","ping":40}]},{"server_id":395,"name":"Uncletopia | Sydney | 3 | All Maps","name_short":"syd-3","host":"syd-1.au.uncletopia.com","port":27035,"enabled":true,"region":"au","cc":"au","latitude":-33.865143,"longitude":151.2099,"reserved":0,"last_update":"0001-01-01T00:00:00Z","name_a2s":"Uncletopia | Sydney | 3 | All Maps","protocol":17,"map":"pl_badwater","folder":"tf","game":"Team Fortress","app_id":440,"player_count":0,"max_players":24,"Bots":0,"server_type":"Dedicated","server_os":"Linux","password":true,"vac":true,"version":"7695204","steam_id":85568392925194467,"keywords":["nocrits","nodmgspread","payload","uncletopia"],"game_id":440,"stv_port":27036,"stv_name":"Uncletopia | Sydney | 3 | All Maps | STV","players":null},{"server_id":396,"name":"Uncletopia | Sydney | 4 | All Maps","name_short":"syd-4","host":"syd-1.au.uncletopia.com","port":27045,"enabled":true,"region":"au","cc":"au","latitude":-33.865143,"longitude":151.2099,"reserved":0,"last_update":"0001-01-01T00:00:00Z","name_a2s":"Uncletopia | Sydney | 4 | All Maps","protocol":17,"map":"koth_highpass","folder":"tf","game":"Team Fortress","app_id":440,"player_count":0,"max_players":24,"Bots":0,"server_type":"Dedicated","server_os":"Linux","password":true,"vac":true,"version":"7695204","steam_id":85568392925397958,"keywords":["cp","nocrits","nodmgspread","uncletopia"],"game_id":440,"stv_port":27046,"stv_name":"Uncletopia | Sydney | 4 | All Maps | STV","players":null},{"server_id":58,"name":"Uncletopia | Sydney | 5 | No Payload","name_short":"syd-5","host":"syd-1.au.uncletopia.com","port":27055,"enabled":true,"region":"au","cc":"au","latitude":-33.865143,"longitude":151.2099,"reserved":0,"last_update":"0001-01-01T00:00:00Z","name_a2s":"Uncletopia | Sydney | 5 | No Payload","protocol":17,"map":"koth_viaduct","folder":"tf","game":"Team Fortress","app_id":440,"player_count":0,"max_players":24,"Bots":0,"server_type":"Dedicated","server_os":"Linux","password":true,"vac":true,"version":"7695204","steam_id":85568392925397959,"keywords":["cp","nocrits","nodmgspread","uncletopia"],"game_id":440,"stv_port":0,"stv_name":"","players":null},{"server_id":59,"name":"Uncletopia | Sydney | 6 | Community","name_short":"syd-6","host":"syd-1.au.uncletopia.com","port":27065,"enabled":true,"region":"au","cc":"au","latitude":-33.865143,"longitude":151.2099,"reserved":0,"last_update":"0001-01-01T00:00:00Z","name_a2s":"Uncletopia | Sydney | 6 | Community","protocol":17,"map":"workshop/koth_bagel_rc5.ugc2514036946","folder":"tf","game":"Team Fortress","app_id":440,"player_count":0,"max_players":24,"Bots":0,"server_type":"Dedicated","server_os":"Linux","password":true,"vac":true,"version":"7695204","steam_id":85568392925397960,"keywords":["cp","nocrits","nodmgspread","uncletopia"],"game_id":440,"stv_port":27066,"stv_name":"Uncletopia | Sydney | 6 | Community | STV","players":null},{"server_id":49,"name":"Uncletopia | Warsaw | 1 | All Maps","name_short":"waw-1","host":"waw-1.pl.uncletopia.com","port":27015,"enabled":true,"region":"eu","cc":"pl","latitude":52.2297,"longitude":21.017532,"reserved":0,"last_update":"0001-01-01T00:00:00Z","name_a2s":"Uncletopia | Warsaw | 1 | All Maps","protocol":17,"map":"pl_frontier_final","folder":"tf","game":"Team Fortress","app_id":440,"player_count":0,"max_players":24,"Bots":0,"server_type":"Dedicated","server_os":"Linux","password":true,"vac":true,"version":"7695204","steam_id":85568392925397850,"keywords":["nocrits","nodmgspread","payload","uncletopia"],"game_id":440,"stv_port":0,"stv_name":"","players":null},{"server_id":50,"name":"Uncletopia | Warsaw | 2 | All Maps","name_short":"waw-2","host":"waw-1.pl.uncletopia.com","port":27025,"enabled":true,"region":"eu","cc":"pl","latitude":52.2297,"longitude":21.017532,"reserved":0,"last_update":"0001-01-01T00:00:00Z","name_a2s":"Uncletopia | Warsaw | 2 | All Maps","protocol":17,"map":"cp_mountainlab","folder":"tf","game":"Team Fortress","app_id":440,"player_count":0,"max_players":24,"Bots":0,"server_type":"Dedicated","server_os":"Linux","password":true,"vac":true,"version":"7695204","steam_id":85568392925397851,"keywords":["cp","nocrits","nodmgspread","uncletopia"],"game_id":440,"stv_port":27026,"stv_name":"Uncletopia | Warsaw | 2 | All Maps | STV","players":null},{"server_id":51,"name":"Uncletopia | Warsaw | 3 | All Maps","name_short":"waw-3","host":"waw-1.pl.uncletopia.com","port":27035,"enabled":true,"region":"eu","cc":"pl","latitude":52.2297,"longitude":21.017532,"reserved":0,"last_update":"0001-01-01T00:00:00Z","name_a2s":"Uncletopia | Warsaw | 3 | All Maps","protocol":17,"map":"cp_process_final","folder":"tf","game":"Team Fortress","app_id":440,"player_count":0,"max_players":24,"Bots":0,"server_type":"Dedicated","server_os":"Linux","password":true,"vac":true,"version":"7695204","steam_id":85568392925397852,"keywords":["cp","nocrits","nodmgspread","uncletopia"],"game_id":440,"stv_port":27036,"stv_name":"Uncletopia | Warsaw | 3 | All Maps | STV","players":null},{"server_id":52,"name":"Uncletopia | Warsaw | 4 | All Maps","name_short":"waw-4","host":"waw-1.pl.uncletopia.com","port":27045,"enabled":true,"region":"eu","cc":"pl","latitude":52.2297,"longitude":21.017532,"reserved":0,"last_update":"0001-01-01T00:00:00Z","name_a2s":"Uncletopia | Warsaw | 4 | All Maps","protocol":17,"map":"cp_altitude","folder":"tf","game":"Team Fortress","app_id":440,"player_count":0,"max_players":24,"Bots":0,"server_type":"Dedicated","server_os":"Linux","password":true,"vac":true,"version":"7695204","steam_id":85568392925397853,"keywords":["cp","nocrits","nodmgspread","uncletopia"],"game_id":440,"stv_port":0,"stv_name":"","players":null},{"server_id":53,"name":"Uncletopia | Warsaw | 5 | No Payload","name_short":"waw-5","host":"waw-1.pl.uncletopia.com","port":27055,"enabled":true,"region":"eu","cc":"pl","latitude":52.2297,"longitude":21.017532,"reserved":0,"last_update":"0001-01-01T00:00:00Z","name_a2s":"Uncletopia | Warsaw | 5 | No Payload","protocol":17,"map":"cp_mossrock","folder":"tf","game":"Team Fortress","app_id":440,"player_count":20,"max_players":24,"Bots":0,"server_type":"Dedicated","server_os":"Linux","password":true,"vac":true,"version":"7695204","steam_id":85568392925397854,"keywords":["cp","nocrits","nodmgspread","uncletopia"],"game_id":440,"stv_port":27056,"stv_name":"Uncletopia | Warsaw | 5 | No Payload | STV","players":[{"user_id":130,"name":"Happy Di Piero","steam_id":76561199206603810,"connected_time":380000000000,"state":"active","ping":98},{"user_id":131,"name":"deno_","steam_id":76561198316520968,"connected_time":339000000000,"state":"active","ping":53},{"user_id":132,"name":"brtaba","steam_id":76561198796334790,"connected_time":281000000000,"state":"active","ping":57},{"user_id":42,"name":"Viperense","steam_id":76561198036206811,"connected_time":5422000000000,"state":"active","ping":80},{"user_id":133,"name":"Andiol","steam_id":76561198045274358,"connected_time":278000000000,"state":"active","ping":79},{"user_id":128,"name":"MomoInTheBox","steam_id":76561197994150695,"connected_time":444000000000,"state":"active","ping":46},{"user_id":119,"name":"Shiny Lucario","steam_id":76561198128837690,"connected_time":701000000000,"state":"active","ping":87},{"user_id":134,"name":"JSX #savetf2","steam_id":76561198039097662,"connected_time":273000000000,"state":"active","ping":90},{"user_id":23,"name":"Boobs rater","steam_id":76561198066977580,"connected_time":6381000000000,"state":"active","ping":67},{"user_id":99,"name":"tacker11","steam_id":76561198886244287,"connected_time":2742000000000,"state":"active","ping":80},{"user_id":117,"name":"bruh.","steam_id":76561198144593115,"connected_time":758000000000,"state":"active","ping":45},{"user_id":106,"name":"DOCTOR SEX","steam_id":76561199210767484,"connected_time":2248000000000,"state":"active","ping":78},{"user_id":121,"name":"The Funny Cat 面白い猫","steam_id":76561198439978112,"connected_time":692000000000,"state":"active","ping":122},{"user_id":97,"name":"Minister of cocks","steam_id":76561198829740342,"connected_time":2843000000000,"state":"active","ping":92},{"user_id":135,"name":"Xariklhs Kolimpithras","steam_id":76561198165584544,"connected_time":248000000000,"state":"active","ping":112},{"user_id":127,"name":"T.G.G","steam_id":76561199114568070,"connected_time":502000000000,"state":"active","ping":100},{"user_id":125,"name":"terrine de poisson","steam_id":76561198182874945,"connected_time":581000000000,"state":"active","ping":80},{"user_id":126,"name":"Jeans Plus","steam_id":76561198052125103,"connected_time":546000000000,"state":"active","ping":68},{"user_id":129,"name":"tim","steam_id":76561198253546985,"connected_time":428000000000,"state":"active","ping":90},{"user_id":136,"name":"Warpzel65","steam_id":76561198799303596,"connected_time":207000000000,"state":"active","ping":85}]},{"server_id":54,"name":"Uncletopia | Warsaw | 6 | Community","name_short":"waw-6","host":"waw-1.pl.uncletopia.com","port":27065,"enabled":true,"region":"eu","cc":"pl","latitude":52.2297,"longitude":21.017532,"reserved":0,"last_update":"0001-01-01T00:00:00Z","name_a2s":"Uncletopia | Warsaw | 6 | Community","protocol":17,"map":"pl_barnblitz","folder":"tf","game":"Team Fortress","app_id":440,"player_count":0,"max_players":24,"Bots":0,"server_type":"Dedicated","server_os":"Linux","password":true,"vac":true,"version":"7695204","steam_id":85568392925397856,"keywords":["nocrits","nodmgspread","payload","uncletopia"],"game_id":440,"stv_port":0,"stv_name":"","players":null}]}