{"status":true,"message":"","result":[{"server_id":2,"name":"Uncletopia | Chicago | 1 | All Maps","name_short":"chi-1","host":"chi-1.us.uncletopia.com","port":27015,"enabled":true,"region":"us-central","cc":"us","latitude":41.881832,"longitude":-87.62318,"reserved":0,"last_update":"0001-01-01T00:00:00Z","name_a2s":"Uncletopia | Chicago | 1 | All Maps","protocol":17,"map":"pl_badwater","folder":"tf","game":"Team Fortress","app_id":440,"player_count":24,"max_players":24,"Bots":0,"server_type":"Dedicated","server_os":"Linux","password":true,"vac":true,"version":"7932396","steam_id":85568392924469984,"keywords":["nocrits","nodmgspread","payload","uncletopia"],"game_id":440,"stv_port":27016,"stv_name":"Uncletopia | Chicago | 1 | All Maps | STV","players":[{"user_id":867,"name":"cofi","steam_id":76561198077504898,"connected_time":9155000000000,"state":"active","ping":61},{"user_id":959,"name":"Apsev","steam_id":76561198119867604,"connected_time":785000000000,"state":"active","ping":98},{"user_id":949,"name":"Obelisk","steam_id":76561198049416866,"connected_time":1952000000000,"state":"active","ping":79},{"user_id":963,"name":"BurnN8or101","steam_id":76561198132668224,"connected_time":272000000000,"state":"active","ping":61},{"user_id":965,"name":"Urangutanenjoyer2","steam_id":76561199447757264,"connected_time":194000000000,"state":"active","ping":180},{"user_id":945,"name":"Straight-Faced Orgasm","steam_id":76561198170007261,"connected_time":2568000000000,"state":"active","ping":82},{"user_id":942,"name":"Jazz2T","steam_id":76561198154418867,"connected_time":3394000000000,"state":"active","ping":102},{"user_id":950,"name":"D","steam_id":76561198292908619,"connected_time":1881000000000,"state":"active","ping":71},{"user_id":951,"name":"OBESE FROYO B4NNY","steam_id":76561198079606144,"connected_time":1881000000000,"state":"active","ping":40},{"user_id":957,"name":"Banjo","steam_id":76561198004652853,"connected_time":1071000000000,"state":"active","ping":96},{"user_id":952,"name":"Fred","steam_id":76561197983870604,"connected_time":1865000000000,"state":"active","ping":90},{"user_id":944,"name":"Boo! Boo I Say!","steam_id":76561198272427405,"connected_time":2973000000000,"state":"active","ping":89},{"user_id":946,"name":"Kuddly Kay (She/Her)","steam_id":76561198353432576,"connected_time":2566000000000,"state":"active","ping":61},{"user_id":947,"name":"☂Bliffenstimmers☂","steam_id":76561198059984896,"connected_time":2520000000000,"state":"active","ping":85},{"user_id":889,"name":"elyktsorb","steam_id":76561198158964488,"connected_time":8045000000000,"state":"active","ping":57},{"user_id":953,"name":"Lucide","steam_id":76561197998530400,"connected_time":1839000000000,"state":"active","ping":113},{"user_id":954,"name":"Zesty Italian","steam_id":76561198117835053,"connected_time":1787000000000,"state":"active","ping":69},{"user_id":964,"name":"surrender to the void","steam_id":76561198055494039,"connected_time":252000000000,"state":"active","ping":82},{"user_id":966,"name":"Newton's Law of W+M1","steam_id":76561198853264257,"connected_time":188000000000,"state":"active","ping":60},{"user_id":930,"name":"Bodhi","steam_id":76561198103230995,"connected_time":3846000000000,"state":"active","ping":76},{"user_id":948,"name":"KrylonHeretic","steam_id":76561198139811459,"connected_time":2306000000000,"state":"active","ping":117},{"user_id":958,"name":"HyperBluuJay","steam_id":76561198165709523,"connected_time":1041000000000,"state":"active","ping":80},{"user_id":882,"name":"Zelith","steam_id":76561198234980480,"connected_time":8702000000000,"state":"active","ping":57},{"user_id":962,"name":"huge femboy cock","steam_id":76561198096525339,"connected_time":329000000000,"state":"active","ping":61}]},{"server_id":106,"name":"Uncletopia | Chicago | 2 | All Maps","name_short":"chi-2","host":"chi-1.us.uncletopia.com","port":27025,"enabled":true,"region":"us-central","cc":"us","latitude":41.881832,"longitude":-87.62318,"reserved":0,"last_update":"0001-01-01T00:00:00Z","name_a2s":"Uncletopia | Chicago | 2 | All Maps","protocol":17,"map":"koth_viaduct","folder":"tf","game":"Team Fortress","app_id":440,"player_count":0,"max_players":24,"Bots":0,"server_type":"Dedicated","server_os":"Linux","password":true,"vac":true,"version":"7932396","steam_id":85568392924469985,"keywords":["cp","nocrits","nodmgspread","uncletopia"],"game_id":440,"stv_port":27026,"stv_name":"Uncletopia | Chicago | 2 | All Maps | STV","players":null},{"server_id":402,"name":"Uncletopia | Chicago | 3 | All Maps","name_short":"chi-3","host":"chi-1.us.uncletopia.com","port":27035,"enabled":true,"region":"us-central","cc":"us","latitude":41.881832,"longitude":-87.62318,"reserved":0,"last_update":"0001-01-01T00:00:00Z","name_a2s":"Uncletopia | Chicago | 3 | All Maps","protocol":17,"map":"pl_frontier_final","folder":"tf","game":"Team Fortress","app_id":440,"player_count":24,"max_players":24,"Bots":0,"server_type":"Dedicated","server_os":"Linux","password":true,"vac":true,"version":"7932396","steam_id":85568392924515191,"keywords":["nocrits","nodmgspread","payload","uncletopia"],"game_id":440,"stv_port":27036,"stv_name":"Uncletopia | Chicago | 3 | All Maps | STV","players":[{"user_id":583,"name":"Actual Civic Si","steam_id":76561198926416886,"connected_time":1161000000000,"state":"active","ping":70},{"user_id":564,"name":"qt pa 2t","steam_id":76561198066867150,"connected_time":2884000000000,"state":"active","ping":61},{"user_id":563,"name":"Viktor Ludwig","steam_id":76561198973370004,"connected_time":3396000000000,"state":"active","ping":105},{"user_id":523,"name":"Stan","steam_id":76561199057962816,"connected_time":5863000000000,"state":"active","ping":61},{"user_id":566,"name":"i need u","steam_id":76561198030625151,"connected_time":2579000000000,"state":"active","ping":91},{"user_id":550,"name":"Slogly","steam_id":76561198057242179,"connected_time":4097000000000,"state":"active","ping":90},{"user_id":576,"name":"vulcan nightclub pon farr night","steam_id":76561197974283797,"connected_time":1896000000000,"state":"active","ping":44},{"user_id":512,"name":"[CAL] Gasous","steam_id":76561198093151157,"connected_time":6476000000000,"state":"active","ping":88},{"user_id":554,"name":"Dyson","steam_id":76561199081837220,"connected_time":3731000000000,"state":"active","ping":79},{"user_id":577,"name":"Sonic Mania 2 [100 Real Leaked","steam_id":76561198062764039,"connected_time":1849000000000,"state":"active","ping":57},{"user_id":400,"name":"unc havin a fent battle","steam_id":76561198144766439,"connected_time":16272000000000,"state":"active","ping":50},{"user_id":582,"name":"PONTIFEX MAXIMUS","steam_id":76561198074758287,"connected_time":1218000000000,"state":"active","ping":73},{"user_id":584,"name":"bonnie","steam_id":76561198174761861,"connected_time":1108000000000,"state":"active","ping":50},{"user_id":567,"name":"carne asada","steam_id":76561198108398751,"connected_time":2328000000000,"state":"active","ping":59},{"user_id":458,"name":"ColecoCat","steam_id":76561199404293117,"connected_time":12682000000000,"state":"active","ping":86},{"user_id":565,"name":"Ojen","steam_id":76561197998414482,"connected_time":2705000000000,"state":"active","ping":73},{"user_id":585,"name":"Drapph","steam_id":76561199384213314,"connected_time":1061000000000,"state":"active","ping":66},{"user_id":579,"name":"❤[S'more]❤","steam_id":76561198817361963,"connected_time":1707000000000,"state":"active","ping":107},{"user_id":586,"name":"CantaloupeKing","steam_id":76561198041949472,"connected_time":1040000000000,"state":"active","ping":115},{"user_id":587,"name":"Untermensch","steam_id":76561198149634242,"connected_time":32000000000,"state":"active","ping":96},{"user_id":575,"name":"Rusted Cake","steam_id":76561198209755931,"connected_time":2053000000000,"state":"active","ping":111},{"user_id":529,"name":"OddSlaush","steam_id":76561198043898488,"connected_time":5579000000000,"state":"active","ping":94},{"user_id":573,"name":"Jo","steam_id":76561198060447015,"connected_time":2174000000000,"state":"active","ping":75},{"user_id":580,"name":"The Super Mario Bros. Movie","steam_id":76561198871692156,"connected_time":1580000000000,"state":"active","ping":113}]},{"server_id":403,"name":"Uncletopia | Chicago | 4 | All Maps","name_short":"chi-4","host":"chi-1.us.uncletopia.com","port":27045,"enabled":true,"region":"us-central","cc":"us","latitude":41.881832,"longitude":-87.62318,"reserved":0,"last_update":"0001-01-01T00:00:00Z","name_a2s":"Uncletopia | Chicago | 4 | All Maps","protocol":17,"map":"pl_borneo","folder":"tf","game":"Team Fortress","app_id":440,"player_count":3,"max_players":24,"Bots":0,"server_type":"Dedicated","server_os":"Linux","password":true,"vac":true,"version":"7932396","steam_id":85568392924515193,"keywords":["nocrits","nodmgspread","payload","uncletopia"],"game_id":440,"stv_port":27046,"stv_name":"Uncletopia | Chicago | 4 | All Maps | STV","players":[{"user_id":913,"name":"lucksman","steam_id":76561198353245487,"connected_time":310000000000,"state":"active","ping":73},{"user_id":914,"name":"cooperandrew2525","steam_id":76561199485187016,"connected_time":220000000000,"state":"active","ping":75},{"user_id":915,"name":"Rage_Ronin","steam_id":76561198800752396,"connected_time":72000000000,"state":"active","ping":83}]},{"server_id":36,"name":"Uncletopia | Chicago | 5 | All Maps","name_short":"chi-5","host":"chi-2.us.uncletopia.com","port":27015,"enabled":true,"region":"us-central","cc":"us","latitude":41.881832,"longitude":-87.62318,"reserved":0,"last_update":"0001-01-01T00:00:00Z","name_a2s":"Uncletopia | Chicago | 5 | All Maps","protocol":17,"map":"cp_dustbowl","folder":"tf","game":"Team Fortress","app_id":440,"player_count":0,"max_players":24,"Bots":0,"server_type":"Dedicated","server_os":"Linux","password":true,"vac":true,"version":"7932396","steam_id":85568392924866362,"keywords":["cp","nocrits","nodmgspread","uncletopia"],"game_id":440,"stv_port":27016,"stv_name":"Uncletopia | Chicago | 5 | All Maps | STV","players":null},{"server_id":37,"name":"Uncletopia | Chicago | 6 | All Maps","name_short":"chi-6","host":"chi-2.us.uncletopia.com","port":27025,"enabled":true,"region":"us-central","cc":"us","latitude":41.881832,"longitude":-87.62318,"reserved":0,"last_update":"0001-01-01T00:00:00Z","name_a2s":"Uncletopia | Chicago | 6 | All Maps","protocol":17,"map":"pl_borneo","folder":"tf","game":"Team Fortress","app_id":440,"player_count":23,"max_players":24,"Bots":0,"server_type":"Dedicated","server_os":"Linux","password":true,"vac":true,"version":"7932396","steam_id":85568392924866363,"keywords":["nocrits","nodmgspread","payload","uncletopia"],"game_id":440,"stv_port":27026,"stv_name":"Uncletopia | Chicago | 6 | All Maps | STV","players":[{"user_id":543,"name":"my piss isnt neon yellow anymor","steam_id":76561198257023512,"connected_time":717000000000,"state":"active","ping":72},{"user_id":429,"name":"ＣＨＡＭＰＩＯＮ","steam_id":76561198883157736,"connected_time":10798000000000,"state":"active","ping":116},{"user_id":532,"name":"battle heavy","steam_id":76561198340865425,"connected_time":1460000000000,"state":"active","ping":73},{"user_id":544,"name":"tod","steam_id":76561199013164463,"connected_time":693000000000,"state":"active","ping":74},{"user_id":529,"name":"The milkman (milks you)","steam_id":76561199155456102,"connected_time":1624000000000,"state":"active","ping":77},{"user_id":520,"name":"lumbo","steam_id":76561198413125750,"connected_time":2818000000000,"state":"active","ping":66},{"user_id":521,"name":"roo the observer","steam_id":76561198120684348,"connected_time":2808000000000,"state":"active","ping":50},{"user_id":496,"name":"FiZZy","steam_id":76561198990783547,"connected_time":5706000000000,"state":"active","ping":86},{"user_id":533,"name":"pope4tw","steam_id":76561199174282651,"connected_time":1434000000000,"state":"active","ping":114},{"user_id":528,"name":"Khaicchi","steam_id":76561198104454754,"connected_time":1817000000000,"state":"active","ping":165},{"user_id":535,"name":"Loagurt","steam_id":76561198076171759,"connected_time":1389000000000,"state":"active","ping":70},{"user_id":536,"name":"mollusk_obliteration","steam_id":76561198085388962,"connected_time":1005000000000,"state":"active","ping":60},{"user_id":537,"name":"joolia","steam_id":76561198038550242,"connected_time":852000000000,"state":"active","ping":102},{"user_id":545,"name":"Tommy Pickles (Very Cool)","steam_id":76561198391261463,"connected_time":284000000000,"state":"active","ping":74},{"user_id":523,"name":"Onetondog","steam_id":76561198049015994,"connected_time":2666000000000,"state":"active","ping":64},{"user_id":546,"name":"Grenade","steam_id":76561199262904800,"connected_time":91000000000,"state":"active","ping":182},{"user_id":513,"name":"Viren","steam_id":76561198012636897,"connected_time":4553000000000,"state":"active","ping":61},{"user_id":540,"name":"yayyy pinkie pie!!!!!","steam_id":76561198112280846,"connected_time":799000000000,"state":"active","ping":99},{"user_id":541,"name":"jodio","steam_id":76561198081593895,"connected_time":731000000000,"state":"active","ping":95},{"user_id":526,"name":"Oh No! It's Twister!","steam_id":76561198016791916,"connected_time":2528000000000,"state":"active","ping":87},{"user_id":542,"name":"WHAT ABOUT THE TROUT!?","steam_id":76561198129055951,"connected_time":726000000000,"state":"active","ping":86},{"user_id":494,"name":"Vynthex","steam_id":76561198990762666,"connected_time":6468000000000,"state":"active","ping":78},{"user_id":527,"name":"SONUVABITCH","steam_id":76561198813586588,"connected_time":2526000000000,"state":"active","ping":115}]},{"server_id":38,"name":"Uncletopia | Chicago | 7 | Stopwatch Beta","name_short":"chi-7","host":"chi-2.us.uncletopia.com","port":27035,"enabled":true,"region":"us-central","cc":"us","latitude":41.881832,"longitude":-87.62318,"reserved":0,"last_update":"0001-01-01T00:00:00Z","name_a2s":"Uncletopia | Chicago | 7 | Stopwatch Beta","protocol":17,"map":"pl_borneo","folder":"tf","game":"Team Fortress","app_id":440,"player_count":0,"max_players":24,"Bots":0,"server_type":"Dedicated","server_os":"Linux","password":true,"vac":true,"version":"7932396","steam_id":85568392924866364,"keywords":["nocrits","nodmgspread","payload","uncletopia"],"game_id":440,"stv_port":27036,"stv_name":"Uncletopia | Chicago | 7 | Stopwatch Beta | STV","players":null},{"server_id":39,"name":"Uncletopia | Chicago | 8 | Community","name_short":"chi-8","host":"chi-2.us.uncletopia.com","port":27045,"enabled":true,"region":"us-central","cc":"us","latitude":41.881832,"longitude":-87.62318,"reserved":0,"last_update":"0001-01-01T00:00:00Z","name_a2s":"Uncletopia | Chicago | 8 | Community","protocol":17,"map":"workshop/koth_trenchfoot_b1a.ugc731436616","folder":"tf","game":"Team Fortress","app_id":440,"player_count":0,"max_players":24,"Bots":0,"server_type":"Dedicated","server_os":"Linux","password":true,"vac":true,"version":"7932396","steam_id":85568392924866365,"keywords":["cp","nocrits","nodmgspread","uncletopia"],"game_id":440,"stv_port":27046,"stv_name":"Uncletopia | Chicago | 8 | Community | STV","players":null},{"server_id":8,"name":"Uncletopia | Dallas | 1 | All Maps","name_short":"dal-1","host":"dal-1.us.uncletopia.com","port":27015,"enabled":true,"region":"us-central","cc":"us","latitude":32.779167,"longitude":-96.80889,"reserved":0,"last_update":"0001-01-01T00:00:00Z","name_a2s":"Uncletopia | Dallas | 1 | All Maps","protocol":17,"map":"cp_freight_final1","folder":"tf","game":"Team Fortress","app_id":440,"player_count":24,"max_players":24,"Bots":0,"server_type":"Dedicated","server_os":"Linux","password":true,"vac":true,"version":"7932396","steam_id":85568392924469986,"keywords":["cp","nocrits","nodmgspread","uncletopia"],"game_id":440,"stv_port":27016,"stv_name":"Uncletopia | Dallas | 1 | All Maps | STV","players":[{"user_id":949,"name":"amalgam","steam_id":76561198159058576,"connected_time":1659000000000,"state":"active","ping":76},{"user_id":963,"name":"LesserAce","steam_id":76561198153258132,"connected_time":875000000000,"state":"active","ping":120},{"user_id":960,"name":"Creature","steam_id":76561198194585781,"connected_time":1363000000000,"state":"active","ping":79},{"user_id":950,"name":"Karma's Camera","steam_id":76561198059385185,"connected_time":1652000000000,"state":"active","ping":75},{"user_id":830,"name":"Duncan Idaho","steam_id":76561197988963861,"connected_time":11926000000000,"state":"active","ping":94},{"user_id":967,"name":"PixeL","steam_id":76561198262834101,"connected_time":211000000000,"state":"active","ping":184},{"user_id":951,"name":"pinkytoe","steam_id":76561198254052870,"connected_time":1648000000000,"state":"active","ping":75},{"user_id":952,"name":"atomspop","steam_id":76561198045873315,"connected_time":1642000000000,"state":"active","ping":80},{"user_id":948,"name":"MithStyck","steam_id":76561198071538489,"connected_time":1713000000000,"state":"active","ping":42},{"user_id":902,"name":"Dank Ghost","steam_id":76561198400690889,"connected_time":5240000000000,"state":"active","ping":94},{"user_id":964,"name":"DSM-IVCE","steam_id":76561199438515797,"connected_time":852000000000,"state":"active","ping":110},{"user_id":943,"name":"Ruby Gillman","steam_id":76561198366299848,"connected_time":2629000000000,"state":"active","ping":63},{"user_id":947,"name":"Siren","steam_id":76561198047395823,"connected_time":1963000000000,"state":"active","ping":59},{"user_id":953,"name":"BOofii","steam_id":76561198171133082,"connected_time":1639000000000,"state":"active","ping":127},{"user_id":961,"name":"Terminal Brain Rot","steam_id":76561198112594672,"connected_time":1264000000000,"state":"active","ping":70},{"user_id":958,"name":"*****setget","steam_id":76561198118824188,"connected_time":1513000000000,"state":"active","ping":122},{"user_id":955,"name":"Atlas","steam_id":76561198880123134,"connected_time":1561000000000,"state":"active","ping":109},{"user_id":966,"name":"USEC","steam_id":76561198344398578,"connected_time":316000000000,"state":"active","ping":70},{"user_id":929,"name":"XxGockHaver69xX  trade.tf","steam_id":76561198276385778,"connected_time":4461000000000,"state":"active","ping":100},{"user_id":956,"name":"Gilded_Warrior","steam_id":76561199055082197,"connected_time":1556000000000,"state":"active","ping":78},{"user_id":922,"name":"LtK","steam_id":76561197993180943,"connected_time":4595000000000,"state":"active","ping":38},{"user_id":968,"name":"sleeperino","steam_id":76561198061504714,"connected_time":158000000000,"state":"active","ping":73},{"user_id":957,"name":"Saturn's Ring","steam_id":76561198173267015,"connected_time":1531000000000,"state":"active","ping":128},{"user_id":880,"name":"Etomb","steam_id":76561198210017208,"connected_time":7648000000000,"state":"active","ping":75}]},{"server_id":108,"name":"Uncletopia | Dallas | 2 | All Maps","name_short":"dal-2","host":"dal-1.us.uncletopia.com","port":27025,"enabled":true,"region":"us-central","cc":"us","latitude":32.779167,"longitude":-96.80889,"reserved":0,"last_update":"0001-01-01T00:00:00Z","name_a2s":"Uncletopia | Dallas | 2 | All Maps","protocol":17,"map":"pl_swiftwater_final1","folder":"tf","game":"Team Fortress","app_id":440,"player_count":0,"max_players":24,"Bots":0,"server_type":"Dedicated","server_os":"Linux","password":true,"vac":true,"version":"7932396","steam_id":85568392924469988,"keywords":["nocrits","nodmgspread","payload","uncletopia"],"game_id":440,"stv_port":27026,"stv_name":"Uncletopia | Dallas | 2 | All Maps | STV","players":null},{"server_id":5,"name":"Uncletopia | Frankfurt | 1 | All Maps","name_short":"frk-1","host":"frk-1.de.uncletopia.com","port":27015,"enabled":true,"region":"eu","cc":"de","latitude":50.110924,"longitude":8.682127,"reserved":0,"last_update":"0001-01-01T00:00:00Z","name_a2s":"Uncletopia | Frankfurt | 1 | All Maps","protocol":17,"map":"koth_viaduct","folder":"tf","game":"Team Fortress","app_id":440,"player_count":0,"max_players":24,"Bots":0,"server_type":"Dedicated","server_os":"Linux","password":true,"vac":true,"version":"7932396","steam_id":85568392924469989,"keywords":["cp","nocrits","nodmgspread","uncletopia"],"game_id":440,"stv_port":27016,"stv_name":"Uncletopia | Frankfurt | 1 | All Maps | STV","players":null},{"server_id":110,"name":"Uncletopia | Frankfurt | 2 | All Maps","name_short":"frk-2","host":"frk-1.de.uncletopia.com","port":27025,"enabled":true,"region":"eu","cc":"de","latitude":50.110924,"longitude":8.682127,"reserved":0,"last_update":"0001-01-01T00:00:00Z","name_a2s":"Uncletopia | Frankfurt | 2 | All Maps","protocol":17,"map":"cp_sunshine","folder":"tf","game":"Team Fortress","app_id":440,"player_count":21,"max_players":24,"Bots":0,"server_type":"Dedicated","server_os":"Linux","password":true,"vac":true,"version":"7932396","steam_id":85568392924469990,"keywords":["cp","nocrits","nodmgspread","uncletopia"],"game_id":440,"stv_port":27026,"stv_name":"Uncletopia | Frankfurt | 2 | All Maps | STV","players":[{"user_id":76,"name":"Captain Brexit","steam_id":76561199025230103,"connected_time":128000000000,"state":"active","ping":76},{"user_id":10,"name":"TheEventGuy","steam_id":76561197972797744,"connected_time":4498000000000,"state":"active","ping":62},{"user_id":11,"name":"Mr. Masturbeast","steam_id":76561198942024930,"connected_time":4300000000000,"state":"active","ping":90},{"user_id":68,"name":"Crisps","steam_id":76561198088973774,"connected_time":488000000000,"state":"active","ping":48},{"user_id":72,"name":"yeldad","steam_id":76561198447264153,"connected_time":261000000000,"state":"active","ping":122},{"user_id":16,"name":"Kävin","steam_id":76561198145843785,"connected_time":3777000000000,"state":"active","ping":58},{"user_id":59,"name":"Muffin_Punk_Fighter #SaveTF2","steam_id":76561198125869659,"connected_time":899000000000,"state":"active","ping":90},{"user_id":20,"name":"Registered Sex Defender","steam_id":76561198039836567,"connected_time":3490000000000,"state":"active","ping":74},{"user_id":21,"name":"mike had a dad :(","steam_id":76561199087364410,"connected_time":3430000000000,"state":"active","ping":175},{"user_id":62,"name":"Nyst","steam_id":76561198400998400,"connected_time":724000000000,"state":"active","ping":77},{"user_id":67,"name":"I Don't Know","steam_id":76561198841011430,"connected_time":501000000000,"state":"active","ping":64},{"user_id":31,"name":"Dingus","steam_id":76561199094116135,"connected_time":2392000000000,"state":"active","ping":79},{"user_id":32,"name":"fredu","steam_id":76561198107605938,"connected_time":2380000000000,"state":"active","ping":97},{"user_id":75,"name":"Pumpkin Pie","steam_id":76561198115230959,"connected_time":166000000000,"state":"active","ping":78},{"user_id":66,"name":"dakotztda","steam_id":76561198044189114,"connected_time":525000000000,"state":"active","ping":59},{"user_id":55,"name":"GoodGuyYama","steam_id":76561199090299959,"connected_time":1384000000000,"state":"active","ping":44},{"user_id":37,"name":"сова","steam_id":76561199236826264,"connected_time":2213000000000,"state":"active","ping":130},{"user_id":51,"name":"ninjacat424","steam_id":76561198339467815,"connected_time":1692000000000,"state":"active","ping":69},{"user_id":56,"name":"Boalition","steam_id":76561198044315302,"connected_time":1375000000000,"state":"active","ping":114},{"user_id":77,"name":"Shrimpus mcdickus","steam_id":76561198721872629,"connected_time":73000000000,"state":"active","ping":116},{"user_id":57,"name":"Geist","steam_id":76561198047566695,"connected_time":1298000000000,"state":"active","ping":87}]},{"server_id":308,"name":"Uncletopia | Frankfurt | 3 | All Maps","name_short":"frk-3","host":"frk-1.de.uncletopia.com","port":27035,"enabled":true,"region":"eu","cc":"de","latitude":50.110924,"longitude":8.682127,"reserved":0,"last_update":"0001-01-01T00:00:00Z","name_a2s":"Uncletopia | Frankfurt | 3 | All Maps","protocol":17,"map":"pl_badwater","folder":"tf","game":"Team Fortress","app_id":440,"player_count":0,"max_players":24,"Bots":0,"server_type":"Dedicated","server_os":"Linux","password":true,"vac":true,"version":"7932396","steam_id":85568392924504274,"keywords":["nocrits","nodmgspread","payload","uncletopia"],"game_id":440,"stv_port":27036,"stv_name":"Uncletopia | Frankfurt | 3 | All Maps | STV","players":null},{"server_id":309,"name":"Uncletopia | Frankfurt | 4 | All Maps","name_short":"frk-4","host":"frk-1.de.uncletopia.com","port":27045,"enabled":true,"region":"eu","cc":"de","latitude":50.110924,"longitude":8.682127,"reserved":0,"last_update":"0001-01-01T00:00:00Z","name_a2s":"Uncletopia | Frankfurt | 4 | All Maps","protocol":17,"map":"pl_snowycoast","folder":"tf","game":"Team Fortress","app_id":440,"player_count":0,"max_players":24,"Bots":0,"server_type":"Dedicated","server_os":"Linux","password":true,"vac":true,"version":"7932396","steam_id":85568392924504275,"keywords":["nocrits","nodmgspread","payload","uncletopia"],"game_id":440,"stv_port":27046,"stv_name":"Uncletopia | Frankfurt | 4 | All Maps | STV","players":null},{"server_id":310,"name":"Uncletopia | Frankfurt | 5 | All Maps","name_short":"frk-5","host":"frk-1.de.uncletopia.com","port":27055,"enabled":true,"region":"eu","cc":"de","latitude":50.110924,"longitude":8.682127,"reserved":0,"last_update":"0001-01-01T00:00:00Z","name_a2s":"Uncletopia | Frankfurt | 5 | All Maps","protocol":17,"map":"cp_altitude","folder":"tf","game":"Team Fortress","app_id":440,"player_count":0,"max_players":24,"Bots":0,"server_type":"Dedicated","server_os":"Linux","password":true,"vac":true,"version":"7932396","steam_id":85568392924504277,"keywords":["cp","nocrits","nodmgspread","uncletopia"],"game_id":440,"stv_port":27056,"stv_name":"Uncletopia | Frankfurt | 5 | All Maps | STV","players":null},{"server_id":311,"name":"Uncletopia | Frankfurt | 6 | All Maps","name_short":"frk-6","host":"frk-1.de.uncletopia.com","port":27065,"enabled":true,"region":"eu","cc":"de","latitude":50.110924,"longitude":8.682127,"reserved":0,"last_update":"0001-01-01T00:00:00Z","name_a2s":"Uncletopia | Frankfurt | 6 | All Maps","protocol":17,"map":"koth_viaduct","folder":"tf","game":"Team Fortress","app_id":440,"player_count":0,"max_players":24,"Bots":0,"server_type":"Dedicated","server_os":"Linux","password":true,"vac":true,"version":"7932396","steam_id":85568392924504278,"keywords":["cp","nocrits","nodmgspread","uncletopia"],"game_id":440,"stv_port":27066,"stv_name":"Uncletopia | Frankfurt | 6 | All Maps | STV","players":null},{"server_id":23,"name":"Uncletopia | Frankfurt | 7 | Stopwatch Beta","name_short":"frk-7","host":"frk-1.de.uncletopia.com","port":27075,"enabled":true,"region":"eu","cc":"de","latitude":50.110924,"longitude":8.682127,"reserved":0,"last_update":"0001-01-01T00:00:00Z","name_a2s":"Uncletopia | Frankfurt | 7 | Stopwatch Beta","protocol":17,"map":"pl_snowycoast","folder":"tf","game":"Team Fortress","app_id":440,"player_count":0,"max_players":24,"Bots":0,"server_type":"Dedicated","server_os":"Linux","password":true,"vac":true,"version":"7932396","steam_id":85568392924742827,"keywords":["nocrits","nodmgspread","payload","uncletopia"],"game_id":440,"stv_port":27076,"stv_name":"Uncletopia | Frankfurt | 7 | Stopwatch Beta | STV","players":null},{"server_id":24,"name":"Uncletopia | Frankfurt | 8 | Community","name_short":"frk-8","host":"frk-1.de.uncletopia.com","port":27085,"enabled":true,"region":"eu","cc":"de","latitude":50.110924,"longitude":8.682127,"reserved":0,"last_update":"0001-01-01T00:00:00Z","name_a2s":"Uncletopia | Frankfurt | 8 | Community","protocol":17,"map":"pl_barnblitz","folder":"tf","game":"Team Fortress","app_id":440,"player_count":0,"max_players":24,"Bots":0,"server_type":"Dedicated","server_os":"Linux","password":true,"vac":true,"version":"7932396","steam_id":85568392924742828,"keywords":["nocrits","nodmgspread","payload","uncletopia"],"game_id":440,"stv_port":27086,"stv_name":"Uncletopia | Frankfurt | 8 | Community | STV","players":null},{"server_id":202,"name":"Uncletopia | Hong Kong | 1 | All Maps","name_short":"hgk-1","host":"hgk-1.hk.uncletopia.com","port":27015,"enabled":true,"region":"asia","cc":"hk","latitude":22.302711,"longitude":114.177216,"reserved":0,"last_update":"0001-01-01T00:00:00Z","name_a2s":"Uncletopia | Hong Kong | 1 | All Maps","protocol":17,"map":"koth_viaduct","folder":"tf","game":"Team Fortress","app_id":440,"player_count":0,"max_players":24,"Bots":0,"server_type":"Dedicated","server_os":"Linux","password":true,"vac":true,"version":"7932396","steam_id":85568392924494504,"keywords":["cp","nocrits","nodmgspread","uncletopia"],"game_id":440,"stv_port":27016,"stv_name":"Uncletopia | Hong Kong | 1 | All Maps | STV","players":null},{"server_id":1,"name":"Uncletopia | Los Angeles | 1 | All Maps","name_short":"lax-1","host":"lax-1.us.uncletopia.com","port":27015,"enabled":true,"region":"us-west","cc":"us","latitude":33.94279,"longitude":-118.41004,"reserved":0,"last_update":"0001-01-01T00:00:00Z","name_a2s":"Uncletopia | Los Angeles | 1 | All Maps","protocol":17,"map":"koth_lakeside_final","folder":"tf","game":"Team Fortress","app_id":440,"player_count":0,"max_players":24,"Bots":0,"server_type":"Dedicated","server_os":"Linux","password":true,"vac":true,"version":"7932396","steam_id":85568392924469991,"keywords":["cp","nocrits","nodmgspread","uncletopia"],"game_id":440,"stv_port":27016,"stv_name":"Uncletopia | Los Angeles | 1 | All Maps | STV","players":null},{"server_id":112,"name":"Uncletopia | Los Angeles | 2 | All Maps","name_short":"lax-2","host":"lax-1.us.uncletopia.com","port":27025,"enabled":true,"region":"us-west","cc":"us","latitude":33.94279,"longitude":-118.41004,"reserved":0,"last_update":"0001-01-01T00:00:00Z","name_a2s":"Uncletopia | Los Angeles | 2 | All Maps","protocol":17,"map":"pl_upward","folder":"tf","game":"Team Fortress","app_id":440,"player_count":24,"max_players":24,"Bots":0,"server_type":"Dedicated","server_os":"Linux","password":true,"vac":true,"version":"7932396","steam_id":85568392924469992,"keywords":["nocrits","nodmgspread","payload","uncletopia"],"game_id":440,"stv_port":27026,"stv_name":"Uncletopia | Los Angeles | 2 | All Maps | STV","players":[{"user_id":467,"name":"Jezzus","steam_id":76561199289676387,"connected_time":2200000000000,"state":"active","ping":82},{"user_id":292,"name":"AimBütter","steam_id":76561198060108739,"connected_time":13184000000000,"state":"active","ping":45},{"user_id":492,"name":"restless","steam_id":76561199201045563,"connected_time":117000000000,"state":"active","ping":164},{"user_id":489,"name":"iBuster","steam_id":76561198093629316,"connected_time":392000000000,"state":"active","ping":75},{"user_id":458,"name":"☆Ruke☆","steam_id":76561198072441047,"connected_time":2695000000000,"state":"active","ping":86},{"user_id":424,"name":"ScoutBox","steam_id":76561198111539895,"connected_time":5058000000000,"state":"active","ping":46},{"user_id":483,"name":"KingGizzardluvr69420","steam_id":76561198059925499,"connected_time":737000000000,"state":"active","ping":86},{"user_id":417,"name":"Toaster","steam_id":76561198039891934,"connected_time":5763000000000,"state":"active","ping":109},{"user_id":479,"name":"Space360","steam_id":76561198106743284,"connected_time":1653000000000,"state":"active","ping":82},{"user_id":469,"name":"DMJanitor","steam_id":76561198058929753,"connected_time":2079000000000,"state":"active","ping":67},{"user_id":480,"name":"O.G. C.E.O","steam_id":76561198063928325,"connected_time":1513000000000,"state":"active","ping":103},{"user_id":490,"name":"dare","steam_id":76561197960977496,"connected_time":391000000000,"state":"active","ping":60},{"user_id":435,"name":"Thunderchief","steam_id":76561198022802780,"connected_time":4265000000000,"state":"active","ping":68},{"user_id":454,"name":"azureglxy","steam_id":76561198861388315,"connected_time":2846000000000,"state":"active","ping":30},{"user_id":491,"name":"The Caretaker","steam_id":76561198125241411,"connected_time":290000000000,"state":"active","ping":70},{"user_id":482,"name":"Playing on a Xbox Controller","steam_id":76561199229427395,"connected_time":1119000000000,"state":"active","ping":45},{"user_id":478,"name":"rock gaming","steam_id":76561199402868311,"connected_time":1693000000000,"state":"active","ping":58},{"user_id":493,"name":"⚣ Horny Femboy ⚣","steam_id":76561199043463646,"connected_time":81000000000,"state":"active","ping":76},{"user_id":488,"name":"PROFILE NAME","steam_id":76561199438851854,"connected_time":446000000000,"state":"active","ping":85},{"user_id":494,"name":"⚣ Horny(er) Femboy ⚣","steam_id":76561197998789730,"connected_time":56000000000,"state":"active","ping":61},{"user_id":487,"name":"Anon","steam_id":76561198109740776,"connected_time":471000000000,"state":"active","ping":70},{"user_id":473,"name":"Rommel2007","steam_id":76561198041744631,"connected_time":1986000000000,"state":"active","ping":60},{"user_id":463,"name":"Boobie and vagene","steam_id":76561198078464924,"connected_time":2593000000000,"state":"active","ping":78},{"user_id":475,"name":"Scoops M'Gooch","steam_id":76561198048423812,"connected_time":1919000000000,"state":"active","ping":62}]},{"server_id":324,"name":"Uncletopia | Los Angeles | 3 | All Maps","name_short":"lax-3","host":"lax-1.us.uncletopia.com","port":27035,"enabled":true,"region":"us-west","cc":"us","latitude":33.94279,"longitude":-118.41004,"reserved":0,"last_update":"0001-01-01T00:00:00Z","name_a2s":"Uncletopia | Los Angeles | 3 | All Maps","protocol":17,"map":"cp_dustbowl","folder":"tf","game":"Team Fortress","app_id":440,"player_count":24,"max_players":24,"Bots":0,"server_type":"Dedicated","server_os":"Linux","password":true,"vac":true,"version":"7932396","steam_id":85568392924510198,"keywords":["cp","nocrits","nodmgspread","uncletopia"],"game_id":440,"stv_port":27036,"stv_name":"Uncletopia | Los Angeles | 3 | All Maps | STV","players":[{"user_id":434,"name":"Saggle","steam_id":76561198056075147,"connected_time":1252000000000,"state":"active","ping":175},{"user_id":340,"name":"cataconik","steam_id":76561198145530829,"connected_time":8102000000000,"state":"active","ping":113},{"user_id":437,"name":"clegane","steam_id":76561198187827373,"connected_time":919000000000,"state":"active","ping":58},{"user_id":386,"name":"Nooble","steam_id":76561198114556179,"connected_time":4776000000000,"state":"active","ping":49},{"user_id":441,"name":"Meef","steam_id":76561198039987329,"connected_time":827000000000,"state":"active","ping":115},{"user_id":422,"name":"nescoceo","steam_id":76561198040801160,"connected_time":1870000000000,"state":"active","ping":45},{"user_id":430,"name":"Bergie","steam_id":76561197971075625,"connected_time":1714000000000,"state":"active","ping":96},{"user_id":433,"name":"The Dreamer","steam_id":76561198047638312,"connected_time":1442000000000,"state":"active","ping":111},{"user_id":425,"name":"Phantom","steam_id":76561198253061814,"connected_time":1851000000000,"state":"active","ping":65},{"user_id":438,"name":"dill","steam_id":76561198119636036,"connected_time":915000000000,"state":"active","ping":71},{"user_id":446,"name":"JJ","steam_id":76561199200296010,"connected_time":307000000000,"state":"active","ping":101},{"user_id":418,"name":"MagicalBoyChan","steam_id":76561198024776873,"connected_time":1893000000000,"state":"active","ping":110},{"user_id":439,"name":"Schnitz","steam_id":76561198265484253,"connected_time":907000000000,"state":"active","ping":58},{"user_id":392,"name":"Mr. Carfox","steam_id":76561198041664428,"connected_time":4632000000000,"state":"active","ping":45},{"user_id":414,"name":"Mocha Josie","steam_id":76561198066452726,"connected_time":2937000000000,"state":"active","ping":52},{"user_id":444,"name":"VirtualDuder","steam_id":76561198449805060,"connected_time":562000000000,"state":"active","ping":55},{"user_id":428,"name":"Broke Spy Main","steam_id":76561198104086771,"connected_time":1807000000000,"state":"active","ping":48},{"user_id":442,"name":"DavidTheBurrito","steam_id":76561198231940844,"connected_time":819000000000,"state":"active","ping":48},{"user_id":398,"name":"Mw3killer10001","steam_id":76561198107917806,"connected_time":4504000000000,"state":"active","ping":48},{"user_id":410,"name":"TsukiNoKami","steam_id":76561198039664805,"connected_time":3488000000000,"state":"active","ping":45},{"user_id":417,"name":"/!\\ ZOLASKI /!\\ trade.tf","steam_id":76561198101096707,"connected_time":1904000000000,"state":"active","ping":146},{"user_id":431,"name":"Mr Sir Logan","steam_id":76561198088803891,"connected_time":1703000000000,"state":"active","ping":64},{"user_id":445,"name":"Bionical Soul","steam_id":76561198979650451,"connected_time":471000000000,"state":"active","ping":69},{"user_id":408,"name":"Caert_","steam_id":76561198046344885,"connected_time":3987000000000,"state":"active","ping":53}]},{"server_id":25,"name":"Uncletopia | Los Angeles | 4 | Stopwatch Beta","name_short":"lax-4","host":"lax-1.us.uncletopia.com","port":27045,"enabled":true,"region":"us-west","cc":"us","latitude":33.94279,"longitude":-118.41004,"reserved":0,"last_update":"0001-01-01T00:00:00Z","name_a2s":"Uncletopia | Los Angeles | 4 | Stopwatch Beta","protocol":17,"map":"pl_upward","folder":"tf","game":"Team Fortress","app_id":440,"player_count":0,"max_players":24,"Bots":0,"server_type":"Dedicated","server_os":"Linux","password":true,"vac":true,"version":"7932396","steam_id":85568392924510199,"keywords":["nocrits","nodmgspread","payload","uncletopia"],"game_id":440,"stv_port":27046,"stv_name":"Uncletopia | Los Angeles | 4 | Stopwatch Beta | STV","players":null},{"server_id":11,"name":"Uncletopia | London | 1 | All Maps","name_short":"lon-1","host":"lon-1.uk.uncletopia.com","port":27015,"enabled":true,"region":"eu","cc":"gb","latitude":51.509865,"longitude":-0.118092,"reserved":0,"last_update":"0001-01-01T00:00:00Z","name_a2s":"Uncletopia | London | 1 | All Maps","protocol":17,"map":"pl_thundermountain","folder":"tf","game":"Team Fortress","app_id":440,"player_count":19,"max_players":24,"Bots":0,"server_type":"Dedicated","server_os":"Linux","password":true,"vac":true,"version":"7932396","steam_id":85568392924367362,"keywords":["nocrits","nodmgspread","payload","uncletopia"],"game_id":440,"stv_port":27016,"stv_name":"Uncletopia | London | 1 | All Maps | STV","players":[{"user_id":105,"name":"Der Geist des Hans Rosling","steam_id":76561198049231109,"connected_time":1731000000000,"state":"active","ping":117},{"user_id":4,"name":"seigfried","steam_id":76561198047260133,"connected_time":11846000000000,"state":"active","ping":73},{"user_id":114,"name":"regimiro","steam_id":76561198120457008,"connected_time":14000000000,"state":"spawning","ping":66},{"user_id":61,"name":"Not that pro","steam_id":76561198299539583,"connected_time":8343000000000,"state":"active","ping":164},{"user_id":87,"name":"emily","steam_id":76561198393596975,"connected_time":4319000000000,"state":"active","ping":120},{"user_id":115,"name":"engie?","steam_id":76561198331852832,"connected_time":7000000000,"state":"spawning","ping":92},{"user_id":112,"name":"Aight","steam_id":76561198300453404,"connected_time":40000000000,"state":"active","ping":139},{"user_id":56,"name":"bigboy76","steam_id":76561198061197114,"connected_time":9235000000000,"state":"active","ping":111},{"user_id":106,"name":"++Old_M@N++","steam_id":76561197994792094,"connected_time":1659000000000,"state":"spawning","ping":63},{"user_id":109,"name":"Faxter","steam_id":76561198011771605,"connected_time":1073000000000,"state":"active","ping":106},{"user_id":46,"name":"Perpetual Pub Push","steam_id":76561198256714846,"connected_time":10005000000000,"state":"active","ping":40},{"user_id":110,"name":"A stripper","steam_id":76561198034865891,"connected_time":950000000000,"state":"active","ping":60},{"user_id":79,"name":"✧ Ghosty ✧","steam_id":76561198312022168,"connected_time":6149000000000,"state":"active","ping":123},{"user_id":96,"name":"Jerryx01","steam_id":76561198145236247,"connected_time":2570000000000,"state":"spawning","ping":151},{"user_id":69,"name":"Jason.2014","steam_id":76561198164877219,"connected_time":7709000000000,"state":"spawning","ping":90},{"user_id":81,"name":"MrXtr","steam_id":76561198966247397,"connected_time":5438000000000,"state":"active","ping":69},{"user_id":108,"name":"clunk","steam_id":76561198836460767,"connected_time":1233000000000,"state":"active","ping":170},{"user_id":72,"name":"gravity displeases me","steam_id":76561198342570528,"connected_time":7398000000000,"state":"active","ping":74}]},{"server_id":114,"name":"Uncletopia | London | 2 | All Maps","name_short":"lon-2","host":"lon-1.uk.uncletopia.com","port":27025,"enabled":true,"region":"eu","cc":"gb","latitude":51.509865,"longitude":-0.118092,"reserved":0,"last_update":"0001-01-01T00:00:00Z","name_a2s":"Uncletopia | London | 2 | All Maps","protocol":17,"map":"koth_highpass","folder":"tf","game":"Team Fortress","app_id":440,"player_count":0,"max_players":24,"Bots":0,"server_type":"Dedicated","server_os":"Linux","password":true,"vac":true,"version":"7932396","steam_id":85568392924470941,"keywords":["cp","nocrits","nodmgspread","uncletopia"],"game_id":440,"stv_port":27026,"stv_name":"Uncletopia | London | 2 | All Maps | STV","players":null},{"server_id":320,"name":"Uncletopia | London | 3 | All Maps","name_short":"lon-3","host":"lon-1.uk.uncletopia.com","port":27035,"enabled":true,"region":"eu","cc":"gb","latitude":51.509865,"longitude":-0.118092,"reserved":0,"last_update":"0001-01-01T00:00:00Z","name_a2s":"Uncletopia | London | 3 | All Maps","protocol":17,"map":"cp_altitude","folder":"tf","game":"Team Fortress","app_id":440,"player_count":0,"max_players":24,"Bots":0,"server_type":"Dedicated","server_os":"Linux","password":true,"vac":true,"version":"7932396","steam_id":85568392924510192,"keywords":["cp","nocrits","nodmgspread","uncletopia"],"game_id":440,"stv_port":27036,"stv_name":"Uncletopia | London | 3 | All Maps | STV","players":null},{"server_id":321,"name":"Uncletopia | London | 4 | All Maps","name_short":"lon-4","host":"lon-1.uk.uncletopia.com","port":27045,"enabled":true,"region":"eu","cc":"gb","latitude":51.509865,"longitude":-0.118092,"reserved":0,"last_update":"0001-01-01T00:00:00Z","name_a2s":"Uncletopia | London | 4 | All Maps","protocol":17,"map":"cp_snakewater_final1","folder":"tf","game":"Team Fortress","app_id":440,"player_count":0,"max_players":24,"Bots":0,"server_type":"Dedicated","server_os":"Linux","password":true,"vac":true,"version":"7932396","steam_id":85568392924510193,"keywords":["cp","nocrits","nodmgspread","uncletopia"],"game_id":440,"stv_port":27046,"stv_name":"Uncletopia | London | 4 | All Maps | STV","players":null},{"server_id":21,"name":"Uncletopia | London | 5 | All Maps","name_short":"lon-5","host":"lon-1.uk.uncletopia.com","port":27055,"enabled":true,"region":"eu","cc":"gb","latitude":51.509865,"longitude":-0.118092,"reserved":0,"last_update":"0001-01-01T00:00:00Z","name_a2s":"Uncletopia | London | 5 | All Maps","protocol":17,"map":"pl_upward","folder":"tf","game":"Team Fortress","app_id":440,"player_count":0,"max_players":24,"Bots":0,"server_type":"Dedicated","server_os":"Linux","password":true,"vac":true,"version":"7932396","steam_id":85568392924742829,"keywords":["nocrits","nodmgspread","payload","uncletopia"],"game_id":440,"stv_port":27056,"stv_name":"Uncletopia | London | 5 | All Maps | STV","players":null},{"server_id":22,"name":"Uncletopia | London | 6 | All Maps","name_short":"lon-6","host":"lon-1.uk.uncletopia.com","port":27065,"enabled":true,"region":"eu","cc":"gb","latitude":51.509865,"longitude":-0.118092,"reserved":0,"last_update":"0001-01-01T00:00:00Z","name_a2s":"Uncletopia | London | 6 | All Maps","protocol":17,"map":"cp_mountainlab","folder":"tf","game":"Team Fortress","app_id":440,"player_count":0,"max_players":24,"Bots":0,"server_type":"Dedicated","server_os":"Linux","password":true,"vac":true,"version":"7932396","steam_id":85568392924742830,"keywords":["cp","nocrits","nodmgspread","uncletopia"],"game_id":440,"stv_port":27066,"stv_name":"Uncletopia | London | 6 | All Maps | STV","players":null},{"server_id":40,"name":"Uncletopia | London | 7 | No Payload","name_short":"lon-7","host":"lon-1.uk.uncletopia.com","port":27075,"enabled":true,"region":"eu","cc":"gb","latitude":51.509865,"longitude":-0.118092,"reserved":0,"last_update":"0001-01-01T00:00:00Z","name_a2s":"Uncletopia | London | 7 | No Payload","protocol":17,"map":"pl_snowycoast","folder":"tf","game":"Team Fortress","app_id":440,"player_count":0,"max_players":24,"Bots":0,"server_type":"Dedicated","server_os":"Linux","password":true,"vac":true,"version":"7932396","steam_id":85568392924964314,"keywords":["nocrits","nodmgspread","payload","uncletopia"],"game_id":440,"stv_port":27076,"stv_name":"Uncletopia | London | 7 | No Payload | STV","players":null},{"server_id":41,"name":"Uncletopia | London | 8 | Community","name_short":"lon-8","host":"lon-1.uk.uncletopia.com","port":27085,"enabled":true,"region":"eu","cc":"gb","latitude":51.509865,"longitude":-0.118092,"reserved":0,"last_update":"0001-01-01T00:00:00Z","name_a2s":"Uncletopia | London | 8 | Community","protocol":17,"map":"pl_barnblitz","folder":"tf","game":"Team Fortress","app_id":440,"player_count":0,"max_players":24,"Bots":0,"server_type":"Dedicated","server_os":"Linux","password":true,"vac":true,"version":"7932396","steam_id":85568392924964315,"keywords":["nocrits","nodmgspread","payload","uncletopia"],"game_id":440,"stv_port":27086,"stv_name":"Uncletopia | London | 8 | Community | STV","players":null},{"server_id":300,"name":"Uncletopia | Montréal | 1 | All Maps","name_short":"mtl-1","host":"mtl-1.ca.uncletopia.com","port":27015,"enabled":true,"region":"us-east","cc":"ca","latitude":45.50889,"longitude":-73.56167,"reserved":0,"last_update":"0001-01-01T00:00:00Z","name_a2s":"Uncletopia | Montréal | 1 | All Maps","protocol":17,"map":"koth_cascade","folder":"tf","game":"Team Fortress","app_id":440,"player_count":0,"max_players":24,"Bots":0,"server_type":"Dedicated","server_os":"Linux","password":true,"vac":true,"version":"7932396","steam_id":85568392924500087,"keywords":["cp","nocrits","nodmgspread","uncletopia"],"game_id":440,"stv_port":27016,"stv_name":"Uncletopia | Montréal | 1 | All Maps | STV","players":null},{"server_id":301,"name":"Uncletopia | Montréal | 2 | All Maps","name_short":"mtl-2","host":"mtl-1.ca.uncletopia.com","port":27025,"enabled":true,"region":"us-east","cc":"ca","latitude":45.50889,"longitude":-73.56167,"reserved":0,"last_update":"0001-01-01T00:00:00Z","name_a2s":"Uncletopia | Montréal | 2 | All Maps","protocol":17,"map":"koth_lakeside_final","folder":"tf","game":"Team Fortress","app_id":440,"player_count":0,"max_players":24,"Bots":0,"server_type":"Dedicated","server_os":"Linux","password":true,"vac":true,"version":"7932396","steam_id":85568392924500088,"keywords":["cp","nocrits","nodmgspread","uncletopia"],"game_id":440,"stv_port":27026,"stv_name":"Uncletopia | Montréal | 2 | All Maps | STV","players":null},{"server_id":302,"name":"Uncletopia | Montréal | 3 | All Maps","name_short":"mtl-3","host":"mtl-1.ca.uncletopia.com","port":27035,"enabled":true,"region":"us-east","cc":"ca","latitude":45.50889,"longitude":-73.56167,"reserved":0,"last_update":"0001-01-01T00:00:00Z","name_a2s":"Uncletopia | Montréal | 3 | All Maps","protocol":17,"map":"pl_frontier_final","folder":"tf","game":"Team Fortress","app_id":440,"player_count":0,"max_players":24,"Bots":0,"server_type":"Dedicated","server_os":"Linux","password":true,"vac":true,"version":"7932396","steam_id":85568392924500089,"keywords":["nocrits","nodmgspread","payload","uncletopia"],"game_id":440,"stv_port":27036,"stv_name":"Uncletopia | Montréal | 3 | All Maps | STV","players":null},{"server_id":303,"name":"Uncletopia | Montréal | 4 | No Payload","name_short":"mtl-4","host":"mtl-1.ca.uncletopia.com","port":27045,"enabled":true,"region":"us-east","cc":"ca","latitude":45.50889,"longitude":-73.56167,"reserved":0,"last_update":"0001-01-01T00:00:00Z","name_a2s":"Uncletopia | Montréal | 4 | No Payload","protocol":17,"map":"cp_gullywash_final1","folder":"tf","game":"Team Fortress","app_id":440,"player_count":0,"max_players":24,"Bots":0,"server_type":"Dedicated","server_os":"Linux","password":true,"vac":true,"version":"7932396","steam_id":85568392924500090,"keywords":["cp","nocrits","nodmgspread","uncletopia"],"game_id":440,"stv_port":27046,"stv_name":"Uncletopia | Montréal | 4 | No Payload | STV","players":null},{"server_id":13,"name":"Uncletopia | New York City | 1 | All Maps","name_short":"nyc-1","host":"nyc-1.us.uncletopia.com","port":27015,"enabled":true,"region":"us-east","cc":"us","latitude":40.73061,"longitude":-73.93524,"reserved":0,"last_update":"0001-01-01T00:00:00Z","name_a2s":"Uncletopia | New York City | 1 | All Maps","protocol":17,"map":"koth_highpass","folder":"tf","game":"Team Fortress","app_id":440,"player_count":0,"max_players":24,"Bots":0,"server_type":"Dedicated","server_os":"Linux","password":true,"vac":true,"version":"7932396","steam_id":85568392924469993,"keywords":["cp","nocrits","nodmgspread","uncletopia"],"game_id":440,"stv_port":27016,"stv_name":"Uncletopia | New York City | 1 | All Maps | STV","players":null},{"server_id":14,"name":"Uncletopia | New York City | 2 | All Maps","name_short":"nyc-2","host":"nyc-1.us.uncletopia.com","port":27025,"enabled":true,"region":"us-east","cc":"us","latitude":40.73061,"longitude":-73.93524,"reserved":0,"last_update":"0001-01-01T00:00:00Z","name_a2s":"Uncletopia | New York City | 2 | All Maps","protocol":17,"map":"koth_lakeside_final","folder":"tf","game":"Team Fortress","app_id":440,"player_count":0,"max_players":24,"Bots":0,"server_type":"Dedicated","server_os":"Linux","password":true,"vac":true,"version":"7932396","steam_id":85568392924469994,"keywords":["cp","nocrits","nodmgspread","uncletopia"],"game_id":440,"stv_port":27026,"stv_name":"Uncletopia | New York City | 2 | All Maps | STV","players":null},{"server_id":15,"name":"Uncletopia | New York City | 3 | Stopwatch Beta","name_short":"nyc-3","host":"nyc-1.us.uncletopia.com","port":27035,"enabled":true,"region":"us-east","cc":"us","latitude":40.73061,"longitude":-73.93524,"reserved":0,"last_update":"0001-01-01T00:00:00Z","name_a2s":"Uncletopia | New York City | 3 | Stopwatch Beta","protocol":17,"map":"workshop/koth_bagel_rc6.ugc2514036946","folder":"tf","game":"Team Fortress","app_id":440,"player_count":0,"max_players":24,"Bots":0,"server_type":"Dedicated","server_os":"Linux","password":true,"vac":true,"version":"7932396","steam_id":85568392924742820,"keywords":["cp","nocrits","nodmgspread","uncletopia"],"game_id":440,"stv_port":27036,"stv_name":"Uncletopia | New York City | 3 | Stopwatch Beta | STV","players":null},{"server_id":16,"name":"Uncletopia | New York City | 4 | Community","name_short":"nyc-4","host":"nyc-1.us.uncletopia.com","port":27045,"enabled":true,"region":"us-east","cc":"us","latitude":40.73061,"longitude":-73.93524,"reserved":0,"last_update":"0001-01-01T00:00:00Z","name_a2s":"Uncletopia | New York City | 4 | Community","protocol":17,"map":"workshop/koth_synthetic_rc6a.ugc1549817316","folder":"tf","game":"Team Fortress","app_id":440,"player_count":0,"max_players":24,"Bots":0,"server_type":"Dedicated","server_os":"Linux","password":true,"vac":true,"version":"7932396","steam_id":85568392924742821,"keywords":["cp","nocrits","nodmgspread","uncletopia"],"game_id":440,"stv_port":27046,"stv_name":"Uncletopia | New York City | 4 | Community | STV","players":null},{"server_id":142,"name":"Uncletopia | São Paulo | 1 | All Maps","name_short":"sao-1","host":"sao-1.br.uncletopia.com","port":27015,"enabled":true,"region":"sa","cc":"br","latitude":-23.533773,"longitude":-46.62529,"reserved":0,"last_update":"0001-01-01T00:00:00Z","name_a2s":"Uncletopia | São Paulo | 1 | All Maps","protocol":17,"map":"koth_lakeside_final","folder":"tf","game":"Team Fortress","app_id":440,"player_count":0,"max_players":24,"Bots":0,"server_type":"Dedicated","server_os":"Linux","password":true,"vac":true,"version":"7932396","steam_id":85568392924469996,"keywords":["cp","nocrits","nodmgspread","uncletopia"],"game_id":440,"stv_port":27016,"stv_name":"Uncletopia | São Paulo | 1 | All Maps | STV","players":null},{"server_id":143,"name":"Uncletopia | São Paulo | 2 | All Maps","name_short":"sao-2","host":"sao-2.br.uncletopia.com","port":27015,"enabled":true,"region":"sa","cc":"br","latitude":-23.533773,"longitude":-46.62529,"reserved":0,"last_update":"0001-01-01T00:00:00Z","name_a2s":"Uncletopia | São Paulo | 2 | All Maps","protocol":17,"map":"koth_highpass","folder":"tf","game":"Team Fortress","app_id":440,"player_count":0,"max_players":24,"Bots":0,"server_type":"Dedicated","server_os":"Linux","password":true,"vac":true,"version":"7932396","steam_id":85568392924485349,"keywords":["cp","nocrits","nodmgspread","uncletopia"],"game_id":440,"stv_port":27016,"stv_name":"Uncletopia | São Paulo | 2 | All Maps | STV","players":null},{"server_id":7,"name":"Uncletopia | Seattle | 1 | All Maps","name_short":"sea-1","host":"sea-1.us.uncletopia.com","port":27015,"enabled":true,"region":"us-west","cc":"us","latitude":47.608013,"longitude":-122.33517,"reserved":0,"last_update":"0001-01-01T00:00:00Z","name_a2s":"Uncletopia | Seattle | 1 | All Maps","protocol":17,"map":"pl_snowycoast","folder":"tf","game":"Team Fortress","app_id":440,"player_count":23,"max_players":24,"Bots":0,"server_type":"Dedicated","server_os":"Linux","password":true,"vac":true,"version":"7932396","steam_id":85568392924469997,"keywords":["nocrits","nodmgspread","payload","uncletopia"],"game_id":440,"stv_port":27016,"stv_name":"Uncletopia | Seattle | 1 | All Maps | STV","players":[{"user_id":717,"name":"Arsonist Goose","steam_id":76561198147441830,"connected_time":6130000000000,"state":"active","ping":68},{"user_id":762,"name":"Tazzzy18 YTlive","steam_id":76561198280897107,"connected_time":121000000000,"state":"active","ping":116},{"user_id":745,"name":"hosewater","steam_id":76561198023383126,"connected_time":2301000000000,"state":"active","ping":48},{"user_id":763,"name":"δ","steam_id":76561198046278452,"connected_time":120000000000,"state":"active","ping":49},{"user_id":764,"name":"Lé Mon","steam_id":76561198078626283,"connected_time":119000000000,"state":"active","ping":128},{"user_id":710,"name":"squash","steam_id":76561198150281353,"connected_time":7241000000000,"state":"active","ping":49},{"user_id":767,"name":"Jack from Jack in The Box","steam_id":76561199083594971,"connected_time":39000000000,"state":"active","ping":76},{"user_id":760,"name":"Amazing476","steam_id":76561198103937489,"connected_time":605000000000,"state":"active","ping":102},{"user_id":749,"name":"gorlab","steam_id":76561198025089694,"connected_time":2209000000000,"state":"active","ping":60},{"user_id":712,"name":"Sad Dental Man","steam_id":76561198103189993,"connected_time":6581000000000,"state":"active","ping":66},{"user_id":759,"name":"dust | she/it","steam_id":76561198045218909,"connected_time":788000000000,"state":"active","ping":31},{"user_id":751,"name":"rorywashere /ᐠ - ˕ -マ Ⳋ","steam_id":76561198065825165,"connected_time":2112000000000,"state":"active","ping":157},{"user_id":737,"name":"rat gets the cheese","steam_id":76561198031234032,"connected_time":3298000000000,"state":"active","ping":98},{"user_id":761,"name":"Callahan","steam_id":76561197976928457,"connected_time":502000000000,"state":"active","ping":47},{"user_id":741,"name":"greentop_","steam_id":76561198209650964,"connected_time":2762000000000,"state":"active","ping":89},{"user_id":758,"name":"resh","steam_id":76561198239598834,"connected_time":1266000000000,"state":"active","ping":133},{"user_id":670,"name":"im mr ____hed look at me","steam_id":76561198051751133,"connected_time":11221000000000,"state":"active","ping":61},{"user_id":753,"name":"charm quark","steam_id":76561198098770777,"connected_time":2053000000000,"state":"active","ping":46},{"user_id":734,"name":"Feasent","steam_id":76561198987316504,"connected_time":3315000000000,"state":"active","ping":57},{"user_id":757,"name":"jorts","steam_id":76561199041179985,"connected_time":1809000000000,"state":"active","ping":51},{"user_id":684,"name":"NEBULA","steam_id":76561198086878595,"connected_time":10376000000000,"state":"active","ping":105},{"user_id":728,"name":"John Calibur","steam_id":76561197999986606,"connected_time":4511000000000,"state":"active","ping":69}]},{"server_id":119,"name":"Uncletopia | Seattle | 2 | All Maps","name_short":"sea-2","host":"sea-1.us.uncletopia.com","port":27025,"enabled":true,"region":"us-west","cc":"us","latitude":47.608013,"longitude":-122.33517,"reserved":0,"last_update":"0001-01-01T00:00:00Z","name_a2s":"Uncletopia | Seattle | 2 | All Maps","protocol":17,"map":"koth_viaduct","folder":"tf","game":"Team Fortress","app_id":440,"player_count":0,"max_players":24,"Bots":0,"server_type":"Dedicated","server_os":"Linux","password":true,"vac":true,"version":"7932396","steam_id":85568392924469998,"keywords":["cp","nocrits","nodmgspread","uncletopia"],"game_id":440,"stv_port":27026,"stv_name":"Uncletopia | Seattle | 2 | All Maps | STV","players":null},{"server_id":406,"name":"Uncletopia | Seattle | 3 | Stopwatch Beta","name_short":"sea-3","host":"sea-1.us.uncletopia.com","port":27035,"enabled":true,"region":"us-west","cc":"us","latitude":47.608013,"longitude":-122.33517,"reserved":0,"last_update":"0001-01-01T00:00:00Z","name_a2s":"Uncletopia | Seattle | 3 | Stopwatch Beta","protocol":17,"map":"workshop/koth_bagel_rc6.ugc2514036946","folder":"tf","game":"Team Fortress","app_id":440,"player_count":0,"max_players":24,"Bots":0,"server_type":"Dedicated","server_os":"Linux","password":true,"vac":true,"version":"7932396","steam_id":85568392924515217,"keywords":["cp","nocrits","nodmgspread","uncletopia"],"game_id":440,"stv_port":27036,"stv_name":"Uncletopia | Seattle | 3 | Stopwatch Beta | STV","players":null},{"server_id":17,"name":"Uncletopia | San Francisco | 1 | All Maps","name_short":"sfo-1","host":"sfo-1.us.uncletopia.com","port":27015,"enabled":true,"region":"us-west","cc":"us","latitude":37.77397,"longitude":-122.4313,"reserved":0,"last_update":"0001-01-01T00:00:00Z","name_a2s":"Uncletopia | San Francisco | 1 | All Maps","protocol":17,"map":"cp_dustbowl","folder":"tf","game":"Team Fortress","app_id":440,"player_count":0,"max_players":24,"Bots":0,"server_type":"Dedicated","server_os":"Linux","password":true,"vac":true,"version":"7932396","steam_id":85568392924469999,"keywords":["cp","nocrits","nodmgspread","uncletopia"],"game_id":440,"stv_port":27016,"stv_name":"Uncletopia | San Francisco | 1 | All Maps | STV","players":null},{"server_id":18,"name":"Uncletopia | San Francisco | 2 | All Maps","name_short":"sfo-2","host":"sfo-1.us.uncletopia.com","port":27025,"enabled":true,"region":"us-west","cc":"us","latitude":37.77397,"longitude":-122.4313,"reserved":0,"last_update":"0001-01-01T00:00:00Z","name_a2s":"Uncletopia | San Francisco | 2 | All Maps","protocol":17,"map":"cp_altitude","folder":"tf","game":"Team Fortress","app_id":440,"player_count":0,"max_players":24,"Bots":0,"server_type":"Dedicated","server_os":"Linux","password":true,"vac":true,"version":"7932396","steam_id":85568392924470000,"keywords":["cp","nocrits","nodmgspread","uncletopia"],"game_id":440,"stv_port":27026,"stv_name":"Uncletopia | San Francisco | 2 | All Maps | STV","players":null},{"server_id":19,"name":"Uncletopia | San Francisco | 3 | Stopwatch Beta","name_short":"sfo-3","host":"sfo-1.us.uncletopia.com","port":27035,"enabled":true,"region":"us-west","cc":"us","latitude":37.77397,"longitude":-122.4313,"reserved":0,"last_update":"0001-01-01T00:00:00Z","name_a2s":"Uncletopia | San Francisco | 3 | Stopwatch Beta","protocol":17,"map":"cp_metalworks","folder":"tf","game":"Team Fortress","app_id":440,"player_count":6,"max_players":24,"Bots":0,"server_type":"Dedicated","server_os":"Linux","password":true,"vac":true,"version":"7932396","steam_id":85568392924742824,"keywords":["cp","nocrits","nodmgspread","uncletopia"],"game_id":440,"stv_port":27036,"stv_name":"Uncletopia | San Francisco | 3 | Stopwatch Beta | STV","players":[{"user_id":166,"name":"Thequirka","steam_id":76561198968058652,"connected_time":1798000000000,"state":"active","ping":61},{"user_id":172,"name":"Wacks","steam_id":76561198079476100,"connected_time":464000000000,"state":"active","ping":45},{"user_id":173,"name":"PIXLAID","steam_id":76561199018644569,"connected_time":102000000000,"state":"active","ping":67},{"user_id":165,"name":"Hero Smasher","steam_id":76561198150681669,"connected_time":2087000000000,"state":"active","ping":48},{"user_id":174,"name":"Captian Wobbs","steam_id":76561198142884936,"connected_time":101000000000,"state":"active","ping":86},{"user_id":162,"name":"JimmySquid","steam_id":76561198254242530,"connected_time":2498000000000,"state":"active","ping":93}]},{"server_id":20,"name":"Uncletopia | San Francisco | 4 | Community","name_short":"sfo-4","host":"sfo-1.us.uncletopia.com","port":27045,"enabled":true,"region":"us-west","cc":"us","latitude":37.77397,"longitude":-122.4313,"reserved":0,"last_update":"0001-01-01T00:00:00Z","name_a2s":"Uncletopia | San Francisco | 4 | Community","protocol":17,"map":"workshop/cp_mannbase_rc2a.ugc1900737467","folder":"tf","game":"Team Fortress","app_id":440,"player_count":0,"max_players":24,"Bots":0,"server_type":"Dedicated","server_os":"Linux","password":true,"vac":true,"version":"7932396","steam_id":85568392924742826,"keywords":["cp","nocrits","nodmgspread","uncletopia"],"game_id":440,"stv_port":27046,"stv_name":"Uncletopia | San Francisco | 4 | Community | STV","players":null},{"server_id":141,"name":"Uncletopia | Sydney | 1 | All Maps","name_short":"syd-1","host":"syd-1.au.uncletopia.com","port":27015,"enabled":true,"region":"au","cc":"au","latitude":-33.865143,"longitude":151.2099,"reserved":0,"last_update":"0001-01-01T00:00:00Z","name_a2s":"Uncletopia | Sydney | 1 | All Maps","protocol":17,"map":"pl_snowycoast","folder":"tf","game":"Team Fortress","app_id":440,"player_count":21,"max_players":24,"Bots":0,"server_type":"Dedicated","server_os":"Linux","password":true,"vac":true,"version":"7932396","steam_id":85568392924470001,"keywords":["nocrits","nodmgspread","payload","uncletopia"],"game_id":440,"stv_port":27016,"stv_name":"Uncletopia | Sydney | 1 | All Maps | STV","players":[{"user_id":209,"name":"james16","steam_id":76561198362678073,"connected_time":158000000000,"state":"active","ping":44},{"user_id":161,"name":"Mr Doctor","steam_id":76561198081415999,"connected_time":3278000000000,"state":"active","ping":75},{"user_id":204,"name":"UpsideDown","steam_id":76561199099672129,"connected_time":227000000000,"state":"active","ping":46},{"user_id":194,"name":"Rashid Of The Dank Memes","steam_id":76561198281398078,"connected_time":1446000000000,"state":"active","ping":65},{"user_id":207,"name":"Trotter","steam_id":76561198343965263,"connected_time":223000000000,"state":"active","ping":61},{"user_id":162,"name":"Hunchback of Gay","steam_id":76561199440190709,"connected_time":3263000000000,"state":"active","ping":78},{"user_id":205,"name":"Dupiter","steam_id":76561198108820767,"connected_time":226000000000,"state":"active","ping":52},{"user_id":170,"name":"rkbirnig","steam_id":76561199255174335,"connected_time":2888000000000,"state":"active","ping":97},{"user_id":206,"name":"Phibs","steam_id":76561199323730865,"connected_time":225000000000,"state":"active","ping":44},{"user_id":210,"name":"Zeron","steam_id":76561198125778202,"connected_time":97000000000,"state":"active","ping":53},{"user_id":189,"name":"Minimindd","steam_id":76561199006274892,"connected_time":1627000000000,"state":"active","ping":46},{"user_id":164,"name":"Fyre Rose","steam_id":76561198000527551,"connected_time":3219000000000,"state":"active","ping":80},{"user_id":211,"name":"Meira93","steam_id":76561198065597965,"connected_time":90000000000,"state":"active","ping":49},{"user_id":212,"name":"CheeseFlag126","steam_id":76561199262769917,"connected_time":83000000000,"state":"active","ping":64},{"user_id":200,"name":"Cyborgcupine","steam_id":76561198257389366,"connected_time":876000000000,"state":"active","ping":75},{"user_id":191,"name":"pigeon","steam_id":76561198135180841,"connected_time":1608000000000,"state":"active","ping":45},{"user_id":203,"name":"MININinja1308","steam_id":76561199040303660,"connected_time":322000000000,"state":"active","ping":55},{"user_id":146,"name":"Chooka","steam_id":76561197992307814,"connected_time":4259000000000,"state":"active","ping":80},{"user_id":180,"name":"lavanderpumpernickle","steam_id":76561199093611800,"connected_time":2588000000000,"state":"active","ping":60},{"user_id":184,"name":"Jacob","steam_id":76561198059341907,"connected_time":2454000000000,"state":"active","ping":40},{"user_id":201,"name":"SuperJube","steam_id":76561198144675504,"connected_time":875000000000,"state":"active","ping":101}]},{"server_id":123,"name":"Uncletopia | Sydney | 2 | All Maps","name_short":"syd-2","host":"syd-1.au.uncletopia.com","port":27025,"enabled":true,"region":"au","cc":"au","latitude":-33.865143,"longitude":151.2099,"reserved":0,"last_update":"0001-01-01T00:00:00Z","name_a2s":"Uncletopia | Sydney | 2 | All Maps","protocol":17,"map":"koth_lakeside_final","folder":"tf","game":"Team Fortress","app_id":440,"player_count":0,"max_players":24,"Bots":0,"server_type":"Dedicated","server_os":"Linux","password":true,"vac":true,"version":"7932396","steam_id":85568392924470002,"keywords":["cp","nocrits","nodmgspread","uncletopia"],"game_id":440,"stv_port":27026,"stv_name":"Uncletopia | Sydney | 2 | All Maps | STV","players":null},{"server_id":395,"name":"Uncletopia | Sydney | 3 | All Maps","name_short":"syd-3","host":"syd-1.au.uncletopia.com","port":27035,"enabled":true,"region":"au","cc":"au","latitude":-33.865143,"longitude":151.2099,"reserved":0,"last_update":"0001-01-01T00:00:00Z","name_a2s":"Uncletopia | Sydney | 3 | All Maps","protocol":17,"map":"pl_barnblitz","folder":"tf","game":"Team Fortress","app_id":440,"player_count":0,"max_players":24,"Bots":0,"server_type":"Dedicated","server_os":"Linux","password":true,"vac":true,"version":"7932396","steam_id":85568392925194467,"keywords":["nocrits","nodmgspread","payload","uncletopia"],"game_id":440,"stv_port":27036,"stv_name":"Uncletopia | Sydney | 3 | All Maps | STV","players":null},{"server_id":396,"name":"Uncletopia | Sydney | 4 | All Maps","name_short":"syd-4","host":"syd-1.au.uncletopia.com","port":27045,"enabled":true,"region":"au","cc":"au","latitude":-33.865143,"longitude":151.2099,"reserved":0,"last_update":"0001-01-01T00:00:00Z","name_a2s":"Uncletopia | Sydney | 4 | All Maps","protocol":17,"map":"pl_swiftwater_final1","folder":"tf","game":"Team Fortress","app_id":440,"player_count":0,"max_players":24,"Bots":0,"server_type":"Dedicated","server_os":"Linux","password":true,"vac":true,"version":"7932396","steam_id":85568392925397958,"keywords":["nocrits","nodmgspread","payload","uncletopia"],"game_id":440,"stv_port":27046,"stv_name":"Uncletopia | Sydney | 4 | All Maps | STV","players":null},{"server_id":58,"name":"Uncletopia | Sydney | 5 | Stopwatch Beta","name_short":"syd-5","host":"syd-1.au.uncletopia.com","port":27055,"enabled":true,"region":"au","cc":"au","latitude":-33.865143,"longitude":151.2099,"reserved":0,"last_update":"0001-01-01T00:00:00Z","name_a2s":"Uncletopia | Sydney | 5 | Stopwatch Beta","protocol":17,"map":"pl_borneo","folder":"tf","game":"Team Fortress","app_id":440,"player_count":0,"max_players":24,"Bots":0,"server_type":"Dedicated","server_os":"Linux","password":true,"vac":true,"version":"7932396","steam_id":85568392925397959,"keywords":["nocrits","nodmgspread","payload","uncletopia"],"game_id":440,"stv_port":27056,"stv_name":"Uncletopia | Sydney | 5 | Stopwatch Beta | STV","players":null},{"server_id":59,"name":"Uncletopia | Sydney | 6 | Community","name_short":"syd-6","host":"syd-1.au.uncletopia.com","port":27065,"enabled":true,"region":"au","cc":"au","latitude":-33.865143,"longitude":151.2099,"reserved":0,"last_update":"0001-01-01T00:00:00Z","name_a2s":"Uncletopia | Sydney | 6 | Community","protocol":17,"map":"workshop/cp_hazyfort_rc6.ugc1365963729","folder":"tf","game":"Team Fortress","app_id":440,"player_count":0,"max_players":24,"Bots":0,"server_type":"Dedicated","server_os":"Linux","password":true,"vac":true,"version":"7932396","steam_id":85568392925397960,"keywords":["cp","nocrits","nodmgspread","uncletopia"],"game_id":440,"stv_port":27066,"stv_name":"Uncletopia | Sydney | 6 | Community | STV","players":null},{"server_id":49,"name":"Uncletopia | Warsaw | 1 | All Maps","name_short":"waw-1","host":"waw-1.pl.uncletopia.com","port":27015,"enabled":true,"region":"eu","cc":"pl","latitude":52.2297,"longitude":21.017532,"reserved":0,"last_update":"0001-01-01T00:00:00Z","name_a2s":"","protocol":0,"map":"","folder":"","game":"","app_id":0,"player_count":0,"max_players":0,"Bots":0,"server_type":"","server_os":"","password":false,"vac":false,"version":"","steam_id":0,"keywords":null,"game_id":0,"stv_port":0,"stv_name":"","players":null},{"server_id":50,"name":"Uncletopia | Warsaw | 2 | All Maps","name_short":"waw-2","host":"waw-1.pl.uncletopia.com","port":27025,"enabled":true,"region":"eu","cc":"pl","latitude":52.2297,"longitude":21.017532,"reserved":0,"last_update":"0001-01-01T00:00:00Z","name_a2s":"Uncletopia | Warsaw | 2 | All Maps","protocol":17,"map":"pl_pier","folder":"tf","game":"Team Fortress","app_id":440,"player_count":0,"max_players":24,"Bots":0,"server_type":"Dedicated","server_os":"Linux","password":true,"vac":true,"version":"7932396","steam_id":85568392925397851,"keywords":["nocrits","nodmgspread","payload","uncletopia"],"game_id":440,"stv_port":27026,"stv_name":"Uncletopia | Warsaw | 2 | All Maps | STV","players":null},{"server_id":51,"name":"Uncletopia | Warsaw | 3 | All Maps","name_short":"waw-3","host":"waw-1.pl.uncletopia.com","port":27035,"enabled":true,"region":"eu","cc":"pl","latitude":52.2297,"longitude":21.017532,"reserved":0,"last_update":"0001-01-01T00:00:00Z","name_a2s":"Uncletopia | Warsaw | 3 | All Maps","protocol":17,"map":"koth_lakeside_final","folder":"tf","game":"Team Fortress","app_id":440,"player_count":0,"max_players":24,"Bots":0,"server_type":"Dedicated","server_os":"Linux","password":true,"vac":true,"version":"7932396","steam_id":85568392925397852,"keywords":["cp","nocrits","nodmgspread","uncletopia"],"game_id":440,"stv_port":27036,"stv_name":"Uncletopia | Warsaw | 3 | All Maps | STV","players":null},{"server_id":52,"name":"Uncletopia | Warsaw | 4 | All Maps","name_short":"waw-4","host":"waw-1.pl.uncletopia.com","port":27045,"enabled":true,"region":"eu","cc":"pl","latitude":52.2297,"longitude":21.017532,"reserved":0,"last_update":"0001-01-01T00:00:00Z","name_a2s":"Uncletopia | Warsaw | 4 | All Maps","protocol":17,"map":"pl_swiftwater_final1","folder":"tf","game":"Team Fortress","app_id":440,"player_count":0,"max_players":24,"Bots":0,"server_type":"Dedicated","server_os":"Linux","password":true,"vac":true,"version":"7932396","steam_id":85568392925397853,"keywords":["nocrits","nodmgspread","payload","uncletopia"],"game_id":440,"stv_port":27046,"stv_name":"Uncletopia | Warsaw | 4 | All Maps | STV","players":null},{"server_id":53,"name":"Uncletopia | Warsaw | 5 | Stopwatch Beta","name_short":"waw-5","host":"waw-1.pl.uncletopia.com","port":27055,"enabled":true,"region":"eu","cc":"pl","latitude":52.2297,"longitude":21.017532,"reserved":0,"last_update":"0001-01-01T00:00:00Z","name_a2s":"Uncletopia | Warsaw | 5 | Stopwatch Beta","protocol":17,"map":"koth_highpass","folder":"tf","game":"Team Fortress","app_id":440,"player_count":0,"max_players":24,"Bots":0,"server_type":"Dedicated","server_os":"Linux","password":true,"vac":true,"version":"7932396","steam_id":85568392925397854,"keywords":["cp","nocrits","nodmgspread","uncletopia"],"game_id":440,"stv_port":27056,"stv_name":"Uncletopia | Warsaw | 5 | Stopwatch Beta | STV","players":null},{"server_id":54,"name":"Uncletopia | Warsaw | 6 | Community","name_short":"waw-6","host":"waw-1.pl.uncletopia.com","port":27065,"enabled":true,"region":"eu","cc":"pl","latitude":52.2297,"longitude":21.017532,"reserved":0,"last_update":"0001-01-01T00:00:00Z","name_a2s":"Uncletopia | Warsaw | 6 | Community","protocol":17,"map":"pl_upward","folder":"tf","game":"Team Fortress","app_id":440,"player_count":0,"max_players":24,"Bots":0,"server_type":"Dedicated","server_os":"Linux","password":true,"vac":true,"version":"7932396","steam_id":85568392925397856,"keywords":["nocrits","nodmgspread","payload","uncletopia"],"game_id":440,"stv_port":27066,"stv_name":"Uncletopia | Warsaw | 6 | Community | STV","players":null}]}