{"status":true,"message":"","result":[{"server_id":9,"name":"Uncletopia | Atlanta | 1 | All Maps","name_short":"atl-1","host":"atl-1.us.uncletopia.com","port":27015,"enabled":true,"region":"us-east","cc":"us","latitude":33.753746,"longitude":-84.38633,"reserved":0,"last_update":"0001-01-01T00:00:00Z","name_a2s":"Uncletopia | Atlanta | 1 | All Maps","protocol":17,"map":"pl_frontier_final","folder":"tf","game":"Team Fortress","app_id":440,"player_count":24,"max_players":24,"Bots":0,"server_type":"Dedicated","server_os":"Linux","password":true,"vac":true,"version":"7723704","steam_id":85568392924469982,"keywords":["nocrits","nodmgspread","payload","uncletopia"],"game_id":440,"stv_port":27016,"stv_name":"Uncletopia | Atlanta | 1 | All Maps | STV","players":[{"user_id":301,"name":"ATL1 | Lancer Fan Club","steam_id":76561198355495948,"connected_time":1227000000000,"state":"active","ping":80},{"user_id":265,"name":"MARIOPARTYDSFAN","steam_id":76561198872122117,"connected_time":4378000000000,"state":"active","ping":73},{"user_id":316,"name":"brae","steam_id":76561198116741891,"connected_time":693000000000,"state":"active","ping":57},{"user_id":276,"name":"floofy","steam_id":76561198389769098,"connected_time":3712000000000,"state":"active","ping":74},{"user_id":292,"name":"The_Epic_Conclusion","steam_id":76561198084250179,"connected_time":1774000000000,"state":"active","ping":69},{"user_id":317,"name":"ATL1 | Kramer","steam_id":76561198083595936,"connected_time":558000000000,"state":"active","ping":86},{"user_id":284,"name":"chirp","steam_id":76561198109916563,"connected_time":3105000000000,"state":"active","ping":73},{"user_id":227,"name":"Lawless","steam_id":76561198978778718,"connected_time":9459000000000,"state":"active","ping":132},{"user_id":287,"name":"„ÄåSK8TR„Äç","steam_id":76561199389089862,"connected_time":2874000000000,"state":"active","ping":149},{"user_id":318,"name":"ATL1 | a very merry ma0re","steam_id":76561199231971506,"connected_time":368000000000,"state":"active","ping":69},{"user_id":304,"name":"helloworldprogram","steam_id":76561198200927231,"connected_time":1185000000000,"state":"active","ping":122},{"user_id":247,"name":"Bunt","steam_id":76561198124477567,"connected_time":6424000000000,"state":"active","ping":42},{"user_id":319,"name":"meat","steam_id":76561199108860327,"connected_time":313000000000,"state":"active","ping":95},{"user_id":295,"name":"badbhobie","steam_id":76561199061009150,"connected_time":1747000000000,"state":"active","ping":59},{"user_id":312,"name":"ScoobyBlue","steam_id":76561198054656885,"connected_time":882000000000,"state":"active","ping":60},{"user_id":307,"name":"darkjustin54","steam_id":76561198060056280,"connected_time":1164000000000,"state":"active","ping":74},{"user_id":298,"name":"Rudy","steam_id":76561198013456828,"connected_time":1661000000000,"state":"active","ping":60},{"user_id":310,"name":"Kimba","steam_id":76561199092078325,"connected_time":1058000000000,"state":"active","ping":91},{"user_id":286,"name":"Thessalonians 5:26","steam_id":76561199236719411,"connected_time":3099000000000,"state":"active","ping":86},{"user_id":311,"name":"prodg0d","steam_id":76561198009948313,"connected_time":1032000000000,"state":"active","ping":82},{"user_id":308,"name":"burnt_potato","steam_id":76561198877403540,"connected_time":1160000000000,"state":"active","ping":110},{"user_id":243,"name":"Stampdawg","steam_id":76561198050500060,"connected_time":6800000000000,"state":"active","ping":81},{"user_id":299,"name":"6t26j","steam_id":76561198278282836,"connected_time":1652000000000,"state":"active","ping":72},{"user_id":314,"name":"ash","steam_id":76561198127890645,"connected_time":807000000000,"state":"active","ping":66}]},{"server_id":400,"name":"Uncletopia | Atlanta | 3 | Stopwatch Beta","name_short":"atl-3","host":"atl-1.us.uncletopia.com","port":27035,"enabled":true,"region":"us-east","cc":"us","latitude":33.753746,"longitude":-84.38633,"reserved":0,"last_update":"0001-01-01T00:00:00Z","name_a2s":"Uncletopia | Atlanta | 3 | Stopwatch Beta","protocol":17,"map":"koth_cascade","folder":"tf","game":"Team Fortress","app_id":440,"player_count":4,"max_players":24,"Bots":0,"server_type":"Dedicated","server_os":"Linux","password":true,"vac":true,"version":"7723704","steam_id":85568392924515187,"keywords":["cp","nocrits","nodmgspread","uncletopia"],"game_id":440,"stv_port":27036,"stv_name":"Uncletopia | Atlanta | 3 | Stopwatch Beta | STV","players":[{"user_id":14,"name":"banana eater of the east","steam_id":76561199140303246,"connected_time":915000000000,"state":"active","ping":116},{"user_id":15,"name":"SANVICH EATER of the west","steam_id":76561199376593582,"connected_time":852000000000,"state":"active","ping":81},{"user_id":16,"name":"Bandicario","steam_id":76561198432036026,"connected_time":327000000000,"state":"active","ping":40},{"user_id":17,"name":"Eglos1","steam_id":76561199384154271,"connected_time":121000000000,"state":"active","ping":144}]},{"server_id":401,"name":"Uncletopia | Atlanta | 4 | No Payload","name_short":"atl-4","host":"atl-1.us.uncletopia.com","port":27045,"enabled":true,"region":"us-east","cc":"us","latitude":33.753746,"longitude":-84.38633,"reserved":0,"last_update":"0001-01-01T00:00:00Z","name_a2s":"Uncletopia | Atlanta | 4 | No Payload","protocol":17,"map":"ctf_2fort","folder":"tf","game":"Team Fortress","app_id":440,"player_count":0,"max_players":24,"Bots":0,"server_type":"Dedicated","server_os":"Linux","password":true,"vac":true,"version":"7723704","steam_id":85568392924515188,"keywords":["ctf","nocrits","nodmgspread","uncletopia"],"game_id":440,"stv_port":27046,"stv_name":"Uncletopia | Atlanta | 4 | No Payload | STV","players":null},{"server_id":2,"name":"Uncletopia | Chicago | 1 | All Maps","name_short":"chi-1","host":"chi-1.us.uncletopia.com","port":27015,"enabled":true,"region":"us-central","cc":"us","latitude":41.881832,"longitude":-87.62318,"reserved":0,"last_update":"0001-01-01T00:00:00Z","name_a2s":"Uncletopia | Chicago | 1 | All Maps","protocol":17,"map":"pl_swiftwater_final1","folder":"tf","game":"Team Fortress","app_id":440,"player_count":24,"max_players":24,"Bots":0,"server_type":"Dedicated","server_os":"Linux","password":true,"vac":true,"version":"7723704","steam_id":85568392924469984,"keywords":["nocrits","nodmgspread","payload","uncletopia"],"game_id":440,"stv_port":27016,"stv_name":"Uncletopia | Chicago | 1 | All Maps | STV","players":[{"user_id":414,"name":"Acid-talon","steam_id":76561198039545578,"connected_time":1553000000000,"state":"active","ping":59},{"user_id":421,"name":"Now I'm a Little Motivated","steam_id":76561198069580305,"connected_time":616000000000,"state":"active","ping":59},{"user_id":404,"name":"jimmie","steam_id":76561198042583389,"connected_time":2441000000000,"state":"active","ping":66},{"user_id":402,"name":"femboy beats","steam_id":76561199245717718,"connected_time":2505000000000,"state":"active","ping":55},{"user_id":424,"name":"CrankShaft","steam_id":76561197970750813,"connected_time":100000000000,"state":"active","ping":59},{"user_id":392,"name":"Sone","steam_id":76561198069601032,"connected_time":3075000000000,"state":"active","ping":79},{"user_id":312,"name":"Astori√¶!","steam_id":76561199090168858,"connected_time":12319000000000,"state":"active","ping":64},{"user_id":385,"name":"blob","steam_id":76561198122375328,"connected_time":3696000000000,"state":"active","ping":60},{"user_id":389,"name":"A Hard Boiled Egg","steam_id":76561197979078330,"connected_time":3123000000000,"state":"active","ping":61},{"user_id":397,"name":"Owen","steam_id":76561198025446908,"connected_time":2853000000000,"state":"active","ping":79},{"user_id":388,"name":"Fuzzy Toast","steam_id":76561198028067781,"connected_time":3443000000000,"state":"active","ping":45},{"user_id":420,"name":"sonata?","steam_id":76561198243188782,"connected_time":623000000000,"state":"active","ping":84},{"user_id":417,"name":"[slug]","steam_id":76561197989592178,"connected_time":794000000000,"state":"active","ping":66},{"user_id":383,"name":"Seru","steam_id":76561199219827214,"connected_time":4212000000000,"state":"active","ping":103},{"user_id":405,"name":"potty trained","steam_id":76561198141557766,"connected_time":2224000000000,"state":"active","ping":75},{"user_id":368,"name":"Mr.CheesyFondue","steam_id":76561198011489694,"connected_time":5758000000000,"state":"active","ping":71},{"user_id":381,"name":"Wwaz","steam_id":76561198000240092,"connected_time":4287000000000,"state":"active","ping":50},{"user_id":403,"name":"Randy \"the Man\" Johnson","steam_id":76561198039124445,"connected_time":2472000000000,"state":"active","ping":89},{"user_id":384,"name":"Stanv","steam_id":76561198259530604,"connected_time":3730000000000,"state":"active","ping":52},{"user_id":422,"name":"TallBit","steam_id":76561199059748976,"connected_time":610000000000,"state":"active","ping":59},{"user_id":413,"name":"Liquid Oxycodone","steam_id":76561198154162664,"connected_time":1585000000000,"state":"active","ping":67},{"user_id":416,"name":"pie gaming","steam_id":76561198072592880,"connected_time":1216000000000,"state":"active","ping":47},{"user_id":419,"name":"Chezburgures","steam_id":76561198173043730,"connected_time":633000000000,"state":"active","ping":104},{"user_id":407,"name":"Catboy Potemkin","steam_id":76561198078474420,"connected_time":2075000000000,"state":"active","ping":69}]},{"server_id":106,"name":"Uncletopia | Chicago | 2 | All Maps","name_short":"chi-2","host":"chi-1.us.uncletopia.com","port":27025,"enabled":true,"region":"us-central","cc":"us","latitude":41.881832,"longitude":-87.62318,"reserved":0,"last_update":"0001-01-01T00:00:00Z","name_a2s":"Uncletopia | Chicago | 2 | All Maps","protocol":17,"map":"pl_borneo","folder":"tf","game":"Team Fortress","app_id":440,"player_count":24,"max_players":24,"Bots":0,"server_type":"Dedicated","server_os":"Linux","password":true,"vac":true,"version":"7723704","steam_id":85568392924469985,"keywords":["nocrits","nodmgspread","payload","uncletopia"],"game_id":440,"stv_port":27026,"stv_name":"Uncletopia | Chicago | 2 | All Maps | STV","players":[{"user_id":384,"name":"valtiel","steam_id":76561198165212575,"connected_time":1285000000000,"state":"active","ping":71},{"user_id":400,"name":"spinglebarp","steam_id":76561198091472345,"connected_time":256000000000,"state":"active","ping":76},{"user_id":358,"name":"BrewsGoos","steam_id":76561198022302907,"connected_time":3114000000000,"state":"active","ping":43},{"user_id":391,"name":"T.w¬≤ | Sliced Bread","steam_id":76561198128489595,"connected_time":493000000000,"state":"active","ping":76},{"user_id":368,"name":"festive poptart","steam_id":76561199284453568,"connected_time":2834000000000,"state":"active","ping":83},{"user_id":393,"name":"ImNotPete","steam_id":76561199354935347,"connected_time":477000000000,"state":"active","ping":79},{"user_id":394,"name":"dog","steam_id":76561198263873491,"connected_time":459000000000,"state":"active","ping":42},{"user_id":385,"name":"Sh3ba Spaniel","steam_id":76561198047412394,"connected_time":1255000000000,"state":"active","ping":64},{"user_id":381,"name":"gps","steam_id":76561198067492304,"connected_time":1912000000000,"state":"active","ping":81},{"user_id":388,"name":"Zelumie","steam_id":76561198147335801,"connected_time":519000000000,"state":"active","ping":57},{"user_id":395,"name":"draechlein","steam_id":76561198330188918,"connected_time":445000000000,"state":"active","ping":43},{"user_id":361,"name":"TiberiusMaximusII","steam_id":76561198015987748,"connected_time":3048000000000,"state":"active","ping":51},{"user_id":399,"name":"Master Of Whales","steam_id":76561198349104889,"connected_time":298000000000,"state":"active","ping":105},{"user_id":347,"name":"Sabaman55","steam_id":76561198212267979,"connected_time":4241000000000,"state":"active","ping":54},{"user_id":396,"name":"cuddlebug123","steam_id":76561198081220016,"connected_time":431000000000,"state":"active","ping":55},{"user_id":401,"name":"chiasaurus","steam_id":76561198108685037,"connected_time":193000000000,"state":"active","ping":66},{"user_id":397,"name":"Rice2MeetYou","steam_id":76561198025504965,"connected_time":414000000000,"state":"active","ping":60},{"user_id":402,"name":"Gob From My Singing Monsters","steam_id":76561198272471440,"connected_time":176000000000,"state":"active","ping":66},{"user_id":371,"name":"ButterScotch","steam_id":76561199389314894,"connected_time":2556000000000,"state":"active","ping":71},{"user_id":403,"name":"Queen Frau the Round","steam_id":76561197999942134,"connected_time":158000000000,"state":"active","ping":46},{"user_id":398,"name":"Definitely Not A Replicant.","steam_id":76561198087464370,"connected_time":377000000000,"state":"active","ping":119},{"user_id":356,"name":"sly1","steam_id":76561198049014977,"connected_time":3165000000000,"state":"active","ping":64},{"user_id":366,"name":"Uber","steam_id":76561198139793532,"connected_time":2903000000000,"state":"active","ping":61},{"user_id":380,"name":"Kinbo2487","steam_id":76561198184714198,"connected_time":1986000000000,"state":"active","ping":79}]},{"server_id":402,"name":"Uncletopia | Chicago | 3 | All Maps","name_short":"chi-3","host":"chi-1.us.uncletopia.com","port":27035,"enabled":true,"region":"us-central","cc":"us","latitude":41.881832,"longitude":-87.62318,"reserved":0,"last_update":"0001-01-01T00:00:00Z","name_a2s":"Uncletopia | Chicago | 3 | All Maps","protocol":17,"map":"pl_borneo","folder":"tf","game":"Team Fortress","app_id":440,"player_count":24,"max_players":24,"Bots":0,"server_type":"Dedicated","server_os":"Linux","password":true,"vac":true,"version":"7723704","steam_id":85568392924515191,"keywords":["nocrits","nodmgspread","payload","uncletopia"],"game_id":440,"stv_port":27036,"stv_name":"Uncletopia | Chicago | 3 | All Maps | STV","players":[{"user_id":244,"name":"Reed","steam_id":76561198048226025,"connected_time":2916000000000,"state":"active","ping":46},{"user_id":233,"name":"sasharudzik","steam_id":76561199126617781,"connected_time":3606000000000,"state":"active","ping":65},{"user_id":222,"name":"Harold","steam_id":76561198057317770,"connected_time":4402000000000,"state":"active","ping":89},{"user_id":241,"name":"Ignalis","steam_id":76561198025662927,"connected_time":3054000000000,"state":"active","ping":62},{"user_id":258,"name":"rlty","steam_id":76561198009395055,"connected_time":1017000000000,"state":"active","ping":62},{"user_id":182,"name":"SpyShark","steam_id":76561198064973839,"connected_time":7232000000000,"state":"active","ping":73},{"user_id":252,"name":"asianscoutmain","steam_id":76561198804885794,"connected_time":2273000000000,"state":"active","ping":72},{"user_id":250,"name":"ctap2lean","steam_id":76561198068538473,"connected_time":2378000000000,"state":"active","ping":74},{"user_id":156,"name":"Myagic","steam_id":76561198123746755,"connected_time":8312000000000,"state":"active","ping":63},{"user_id":259,"name":"3-13","steam_id":76561198063929021,"connected_time":1004000000000,"state":"active","ping":69},{"user_id":251,"name":"Fluffeline","steam_id":76561198352909489,"connected_time":2281000000000,"state":"active","ping":151},{"user_id":255,"name":"Vanya","steam_id":76561198042631561,"connected_time":1683000000000,"state":"active","ping":79},{"user_id":260,"name":"ayr","steam_id":76561198083640961,"connected_time":972000000000,"state":"active","ping":68},{"user_id":142,"name":"TheLinuxNerd","steam_id":76561198072697168,"connected_time":8793000000000,"state":"active","ping":115},{"user_id":256,"name":"piri #transrights","steam_id":76561198441955837,"connected_time":1658000000000,"state":"active","ping":150},{"user_id":266,"name":"MenacingMekhet","steam_id":76561198053165462,"connected_time":117000000000,"state":"active","ping":49},{"user_id":237,"name":"UsingXbox360Controller","steam_id":76561198258253304,"connected_time":3284000000000,"state":"active","ping":81},{"user_id":264,"name":"Bread Baker","steam_id":76561198185335103,"connected_time":369000000000,"state":"active","ping":56},{"user_id":230,"name":"Aimwork","steam_id":76561198158362528,"connected_time":3875000000000,"state":"active","ping":58},{"user_id":232,"name":"Banana Patrick","steam_id":76561198258067237,"connected_time":3650000000000,"state":"active","ping":64},{"user_id":217,"name":"peachy","steam_id":76561198026664629,"connected_time":4893000000000,"state":"active","ping":59},{"user_id":265,"name":"Comfy Monkey","steam_id":76561197998434936,"connected_time":271000000000,"state":"active","ping":59},{"user_id":263,"name":"mel","steam_id":76561198097124190,"connected_time":907000000000,"state":"active","ping":76},{"user_id":262,"name":"{[F.H]} Hydroida","steam_id":76561197999797274,"connected_time":932000000000,"state":"active","ping":57}]},{"server_id":403,"name":"Uncletopia | Chicago | 4 | All Maps","name_short":"chi-4","host":"chi-1.us.uncletopia.com","port":27045,"enabled":true,"region":"us-central","cc":"us","latitude":41.881832,"longitude":-87.62318,"reserved":0,"last_update":"0001-01-01T00:00:00Z","name_a2s":"Uncletopia | Chicago | 4 | All Maps","protocol":17,"map":"koth_viaduct","folder":"tf","game":"Team Fortress","app_id":440,"player_count":24,"max_players":24,"Bots":0,"server_type":"Dedicated","server_os":"Linux","password":true,"vac":true,"version":"7723704","steam_id":85568392924515193,"keywords":["cp","nocrits","nodmgspread","uncletopia"],"game_id":440,"stv_port":27046,"stv_name":"Uncletopia | Chicago | 4 | All Maps | STV","players":[{"user_id":180,"name":"casual gamer","steam_id":76561198039727616,"connected_time":3097000000000,"state":"active","ping":80},{"user_id":181,"name":"Croissant Guy","steam_id":76561198077719901,"connected_time":3056000000000,"state":"active","ping":78},{"user_id":201,"name":"real human bean","steam_id":76561198059535856,"connected_time":887000000000,"state":"active","ping":77},{"user_id":176,"name":"Neil Degrassy","steam_id":76561198132980934,"connected_time":3110000000000,"state":"active","ping":52},{"user_id":228,"name":"Oniari","steam_id":76561198013847094,"connected_time":81000000000,"state":"active","ping":73},{"user_id":202,"name":"TheBuljum","steam_id":76561198114706369,"connected_time":876000000000,"state":"active","ping":110},{"user_id":209,"name":"Bone Francois","steam_id":76561198272128260,"connected_time":785000000000,"state":"active","ping":90},{"user_id":203,"name":"SonOfGum","steam_id":76561198851839011,"connected_time":858000000000,"state":"active","ping":56},{"user_id":204,"name":"Inevitable","steam_id":76561198210050169,"connected_time":855000000000,"state":"active","ping":68},{"user_id":212,"name":"Professor Piper","steam_id":76561198156041205,"connected_time":763000000000,"state":"active","ping":45},{"user_id":206,"name":"ToxicSushi_","steam_id":76561198217103843,"connected_time":827000000000,"state":"active","ping":66},{"user_id":221,"name":"the grunch","steam_id":76561199013160273,"connected_time":377000000000,"state":"active","ping":67},{"user_id":218,"name":"Wug","steam_id":76561198084112264,"connected_time":633000000000,"state":"active","ping":75},{"user_id":211,"name":"Michael Scarn","steam_id":76561198035740143,"connected_time":771000000000,"state":"active","ping":75},{"user_id":222,"name":"Moodflame","steam_id":76561199079466529,"connected_time":367000000000,"state":"active","ping":70},{"user_id":227,"name":"Shame","steam_id":76561198100490994,"connected_time":165000000000,"state":"active","ping":74},{"user_id":220,"name":"squid game","steam_id":76561199248960166,"connected_time":437000000000,"state":"active","ping":86},{"user_id":214,"name":"Vobo","steam_id":76561199159418598,"connected_time":744000000000,"state":"active","ping":140},{"user_id":215,"name":"c.a.m.e.l","steam_id":76561199033087225,"connected_time":738000000000,"state":"active","ping":74},{"user_id":216,"name":"Jw_321123","steam_id":76561198282965733,"connected_time":735000000000,"state":"active","ping":57},{"user_id":224,"name":"Bobby Ray","steam_id":76561198044131188,"connected_time":342000000000,"state":"active","ping":85},{"user_id":186,"name":"swooce","steam_id":76561198156232484,"connected_time":2954000000000,"state":"active","ping":67},{"user_id":195,"name":"LynxGamerLife","steam_id":76561199125742844,"connected_time":1556000000000,"state":"active","ping":98},{"user_id":159,"name":"griff928","steam_id":76561198149614679,"connected_time":4563000000000,"state":"active","ping":39}]},{"server_id":36,"name":"Uncletopia | Chicago | 5 | All Maps","name_short":"chi-5","host":"chi-2.us.uncletopia.com","port":27015,"enabled":true,"region":"us-central","cc":"us","latitude":41.881832,"longitude":-87.62318,"reserved":0,"last_update":"0001-01-01T00:00:00Z","name_a2s":"Uncletopia | Chicago | 5 | All Maps","protocol":17,"map":"koth_viaduct","folder":"tf","game":"Team Fortress","app_id":440,"player_count":6,"max_players":24,"Bots":0,"server_type":"Dedicated","server_os":"Linux","password":true,"vac":true,"version":"7723704","steam_id":85568392924866362,"keywords":["cp","nocrits","nodmgspread","uncletopia"],"game_id":440,"stv_port":27016,"stv_name":"Uncletopia | Chicago | 5 | All Maps | STV","players":[{"user_id":13,"name":"cuzlap","steam_id":76561199063630527,"connected_time":1617000000000,"state":"active","ping":95},{"user_id":14,"name":"HitBox","steam_id":76561199244578398,"connected_time":1542000000000,"state":"active","ping":79},{"user_id":15,"name":"foxarmyplayz","steam_id":76561199383735529,"connected_time":1037000000000,"state":"active","ping":87},{"user_id":16,"name":"This Is A Thing","steam_id":76561198122002920,"connected_time":588000000000,"state":"active","ping":62},{"user_id":17,"name":"Uber","steam_id":76561198865378609,"connected_time":59000000000,"state":"active","ping":87},{"user_id":18,"name":"uhooter","steam_id":76561198007829078,"connected_time":56000000000,"state":"active","ping":47}]},{"server_id":37,"name":"Uncletopia | Chicago | 6 | All Maps","name_short":"chi-6","host":"chi-2.us.uncletopia.com","port":27025,"enabled":true,"region":"us-central","cc":"us","latitude":41.881832,"longitude":-87.62318,"reserved":0,"last_update":"0001-01-01T00:00:00Z","name_a2s":"Uncletopia | Chicago | 6 | All Maps","protocol":17,"map":"pl_borneo","folder":"tf","game":"Team Fortress","app_id":440,"player_count":0,"max_players":24,"Bots":0,"server_type":"Dedicated","server_os":"Linux","password":true,"vac":true,"version":"7723704","steam_id":85568392924866363,"keywords":["nocrits","nodmgspread","payload","uncletopia"],"game_id":440,"stv_port":27026,"stv_name":"Uncletopia | Chicago | 6 | All Maps | STV","players":null},{"server_id":38,"name":"Uncletopia | Chicago | 7 | Stopwatch Beta","name_short":"chi-7","host":"chi-2.us.uncletopia.com","port":27035,"enabled":true,"region":"us-central","cc":"us","latitude":41.881832,"longitude":-87.62318,"reserved":0,"last_update":"0001-01-01T00:00:00Z","name_a2s":"Uncletopia | Chicago | 7 | Stopwatch Beta","protocol":17,"map":"pl_upward","folder":"tf","game":"Team Fortress","app_id":440,"player_count":3,"max_players":24,"Bots":0,"server_type":"Dedicated","server_os":"Linux","password":true,"vac":true,"version":"7723704","steam_id":85568392924866364,"keywords":["nocrits","nodmgspread","payload","uncletopia"],"game_id":440,"stv_port":27036,"stv_name":"Uncletopia | Chicago | 7 | Stopwatch Beta | STV","players":[{"user_id":23,"name":"FastKitty911","steam_id":76561199216239655,"connected_time":883000000000,"state":"active","ping":86},{"user_id":14,"name":"Error83","steam_id":76561199232809639,"connected_time":3231000000000,"state":"active","ping":84},{"user_id":22,"name":"bookreader","steam_id":76561198978568007,"connected_time":1361000000000,"state":"active","ping":52}]},{"server_id":39,"name":"Uncletopia | Chicago | 8 | Community","name_short":"chi-8","host":"chi-2.us.uncletopia.com","port":27045,"enabled":true,"region":"us-central","cc":"us","latitude":41.881832,"longitude":-87.62318,"reserved":0,"last_update":"0001-01-01T00:00:00Z","name_a2s":"Uncletopia | Chicago | 8 | Community","protocol":17,"map":"workshop/cp_caldera_rc2.ugc2834196889","folder":"tf","game":"Team Fortress","app_id":440,"player_count":2,"max_players":24,"Bots":0,"server_type":"Dedicated","server_os":"Linux","password":true,"vac":true,"version":"7723704","steam_id":85568392924866365,"keywords":["cp","nocrits","nodmgspread","uncletopia"],"game_id":440,"stv_port":27046,"stv_name":"Uncletopia | Chicago | 8 | Community | STV","players":[{"user_id":5,"name":"grammerca2","steam_id":76561198993241319,"connected_time":2140000000000,"state":"active","ping":87},{"user_id":8,"name":"LadyVodka","steam_id":76561198934740864,"connected_time":1623000000000,"state":"active","ping":64}]},{"server_id":8,"name":"Uncletopia | Dallas | 1 | All Maps","name_short":"dal-1","host":"dal-1.us.uncletopia.com","port":27015,"enabled":true,"region":"us-central","cc":"us","latitude":32.779167,"longitude":-96.80889,"reserved":0,"last_update":"0001-01-01T00:00:00Z","name_a2s":"Uncletopia | Dallas | 1 | All Maps","protocol":17,"map":"pl_badwater","folder":"tf","game":"Team Fortress","app_id":440,"player_count":24,"max_players":24,"Bots":0,"server_type":"Dedicated","server_os":"Linux","password":true,"vac":true,"version":"7723704","steam_id":85568392924469986,"keywords":["nocrits","nodmgspread","payload","uncletopia"],"game_id":440,"stv_port":27016,"stv_name":"Uncletopia | Dallas | 1 | All Maps | STV","players":[{"user_id":218,"name":"Arizona","steam_id":76561198113748347,"connected_time":14210000000000,"state":"active","ping":60},{"user_id":393,"name":"iluvtoust","steam_id":76561198869269207,"connected_time":675000000000,"state":"active","ping":45},{"user_id":382,"name":"SniperSteve10","steam_id":76561198025629647,"connected_time":1135000000000,"state":"active","ping":47},{"user_id":396,"name":"Patch Notes Man","steam_id":76561198068311690,"connected_time":260000000000,"state":"active","ping":39},{"user_id":397,"name":"ImmenseWraith","steam_id":76561198963757884,"connected_time":254000000000,"state":"active","ping":67},{"user_id":317,"name":"Power With Flower","steam_id":76561198798123834,"connected_time":5139000000000,"state":"active","ping":90},{"user_id":343,"name":"khamel3on","steam_id":76561198800324957,"connected_time":3707000000000,"state":"active","ping":55},{"user_id":392,"name":"Pitch Stick","steam_id":76561198800287853,"connected_time":757000000000,"state":"active","ping":124},{"user_id":375,"name":"SmellyKuk","steam_id":76561199104932706,"connected_time":1180000000000,"state":"active","ping":200},{"user_id":341,"name":"meh","steam_id":76561198136808129,"connected_time":3929000000000,"state":"active","ping":69},{"user_id":353,"name":"Drakon","steam_id":76561198078210822,"connected_time":2947000000000,"state":"active","ping":79},{"user_id":399,"name":"can't escape from crossing apes","steam_id":76561198327138508,"connected_time":156000000000,"state":"active","ping":75},{"user_id":383,"name":"Gaming123","steam_id":76561198801780168,"connected_time":1132000000000,"state":"active","ping":91},{"user_id":342,"name":"B R O U T","steam_id":76561199161322235,"connected_time":3836000000000,"state":"active","ping":60},{"user_id":370,"name":"breathing meat donut","steam_id":76561198123566649,"connected_time":1608000000000,"state":"active","ping":57},{"user_id":376,"name":"The Caretaker","steam_id":76561198125241411,"connected_time":1175000000000,"state":"active","ping":96},{"user_id":385,"name":"Soup Dumpling","steam_id":76561197971352904,"connected_time":1111000000000,"state":"active","ping":80},{"user_id":354,"name":"twackpad","steam_id":76561198386955785,"connected_time":2928000000000,"state":"active","ping":78},{"user_id":389,"name":"Level 4 Fat Scout (KaiserArc)","steam_id":76561198201702142,"connected_time":888000000000,"state":"active","ping":81},{"user_id":348,"name":"Rhutebeer","steam_id":76561198018302761,"connected_time":3081000000000,"state":"active","ping":81},{"user_id":384,"name":"CraftKitty","steam_id":76561198080775103,"connected_time":1123000000000,"state":"active","ping":77},{"user_id":394,"name":"Maranata","steam_id":76561198830158092,"connected_time":462000000000,"state":"active","ping":76},{"user_id":400,"name":"WastefulTrash","steam_id":76561198119003597,"connected_time":155000000000,"state":"active","ping":46},{"user_id":372,"name":"ThePirateKenway","steam_id":76561198115156181,"connected_time":1543000000000,"state":"active","ping":47}]},{"server_id":108,"name":"Uncletopia | Dallas | 2 | All Maps","name_short":"dal-2","host":"dal-1.us.uncletopia.com","port":27025,"enabled":true,"region":"us-central","cc":"us","latitude":32.779167,"longitude":-96.80889,"reserved":0,"last_update":"0001-01-01T00:00:00Z","name_a2s":"Uncletopia | Dallas | 2 | All Maps","protocol":17,"map":"pl_swiftwater_final1","folder":"tf","game":"Team Fortress","app_id":440,"player_count":24,"max_players":24,"Bots":0,"server_type":"Dedicated","server_os":"Linux","password":true,"vac":true,"version":"7723704","steam_id":85568392924469988,"keywords":["nocrits","nodmgspread","payload","uncletopia"],"game_id":440,"stv_port":27026,"stv_name":"Uncletopia | Dallas | 2 | All Maps | STV","players":[{"user_id":59,"name":"whimmu","steam_id":76561198370839794,"connected_time":1182000000000,"state":"active","ping":117},{"user_id":25,"name":"Brother Garland","steam_id":76561198108026255,"connected_time":2761000000000,"state":"active","ping":61},{"user_id":47,"name":"TheOtherBrush","steam_id":76561199048222977,"connected_time":2217000000000,"state":"active","ping":83},{"user_id":48,"name":"Wso1123","steam_id":76561198048040111,"connected_time":2202000000000,"state":"active","ping":64},{"user_id":49,"name":"mushroom taco","steam_id":76561198097554694,"connected_time":2189000000000,"state":"active","ping":47},{"user_id":66,"name":"JJmanepic Is Festive","steam_id":76561198387660652,"connected_time":52000000000,"state":"active","ping":93},{"user_id":63,"name":"SirTaxEvasion","steam_id":76561199117781098,"connected_time":746000000000,"state":"active","ping":96},{"user_id":28,"name":"tapdancingonkittens","steam_id":76561199003522380,"connected_time":2554000000000,"state":"active","ping":87},{"user_id":29,"name":"BuhByeFalecia","steam_id":76561198364710587,"connected_time":2529000000000,"state":"active","ping":62},{"user_id":30,"name":"white woman","steam_id":76561199116679777,"connected_time":2506000000000,"state":"active","ping":72},{"user_id":31,"name":"DragonHeart","steam_id":76561198013245625,"connected_time":2499000000000,"state":"active","ping":72},{"user_id":32,"name":"carbon-based lifeform","steam_id":76561199187226776,"connected_time":2466000000000,"state":"active","ping":56},{"user_id":51,"name":"demomans bottle of scrumpy","steam_id":76561199328018783,"connected_time":2150000000000,"state":"active","ping":54},{"user_id":34,"name":"doomsday gaming","steam_id":76561198348308711,"connected_time":2413000000000,"state":"active","ping":102},{"user_id":35,"name":"Spain Without The N","steam_id":76561198851536991,"connected_time":2410000000000,"state":"active","ping":78},{"user_id":52,"name":"üê∫-Iwky-ü¶ä","steam_id":76561198185616311,"connected_time":2138000000000,"state":"active","ping":67},{"user_id":61,"name":"(1)rat smacker","steam_id":76561198053164901,"connected_time":888000000000,"state":"active","ping":60},{"user_id":55,"name":"dan","steam_id":76561198061589465,"connected_time":1879000000000,"state":"active","ping":83},{"user_id":39,"name":"Heliodor","steam_id":76561198070465874,"connected_time":2374000000000,"state":"active","ping":88},{"user_id":56,"name":"I know what you know!, from Mew","steam_id":76561199182079648,"connected_time":1826000000000,"state":"active","ping":88},{"user_id":41,"name":"Stay SALTy bby","steam_id":76561198877590581,"connected_time":2358000000000,"state":"active","ping":77},{"user_id":42,"name":"Hernandez$","steam_id":76561198019324588,"connected_time":2342000000000,"state":"active","ping":64},{"user_id":62,"name":"moe","steam_id":76561198929586245,"connected_time":878000000000,"state":"active","ping":84},{"user_id":54,"name":"sagekiss","steam_id":76561198038831240,"connected_time":1980000000000,"state":"active","ping":109}]},{"server_id":5,"name":"Uncletopia | Frankfurt | 1 | All Maps","name_short":"frk-1","host":"frk-1.de.uncletopia.com","port":27015,"enabled":true,"region":"eu","cc":"de","latitude":50.110924,"longitude":8.682127,"reserved":0,"last_update":"0001-01-01T00:00:00Z","name_a2s":"Uncletopia | Frankfurt | 1 | All Maps","protocol":17,"map":"pl_badwater","folder":"tf","game":"Team Fortress","app_id":440,"player_count":24,"max_players":24,"Bots":0,"server_type":"Dedicated","server_os":"Linux","password":true,"vac":true,"version":"7723704","steam_id":85568392924469989,"keywords":["nocrits","nodmgspread","payload","uncletopia"],"game_id":440,"stv_port":27016,"stv_name":"Uncletopia | Frankfurt | 1 | All Maps | STV","players":[{"user_id":549,"name":"Ross from F.R.I.E.N.D.S.","steam_id":76561198008511665,"connected_time":6257000000000,"state":"active","ping":58},{"user_id":631,"name":"Sweetcheesus","steam_id":76561198022299033,"connected_time":1259000000000,"state":"active","ping":61},{"user_id":647,"name":"toothpaste vaper","steam_id":76561198078458780,"connected_time":574000000000,"state":"active","ping":53},{"user_id":624,"name":"ICA","steam_id":76561198214848887,"connected_time":1665000000000,"state":"active","ping":66},{"user_id":595,"name":"Windows Vista Cruiser","steam_id":76561198064102233,"connected_time":3376000000000,"state":"active","ping":66},{"user_id":642,"name":"dotdotdot","steam_id":76561198057628751,"connected_time":970000000000,"state":"active","ping":60},{"user_id":627,"name":"i n n o","steam_id":76561199230689289,"connected_time":1389000000000,"state":"active","ping":85},{"user_id":571,"name":"Lennox","steam_id":76561198069063554,"connected_time":5390000000000,"state":"active","ping":44},{"user_id":572,"name":"Burrito","steam_id":76561198023919089,"connected_time":5368000000000,"state":"active","ping":82},{"user_id":633,"name":"Dkz","steam_id":76561197970673402,"connected_time":1184000000000,"state":"active","ping":58},{"user_id":643,"name":"43291842381","steam_id":76561198038160325,"connected_time":969000000000,"state":"active","ping":73},{"user_id":635,"name":"chr","steam_id":76561198073016365,"connected_time":1124000000000,"state":"active","ping":86},{"user_id":641,"name":"Steen","steam_id":76561198122992510,"connected_time":1016000000000,"state":"active","ping":45},{"user_id":622,"name":"Kane Lives","steam_id":76561197998353859,"connected_time":1700000000000,"state":"active","ping":71},{"user_id":636,"name":"Proto-arc","steam_id":76561198012776747,"connected_time":1065000000000,"state":"active","ping":60},{"user_id":650,"name":"Cirox","steam_id":76561198383142404,"connected_time":66000000000,"state":"active","ping":96},{"user_id":646,"name":"puddy","steam_id":76561198042047036,"connected_time":690000000000,"state":"active","ping":61},{"user_id":601,"name":"continually torn apart","steam_id":76561198051852765,"connected_time":3024000000000,"state":"active","ping":64},{"user_id":637,"name":"the scunge","steam_id":76561198089201193,"connected_time":1052000000000,"state":"active","ping":55},{"user_id":638,"name":"nedilya","steam_id":76561198039692077,"connected_time":1042000000000,"state":"active","ping":58},{"user_id":649,"name":"Kanny","steam_id":76561198058810184,"connected_time":139000000000,"state":"active","ping":69},{"user_id":589,"name":"CAMON ENGELAND","steam_id":76561198054301125,"connected_time":3982000000000,"state":"active","ping":86},{"user_id":639,"name":"Fat Pigeon","steam_id":76561198817940142,"connected_time":1032000000000,"state":"active","ping":60},{"user_id":632,"name":"PASTAMANIA!","steam_id":76561197967858558,"connected_time":1202000000000,"state":"active","ping":62}]},{"server_id":110,"name":"Uncletopia | Frankfurt | 2 | All Maps","name_short":"frk-2","host":"frk-1.de.uncletopia.com","port":27025,"enabled":true,"region":"eu","cc":"de","latitude":50.110924,"longitude":8.682127,"reserved":0,"last_update":"0001-01-01T00:00:00Z","name_a2s":"Uncletopia | Frankfurt | 2 | All Maps","protocol":17,"map":"pl_frontier_final","folder":"tf","game":"Team Fortress","app_id":440,"player_count":24,"max_players":24,"Bots":0,"server_type":"Dedicated","server_os":"Linux","password":true,"vac":true,"version":"7723704","steam_id":85568392924469990,"keywords":["nocrits","nodmgspread","payload","uncletopia"],"game_id":440,"stv_port":27026,"stv_name":"Uncletopia | Frankfurt | 2 | All Maps | STV","players":[{"user_id":749,"name":"Barbiehunter #SaveTF2","steam_id":76561198071630928,"connected_time":2376000000000,"state":"active","ping":49},{"user_id":768,"name":".moral37-","steam_id":76561198102195119,"connected_time":1715000000000,"state":"active","ping":75},{"user_id":731,"name":"Samus","steam_id":76561198045943019,"connected_time":3250000000000,"state":"active","ping":45},{"user_id":781,"name":"Mr_Pulse_","steam_id":76561198095001602,"connected_time":984000000000,"state":"active","ping":88},{"user_id":793,"name":"Jasher","steam_id":76561198123996021,"connected_time":172000000000,"state":"active","ping":167},{"user_id":769,"name":"_Starlight_","steam_id":76561197993885738,"connected_time":1491000000000,"state":"active","ping":81},{"user_id":733,"name":"TurboTabs","steam_id":76561198009785131,"connected_time":3238000000000,"state":"active","ping":61},{"user_id":780,"name":"Qwerty","steam_id":76561198023525894,"connected_time":1028000000000,"state":"active","ping":89},{"user_id":787,"name":"Badrock 1","steam_id":76561198368513115,"connected_time":788000000000,"state":"active","ping":104},{"user_id":773,"name":"mumbler","steam_id":76561197970641239,"connected_time":1278000000000,"state":"active","ping":54},{"user_id":790,"name":"markus","steam_id":76561198186791643,"connected_time":561000000000,"state":"active","ping":76},{"user_id":762,"name":"Sabour","steam_id":76561197963965445,"connected_time":1883000000000,"state":"active","ping":63},{"user_id":720,"name":"Hexabit","steam_id":76561198028625661,"connected_time":3900000000000,"state":"active","ping":64},{"user_id":776,"name":"Dwergman","steam_id":76561199429553752,"connected_time":1232000000000,"state":"active","ping":54},{"user_id":775,"name":"guard duty","steam_id":76561198060456729,"connected_time":1254000000000,"state":"active","ping":151},{"user_id":721,"name":"Subnet001","steam_id":76561198029163028,"connected_time":3861000000000,"state":"active","ping":70},{"user_id":792,"name":"Vince","steam_id":76561199103000131,"connected_time":359000000000,"state":"active","ping":60},{"user_id":791,"name":"DARKSIDE8115","steam_id":76561198257685443,"connected_time":530000000000,"state":"active","ping":52},{"user_id":778,"name":"yasin","steam_id":76561198055452270,"connected_time":1200000000000,"state":"active","ping":65},{"user_id":741,"name":"no_name.dll","steam_id":76561199011969062,"connected_time":2997000000000,"state":"active","ping":62},{"user_id":794,"name":"Karewa.","steam_id":76561198201109002,"connected_time":140000000000,"state":"active","ping":84},{"user_id":784,"name":"Frozteen","steam_id":76561198280062997,"connected_time":924000000000,"state":"active","ping":115},{"user_id":796,"name":"Doggo","steam_id":76561198091909701,"connected_time":67000000000,"state":"active","ping":108},{"user_id":786,"name":"Sheer Heart Attack","steam_id":76561198333119104,"connected_time":865000000000,"state":"active","ping":69}]},{"server_id":308,"name":"Uncletopia | Frankfurt | 3 | All Maps","name_short":"frk-3","host":"frk-1.de.uncletopia.com","port":27035,"enabled":true,"region":"eu","cc":"de","latitude":50.110924,"longitude":8.682127,"reserved":0,"last_update":"0001-01-01T00:00:00Z","name_a2s":"Uncletopia | Frankfurt | 3 | All Maps","protocol":17,"map":"cp_altitude","folder":"tf","game":"Team Fortress","app_id":440,"player_count":3,"max_players":24,"Bots":0,"server_type":"Dedicated","server_os":"Linux","password":true,"vac":true,"version":"7723704","steam_id":85568392924504274,"keywords":["cp","nocrits","nodmgspread","uncletopia"],"game_id":440,"stv_port":27036,"stv_name":"Uncletopia | Frankfurt | 3 | All Maps | STV","players":[{"user_id":708,"name":"Majus","steam_id":76561198303243032,"connected_time":295000000000,"state":"active","ping":90},{"user_id":683,"name":"V1 is in my ass","steam_id":76561198107362485,"connected_time":2828000000000,"state":"active","ping":80},{"user_id":684,"name":"Rabizen","steam_id":76561198133242816,"connected_time":2814000000000,"state":"active","ping":76}]},{"server_id":309,"name":"Uncletopia | Frankfurt | 4 | All Maps","name_short":"frk-4","host":"frk-1.de.uncletopia.com","port":27045,"enabled":true,"region":"eu","cc":"de","latitude":50.110924,"longitude":8.682127,"reserved":0,"last_update":"0001-01-01T00:00:00Z","name_a2s":"Uncletopia | Frankfurt | 4 | All Maps","protocol":17,"map":"koth_viaduct","folder":"tf","game":"Team Fortress","app_id":440,"player_count":24,"max_players":24,"Bots":0,"server_type":"Dedicated","server_os":"Linux","password":true,"vac":true,"version":"7723704","steam_id":85568392924504275,"keywords":["cp","nocrits","nodmgspread","uncletopia"],"game_id":440,"stv_port":27046,"stv_name":"Uncletopia | Frankfurt | 4 | All Maps | STV","players":[{"user_id":492,"name":"sneaky snake","steam_id":76561198279965791,"connected_time":880000000000,"state":"active","ping":98},{"user_id":487,"name":"Alibi","steam_id":76561198061845595,"connected_time":1403000000000,"state":"active","ping":61},{"user_id":505,"name":"Snayaya","steam_id":76561199234534158,"connected_time":153000000000,"state":"active","ping":52},{"user_id":409,"name":"ribs","steam_id":76561198354735240,"connected_time":7070000000000,"state":"active","ping":77},{"user_id":490,"name":"Johnny","steam_id":76561198880265246,"connected_time":1177000000000,"state":"active","ping":74},{"user_id":480,"name":"Darky","steam_id":76561198004733239,"connected_time":1796000000000,"state":"active","ping":48},{"user_id":494,"name":"kalaa ‚Ä†","steam_id":76561198134652336,"connected_time":714000000000,"state":"active","ping":55},{"user_id":508,"name":"Avsky","steam_id":76561198048870734,"connected_time":28000000000,"state":"active","ping":62},{"user_id":483,"name":"Lukero","steam_id":76561198301594341,"connected_time":1653000000000,"state":"active","ping":52},{"user_id":495,"name":"Kaptin Badrukk","steam_id":76561198048011649,"connected_time":559000000000,"state":"active","ping":45},{"user_id":496,"name":"ok","steam_id":76561198084705501,"connected_time":547000000000,"state":"active","ping":68},{"user_id":497,"name":"Scout Gaming","steam_id":76561198218253092,"connected_time":514000000000,"state":"active","ping":78},{"user_id":468,"name":"Senfbaron","steam_id":76561198070370608,"connected_time":2405000000000,"state":"active","ping":56},{"user_id":471,"name":"Killstreak","steam_id":76561198219452913,"connected_time":2390000000000,"state":"active","ping":75},{"user_id":473,"name":"chuckskull","steam_id":76561198300216921,"connected_time":2353000000000,"state":"active","ping":95},{"user_id":472,"name":"Ford Galaxy 1.9 TD 2005","steam_id":76561198929491723,"connected_time":2388000000000,"state":"active","ping":85},{"user_id":486,"name":"I Don't Know","steam_id":76561198841011430,"connected_time":1446000000000,"state":"active","ping":63},{"user_id":498,"name":"WUNNA","steam_id":76561198999848273,"connected_time":499000000000,"state":"active","ping":107},{"user_id":507,"name":"Maerk","steam_id":76561199119121016,"connected_time":94000000000,"state":"active","ping":82},{"user_id":500,"name":"Mr. Hunts","steam_id":76561197981910397,"connected_time":443000000000,"state":"active","ping":65},{"user_id":502,"name":"Not Xeohn","steam_id":76561198872551344,"connected_time":343000000000,"state":"active","ping":64},{"user_id":503,"name":"TrocheDrewno","steam_id":76561198043662503,"connected_time":308000000000,"state":"active","ping":68},{"user_id":506,"name":"semiramisCultist","steam_id":76561198401135566,"connected_time":140000000000,"state":"active","ping":97},{"user_id":509,"name":"dochris.2","steam_id":76561198026478625,"connected_time":6000000000,"state":"spawning","ping":59}]},{"server_id":310,"name":"Uncletopia | Frankfurt | 5 | All Maps","name_short":"frk-5","host":"frk-1.de.uncletopia.com","port":27055,"enabled":true,"region":"eu","cc":"de","latitude":50.110924,"longitude":8.682127,"reserved":0,"last_update":"0001-01-01T00:00:00Z","name_a2s":"Uncletopia | Frankfurt | 5 | All Maps","protocol":17,"map":"cp_snakewater_final1","folder":"tf","game":"Team Fortress","app_id":440,"player_count":0,"max_players":24,"Bots":0,"server_type":"Dedicated","server_os":"Linux","password":true,"vac":true,"version":"7723704","steam_id":85568392924504277,"keywords":["cp","nocrits","nodmgspread","uncletopia"],"game_id":440,"stv_port":27056,"stv_name":"Uncletopia | Frankfurt | 5 | All Maps | STV","players":null},{"server_id":311,"name":"Uncletopia | Frankfurt | 6 | All Maps","name_short":"frk-6","host":"frk-1.de.uncletopia.com","port":27065,"enabled":true,"region":"eu","cc":"de","latitude":50.110924,"longitude":8.682127,"reserved":0,"last_update":"0001-01-01T00:00:00Z","name_a2s":"Uncletopia | Frankfurt | 6 | All Maps","protocol":17,"map":"cp_mountainlab","folder":"tf","game":"Team Fortress","app_id":440,"player_count":0,"max_players":24,"Bots":0,"server_type":"Dedicated","server_os":"Linux","password":true,"vac":true,"version":"7723704","steam_id":85568392924504278,"keywords":["cp","nocrits","nodmgspread","uncletopia"],"game_id":440,"stv_port":27066,"stv_name":"Uncletopia | Frankfurt | 6 | All Maps | STV","players":null},{"server_id":23,"name":"Uncletopia | Frankfurt | 7 | Stopwatch Beta","name_short":"frk-7","host":"frk-1.de.uncletopia.com","port":27075,"enabled":true,"region":"eu","cc":"de","latitude":50.110924,"longitude":8.682127,"reserved":0,"last_update":"0001-01-01T00:00:00Z","name_a2s":"Uncletopia | Frankfurt | 7 | Stopwatch Beta","protocol":17,"map":"workshop/cp_reckoner_rc6.ugc674719999","folder":"tf","game":"Team Fortress","app_id":440,"player_count":0,"max_players":24,"Bots":0,"server_type":"Dedicated","server_os":"Linux","password":true,"vac":true,"version":"7723704","steam_id":85568392924742827,"keywords":["cp","nocrits","nodmgspread","uncletopia"],"game_id":440,"stv_port":27076,"stv_name":"Uncletopia | Frankfurt | 7 | Stopwatch Beta | STV","players":null},{"server_id":24,"name":"Uncletopia | Frankfurt | 8 | Community","name_short":"frk-8","host":"frk-1.de.uncletopia.com","port":27085,"enabled":true,"region":"eu","cc":"de","latitude":50.110924,"longitude":8.682127,"reserved":0,"last_update":"0001-01-01T00:00:00Z","name_a2s":"Uncletopia | Frankfurt | 8 | Community","protocol":17,"map":"workshop/rd_asteroid_redux_rc9.ugc2154902912","folder":"tf","game":"Team Fortress","app_id":440,"player_count":0,"max_players":24,"Bots":0,"server_type":"Dedicated","server_os":"Linux","password":true,"vac":true,"version":"7723704","steam_id":85568392924742828,"keywords":["beta","nocrits","nodmgspread","rd","uncletopia"],"game_id":440,"stv_port":27086,"stv_name":"Uncletopia | Frankfurt | 8 | Community | STV","players":null},{"server_id":202,"name":"Uncletopia | Hong Kong | 1 | All Maps","name_short":"hgk-1","host":"hgk-1.hk.uncletopia.com","port":27015,"enabled":true,"region":"asia","cc":"hk","latitude":22.302711,"longitude":114.177216,"reserved":0,"last_update":"0001-01-01T00:00:00Z","name_a2s":"Uncletopia | Hong Kong | 1 | All Maps","protocol":17,"map":"cp_dustbowl","folder":"tf","game":"Team Fortress","app_id":440,"player_count":0,"max_players":24,"Bots":0,"server_type":"Dedicated","server_os":"Linux","password":true,"vac":true,"version":"7723704","steam_id":85568392924494504,"keywords":["cp","nocrits","nodmgspread","uncletopia"],"game_id":440,"stv_port":27016,"stv_name":"Uncletopia | Hong Kong | 1 | All Maps | STV","players":null},{"server_id":1,"name":"Uncletopia | Los Angeles | 1 | All Maps","name_short":"lax-1","host":"lax-1.us.uncletopia.com","port":27015,"enabled":true,"region":"us-west","cc":"us","latitude":33.94279,"longitude":-118.41004,"reserved":0,"last_update":"0001-01-01T00:00:00Z","name_a2s":"Uncletopia | Los Angeles | 1 | All Maps","protocol":17,"map":"cp_dustbowl","folder":"tf","game":"Team Fortress","app_id":440,"player_count":23,"max_players":24,"Bots":0,"server_type":"Dedicated","server_os":"Linux","password":true,"vac":true,"version":"7723704","steam_id":85568392924469991,"keywords":["cp","nocrits","nodmgspread","uncletopia"],"game_id":440,"stv_port":27016,"stv_name":"Uncletopia | Los Angeles | 1 | All Maps | STV","players":[{"user_id":5,"name":"Nibotshooter","steam_id":76561199284825579,"connected_time":4732000000000,"state":"active","ping":72},{"user_id":6,"name":"ChubbinsMothYT","steam_id":76561198999215730,"connected_time":4645000000000,"state":"active","ping":110},{"user_id":31,"name":"Moxxie","steam_id":76561198392673666,"connected_time":1111000000000,"state":"active","ping":114},{"user_id":10,"name":"bryantmcdiarmid","steam_id":76561198100332598,"connected_time":3599000000000,"state":"active","ping":98},{"user_id":11,"name":"Noxus","steam_id":76561199009820852,"connected_time":3128000000000,"state":"active","ping":63},{"user_id":43,"name":"breezy","steam_id":76561198055010486,"connected_time":95000000000,"state":"active","ping":45},{"user_id":14,"name":"A Puppy","steam_id":76561198828184456,"connected_time":2655000000000,"state":"active","ping":99},{"user_id":20,"name":"Rabbi Gubsy","steam_id":76561197995205397,"connected_time":1514000000000,"state":"active","ping":112},{"user_id":44,"name":"Firecrazznss","steam_id":76561198353908884,"connected_time":41000000000,"state":"active","ping":152},{"user_id":22,"name":"AWNukaCola","steam_id":76561198127676665,"connected_time":1505000000000,"state":"active","ping":60},{"user_id":23,"name":"b1uepie","steam_id":76561198055765666,"connected_time":1490000000000,"state":"active","ping":108},{"user_id":25,"name":"Feel The Yiff","steam_id":76561197995890118,"connected_time":1347000000000,"state":"active","ping":71},{"user_id":26,"name":"‚ùÖQueen Catgirl Viper‚ùÖ","steam_id":76561199106077003,"connected_time":1294000000000,"state":"active","ping":88},{"user_id":27,"name":"stefaniso","steam_id":76561198254876588,"connected_time":1289000000000,"state":"active","ping":86},{"user_id":28,"name":"Best Bleach","steam_id":76561198090216348,"connected_time":1285000000000,"state":"active","ping":101},{"user_id":29,"name":"xlesz","steam_id":76561199020119161,"connected_time":1284000000000,"state":"active","ping":45},{"user_id":32,"name":"lol","steam_id":76561198026491738,"connected_time":1111000000000,"state":"active","ping":73},{"user_id":34,"name":"Shalom","steam_id":76561198410005222,"connected_time":1045000000000,"state":"active","ping":82},{"user_id":35,"name":"gazpacho","steam_id":76561198132903078,"connected_time":1036000000000,"state":"active","ping":57},{"user_id":40,"name":"Jax O'Gaytor","steam_id":76561198288922168,"connected_time":814000000000,"state":"active","ping":64},{"user_id":37,"name":"Destoroyah","steam_id":76561199221698486,"connected_time":1028000000000,"state":"active","ping":182},{"user_id":41,"name":"plutonium isotope","steam_id":76561198319442494,"connected_time":415000000000,"state":"active","ping":58},{"user_id":39,"name":"Meepster","steam_id":76561198146305159,"connected_time":962000000000,"state":"active","ping":59}]},{"server_id":112,"name":"Uncletopia | Los Angeles | 2 | All Maps","name_short":"lax-2","host":"lax-1.us.uncletopia.com","port":27025,"enabled":true,"region":"us-west","cc":"us","latitude":33.94279,"longitude":-118.41004,"reserved":0,"last_update":"0001-01-01T00:00:00Z","name_a2s":"Uncletopia | Los Angeles | 2 | All Maps","protocol":17,"map":"koth_suijin","folder":"tf","game":"Team Fortress","app_id":440,"player_count":0,"max_players":24,"Bots":0,"server_type":"Dedicated","server_os":"Linux","password":true,"vac":true,"version":"7723704","steam_id":85568392924469992,"keywords":["cp","nocrits","nodmgspread","uncletopia"],"game_id":440,"stv_port":27026,"stv_name":"Uncletopia | Los Angeles | 2 | All Maps | STV","players":null},{"server_id":324,"name":"Uncletopia | Los Angeles | 3 | All Maps","name_short":"lax-3","host":"lax-1.us.uncletopia.com","port":27035,"enabled":true,"region":"us-west","cc":"us","latitude":33.94279,"longitude":-118.41004,"reserved":0,"last_update":"0001-01-01T00:00:00Z","name_a2s":"Uncletopia | Los Angeles | 3 | All Maps","protocol":17,"map":"koth_viaduct","folder":"tf","game":"Team Fortress","app_id":440,"player_count":0,"max_players":24,"Bots":0,"server_type":"Dedicated","server_os":"Linux","password":true,"vac":true,"version":"7723704","steam_id":85568392924510198,"keywords":["cp","nocrits","nodmgspread","uncletopia"],"game_id":440,"stv_port":27036,"stv_name":"Uncletopia | Los Angeles | 3 | All Maps | STV","players":null},{"server_id":25,"name":"Uncletopia | Los Angeles | 4 | Stopwatch Beta","name_short":"lax-4","host":"lax-1.us.uncletopia.com","port":27045,"enabled":true,"region":"us-west","cc":"us","latitude":33.94279,"longitude":-118.41004,"reserved":0,"last_update":"0001-01-01T00:00:00Z","name_a2s":"Uncletopia | Los Angeles | 4 | Stopwatch Beta","protocol":17,"map":"cp_sunshine","folder":"tf","game":"Team Fortress","app_id":440,"player_count":0,"max_players":24,"Bots":0,"server_type":"Dedicated","server_os":"Linux","password":true,"vac":true,"version":"7723704","steam_id":85568392924510199,"keywords":["cp","nocrits","nodmgspread","uncletopia"],"game_id":440,"stv_port":27046,"stv_name":"Uncletopia | Los Angeles | 4 | Stopwatch Beta | STV","players":null},{"server_id":11,"name":"Uncletopia | London | 1 | All Maps","name_short":"lon-1","host":"lon-1.uk.uncletopia.com","port":27015,"enabled":true,"region":"eu","cc":"gb","latitude":51.509865,"longitude":-0.118092,"reserved":0,"last_update":"0001-01-01T00:00:00Z","name_a2s":"Uncletopia | London | 1 | All Maps","protocol":17,"map":"pl_snowycoast","folder":"tf","game":"Team Fortress","app_id":440,"player_count":24,"max_players":24,"Bots":0,"server_type":"Dedicated","server_os":"Linux","password":true,"vac":true,"version":"7723704","steam_id":85568392924367362,"keywords":["nocrits","nodmgspread","payload","uncletopia"],"game_id":440,"stv_port":27016,"stv_name":"Uncletopia | London | 1 | All Maps | STV","players":[{"user_id":595,"name":"Jaku-Zama","steam_id":76561198096557915,"connected_time":3730000000000,"state":"active","ping":63},{"user_id":637,"name":"MAKENTAKEN","steam_id":76561199127359587,"connected_time":331000000000,"state":"active","ping":96},{"user_id":632,"name":"magnofajo","steam_id":76561199066981192,"connected_time":991000000000,"state":"active","ping":77},{"user_id":613,"name":"zero","steam_id":76561198055365234,"connected_time":2092000000000,"state":"active","ping":80},{"user_id":503,"name":"Surfergeo","steam_id":76561198135538230,"connected_time":10105000000000,"state":"active","ping":42},{"user_id":616,"name":"D *","steam_id":76561198086304421,"connected_time":2045000000000,"state":"active","ping":86},{"user_id":631,"name":"sigma female","steam_id":76561198298576765,"connected_time":1000000000000,"state":"active","ping":84},{"user_id":584,"name":"SOPHIIEE","steam_id":76561198443798981,"connected_time":4271000000000,"state":"active","ping":60},{"user_id":618,"name":"Vershal Smershal","steam_id":76561198116223995,"connected_time":1954000000000,"state":"active","ping":56},{"user_id":619,"name":"xavier :)","steam_id":76561198076494034,"connected_time":1954000000000,"state":"active","ping":49},{"user_id":620,"name":"Just Navlis","steam_id":76561198090479609,"connected_time":1947000000000,"state":"active","ping":54},{"user_id":636,"name":"gnarly business","steam_id":76561198832688767,"connected_time":767000000000,"state":"active","ping":51},{"user_id":638,"name":"Cam","steam_id":76561198321715958,"connected_time":72000000000,"state":"active","ping":54},{"user_id":626,"name":"RomAnjentululiantiarion","steam_id":76561198161417211,"connected_time":1362000000000,"state":"active","ping":78},{"user_id":639,"name":"giclure :;","steam_id":76561197986362828,"connected_time":20000000000,"state":"active","ping":107},{"user_id":621,"name":"azzy","steam_id":76561198061293740,"connected_time":1901000000000,"state":"active","ping":75},{"user_id":565,"name":"SomeBoringNerd","steam_id":76561198968193506,"connected_time":5780000000000,"state":"active","ping":45},{"user_id":625,"name":"elijah","steam_id":76561198093936708,"connected_time":1788000000000,"state":"active","ping":58},{"user_id":634,"name":"NonProphet","steam_id":76561198280149820,"connected_time":984000000000,"state":"active","ping":60},{"user_id":623,"name":"ethan","steam_id":76561198119495513,"connected_time":1892000000000,"state":"active","ping":44},{"user_id":577,"name":"Festive Yuletart","steam_id":76561198023918830,"connected_time":4800000000000,"state":"active","ping":43},{"user_id":624,"name":"Vitamin Weee","steam_id":76561199183937747,"connected_time":1882000000000,"state":"active","ping":86},{"user_id":630,"name":"The Real Lobster Socks","steam_id":76561198870015437,"connected_time":1097000000000,"state":"active","ping":54},{"user_id":552,"name":"‚ô•‡∂ûlily‡∂û‚ô•merry mongus!\ufffd\ufffd","steam_id":76561198049840460,"connected_time":6727000000000,"state":"active","ping":56}]},{"server_id":114,"name":"Uncletopia | London | 2 | All Maps","name_short":"lon-2","host":"lon-1.uk.uncletopia.com","port":27025,"enabled":true,"region":"eu","cc":"gb","latitude":51.509865,"longitude":-0.118092,"reserved":0,"last_update":"0001-01-01T00:00:00Z","name_a2s":"Uncletopia | London | 2 | All Maps","protocol":17,"map":"ctf_turbine","folder":"tf","game":"Team Fortress","app_id":440,"player_count":24,"max_players":24,"Bots":0,"server_type":"Dedicated","server_os":"Linux","password":true,"vac":true,"version":"7723704","steam_id":85568392924470941,"keywords":["ctf","nocrits","nodmgspread","uncletopia"],"game_id":440,"stv_port":27026,"stv_name":"Uncletopia | London | 2 | All Maps | STV","players":[{"user_id":324,"name":"NatBait","steam_id":76561199245006721,"connected_time":1466000000000,"state":"active","ping":59},{"user_id":271,"name":"pizza pasta (the boxer)","steam_id":76561198106455841,"connected_time":5330000000000,"state":"active","ping":67},{"user_id":320,"name":"Battle Medic Gaming","steam_id":76561198306105623,"connected_time":1697000000000,"state":"active","ping":106},{"user_id":316,"name":"ender45","steam_id":76561198840955715,"connected_time":2038000000000,"state":"active","ping":32},{"user_id":337,"name":"immafckugently","steam_id":76561198096379465,"connected_time":332000000000,"state":"active","ping":83},{"user_id":327,"name":"scrimblobimblo","steam_id":76561198339480413,"connected_time":1315000000000,"state":"active","ping":54},{"user_id":302,"name":"Quaker Yotes","steam_id":76561198083068263,"connected_time":2961000000000,"state":"active","ping":85},{"user_id":346,"name":"kilo","steam_id":76561198015641339,"connected_time":105000000000,"state":"active","ping":78},{"user_id":330,"name":"JohnTraveltime","steam_id":76561199244281754,"connected_time":980000000000,"state":"active","ping":73},{"user_id":319,"name":"Cat","steam_id":76561198027383284,"connected_time":1907000000000,"state":"active","ping":52},{"user_id":343,"name":"Master Chef","steam_id":76561198066714909,"connected_time":216000000000,"state":"active","ping":65},{"user_id":291,"name":"Ecton","steam_id":76561198025103720,"connected_time":3989000000000,"state":"active","ping":55},{"user_id":272,"name":"soap lore","steam_id":76561198058879767,"connected_time":5325000000000,"state":"active","ping":53},{"user_id":321,"name":"The rat is Nux","steam_id":76561197999250254,"connected_time":1687000000000,"state":"active","ping":49},{"user_id":300,"name":"PK Blizzard","steam_id":76561198039836567,"connected_time":3087000000000,"state":"active","ping":44},{"user_id":339,"name":"The Power","steam_id":76561198060566884,"connected_time":265000000000,"state":"active","ping":47},{"user_id":303,"name":"Venus‚ö¢","steam_id":76561198018602969,"connected_time":2957000000000,"state":"active","ping":64},{"user_id":279,"name":"zoinks!","steam_id":76561198068645362,"connected_time":5042000000000,"state":"active","ping":37},{"user_id":331,"name":"totoro","steam_id":76561198333873657,"connected_time":629000000000,"state":"active","ping":66},{"user_id":323,"name":"Solmeuni√®re","steam_id":76561198056900126,"connected_time":1485000000000,"state":"active","ping":55},{"user_id":345,"name":"simn","steam_id":76561198159182269,"connected_time":147000000000,"state":"active","ping":60},{"user_id":347,"name":"Dolphin2011","steam_id":76561197997323419,"connected_time":105000000000,"state":"active","ping":84},{"user_id":348,"name":"sandro the necromancer","steam_id":76561197988986250,"connected_time":73000000000,"state":"active","ping":75},{"user_id":276,"name":"Pronton","steam_id":76561198082502910,"connected_time":5239000000000,"state":"active","ping":62}]},{"server_id":320,"name":"Uncletopia | London | 3 | All Maps","name_short":"lon-3","host":"lon-1.uk.uncletopia.com","port":27035,"enabled":true,"region":"eu","cc":"gb","latitude":51.509865,"longitude":-0.118092,"reserved":0,"last_update":"0001-01-01T00:00:00Z","name_a2s":"Uncletopia | London | 3 | All Maps","protocol":17,"map":"koth_highpass","folder":"tf","game":"Team Fortress","app_id":440,"player_count":0,"max_players":24,"Bots":0,"server_type":"Dedicated","server_os":"Linux","password":true,"vac":true,"version":"7723704","steam_id":85568392924510192,"keywords":["cp","nocrits","nodmgspread","uncletopia"],"game_id":440,"stv_port":27036,"stv_name":"Uncletopia | London | 3 | All Maps | STV","players":null},{"server_id":321,"name":"Uncletopia | London | 4 | All Maps","name_short":"lon-4","host":"lon-1.uk.uncletopia.com","port":27045,"enabled":true,"region":"eu","cc":"gb","latitude":51.509865,"longitude":-0.118092,"reserved":0,"last_update":"0001-01-01T00:00:00Z","name_a2s":"Uncletopia | London | 4 | All Maps","protocol":17,"map":"pl_upward","folder":"tf","game":"Team Fortress","app_id":440,"player_count":24,"max_players":24,"Bots":0,"server_type":"Dedicated","server_os":"Linux","password":true,"vac":true,"version":"7723704","steam_id":85568392924510193,"keywords":["nocrits","nodmgspread","payload","uncletopia"],"game_id":440,"stv_port":27046,"stv_name":"Uncletopia | London | 4 | All Maps | STV","players":[{"user_id":134,"name":"Pasta sauce","steam_id":76561198232919072,"connected_time":1764000000000,"state":"active","ping":40},{"user_id":64,"name":"Dewotter","steam_id":76561198007653168,"connected_time":7001000000000,"state":"active","ping":55},{"user_id":128,"name":"–ë–µ—Ä–≥–º–∞–Ω","steam_id":76561198282010599,"connected_time":1916000000000,"state":"active","ping":74},{"user_id":131,"name":"Frogs eater","steam_id":76561199082469459,"connected_time":1802000000000,"state":"active","ping":55},{"user_id":163,"name":"lettuce at 58p","steam_id":76561199401283123,"connected_time":965000000000,"state":"active","ping":46},{"user_id":156,"name":"ODS","steam_id":76561198113011898,"connected_time":1066000000000,"state":"active","ping":52},{"user_id":167,"name":"BigMilk","steam_id":76561199267734236,"connected_time":302000000000,"state":"active","ping":31},{"user_id":166,"name":"gnome","steam_id":76561198262275475,"connected_time":341000000000,"state":"active","ping":154},{"user_id":158,"name":".Ô±ûÔ±ûÔ±ûÔ±ûÔ±ûÔ±ûÔ±ûÔ±ûÔ±ûÔ±û","steam_id":76561198256821358,"connected_time":1044000000000,"state":"active","ping":75},{"user_id":130,"name":"dems","steam_id":76561198122546674,"connected_time":1863000000000,"state":"active","ping":50},{"user_id":132,"name":"order66.exe","steam_id":76561198057558449,"connected_time":1786000000000,"state":"active","ping":50},{"user_id":151,"name":"Nambo Chimbanskey","steam_id":76561198134646593,"connected_time":1225000000000,"state":"active","ping":40},{"user_id":135,"name":"matt","steam_id":76561198042907150,"connected_time":1756000000000,"state":"active","ping":43},{"user_id":168,"name":"Mr.B","steam_id":76561199204478925,"connected_time":201000000000,"state":"active","ping":109},{"user_id":144,"name":"Rat head","steam_id":76561198184360615,"connected_time":1419000000000,"state":"active","ping":96},{"user_id":169,"name":"3 Italians in a trenchcoat.","steam_id":76561198094993151,"connected_time":141000000000,"state":"active","ping":44},{"user_id":157,"name":"Pruff","steam_id":76561198377084417,"connected_time":1066000000000,"state":"active","ping":67},{"user_id":84,"name":"Holo","steam_id":76561198066985194,"connected_time":5019000000000,"state":"active","ping":80},{"user_id":136,"name":"Dr Sex","steam_id":76561198029044617,"connected_time":1720000000000,"state":"active","ping":45},{"user_id":51,"name":"UltimateAura","steam_id":76561198338361324,"connected_time":8403000000000,"state":"active","ping":36},{"user_id":161,"name":"AshieTheVixen","steam_id":76561199061018034,"connected_time":1016000000000,"state":"active","ping":81},{"user_id":155,"name":"teddy","steam_id":76561198007436837,"connected_time":1097000000000,"state":"active","ping":31},{"user_id":162,"name":"female asmr youtuber","steam_id":76561198047274072,"connected_time":1004000000000,"state":"active","ping":74},{"user_id":118,"name":"name","steam_id":76561198152620745,"connected_time":2908000000000,"state":"active","ping":53}]},{"server_id":21,"name":"Uncletopia | London | 5 | All Maps","name_short":"lon-5","host":"lon-1.uk.uncletopia.com","port":27055,"enabled":true,"region":"eu","cc":"gb","latitude":51.509865,"longitude":-0.118092,"reserved":0,"last_update":"0001-01-01T00:00:00Z","name_a2s":"Uncletopia | London | 5 | All Maps","protocol":17,"map":"pl_barnblitz","folder":"tf","game":"Team Fortress","app_id":440,"player_count":24,"max_players":24,"Bots":0,"server_type":"Dedicated","server_os":"Linux","password":true,"vac":true,"version":"7723704","steam_id":85568392924742829,"keywords":["nocrits","nodmgspread","payload","uncletopia"],"game_id":440,"stv_port":27056,"stv_name":"Uncletopia | London | 5 | All Maps | STV","players":[{"user_id":386,"name":"Mr.Cupcake","steam_id":76561198152711174,"connected_time":896000000000,"state":"active","ping":67},{"user_id":385,"name":"the","steam_id":76561198968160899,"connected_time":1190000000000,"state":"active","ping":62},{"user_id":409,"name":"Umbro","steam_id":76561198087930438,"connected_time":62000000000,"state":"active","ping":75},{"user_id":388,"name":"Bruno Banani","steam_id":76561198241563516,"connected_time":857000000000,"state":"active","ping":112},{"user_id":378,"name":"alienndrago #saveTF2","steam_id":76561198815566591,"connected_time":1935000000000,"state":"active","ping":66},{"user_id":393,"name":"SirVitek","steam_id":76561198142961758,"connected_time":636000000000,"state":"active","ping":57},{"user_id":390,"name":"Luca","steam_id":76561198113188320,"connected_time":788000000000,"state":"active","ping":62},{"user_id":391,"name":".Aq","steam_id":76561198043376092,"connected_time":739000000000,"state":"active","ping":89},{"user_id":392,"name":"kami","steam_id":76561199045246715,"connected_time":727000000000,"state":"active","ping":44},{"user_id":394,"name":"tired.tarot","steam_id":76561198045458497,"connected_time":622000000000,"state":"active","ping":48},{"user_id":395,"name":":/","steam_id":76561199382587543,"connected_time":581000000000,"state":"active","ping":71},{"user_id":396,"name":"sleepy twinkgirl","steam_id":76561198846893677,"connected_time":566000000000,"state":"active","ping":62},{"user_id":397,"name":"FX","steam_id":76561198129718197,"connected_time":528000000000,"state":"active","ping":61},{"user_id":357,"name":"Mor'du","steam_id":76561198274105878,"connected_time":4122000000000,"state":"active","ping":92},{"user_id":398,"name":"Trytard","steam_id":76561198094507220,"connected_time":448000000000,"state":"active","ping":49},{"user_id":401,"name":"ronnie","steam_id":76561198377533237,"connected_time":291000000000,"state":"active","ping":71},{"user_id":400,"name":"allegro","steam_id":76561198971389390,"connected_time":380000000000,"state":"active","ping":61},{"user_id":404,"name":"Dog World","steam_id":76561199233979726,"connected_time":161000000000,"state":"active","ping":91},{"user_id":403,"name":"iEatShampoo :3","steam_id":76561198121260981,"connected_time":246000000000,"state":"active","ping":45},{"user_id":365,"name":"Getrkod","steam_id":76561198986560793,"connected_time":3393000000000,"state":"active","ping":46},{"user_id":405,"name":"douglas","steam_id":76561198139303045,"connected_time":161000000000,"state":"active","ping":90},{"user_id":340,"name":"Bait","steam_id":76561198335188568,"connected_time":5331000000000,"state":"active","ping":37},{"user_id":406,"name":"YourDoom","steam_id":76561198080790857,"connected_time":151000000000,"state":"active","ping":45},{"user_id":408,"name":"InsectKing","steam_id":76561199013519071,"connected_time":115000000000,"state":"active","ping":40}]},{"server_id":22,"name":"Uncletopia | London | 6 | All Maps","name_short":"lon-6","host":"lon-1.uk.uncletopia.com","port":27065,"enabled":true,"region":"eu","cc":"gb","latitude":51.509865,"longitude":-0.118092,"reserved":0,"last_update":"0001-01-01T00:00:00Z","name_a2s":"Uncletopia | London | 6 | All Maps","protocol":17,"map":"cp_process_final","folder":"tf","game":"Team Fortress","app_id":440,"player_count":0,"max_players":24,"Bots":0,"server_type":"Dedicated","server_os":"Linux","password":true,"vac":true,"version":"7723704","steam_id":85568392924742830,"keywords":["cp","nocrits","nodmgspread","uncletopia"],"game_id":440,"stv_port":27066,"stv_name":"Uncletopia | London | 6 | All Maps | STV","players":null},{"server_id":40,"name":"Uncletopia | London | 7 | No Payload","name_short":"lon-7","host":"lon-1.uk.uncletopia.com","port":27075,"enabled":true,"region":"eu","cc":"gb","latitude":51.509865,"longitude":-0.118092,"reserved":0,"last_update":"0001-01-01T00:00:00Z","name_a2s":"Uncletopia | London | 7 | No Payload","protocol":17,"map":"koth_sawmill","folder":"tf","game":"Team Fortress","app_id":440,"player_count":0,"max_players":24,"Bots":0,"server_type":"Dedicated","server_os":"Linux","password":true,"vac":true,"version":"7723704","steam_id":85568392924964314,"keywords":["cp","nocrits","nodmgspread","uncletopia"],"game_id":440,"stv_port":27076,"stv_name":"Uncletopia | London | 7 | No Payload | STV","players":null},{"server_id":41,"name":"Uncletopia | London | 8 | Community","name_short":"lon-8","host":"lon-1.uk.uncletopia.com","port":27085,"enabled":true,"region":"eu","cc":"gb","latitude":51.509865,"longitude":-0.118092,"reserved":0,"last_update":"0001-01-01T00:00:00Z","name_a2s":"Uncletopia | London | 8 | Community","protocol":17,"map":"koth_highpass","folder":"tf","game":"Team Fortress","app_id":440,"player_count":1,"max_players":24,"Bots":0,"server_type":"Dedicated","server_os":"Linux","password":true,"vac":true,"version":"7723704","steam_id":85568392924964315,"keywords":["cp","nocrits","nodmgspread","uncletopia"],"game_id":440,"stv_port":27086,"stv_name":"Uncletopia | London | 8 | Community | STV","players":[{"user_id":13,"name":"Denialman (Muted)","steam_id":76561198309182092,"connected_time":43000000000,"state":"active","ping":65}]},{"server_id":300,"name":"Uncletopia | Montr√©al | 1 | All Maps","name_short":"mtl-1","host":"mtl-1.ca.uncletopia.com","port":27015,"enabled":true,"region":"us-east","cc":"ca","latitude":45.50889,"longitude":-73.56167,"reserved":0,"last_update":"0001-01-01T00:00:00Z","name_a2s":"Uncletopia | Montr√©al | 1 | All Maps","protocol":17,"map":"koth_cascade","folder":"tf","game":"Team Fortress","app_id":440,"player_count":0,"max_players":24,"Bots":0,"server_type":"Dedicated","server_os":"Linux","password":true,"vac":true,"version":"7723704","steam_id":85568392924500087,"keywords":["cp","nocrits","nodmgspread","uncletopia"],"game_id":440,"stv_port":27016,"stv_name":"Uncletopia | Montr√©al | 1 | All Maps | STV","players":null},{"server_id":301,"name":"Uncletopia | Montr√©al | 2 | All Maps","name_short":"mtl-2","host":"mtl-1.ca.uncletopia.com","port":27025,"enabled":true,"region":"us-east","cc":"ca","latitude":45.50889,"longitude":-73.56167,"reserved":0,"last_update":"0001-01-01T00:00:00Z","name_a2s":"Uncletopia | Montr√©al | 2 | All Maps","protocol":17,"map":"cp_process_final","folder":"tf","game":"Team Fortress","app_id":440,"player_count":0,"max_players":24,"Bots":0,"server_type":"Dedicated","server_os":"Linux","password":true,"vac":true,"version":"7723704","steam_id":85568392924500088,"keywords":["cp","nocrits","nodmgspread","uncletopia"],"game_id":440,"stv_port":27026,"stv_name":"Uncletopia | Montr√©al | 2 | All Maps | STV","players":null},{"server_id":302,"name":"Uncletopia | Montr√©al | 3 | All Maps","name_short":"mtl-3","host":"mtl-1.ca.uncletopia.com","port":27035,"enabled":true,"region":"us-east","cc":"ca","latitude":45.50889,"longitude":-73.56167,"reserved":0,"last_update":"0001-01-01T00:00:00Z","name_a2s":"Uncletopia | Montr√©al | 3 | All Maps","protocol":17,"map":"cp_mountainlab","folder":"tf","game":"Team Fortress","app_id":440,"player_count":0,"max_players":24,"Bots":0,"server_type":"Dedicated","server_os":"Linux","password":true,"vac":true,"version":"7723704","steam_id":85568392924500089,"keywords":["cp","nocrits","nodmgspread","uncletopia"],"game_id":440,"stv_port":27036,"stv_name":"Uncletopia | Montr√©al | 3 | All Maps | STV","players":null},{"server_id":303,"name":"Uncletopia | Montr√©al | 4 | No Payload","name_short":"mtl-4","host":"mtl-1.ca.uncletopia.com","port":27045,"enabled":true,"region":"us-east","cc":"ca","latitude":45.50889,"longitude":-73.56167,"reserved":0,"last_update":"0001-01-01T00:00:00Z","name_a2s":"Uncletopia | Montr√©al | 4 | No Payload","protocol":17,"map":"koth_cascade","folder":"tf","game":"Team Fortress","app_id":440,"player_count":0,"max_players":24,"Bots":0,"server_type":"Dedicated","server_os":"Linux","password":true,"vac":true,"version":"7723704","steam_id":85568392924500090,"keywords":["cp","nocrits","nodmgspread","uncletopia"],"game_id":440,"stv_port":27046,"stv_name":"Uncletopia | Montr√©al | 4 | No Payload | STV","players":null},{"server_id":13,"name":"Uncletopia | New York City | 1 | All Maps","name_short":"nyc-1","host":"nyc-1.us.uncletopia.com","port":27015,"enabled":true,"region":"us-east","cc":"us","latitude":40.73061,"longitude":-73.93524,"reserved":0,"last_update":"0001-01-01T00:00:00Z","name_a2s":"Uncletopia | New York City | 1 | All Maps","protocol":17,"map":"ctf_turbine","folder":"tf","game":"Team Fortress","app_id":440,"player_count":24,"max_players":24,"Bots":0,"server_type":"Dedicated","server_os":"Linux","password":true,"vac":true,"version":"7723704","steam_id":85568392924469993,"keywords":["ctf","nocrits","nodmgspread","uncletopia"],"game_id":440,"stv_port":27016,"stv_name":"Uncletopia | New York City | 1 | All Maps | STV","players":[{"user_id":554,"name":"rainwarden","steam_id":76561198085183458,"connected_time":40000000000,"state":"active","ping":48},{"user_id":526,"name":"Nico","steam_id":76561198125701869,"connected_time":881000000000,"state":"active","ping":58},{"user_id":530,"name":"CRAZY engineer","steam_id":76561198887937902,"connected_time":665000000000,"state":"active","ping":43},{"user_id":555,"name":"Max_Attack","steam_id":76561198944028607,"connected_time":32000000000,"state":"active","ping":93},{"user_id":531,"name":"kb","steam_id":76561198115914109,"connected_time":653000000000,"state":"active","ping":64},{"user_id":512,"name":"hunterisntcool","steam_id":76561198093609661,"connected_time":1627000000000,"state":"active","ping":71},{"user_id":513,"name":"CrowbarCat","steam_id":76561198197755101,"connected_time":1577000000000,"state":"active","ping":94},{"user_id":527,"name":"PixelPal","steam_id":76561198418010300,"connected_time":816000000000,"state":"active","ping":48},{"user_id":534,"name":"hyperthermic","steam_id":76561198384238790,"connected_time":545000000000,"state":"active","ping":47},{"user_id":535,"name":"Sherwood","steam_id":76561199385147308,"connected_time":519000000000,"state":"active","ping":70},{"user_id":536,"name":"shoes","steam_id":76561198147936697,"connected_time":465000000000,"state":"active","ping":67},{"user_id":479,"name":"Shemply","steam_id":76561198193658910,"connected_time":3758000000000,"state":"active","ping":79},{"user_id":537,"name":"The Fighter","steam_id":76561198367143669,"connected_time":438000000000,"state":"active","ping":64},{"user_id":538,"name":"Licorn","steam_id":76561199025593164,"connected_time":426000000000,"state":"active","ping":83},{"user_id":539,"name":"Goku","steam_id":76561198064143198,"connected_time":353000000000,"state":"active","ping":64},{"user_id":540,"name":"sayad","steam_id":76561198080897870,"connected_time":334000000000,"state":"active","ping":45},{"user_id":548,"name":"PrinceGrotle","steam_id":76561198206131603,"connected_time":214000000000,"state":"active","ping":54},{"user_id":546,"name":"Blackwidow2u","steam_id":76561198072995386,"connected_time":248000000000,"state":"active","ping":61},{"user_id":543,"name":"BLU Heavy","steam_id":76561198206263457,"connected_time":319000000000,"state":"active","ping":115},{"user_id":461,"name":"Ronin Grinch","steam_id":76561198041439581,"connected_time":5127000000000,"state":"active","ping":55},{"user_id":544,"name":"You know what you did","steam_id":76561198079994020,"connected_time":279000000000,"state":"active","ping":64},{"user_id":545,"name":"PACKED_420","steam_id":76561199199932446,"connected_time":270000000000,"state":"active","ping":69},{"user_id":553,"name":"novu","steam_id":76561198886997024,"connected_time":67000000000,"state":"active","ping":69},{"user_id":552,"name":"Mr. Bucket","steam_id":76561198064244796,"connected_time":97000000000,"state":"active","ping":62}]},{"server_id":14,"name":"Uncletopia | New York City | 2 | All Maps","name_short":"nyc-2","host":"nyc-1.us.uncletopia.com","port":27025,"enabled":true,"region":"us-east","cc":"us","latitude":40.73061,"longitude":-73.93524,"reserved":0,"last_update":"0001-01-01T00:00:00Z","name_a2s":"Uncletopia | New York City | 2 | All Maps","protocol":17,"map":"pl_upward","folder":"tf","game":"Team Fortress","app_id":440,"player_count":0,"max_players":24,"Bots":0,"server_type":"Dedicated","server_os":"Linux","password":true,"vac":true,"version":"7723704","steam_id":85568392924469994,"keywords":["nocrits","nodmgspread","payload","uncletopia"],"game_id":440,"stv_port":27026,"stv_name":"Uncletopia | New York City | 2 | All Maps | STV","players":null},{"server_id":15,"name":"Uncletopia | New York City | 3 | Stopwatch Beta","name_short":"nyc-3","host":"nyc-1.us.uncletopia.com","port":27035,"enabled":true,"region":"us-east","cc":"us","latitude":40.73061,"longitude":-73.93524,"reserved":0,"last_update":"0001-01-01T00:00:00Z","name_a2s":"Uncletopia | New York City | 3 | Stopwatch Beta","protocol":17,"map":"workshop/koth_proot_b4b.ugc2903233622","folder":"tf","game":"Team Fortress","app_id":440,"player_count":24,"max_players":24,"Bots":0,"server_type":"Dedicated","server_os":"Linux","password":true,"vac":true,"version":"7723704","steam_id":85568392924742820,"keywords":["cp","nocrits","nodmgspread","uncletopia"],"game_id":440,"stv_port":27036,"stv_name":"Uncletopia | New York City | 3 | Stopwatch Beta | STV","players":[{"user_id":358,"name":"Wife Enjoyer","steam_id":76561198044109761,"connected_time":3034000000000,"state":"active","ping":76},{"user_id":334,"name":"Havok","steam_id":76561198063455003,"connected_time":4522000000000,"state":"active","ping":43},{"user_id":401,"name":"xXb3nz0_1uv3rXx","steam_id":76561198057536994,"connected_time":84000000000,"state":"active","ping":61},{"user_id":372,"name":"greekpestnyc","steam_id":76561199104762093,"connected_time":2198000000000,"state":"active","ping":84},{"user_id":357,"name":"gretchling","steam_id":76561198046111695,"connected_time":3045000000000,"state":"active","ping":75},{"user_id":362,"name":"Loafus","steam_id":76561198154561111,"connected_time":2826000000000,"state":"active","ping":61},{"user_id":346,"name":"Spiteful_Guru","steam_id":76561199227572419,"connected_time":4006000000000,"state":"active","ping":76},{"user_id":398,"name":"Lord Scrubling","steam_id":76561198263744445,"connected_time":272000000000,"state":"active","ping":76},{"user_id":402,"name":"ImperialRat22","steam_id":76561199122597223,"connected_time":66000000000,"state":"active","ping":73},{"user_id":399,"name":"sentientpieceoftoast(they/them)","steam_id":76561199032992123,"connected_time":254000000000,"state":"active","ping":69},{"user_id":387,"name":"tooth","steam_id":76561197986437643,"connected_time":1153000000000,"state":"active","ping":48},{"user_id":400,"name":"who ate the cheese","steam_id":76561198275408467,"connected_time":122000000000,"state":"active","ping":50},{"user_id":395,"name":"Yung Foodstamps","steam_id":76561198126927991,"connected_time":512000000000,"state":"active","ping":36},{"user_id":331,"name":"Chechens Spotted","steam_id":76561199028910893,"connected_time":4686000000000,"state":"active","ping":65},{"user_id":91,"name":"daemon","steam_id":76561198001541433,"connected_time":18186000000000,"state":"active","ping":72},{"user_id":403,"name":"GoldenHorde","steam_id":76561199039788119,"connected_time":48000000000,"state":"spawning","ping":204},{"user_id":404,"name":"Wahooka (Manrobics Instructor)","steam_id":76561197962240925,"connected_time":25000000000,"state":"active","ping":43},{"user_id":405,"name":"‡∏∏","steam_id":76561198084134025,"connected_time":25000000000,"state":"active","ping":90},{"user_id":406,"name":"CryoCrab12","steam_id":76561198398818373,"connected_time":20000000000,"state":"active","ping":76},{"user_id":225,"name":"Tannenbaum Trotsky","steam_id":76561199101638460,"connected_time":11766000000000,"state":"active","ping":90},{"user_id":393,"name":"*something in russian*","steam_id":76561198964471859,"connected_time":842000000000,"state":"active","ping":60},{"user_id":384,"name":"steelborg","steam_id":76561198427292802,"connected_time":1581000000000,"state":"active","ping":112},{"user_id":385,"name":"wutville = best map","steam_id":76561198977239264,"connected_time":1581000000000,"state":"active","ping":44},{"user_id":394,"name":"evnobev","steam_id":76561198038966462,"connected_time":788000000000,"state":"active","ping":38}]},{"server_id":16,"name":"Uncletopia | New York City | 4 | Community","name_short":"nyc-4","host":"nyc-1.us.uncletopia.com","port":27045,"enabled":true,"region":"us-east","cc":"us","latitude":40.73061,"longitude":-73.93524,"reserved":0,"last_update":"0001-01-01T00:00:00Z","name_a2s":"Uncletopia | New York City | 4 | Community","protocol":17,"map":"pl_frontier_final","folder":"tf","game":"Team Fortress","app_id":440,"player_count":0,"max_players":24,"Bots":0,"server_type":"Dedicated","server_os":"Linux","password":true,"vac":true,"version":"7723704","steam_id":85568392924742821,"keywords":["nocrits","nodmgspread","payload","uncletopia"],"game_id":440,"stv_port":27046,"stv_name":"Uncletopia | New York City | 4 | Community | STV","players":null},{"server_id":142,"name":"Uncletopia | S√£o Paulo | 1 | All Maps","name_short":"sao-1","host":"sao-1.br.uncletopia.com","port":27015,"enabled":true,"region":"sa","cc":"br","latitude":-23.533773,"longitude":-46.62529,"reserved":0,"last_update":"0001-01-01T00:00:00Z","name_a2s":"Uncletopia | S√£o Paulo | 1 | All Maps","protocol":17,"map":"pl_badwater","folder":"tf","game":"Team Fortress","app_id":440,"player_count":24,"max_players":24,"Bots":0,"server_type":"Dedicated","server_os":"Linux","password":true,"vac":true,"version":"7723704","steam_id":85568392924469996,"keywords":["nocrits","nodmgspread","payload","uncletopia"],"game_id":440,"stv_port":27016,"stv_name":"Uncletopia | S√£o Paulo | 1 | All Maps | STV","players":[{"user_id":241,"name":"luiz.lineu13","steam_id":76561199057600862,"connected_time":1636000000000,"state":"active","ping":95},{"user_id":252,"name":"Bill Cipher","steam_id":76561198040770370,"connected_time":866000000000,"state":"active","ping":44},{"user_id":257,"name":"Pathetic","steam_id":76561198051056987,"connected_time":642000000000,"state":"active","ping":62},{"user_id":239,"name":"ayumi","steam_id":76561197977365746,"connected_time":1730000000000,"state":"active","ping":48},{"user_id":240,"name":"Proto","steam_id":76561198131548429,"connected_time":1661000000000,"state":"active","ping":46},{"user_id":225,"name":"URUBU DO PIX ¬©","steam_id":76561198941711861,"connected_time":3173000000000,"state":"active","ping":78},{"user_id":181,"name":"CATS","steam_id":76561198103172108,"connected_time":7105000000000,"state":"active","ping":59},{"user_id":122,"name":"Zoom!","steam_id":76561198289562649,"connected_time":11941000000000,"state":"active","ping":45},{"user_id":126,"name":"NenF | Yatosemtato","steam_id":76561199066360306,"connected_time":11740000000000,"state":"active","ping":80},{"user_id":184,"name":"Lan","steam_id":76561198263163492,"connected_time":6683000000000,"state":"active","ping":67},{"user_id":242,"name":"polaco","steam_id":76561198002562184,"connected_time":1627000000000,"state":"active","ping":55},{"user_id":249,"name":"Thompy","steam_id":76561199409024712,"connected_time":1306000000000,"state":"active","ping":50},{"user_id":221,"name":"x¬≤","steam_id":76561198211440811,"connected_time":3363000000000,"state":"active","ping":50},{"user_id":234,"name":"Josu√©Maneiros","steam_id":76561198177695750,"connected_time":2008000000000,"state":"active","ping":87},{"user_id":251,"name":"Pendrive is Insane","steam_id":76561199427354854,"connected_time":1170000000000,"state":"active","ping":48},{"user_id":245,"name":"Helix","steam_id":76561198000196615,"connected_time":1592000000000,"state":"active","ping":55},{"user_id":233,"name":"ebd_Failnaught","steam_id":76561198108041555,"connected_time":2242000000000,"state":"active","ping":64},{"user_id":226,"name":"doN","steam_id":76561198127526414,"connected_time":3140000000000,"state":"active","ping":53},{"user_id":258,"name":"Pizza","steam_id":76561198969388265,"connected_time":553000000000,"state":"active","ping":51},{"user_id":246,"name":"ARK","steam_id":76561198253139686,"connected_time":1577000000000,"state":"active","ping":111},{"user_id":247,"name":"pepitopro2009","steam_id":76561198850005471,"connected_time":1537000000000,"state":"active","ping":89},{"user_id":232,"name":"‚ñ≥","steam_id":76561198191475573,"connected_time":2445000000000,"state":"active","ping":45},{"user_id":224,"name":"Becker23","steam_id":76561198048735075,"connected_time":3254000000000,"state":"active","ping":47},{"user_id":255,"name":"Sex (GOTY edition)","steam_id":76561198311610096,"connected_time":750000000000,"state":"active","ping":50}]},{"server_id":143,"name":"Uncletopia | S√£o Paulo | 2 | All Maps","name_short":"sao-2","host":"sao-2.br.uncletopia.com","port":27015,"enabled":true,"region":"sa","cc":"br","latitude":-23.533773,"longitude":-46.62529,"reserved":0,"last_update":"0001-01-01T00:00:00Z","name_a2s":"Uncletopia | S√£o Paulo | 2 | All Maps","protocol":17,"map":"koth_highpass","folder":"tf","game":"Team Fortress","app_id":440,"player_count":0,"max_players":24,"Bots":0,"server_type":"Dedicated","server_os":"Linux","password":true,"vac":true,"version":"7723704","steam_id":85568392924485349,"keywords":["cp","nocrits","nodmgspread","uncletopia"],"game_id":440,"stv_port":27016,"stv_name":"Uncletopia | S√£o Paulo | 2 | All Maps | STV","players":null},{"server_id":7,"name":"Uncletopia | Seattle | 1 | All Maps","name_short":"sea-1","host":"sea-1.us.uncletopia.com","port":27015,"enabled":true,"region":"us-west","cc":"us","latitude":47.608013,"longitude":-122.33517,"reserved":0,"last_update":"0001-01-01T00:00:00Z","name_a2s":"Uncletopia | Seattle | 1 | All Maps","protocol":17,"map":"pl_snowycoast","folder":"tf","game":"Team Fortress","app_id":440,"player_count":24,"max_players":24,"Bots":0,"server_type":"Dedicated","server_os":"Linux","password":true,"vac":true,"version":"7723704","steam_id":85568392924469997,"keywords":["nocrits","nodmgspread","payload","uncletopia"],"game_id":440,"stv_port":27016,"stv_name":"Uncletopia | Seattle | 1 | All Maps | STV","players":[{"user_id":144,"name":"Mudkip","steam_id":76561198164192160,"connected_time":1157000000000,"state":"active","ping":62},{"user_id":140,"name":"Big Smoke","steam_id":76561198278375987,"connected_time":1861000000000,"state":"active","ping":125},{"user_id":129,"name":"ASCII | Dr.keinmann","steam_id":76561198360305514,"connected_time":2315000000000,"state":"active","ping":46},{"user_id":118,"name":"Batso","steam_id":76561198106589452,"connected_time":3436000000000,"state":"active","ping":77},{"user_id":145,"name":"Plant","steam_id":76561198892328663,"connected_time":1135000000000,"state":"active","ping":84},{"user_id":154,"name":"masterchiefvinesaucedoomguy985","steam_id":76561198339008585,"connected_time":5000000000,"state":"spawning","ping":89},{"user_id":149,"name":"Pie","steam_id":76561198054721133,"connected_time":725000000000,"state":"active","ping":81},{"user_id":136,"name":"MyMonkeyBaby","steam_id":76561198046896670,"connected_time":2088000000000,"state":"active","ping":53},{"user_id":127,"name":"[TrC] Nosy","steam_id":76561197978859310,"connected_time":2387000000000,"state":"active","ping":53},{"user_id":33,"name":"GW4D","steam_id":76561198268791283,"connected_time":7594000000000,"state":"active","ping":87},{"user_id":58,"name":"kid squid","steam_id":76561198167016289,"connected_time":6572000000000,"state":"active","ping":121},{"user_id":152,"name":"Korey","steam_id":76561198210734407,"connected_time":68000000000,"state":"active","ping":120},{"user_id":153,"name":"nelly modelo","steam_id":76561198044875206,"connected_time":33000000000,"state":"active","ping":46},{"user_id":128,"name":"[TrC] Dackstrus","steam_id":76561197973518509,"connected_time":2318000000000,"state":"active","ping":59},{"user_id":92,"name":"trackpad gaming | f2p","steam_id":76561198840414371,"connected_time":5186000000000,"state":"active","ping":51},{"user_id":103,"name":"Rev","steam_id":76561199060355036,"connected_time":4759000000000,"state":"active","ping":40},{"user_id":121,"name":"Raian","steam_id":76561199138048671,"connected_time":3322000000000,"state":"active","ping":65},{"user_id":107,"name":"HybridSolly","steam_id":76561198125067997,"connected_time":4230000000000,"state":"active","ping":91},{"user_id":84,"name":"Dunkle","steam_id":76561198041903573,"connected_time":5873000000000,"state":"active","ping":45},{"user_id":130,"name":"SLaPPy- oNaSiS","steam_id":76561198009286862,"connected_time":2308000000000,"state":"active","ping":118},{"user_id":138,"name":"oil","steam_id":76561198099980149,"connected_time":1895000000000,"state":"active","ping":76},{"user_id":150,"name":"Captain Buggy","steam_id":76561198024444448,"connected_time":660000000000,"state":"active","ping":49},{"user_id":139,"name":"The Goober tm","steam_id":76561198341214161,"connected_time":1893000000000,"state":"active","ping":55},{"user_id":143,"name":"cheddabob","steam_id":76561198993259948,"connected_time":1320000000000,"state":"active","ping":46}]},{"server_id":119,"name":"Uncletopia | Seattle | 2 | All Maps","name_short":"sea-2","host":"sea-1.us.uncletopia.com","port":27025,"enabled":true,"region":"us-west","cc":"us","latitude":47.608013,"longitude":-122.33517,"reserved":0,"last_update":"0001-01-01T00:00:00Z","name_a2s":"Uncletopia | Seattle | 2 | All Maps","protocol":17,"map":"pl_badwater","folder":"tf","game":"Team Fortress","app_id":440,"player_count":24,"max_players":24,"Bots":0,"server_type":"Dedicated","server_os":"Linux","password":true,"vac":true,"version":"7723704","steam_id":85568392924469998,"keywords":["nocrits","nodmgspread","payload","uncletopia"],"game_id":440,"stv_port":27026,"stv_name":"Uncletopia | Seattle | 2 | All Maps | STV","players":[{"user_id":174,"name":"Danimpish","steam_id":76561198826854640,"connected_time":711000000000,"state":"active","ping":88},{"user_id":171,"name":"Tan_Man","steam_id":76561198043835951,"connected_time":775000000000,"state":"active","ping":94},{"user_id":175,"name":"wrost tf2 player ever","steam_id":76561199439477857,"connected_time":648000000000,"state":"active","ping":105},{"user_id":163,"name":"warpig","steam_id":76561199226313309,"connected_time":1799000000000,"state":"active","ping":116},{"user_id":139,"name":"im new to this thing","steam_id":76561198425027856,"connected_time":3256000000000,"state":"active","ping":60},{"user_id":176,"name":"SesataPomang","steam_id":76561198145133059,"connected_time":644000000000,"state":"active","ping":95},{"user_id":141,"name":"Skuth","steam_id":76561198041470939,"connected_time":3233000000000,"state":"active","ping":116},{"user_id":165,"name":"Antreuse","steam_id":76561198219721132,"connected_time":1562000000000,"state":"active","ping":74},{"user_id":177,"name":"JustaTroll","steam_id":76561198351004116,"connected_time":633000000000,"state":"active","ping":84},{"user_id":180,"name":"Stephen","steam_id":76561197989467462,"connected_time":546000000000,"state":"active","ping":108},{"user_id":181,"name":"The mook","steam_id":76561198963551905,"connected_time":528000000000,"state":"active","ping":118},{"user_id":191,"name":"MisterManne","steam_id":76561198106598600,"connected_time":63000000000,"state":"active","ping":54},{"user_id":187,"name":"Finkly","steam_id":76561198049828110,"connected_time":223000000000,"state":"active","ping":47},{"user_id":152,"name":"SomeRandomPerson (f2p)","steam_id":76561198977045933,"connected_time":2479000000000,"state":"active","ping":130},{"user_id":185,"name":"Grandpa Owl (Jkl7897)","steam_id":76561198061445083,"connected_time":228000000000,"state":"active","ping":46},{"user_id":117,"name":"mooney","steam_id":76561199110622484,"connected_time":5003000000000,"state":"active","ping":59},{"user_id":168,"name":"rider_of_brohan15","steam_id":76561198172978817,"connected_time":1219000000000,"state":"active","ping":51},{"user_id":190,"name":"e doctor","steam_id":76561198081851446,"connected_time":173000000000,"state":"active","ping":90},{"user_id":158,"name":"Achoo","steam_id":76561198009091066,"connected_time":2381000000000,"state":"active","ping":51},{"user_id":189,"name":"Hindmost","steam_id":76561199081837220,"connected_time":191000000000,"state":"active","ping":84},{"user_id":186,"name":"lili.winters","steam_id":76561199391478575,"connected_time":228000000000,"state":"active","ping":60},{"user_id":182,"name":"gordon freeman christmas","steam_id":76561198367735460,"connected_time":523000000000,"state":"active","ping":91},{"user_id":183,"name":"uskthedwarf","steam_id":76561199076096095,"connected_time":513000000000,"state":"active","ping":83},{"user_id":45,"name":"Snale","steam_id":76561198039517965,"connected_time":9818000000000,"state":"active","ping":60}]},{"server_id":406,"name":"Uncletopia | Seattle | 3 | Stopwatch Beta","name_short":"sea-3","host":"sea-1.us.uncletopia.com","port":27035,"enabled":true,"region":"us-west","cc":"us","latitude":47.608013,"longitude":-122.33517,"reserved":0,"last_update":"0001-01-01T00:00:00Z","name_a2s":"Uncletopia | Seattle | 3 | Stopwatch Beta","protocol":17,"map":"cp_altitude","folder":"tf","game":"Team Fortress","app_id":440,"player_count":0,"max_players":24,"Bots":0,"server_type":"Dedicated","server_os":"Linux","password":true,"vac":false,"version":"7723704","steam_id":0,"keywords":["cp","nocrits","nodmgspread","uncletopia"],"game_id":440,"stv_port":27036,"stv_name":"Uncletopia | Seattle | 3 | Stopwatch Beta | STV","players":null},{"server_id":17,"name":"Uncletopia | San Francisco | 1 | All Maps","name_short":"sfo-1","host":"sfo-1.us.uncletopia.com","port":27015,"enabled":true,"region":"us-west","cc":"us","latitude":37.77397,"longitude":-122.4313,"reserved":0,"last_update":"0001-01-01T00:00:00Z","name_a2s":"Uncletopia | San Francisco | 1 | All Maps","protocol":17,"map":"pl_upward","folder":"tf","game":"Team Fortress","app_id":440,"player_count":24,"max_players":24,"Bots":0,"server_type":"Dedicated","server_os":"Linux","password":true,"vac":true,"version":"7723704","steam_id":85568392924469999,"keywords":["nocrits","nodmgspread","payload","uncletopia"],"game_id":440,"stv_port":27016,"stv_name":"Uncletopia | San Francisco | 1 | All Maps | STV","players":[{"user_id":296,"name":"TheMidievalTimes","steam_id":76561198407147075,"connected_time":531000000000,"state":"active","ping":119},{"user_id":290,"name":"Frongus","steam_id":76561197979056451,"connected_time":1392000000000,"state":"active","ping":61},{"user_id":264,"name":"fantasticphoenix","steam_id":76561199018265854,"connected_time":2658000000000,"state":"active","ping":186},{"user_id":283,"name":"Jadus","steam_id":76561199091462938,"connected_time":1700000000000,"state":"active","ping":64},{"user_id":297,"name":"turn around","steam_id":76561198046526036,"connected_time":444000000000,"state":"active","ping":58},{"user_id":281,"name":"Ben Shapiro","steam_id":76561198861436861,"connected_time":1761000000000,"state":"active","ping":44},{"user_id":262,"name":"Optimore","steam_id":76561198047662990,"connected_time":2746000000000,"state":"active","ping":45},{"user_id":295,"name":"Eggnog","steam_id":76561197968179862,"connected_time":713000000000,"state":"active","ping":61},{"user_id":294,"name":"Tromboner","steam_id":76561198101850500,"connected_time":957000000000,"state":"active","ping":61},{"user_id":256,"name":"ScarHead1995","steam_id":76561198128189005,"connected_time":3588000000000,"state":"active","ping":120},{"user_id":222,"name":"bong hits for jesus","steam_id":76561198093276401,"connected_time":4939000000000,"state":"active","ping":63},{"user_id":223,"name":"Cute Gatito","steam_id":76561198351147780,"connected_time":4933000000000,"state":"active","ping":59},{"user_id":270,"name":"hyejooz „Äåweather report„Äç","steam_id":76561198050927199,"connected_time":2521000000000,"state":"active","ping":61},{"user_id":237,"name":"Pluto","steam_id":76561198012630802,"connected_time":4300000000000,"state":"active","ping":51},{"user_id":298,"name":"RighteousICE","steam_id":76561198266993942,"connected_time":411000000000,"state":"active","ping":47},{"user_id":208,"name":"CptFoley191","steam_id":76561197970891415,"connected_time":6857000000000,"state":"active","ping":62},{"user_id":299,"name":"mouthless goober","steam_id":76561198079566684,"connected_time":397000000000,"state":"active","ping":118},{"user_id":268,"name":"Kururma","steam_id":76561199073421378,"connected_time":2602000000000,"state":"active","ping":70},{"user_id":285,"name":"Roomsky","steam_id":76561198012827494,"connected_time":1616000000000,"state":"active","ping":65},{"user_id":269,"name":"Malorne","steam_id":76561198057856669,"connected_time":2593000000000,"state":"active","ping":58},{"user_id":227,"name":"BraydenCH04","steam_id":76561198067631657,"connected_time":4576000000000,"state":"active","ping":111},{"user_id":228,"name":"Spaceman_333","steam_id":76561198354270890,"connected_time":4570000000000,"state":"active","ping":68},{"user_id":287,"name":"Ugly Mick Mars","steam_id":76561198051504563,"connected_time":1585000000000,"state":"active","ping":68},{"user_id":291,"name":"existential dread","steam_id":76561198041907345,"connected_time":1392000000000,"state":"active","ping":63}]},{"server_id":18,"name":"Uncletopia | San Francisco | 2 | All Maps","name_short":"sfo-2","host":"sfo-1.us.uncletopia.com","port":27025,"enabled":true,"region":"us-west","cc":"us","latitude":37.77397,"longitude":-122.4313,"reserved":0,"last_update":"0001-01-01T00:00:00Z","name_a2s":"Uncletopia | San Francisco | 2 | All Maps","protocol":17,"map":"koth_cascade","folder":"tf","game":"Team Fortress","app_id":440,"player_count":2,"max_players":24,"Bots":0,"server_type":"Dedicated","server_os":"Linux","password":true,"vac":true,"version":"7723704","steam_id":85568392924470000,"keywords":["cp","nocrits","nodmgspread","uncletopia"],"game_id":440,"stv_port":27026,"stv_name":"Uncletopia | San Francisco | 2 | All Maps | STV","players":[{"user_id":8,"name":"IV","steam_id":76561198208996573,"connected_time":279000000000,"state":"active","ping":46},{"user_id":9,"name":"Imabox","steam_id":76561199206177858,"connected_time":20000000000,"state":"spawning","ping":68}]},{"server_id":19,"name":"Uncletopia | San Francisco | 3 | Stopwatch Beta","name_short":"sfo-3","host":"sfo-1.us.uncletopia.com","port":27035,"enabled":true,"region":"us-west","cc":"us","latitude":37.77397,"longitude":-122.4313,"reserved":0,"last_update":"0001-01-01T00:00:00Z","name_a2s":"Uncletopia | San Francisco | 3 | Stopwatch Beta","protocol":17,"map":"pl_pier","folder":"tf","game":"Team Fortress","app_id":440,"player_count":0,"max_players":24,"Bots":0,"server_type":"Dedicated","server_os":"Linux","password":true,"vac":true,"version":"7723704","steam_id":85568392924742824,"keywords":["nocrits","nodmgspread","payload","uncletopia"],"game_id":440,"stv_port":27036,"stv_name":"Uncletopia | San Francisco | 3 | Stopwatch Beta | STV","players":null},{"server_id":20,"name":"Uncletopia | San Francisco | 4 | Community","name_short":"sfo-4","host":"sfo-1.us.uncletopia.com","port":27045,"enabled":true,"region":"us-west","cc":"us","latitude":37.77397,"longitude":-122.4313,"reserved":0,"last_update":"0001-01-01T00:00:00Z","name_a2s":"Uncletopia | San Francisco | 4 | Community","protocol":17,"map":"koth_cascade","folder":"tf","game":"Team Fortress","app_id":440,"player_count":0,"max_players":24,"Bots":0,"server_type":"Dedicated","server_os":"Linux","password":true,"vac":true,"version":"7723704","steam_id":85568392924742826,"keywords":["cp","nocrits","nodmgspread","uncletopia"],"game_id":440,"stv_port":27046,"stv_name":"Uncletopia | San Francisco | 4 | Community | STV","players":null},{"server_id":141,"name":"Uncletopia | Sydney | 1 | All Maps","name_short":"syd-1","host":"syd-1.au.uncletopia.com","port":27015,"enabled":true,"region":"au","cc":"au","latitude":-33.865143,"longitude":151.2099,"reserved":0,"last_update":"0001-01-01T00:00:00Z","name_a2s":"Uncletopia | Sydney | 1 | All Maps","protocol":17,"map":"cp_dustbowl","folder":"tf","game":"Team Fortress","app_id":440,"player_count":0,"max_players":24,"Bots":0,"server_type":"Dedicated","server_os":"Linux","password":true,"vac":true,"version":"7723704","steam_id":85568392924470001,"keywords":["cp","nocrits","nodmgspread","uncletopia"],"game_id":440,"stv_port":27016,"stv_name":"Uncletopia | Sydney | 1 | All Maps | STV","players":null},{"server_id":123,"name":"Uncletopia | Sydney | 2 | All Maps","name_short":"syd-2","host":"syd-1.au.uncletopia.com","port":27025,"enabled":true,"region":"au","cc":"au","latitude":-33.865143,"longitude":151.2099,"reserved":0,"last_update":"0001-01-01T00:00:00Z","name_a2s":"Uncletopia | Sydney | 2 | All Maps","protocol":17,"map":"pl_borneo","folder":"tf","game":"Team Fortress","app_id":440,"player_count":0,"max_players":24,"Bots":0,"server_type":"Dedicated","server_os":"Linux","password":true,"vac":true,"version":"7723704","steam_id":85568392924470002,"keywords":["nocrits","nodmgspread","payload","uncletopia"],"game_id":440,"stv_port":27026,"stv_name":"Uncletopia | Sydney | 2 | All Maps | STV","players":null},{"server_id":395,"name":"Uncletopia | Sydney | 3 | All Maps","name_short":"syd-3","host":"syd-1.au.uncletopia.com","port":27035,"enabled":true,"region":"au","cc":"au","latitude":-33.865143,"longitude":151.2099,"reserved":0,"last_update":"0001-01-01T00:00:00Z","name_a2s":"Uncletopia | Sydney | 3 | All Maps","protocol":17,"map":"cp_mountainlab","folder":"tf","game":"Team Fortress","app_id":440,"player_count":0,"max_players":24,"Bots":0,"server_type":"Dedicated","server_os":"Linux","password":true,"vac":true,"version":"7723704","steam_id":85568392925194467,"keywords":["cp","nocrits","nodmgspread","uncletopia"],"game_id":440,"stv_port":27036,"stv_name":"Uncletopia | Sydney | 3 | All Maps | STV","players":null},{"server_id":396,"name":"Uncletopia | Sydney | 4 | All Maps","name_short":"syd-4","host":"syd-1.au.uncletopia.com","port":27045,"enabled":true,"region":"au","cc":"au","latitude":-33.865143,"longitude":151.2099,"reserved":0,"last_update":"0001-01-01T00:00:00Z","name_a2s":"Uncletopia | Sydney | 4 | All Maps","protocol":17,"map":"koth_viaduct","folder":"tf","game":"Team Fortress","app_id":440,"player_count":0,"max_players":24,"Bots":0,"server_type":"Dedicated","server_os":"Linux","password":true,"vac":true,"version":"7723704","steam_id":85568392925397958,"keywords":["cp","nocrits","nodmgspread","uncletopia"],"game_id":440,"stv_port":27046,"stv_name":"Uncletopia | Sydney | 4 | All Maps | STV","players":null},{"server_id":58,"name":"Uncletopia | Sydney | 5 | Stopwatch Beta","name_short":"syd-5","host":"syd-1.au.uncletopia.com","port":27055,"enabled":true,"region":"au","cc":"au","latitude":-33.865143,"longitude":151.2099,"reserved":0,"last_update":"0001-01-01T00:00:00Z","name_a2s":"Uncletopia | Sydney | 5 | Stopwatch Beta","protocol":17,"map":"cp_altitude","folder":"tf","game":"Team Fortress","app_id":440,"player_count":0,"max_players":24,"Bots":0,"server_type":"Dedicated","server_os":"Linux","password":true,"vac":true,"version":"7723704","steam_id":85568392925397959,"keywords":["cp","nocrits","nodmgspread","uncletopia"],"game_id":440,"stv_port":27056,"stv_name":"Uncletopia | Sydney | 5 | Stopwatch Beta | STV","players":null},{"server_id":59,"name":"Uncletopia | Sydney | 6 | Community","name_short":"syd-6","host":"syd-1.au.uncletopia.com","port":27065,"enabled":true,"region":"au","cc":"au","latitude":-33.865143,"longitude":151.2099,"reserved":0,"last_update":"0001-01-01T00:00:00Z","name_a2s":"Uncletopia | Sydney | 6 | Community","protocol":17,"map":"pl_frontier_final","folder":"tf","game":"Team Fortress","app_id":440,"player_count":0,"max_players":24,"Bots":0,"server_type":"Dedicated","server_os":"Linux","password":true,"vac":true,"version":"7723704","steam_id":85568392925397960,"keywords":["nocrits","nodmgspread","payload","uncletopia"],"game_id":440,"stv_port":27066,"stv_name":"Uncletopia | Sydney | 6 | Community | STV","players":null},{"server_id":49,"name":"Uncletopia | Warsaw | 1 | All Maps","name_short":"waw-1","host":"waw-1.pl.uncletopia.com","port":27015,"enabled":true,"region":"eu","cc":"pl","latitude":52.2297,"longitude":21.017532,"reserved":0,"last_update":"0001-01-01T00:00:00Z","name_a2s":"Uncletopia | Warsaw | 1 | All Maps","protocol":17,"map":"koth_highpass","folder":"tf","game":"Team Fortress","app_id":440,"player_count":0,"max_players":24,"Bots":0,"server_type":"Dedicated","server_os":"Linux","password":true,"vac":true,"version":"7723704","steam_id":85568392925397850,"keywords":["cp","nocrits","nodmgspread","uncletopia"],"game_id":440,"stv_port":27016,"stv_name":"Uncletopia | Warsaw | 1 | All Maps | STV","players":null},{"server_id":50,"name":"Uncletopia | Warsaw | 2 | All Maps","name_short":"waw-2","host":"waw-1.pl.uncletopia.com","port":27025,"enabled":true,"region":"eu","cc":"pl","latitude":52.2297,"longitude":21.017532,"reserved":0,"last_update":"0001-01-01T00:00:00Z","name_a2s":"Uncletopia | Warsaw | 2 | All Maps","protocol":17,"map":"koth_viaduct","folder":"tf","game":"Team Fortress","app_id":440,"player_count":0,"max_players":24,"Bots":0,"server_type":"Dedicated","server_os":"Linux","password":true,"vac":true,"version":"7723704","steam_id":85568392925397851,"keywords":["cp","nocrits","nodmgspread","uncletopia"],"game_id":440,"stv_port":27026,"stv_name":"Uncletopia | Warsaw | 2 | All Maps | STV","players":null},{"server_id":51,"name":"Uncletopia | Warsaw | 3 | All Maps","name_short":"waw-3","host":"waw-1.pl.uncletopia.com","port":27035,"enabled":true,"region":"eu","cc":"pl","latitude":52.2297,"longitude":21.017532,"reserved":0,"last_update":"0001-01-01T00:00:00Z","name_a2s":"Uncletopia | Warsaw | 3 | All Maps","protocol":17,"map":"koth_viaduct","folder":"tf","game":"Team Fortress","app_id":440,"player_count":0,"max_players":24,"Bots":0,"server_type":"Dedicated","server_os":"Linux","password":true,"vac":true,"version":"7723704","steam_id":85568392925397852,"keywords":["cp","nocrits","nodmgspread","uncletopia"],"game_id":440,"stv_port":27036,"stv_name":"Uncletopia | Warsaw | 3 | All Maps | STV","players":null},{"server_id":52,"name":"Uncletopia | Warsaw | 4 | All Maps","name_short":"waw-4","host":"waw-1.pl.uncletopia.com","port":27045,"enabled":true,"region":"eu","cc":"pl","latitude":52.2297,"longitude":21.017532,"reserved":0,"last_update":"0001-01-01T00:00:00Z","name_a2s":"Uncletopia | Warsaw | 4 | All Maps","protocol":17,"map":"koth_viaduct","folder":"tf","game":"Team Fortress","app_id":440,"player_count":0,"max_players":24,"Bots":0,"server_type":"Dedicated","server_os":"Linux","password":true,"vac":true,"version":"7723704","steam_id":85568392925397853,"keywords":["cp","nocrits","nodmgspread","uncletopia"],"game_id":440,"stv_port":27046,"stv_name":"Uncletopia | Warsaw | 4 | All Maps | STV","players":null},{"server_id":53,"name":"Uncletopia | Warsaw | 5 | Stopwatch Beta","name_short":"waw-5","host":"waw-1.pl.uncletopia.com","port":27055,"enabled":true,"region":"eu","cc":"pl","latitude":52.2297,"longitude":21.017532,"reserved":0,"last_update":"0001-01-01T00:00:00Z","name_a2s":"Uncletopia | Warsaw | 5 | Stopwatch Beta","protocol":17,"map":"cp_sunshine","folder":"tf","game":"Team Fortress","app_id":440,"player_count":0,"max_players":24,"Bots":0,"server_type":"Dedicated","server_os":"Linux","password":true,"vac":true,"version":"7723704","steam_id":85568392925397854,"keywords":["cp","nocrits","nodmgspread","uncletopia"],"game_id":440,"stv_port":27056,"stv_name":"Uncletopia | Warsaw | 5 | Stopwatch Beta | STV","players":null},{"server_id":54,"name":"Uncletopia | Warsaw | 6 | Community","name_short":"waw-6","host":"waw-1.pl.uncletopia.com","port":27065,"enabled":true,"region":"eu","cc":"pl","latitude":52.2297,"longitude":21.017532,"reserved":0,"last_update":"0001-01-01T00:00:00Z","name_a2s":"Uncletopia | Warsaw | 6 | Community","protocol":17,"map":"workshop/cp_caldera_rc2.ugc2834196889","folder":"tf","game":"Team Fortress","app_id":440,"player_count":0,"max_players":24,"Bots":0,"server_type":"Dedicated","server_os":"Linux","password":true,"vac":true,"version":"7723704","steam_id":85568392925397856,"keywords":["cp","nocrits","nodmgspread","uncletopia"],"game_id":440,"stv_port":27066,"stv_name":"Uncletopia | Warsaw | 6 | Community | STV","players":null}]}