{"status":true,"message":"","result":[{"server_id":9,"name":"Uncletopia | Atlanta | 1 | All Maps","name_short":"atl-1","host":"atl-1.us.uncletopia.com","port":27015,"enabled":true,"region":"us-east","cc":"us","latitude":33.753746,"longitude":-84.38633,"reserved":0,"last_update":"0001-01-01T00:00:00Z","name_a2s":"Uncletopia | Atlanta | 1 | All Maps","protocol":17,"map":"pl_swiftwater_final1","folder":"tf","game":"Team Fortress","app_id":440,"player_count":23,"max_players":24,"Bots":0,"server_type":"Dedicated","server_os":"Linux","password":true,"vac":true,"version":"7961495","steam_id":85568392924469982,"keywords":["nocrits","nodmgspread","payload","uncletopia"],"game_id":440,"stv_port":27016,"stv_name":"Uncletopia | Atlanta | 1 | All Maps | STV","players":[{"user_id":110,"name":"Dreszerg","steam_id":76561198838757422,"connected_time":76000000000,"state":"active","ping":73},{"user_id":15,"name":"Cast Iron Crusader","steam_id":76561198066384337,"connected_time":3537000000000,"state":"active","ping":70},{"user_id":112,"name":"WinterBucket","steam_id":76561198381313801,"connected_time":58000000000,"state":"active","ping":164},{"user_id":52,"name":"Dread Pierat Squeaks","steam_id":76561198413602368,"connected_time":1068000000000,"state":"active","ping":57},{"user_id":31,"name":"FIJI","steam_id":76561198126087725,"connected_time":2879000000000,"state":"active","ping":60},{"user_id":34,"name":"ZachChase","steam_id":76561198086057112,"connected_time":2777000000000,"state":"active","ping":108},{"user_id":53,"name":"the zookeeper","steam_id":76561199134895220,"connected_time":1067000000000,"state":"active","ping":72},{"user_id":23,"name":"Neato","steam_id":76561198138219428,"connected_time":3325000000000,"state":"active","ping":169},{"user_id":27,"name":"corbenis","steam_id":76561199012442511,"connected_time":2943000000000,"state":"active","ping":85},{"user_id":109,"name":"Jesus Burgess","steam_id":76561199343316814,"connected_time":82000000000,"state":"active","ping":59},{"user_id":32,"name":"BloodHoundYT (F2P) | trade.tf","steam_id":76561199180340440,"connected_time":2871000000000,"state":"active","ping":157},{"user_id":47,"name":"Dat1Scar","steam_id":76561199225594994,"connected_time":2564000000000,"state":"active","ping":119},{"user_id":35,"name":"Karcist","steam_id":76561197970744075,"connected_time":2724000000000,"state":"active","ping":83},{"user_id":111,"name":"Aerodynamic Kerbal","steam_id":76561199148609815,"connected_time":66000000000,"state":"active","ping":166},{"user_id":40,"name":"Donnie","steam_id":76561198837857545,"connected_time":2631000000000,"state":"active","ping":148},{"user_id":38,"name":"crippledfrog133.‡∂û","steam_id":76561198115458307,"connected_time":2643000000000,"state":"active","ping":116},{"user_id":39,"name":"Dakota","steam_id":76561198134092308,"connected_time":2637000000000,"state":"active","ping":90},{"user_id":85,"name":"dietcokefan42","steam_id":76561198135307995,"connected_time":458000000000,"state":"active","ping":71},{"user_id":55,"name":"Cheems","steam_id":76561198269074039,"connected_time":1064000000000,"state":"active","ping":71},{"user_id":68,"name":"pHsHy","steam_id":76561198013195018,"connected_time":871000000000,"state":"active","ping":88},{"user_id":46,"name":"RAWRWAFL","steam_id":76561198032118386,"connected_time":2574000000000,"state":"active","ping":92},{"user_id":45,"name":"ChimpChampion","steam_id":76561198046520712,"connected_time":2583000000000,"state":"active","ping":99},{"user_id":48,"name":"Frosti","steam_id":76561199236298900,"connected_time":2542000000000,"state":"active","ping":83}]},{"server_id":104,"name":"Uncletopia | Atlanta | 2 | All Maps","name_short":"atl-2","host":"atl-1.us.uncletopia.com","port":27025,"enabled":true,"region":"us-east","cc":"us","latitude":33.753746,"longitude":-84.38633,"reserved":0,"last_update":"0001-01-01T00:00:00Z","name_a2s":"Uncletopia | Atlanta | 2 | All Maps","protocol":17,"map":"pl_upward","folder":"tf","game":"Team Fortress","app_id":440,"player_count":24,"max_players":24,"Bots":0,"server_type":"Dedicated","server_os":"Linux","password":true,"vac":true,"version":"7961495","steam_id":85568392924469983,"keywords":["nocrits","nodmgspread","payload","uncletopia"],"game_id":440,"stv_port":27026,"stv_name":"Uncletopia | Atlanta | 2 | All Maps | STV","players":[{"user_id":118,"name":"Nassu","steam_id":76561198147367577,"connected_time":4424000000000,"state":"active","ping":86},{"user_id":161,"name":"Biggest Dave","steam_id":76561198163423805,"connected_time":846000000000,"state":"active","ping":73},{"user_id":160,"name":"kibble","steam_id":76561198239909096,"connected_time":899000000000,"state":"active","ping":79},{"user_id":165,"name":"MeatShield 2000","steam_id":76561199375192850,"connected_time":764000000000,"state":"active","ping":118},{"user_id":154,"name":"Ichibanprofen","steam_id":76561199192132061,"connected_time":1297000000000,"state":"active","ping":94},{"user_id":157,"name":"Young-OG","steam_id":76561198058800479,"connected_time":1072000000000,"state":"active","ping":68},{"user_id":169,"name":"Antikythera","steam_id":76561198045923020,"connected_time":216000000000,"state":"active","ping":72},{"user_id":149,"name":"Cresant Ape","steam_id":76561198127425559,"connected_time":1471000000000,"state":"active","ping":74},{"user_id":148,"name":"Bobbn","steam_id":76561198876124683,"connected_time":1476000000000,"state":"active","ping":94},{"user_id":150,"name":"LazyDoll","steam_id":76561198053186338,"connected_time":1440000000000,"state":"active","ping":104},{"user_id":163,"name":"Waff00","steam_id":76561198848377100,"connected_time":836000000000,"state":"active","ping":81},{"user_id":139,"name":"hearthian","steam_id":76561198113235260,"connected_time":2427000000000,"state":"active","ping":101},{"user_id":28,"name":"summerlis","steam_id":76561198165324438,"connected_time":8035000000000,"state":"active","ping":88},{"user_id":159,"name":"Window Licker #pride","steam_id":76561198386717007,"connected_time":923000000000,"state":"active","ping":75},{"user_id":167,"name":"TurtledoveJones","steam_id":76561198010200051,"connected_time":313000000000,"state":"active","ping":77},{"user_id":133,"name":"meow","steam_id":76561198046948758,"connected_time":3049000000000,"state":"active","ping":47},{"user_id":141,"name":"Ulrich Stern","steam_id":76561198101739682,"connected_time":2347000000000,"state":"active","ping":94},{"user_id":166,"name":"Thequirka","steam_id":76561198968058652,"connected_time":661000000000,"state":"active","ping":108},{"user_id":146,"name":"KillSwitch","steam_id":76561198271909107,"connected_time":1513000000000,"state":"active","ping":79},{"user_id":152,"name":"jorjor wells","steam_id":76561199073429082,"connected_time":1375000000000,"state":"active","ping":72},{"user_id":156,"name":"Crazzy Gur","steam_id":76561198046225297,"connected_time":1076000000000,"state":"active","ping":49},{"user_id":143,"name":"Synthic","steam_id":76561198999659192,"connected_time":2259000000000,"state":"active","ping":80},{"user_id":168,"name":"Engideer","steam_id":76561198145733164,"connected_time":244000000000,"state":"active","ping":70},{"user_id":131,"name":"hoboways","steam_id":76561198168035195,"connected_time":3124000000000,"state":"active","ping":80}]},{"server_id":400,"name":"Uncletopia | Atlanta | 3 | Stopwatch","name_short":"atl-3","host":"atl-1.us.uncletopia.com","port":27035,"enabled":true,"region":"us-east","cc":"us","latitude":33.753746,"longitude":-84.38633,"reserved":0,"last_update":"0001-01-01T00:00:00Z","name_a2s":"Uncletopia | Atlanta | 3 | Stopwatch","protocol":17,"map":"pl_badwater","folder":"tf","game":"Team Fortress","app_id":440,"player_count":0,"max_players":24,"Bots":0,"server_type":"Dedicated","server_os":"Linux","password":true,"vac":true,"version":"7961495","steam_id":85568392924515187,"keywords":["nocrits","nodmgspread","payload","uncletopia"],"game_id":440,"stv_port":27036,"stv_name":"Uncletopia | Atlanta | 3 | Stopwatch | STV","players":null},{"server_id":401,"name":"Uncletopia | Atlanta | 4 | Community","name_short":"atl-4","host":"atl-1.us.uncletopia.com","port":27045,"enabled":true,"region":"us-east","cc":"us","latitude":33.753746,"longitude":-84.38633,"reserved":0,"last_update":"0001-01-01T00:00:00Z","name_a2s":"Uncletopia | Atlanta | 4 | Community","protocol":17,"map":"workshop/koth_slaughter_rc1.ugc1712845210","folder":"tf","game":"Team Fortress","app_id":440,"player_count":0,"max_players":24,"Bots":0,"server_type":"Dedicated","server_os":"Linux","password":true,"vac":true,"version":"7961495","steam_id":85568392924515188,"keywords":["cp","nocrits","nodmgspread","uncletopia"],"game_id":440,"stv_port":27046,"stv_name":"Uncletopia | Atlanta | 4 | Community | STV","players":null},{"server_id":2,"name":"Uncletopia | Chicago | 1 | All Maps","name_short":"chi-1","host":"chi-1.us.uncletopia.com","port":27015,"enabled":true,"region":"us-central","cc":"us","latitude":41.881832,"longitude":-87.62318,"reserved":0,"last_update":"0001-01-01T00:00:00Z","name_a2s":"Uncletopia | Chicago | 1 | All Maps","protocol":17,"map":"pl_swiftwater_final1","folder":"tf","game":"Team Fortress","app_id":440,"player_count":22,"max_players":24,"Bots":0,"server_type":"Dedicated","server_os":"Linux","password":true,"vac":true,"version":"7961495","steam_id":85568392924469984,"keywords":["nocrits","nodmgspread","payload","uncletopia"],"game_id":440,"stv_port":27016,"stv_name":"Uncletopia | Chicago | 1 | All Maps | STV","players":[{"user_id":230,"name":"a bellhop","steam_id":76561198046797995,"connected_time":65000000000,"state":"active","ping":59},{"user_id":199,"name":"Ripheart","steam_id":76561198089661561,"connected_time":2566000000000,"state":"active","ping":50},{"user_id":163,"name":"pea ttv/peabeanz","steam_id":76561198119551968,"connected_time":6555000000000,"state":"active","ping":75},{"user_id":96,"name":"Freddy Fazbear","steam_id":76561198272353440,"connected_time":11818000000000,"state":"active","ping":79},{"user_id":202,"name":"worker","steam_id":76561198039608940,"connected_time":2158000000000,"state":"active","ping":115},{"user_id":99,"name":"Super Ghostbusters (Full Album)","steam_id":76561198057415490,"connected_time":11724000000000,"state":"active","ping":44},{"user_id":186,"name":"rf","steam_id":76561199018207049,"connected_time":3348000000000,"state":"active","ping":95},{"user_id":180,"name":"Fabos","steam_id":76561199119843346,"connected_time":5176000000000,"state":"active","ping":179},{"user_id":225,"name":"Evil little man","steam_id":76561198311053471,"connected_time":87000000000,"state":"active","ping":86},{"user_id":218,"name":"zinnk","steam_id":76561198092081825,"connected_time":684000000000,"state":"active","ping":94},{"user_id":80,"name":"Jel1440","steam_id":76561198179045366,"connected_time":12722000000000,"state":"active","ping":50},{"user_id":214,"name":"fish","steam_id":76561198054070811,"connected_time":1019000000000,"state":"active","ping":118},{"user_id":229,"name":"pisssmart","steam_id":76561199097253232,"connected_time":69000000000,"state":"active","ping":65},{"user_id":221,"name":"Looge","steam_id":76561198155483586,"connected_time":387000000000,"state":"active","ping":56},{"user_id":215,"name":"joosssh","steam_id":76561198072130805,"connected_time":854000000000,"state":"active","ping":154},{"user_id":222,"name":"Willham","steam_id":76561198065755781,"connected_time":294000000000,"state":"active","ping":75},{"user_id":188,"name":"Degausser","steam_id":76561198149671307,"connected_time":3346000000000,"state":"active","ping":65},{"user_id":231,"name":"punk girl/metal god","steam_id":76561198116908911,"connected_time":52000000000,"state":"active","ping":80},{"user_id":226,"name":"Xavi","steam_id":76561198337783795,"connected_time":83000000000,"state":"spawning","ping":86},{"user_id":135,"name":"berserker_tf2 )HE/SHE(","steam_id":76561198303464488,"connected_time":8858000000000,"state":"active","ping":61},{"user_id":126,"name":"beta central","steam_id":76561198301876831,"connected_time":9521000000000,"state":"active","ping":66},{"user_id":227,"name":"beefmachine","steam_id":76561198001196512,"connected_time":83000000000,"state":"active","ping":54}]},{"server_id":106,"name":"Uncletopia | Chicago | 2 | All Maps","name_short":"chi-2","host":"chi-1.us.uncletopia.com","port":27025,"enabled":true,"region":"us-central","cc":"us","latitude":41.881832,"longitude":-87.62318,"reserved":0,"last_update":"0001-01-01T00:00:00Z","name_a2s":"Uncletopia | Chicago | 2 | All Maps","protocol":17,"map":"koth_cascade","folder":"tf","game":"Team Fortress","app_id":440,"player_count":7,"max_players":24,"Bots":0,"server_type":"Dedicated","server_os":"Linux","password":true,"vac":true,"version":"7961495","steam_id":85568392924469985,"keywords":["cp","nocrits","nodmgspread","uncletopia"],"game_id":440,"stv_port":27026,"stv_name":"Uncletopia | Chicago | 2 | All Maps | STV","players":[{"user_id":28,"name":"Salemrina5130","steam_id":76561198369609513,"connected_time":598000000000,"state":"active","ping":76},{"user_id":26,"name":"Jester","steam_id":76561198153102922,"connected_time":642000000000,"state":"active","ping":65},{"user_id":32,"name":"üßå","steam_id":76561198081991204,"connected_time":403000000000,"state":"active","ping":54},{"user_id":38,"name":"asakujakuuu","steam_id":76561198875745616,"connected_time":57000000000,"state":"active","ping":68},{"user_id":35,"name":"Boot Mcstink","steam_id":76561199226873917,"connected_time":168000000000,"state":"active","ping":87},{"user_id":33,"name":"gorble glob","steam_id":76561198010335241,"connected_time":340000000000,"state":"active","ping":74},{"user_id":37,"name":"Butt Cheese Wanky","steam_id":76561198006569710,"connected_time":67000000000,"state":"active","ping":77}]},{"server_id":402,"name":"Uncletopia | Chicago | 3 | All Maps","name_short":"chi-3","host":"chi-1.us.uncletopia.com","port":27035,"enabled":true,"region":"us-central","cc":"us","latitude":41.881832,"longitude":-87.62318,"reserved":0,"last_update":"0001-01-01T00:00:00Z","name_a2s":"Uncletopia | Chicago | 3 | All Maps","protocol":17,"map":"koth_highpass","folder":"tf","game":"Team Fortress","app_id":440,"player_count":0,"max_players":24,"Bots":0,"server_type":"Dedicated","server_os":"Linux","password":true,"vac":true,"version":"7961495","steam_id":85568392924515191,"keywords":["cp","nocrits","nodmgspread","uncletopia"],"game_id":440,"stv_port":27036,"stv_name":"Uncletopia | Chicago | 3 | All Maps | STV","players":null},{"server_id":403,"name":"Uncletopia | Chicago | 4 | All Maps","name_short":"chi-4","host":"chi-1.us.uncletopia.com","port":27045,"enabled":true,"region":"us-central","cc":"us","latitude":41.881832,"longitude":-87.62318,"reserved":0,"last_update":"0001-01-01T00:00:00Z","name_a2s":"Uncletopia | Chicago | 4 | All Maps","protocol":17,"map":"koth_cascade","folder":"tf","game":"Team Fortress","app_id":440,"player_count":0,"max_players":24,"Bots":0,"server_type":"Dedicated","server_os":"Linux","password":true,"vac":true,"version":"7961495","steam_id":85568392924515193,"keywords":["cp","nocrits","nodmgspread","uncletopia"],"game_id":440,"stv_port":27046,"stv_name":"Uncletopia | Chicago | 4 | All Maps | STV","players":null},{"server_id":36,"name":"Uncletopia | Chicago | 5 | All Maps","name_short":"chi-5","host":"chi-2.us.uncletopia.com","port":27015,"enabled":true,"region":"us-central","cc":"us","latitude":41.881832,"longitude":-87.62318,"reserved":0,"last_update":"0001-01-01T00:00:00Z","name_a2s":"Uncletopia | Chicago | 5 | All Maps","protocol":17,"map":"koth_viaduct","folder":"tf","game":"Team Fortress","app_id":440,"player_count":0,"max_players":24,"Bots":0,"server_type":"Dedicated","server_os":"Linux","password":true,"vac":true,"version":"7961495","steam_id":85568392924866362,"keywords":["cp","nocrits","nodmgspread","uncletopia"],"game_id":440,"stv_port":27016,"stv_name":"Uncletopia | Chicago | 5 | All Maps | STV","players":null},{"server_id":37,"name":"Uncletopia | Chicago | 6 | All Maps","name_short":"chi-6","host":"chi-2.us.uncletopia.com","port":27025,"enabled":true,"region":"us-central","cc":"us","latitude":41.881832,"longitude":-87.62318,"reserved":0,"last_update":"0001-01-01T00:00:00Z","name_a2s":"Uncletopia | Chicago | 6 | All Maps","protocol":17,"map":"pl_frontier_final","folder":"tf","game":"Team Fortress","app_id":440,"player_count":0,"max_players":24,"Bots":0,"server_type":"Dedicated","server_os":"Linux","password":true,"vac":true,"version":"7961495","steam_id":85568392924866363,"keywords":["nocrits","nodmgspread","payload","uncletopia"],"game_id":440,"stv_port":27026,"stv_name":"Uncletopia | Chicago | 6 | All Maps | STV","players":null},{"server_id":38,"name":"Uncletopia | Chicago | 7 | Stopwatch","name_short":"chi-7","host":"chi-2.us.uncletopia.com","port":27035,"enabled":true,"region":"us-central","cc":"us","latitude":41.881832,"longitude":-87.62318,"reserved":0,"last_update":"0001-01-01T00:00:00Z","name_a2s":"Uncletopia | Chicago | 7 | Stopwatch","protocol":17,"map":"workshop/koth_ashville_final.ugc2130459942","folder":"tf","game":"Team Fortress","app_id":440,"player_count":0,"max_players":24,"Bots":0,"server_type":"Dedicated","server_os":"Linux","password":true,"vac":true,"version":"7961495","steam_id":85568392924866364,"keywords":["cp","nocrits","nodmgspread","uncletopia"],"game_id":440,"stv_port":27036,"stv_name":"Uncletopia | Chicago | 7 | Stopwatch | STV","players":null},{"server_id":39,"name":"Uncletopia | Chicago | 8 | Community","name_short":"chi-8","host":"chi-2.us.uncletopia.com","port":27045,"enabled":true,"region":"us-central","cc":"us","latitude":41.881832,"longitude":-87.62318,"reserved":0,"last_update":"0001-01-01T00:00:00Z","name_a2s":"Uncletopia | Chicago | 8 | Community","protocol":17,"map":"pl_pier","folder":"tf","game":"Team Fortress","app_id":440,"player_count":0,"max_players":24,"Bots":0,"server_type":"Dedicated","server_os":"Linux","password":true,"vac":true,"version":"7961495","steam_id":85568392924866365,"keywords":["nocrits","nodmgspread","payload","uncletopia"],"game_id":440,"stv_port":27046,"stv_name":"Uncletopia | Chicago | 8 | Community | STV","players":null},{"server_id":8,"name":"Uncletopia | Dallas | 1 | All Maps","name_short":"dal-1","host":"dal-1.us.uncletopia.com","port":27015,"enabled":true,"region":"us-central","cc":"us","latitude":32.779167,"longitude":-96.80889,"reserved":0,"last_update":"0001-01-01T00:00:00Z","name_a2s":"Uncletopia | Dallas | 1 | All Maps","protocol":17,"map":"koth_highpass","folder":"tf","game":"Team Fortress","app_id":440,"player_count":0,"max_players":24,"Bots":0,"server_type":"Dedicated","server_os":"Linux","password":true,"vac":true,"version":"7961495","steam_id":85568392924469986,"keywords":["cp","nocrits","nodmgspread","uncletopia"],"game_id":440,"stv_port":27016,"stv_name":"Uncletopia | Dallas | 1 | All Maps | STV","players":null},{"server_id":108,"name":"Uncletopia | Dallas | 2 | All Maps","name_short":"dal-2","host":"dal-1.us.uncletopia.com","port":27025,"enabled":true,"region":"us-central","cc":"us","latitude":32.779167,"longitude":-96.80889,"reserved":0,"last_update":"0001-01-01T00:00:00Z","name_a2s":"Uncletopia | Dallas | 2 | All Maps","protocol":17,"map":"pl_swiftwater_final1","folder":"tf","game":"Team Fortress","app_id":440,"player_count":0,"max_players":24,"Bots":0,"server_type":"Dedicated","server_os":"Linux","password":true,"vac":true,"version":"7961495","steam_id":85568392924469988,"keywords":["nocrits","nodmgspread","payload","uncletopia"],"game_id":440,"stv_port":27026,"stv_name":"Uncletopia | Dallas | 2 | All Maps | STV","players":null},{"server_id":404,"name":"Uncletopia | Dallas | 3 | All Maps","name_short":"dal-3","host":"dal-1.us.uncletopia.com","port":27035,"enabled":true,"region":"us-central","cc":"us","latitude":32.779167,"longitude":-96.80889,"reserved":0,"last_update":"0001-01-01T00:00:00Z","name_a2s":"Uncletopia | Dallas | 3 | All Maps","protocol":17,"map":"koth_viaduct","folder":"tf","game":"Team Fortress","app_id":440,"player_count":0,"max_players":24,"Bots":0,"server_type":"Dedicated","server_os":"Linux","password":true,"vac":true,"version":"7961495","steam_id":85568392924515219,"keywords":["cp","nocrits","nodmgspread","uncletopia"],"game_id":440,"stv_port":27036,"stv_name":"Uncletopia | Dallas | 3 | All Maps | STV","players":null},{"server_id":405,"name":"Uncletopia | Dallas | 4 | Community","name_short":"dal-4","host":"dal-1.us.uncletopia.com","port":27045,"enabled":true,"region":"us-central","cc":"us","latitude":32.779167,"longitude":-96.80889,"reserved":0,"last_update":"0001-01-01T00:00:00Z","name_a2s":"Uncletopia | Dallas | 4 | Community","protocol":17,"map":"pl_pier","folder":"tf","game":"Team Fortress","app_id":440,"player_count":0,"max_players":24,"Bots":0,"server_type":"Dedicated","server_os":"Linux","password":true,"vac":true,"version":"7961495","steam_id":85568392924515220,"keywords":["nocrits","nodmgspread","payload","uncletopia"],"game_id":440,"stv_port":27046,"stv_name":"Uncletopia | Dallas | 4 | Community | STV","players":null},{"server_id":5,"name":"Uncletopia | Frankfurt | 1 | All Maps","name_short":"frk-1","host":"frk-1.de.uncletopia.com","port":27015,"enabled":true,"region":"eu","cc":"de","latitude":50.110924,"longitude":8.682127,"reserved":0,"last_update":"0001-01-01T00:00:00Z","name_a2s":"Uncletopia | Frankfurt | 1 | All Maps","protocol":17,"map":"cp_metalworks","folder":"tf","game":"Team Fortress","app_id":440,"player_count":2,"max_players":24,"Bots":0,"server_type":"Dedicated","server_os":"Linux","password":true,"vac":true,"version":"7961495","steam_id":85568392924469989,"keywords":["cp","nocrits","nodmgspread","uncletopia"],"game_id":440,"stv_port":27016,"stv_name":"Uncletopia | Frankfurt | 1 | All Maps | STV","players":[{"user_id":26,"name":"I-I","steam_id":76561198267969436,"connected_time":1288000000000,"state":"active","ping":63},{"user_id":28,"name":"+==[:::::::::::::::::::::::\u003e","steam_id":76561199051212534,"connected_time":35000000000,"state":"active","ping":151}]},{"server_id":110,"name":"Uncletopia | Frankfurt | 2 | All Maps","name_short":"frk-2","host":"frk-1.de.uncletopia.com","port":27025,"enabled":true,"region":"eu","cc":"de","latitude":50.110924,"longitude":8.682127,"reserved":0,"last_update":"0001-01-01T00:00:00Z","name_a2s":"Uncletopia | Frankfurt | 2 | All Maps","protocol":17,"map":"pl_frontier_final","folder":"tf","game":"Team Fortress","app_id":440,"player_count":24,"max_players":24,"Bots":0,"server_type":"Dedicated","server_os":"Linux","password":true,"vac":true,"version":"7961495","steam_id":85568392924469990,"keywords":["nocrits","nodmgspread","payload","uncletopia"],"game_id":440,"stv_port":27026,"stv_name":"Uncletopia | Frankfurt | 2 | All Maps | STV","players":[{"user_id":407,"name":"Umme","steam_id":76561198053809566,"connected_time":895000000000,"state":"active","ping":83},{"user_id":392,"name":"GUMBO","steam_id":76561198183949987,"connected_time":1436000000000,"state":"active","ping":61},{"user_id":401,"name":"LiptonIceTea","steam_id":76561198042418582,"connected_time":1173000000000,"state":"active","ping":114},{"user_id":302,"name":"Master coitus","steam_id":76561198050416948,"connected_time":7946000000000,"state":"active","ping":54},{"user_id":409,"name":"Sandvich","steam_id":76561199079493666,"connected_time":878000000000,"state":"active","ping":77},{"user_id":298,"name":"CzechMate #SaveTF2","steam_id":76561198012687703,"connected_time":8412000000000,"state":"active","ping":45},{"user_id":412,"name":"NALA","steam_id":76561198039806469,"connected_time":119000000000,"state":"active","ping":66},{"user_id":400,"name":"Praskaton1905","steam_id":76561199086026716,"connected_time":1210000000000,"state":"active","ping":71},{"user_id":402,"name":"[FP] Rune","steam_id":76561198030842879,"connected_time":1048000000000,"state":"active","ping":46},{"user_id":386,"name":"Vaffeljarn","steam_id":76561198151060365,"connected_time":1738000000000,"state":"active","ping":68},{"user_id":408,"name":"Uncle Moomin","steam_id":76561198011628656,"connected_time":893000000000,"state":"active","ping":77},{"user_id":336,"name":"Maxin","steam_id":76561197999923364,"connected_time":5343000000000,"state":"active","ping":62},{"user_id":390,"name":"Viri","steam_id":76561198027432387,"connected_time":1552000000000,"state":"active","ping":84},{"user_id":370,"name":"Space Raccoon","steam_id":76561198038399662,"connected_time":4063000000000,"state":"active","ping":82},{"user_id":411,"name":"\u003e\u003c\u003e","steam_id":76561198152392309,"connected_time":596000000000,"state":"active","ping":47},{"user_id":143,"name":"else1","steam_id":76561197996558319,"connected_time":20453000000000,"state":"active","ping":76},{"user_id":377,"name":"nordstream bomber","steam_id":76561199401283123,"connected_time":2812000000000,"state":"active","ping":62},{"user_id":399,"name":"Nittugai","steam_id":76561198067366462,"connected_time":1226000000000,"state":"active","ping":60},{"user_id":393,"name":"Average meme enjoyer","steam_id":76561199087566663,"connected_time":1427000000000,"state":"active","ping":79},{"user_id":364,"name":"agonized.micheal2021","steam_id":76561198007929294,"connected_time":4652000000000,"state":"active","ping":93},{"user_id":380,"name":"Time-Green","steam_id":76561198133937444,"connected_time":1865000000000,"state":"active","ping":70},{"user_id":388,"name":"sad bitch kiki","steam_id":76561198838277022,"connected_time":1687000000000,"state":"active","ping":66},{"user_id":378,"name":"domek","steam_id":76561198048447632,"connected_time":2806000000000,"state":"active","ping":62},{"user_id":389,"name":"Arsonist","steam_id":76561199087953833,"connected_time":1675000000000,"state":"active","ping":90}]},{"server_id":308,"name":"Uncletopia | Frankfurt | 3 | All Maps","name_short":"frk-3","host":"frk-1.de.uncletopia.com","port":27035,"enabled":true,"region":"eu","cc":"de","latitude":50.110924,"longitude":8.682127,"reserved":0,"last_update":"0001-01-01T00:00:00Z","name_a2s":"Uncletopia | Frankfurt | 3 | All Maps","protocol":17,"map":"cp_mossrock","folder":"tf","game":"Team Fortress","app_id":440,"player_count":22,"max_players":24,"Bots":0,"server_type":"Dedicated","server_os":"Linux","password":true,"vac":true,"version":"7961495","steam_id":85568392924504274,"keywords":["cp","nocrits","nodmgspread","uncletopia"],"game_id":440,"stv_port":27036,"stv_name":"Uncletopia | Frankfurt | 3 | All Maps | STV","players":[{"user_id":25,"name":"AxyzS | affenbr0t_6o4","steam_id":76561197981823456,"connected_time":1906000000000,"state":"active","ping":57},{"user_id":36,"name":"Unfunny Name","steam_id":76561198799372115,"connected_time":562000000000,"state":"active","ping":77},{"user_id":55,"name":"awesomescoutpranker6","steam_id":76561199138214818,"connected_time":11000000000,"state":"spawning","ping":77},{"user_id":35,"name":"xiiski","steam_id":76561198152387747,"connected_time":627000000000,"state":"active","ping":95},{"user_id":29,"name":"GregerUlander","steam_id":76561198152375055,"connected_time":833000000000,"state":"active","ping":79},{"user_id":53,"name":"prompt","steam_id":76561198154677956,"connected_time":68000000000,"state":"active","ping":71},{"user_id":31,"name":"CreepyYellowDuck","steam_id":76561198000479387,"connected_time":778000000000,"state":"active","ping":48},{"user_id":32,"name":"emir","steam_id":76561198113089831,"connected_time":753000000000,"state":"active","ping":90},{"user_id":33,"name":"‚úß:9 LE","steam_id":76561198026659536,"connected_time":740000000000,"state":"active","ping":105},{"user_id":34,"name":"‚úßTori Roach","steam_id":76561198170599306,"connected_time":738000000000,"state":"active","ping":113},{"user_id":38,"name":"ELPOTATO","steam_id":76561198049743627,"connected_time":513000000000,"state":"active","ping":91},{"user_id":39,"name":"r0la","steam_id":76561198128315340,"connected_time":504000000000,"state":"active","ping":88},{"user_id":54,"name":"aphextwinsucks","steam_id":76561198132185926,"connected_time":59000000000,"state":"active","ping":55},{"user_id":41,"name":"Zim","steam_id":76561197962903996,"connected_time":465000000000,"state":"active","ping":48},{"user_id":42,"name":"Leibeigener","steam_id":76561199275478305,"connected_time":459000000000,"state":"active","ping":27},{"user_id":44,"name":"Clydios","steam_id":76561198332311225,"connected_time":428000000000,"state":"active","ping":75},{"user_id":45,"name":"Aso","steam_id":76561198209765705,"connected_time":427000000000,"state":"active","ping":86},{"user_id":46,"name":"N1xD4","steam_id":76561199047686063,"connected_time":419000000000,"state":"active","ping":69},{"user_id":47,"name":"Renolox","steam_id":76561198036590182,"connected_time":403000000000,"state":"active","ping":70},{"user_id":48,"name":"Cymric","steam_id":76561198208749713,"connected_time":328000000000,"state":"active","ping":80},{"user_id":49,"name":"Shy cute eboy baka","steam_id":76561198353334467,"connected_time":317000000000,"state":"active","ping":85},{"user_id":51,"name":"endlesshills","steam_id":76561198081908373,"connected_time":283000000000,"state":"active","ping":54}]},{"server_id":309,"name":"Uncletopia | Frankfurt | 4 | All Maps","name_short":"frk-4","host":"frk-1.de.uncletopia.com","port":27045,"enabled":true,"region":"eu","cc":"de","latitude":50.110924,"longitude":8.682127,"reserved":0,"last_update":"0001-01-01T00:00:00Z","name_a2s":"Uncletopia | Frankfurt | 4 | All Maps","protocol":17,"map":"pl_pier","folder":"tf","game":"Team Fortress","app_id":440,"player_count":24,"max_players":24,"Bots":0,"server_type":"Dedicated","server_os":"Linux","password":true,"vac":true,"version":"7961495","steam_id":85568392924504275,"keywords":["nocrits","nodmgspread","payload","uncletopia"],"game_id":440,"stv_port":27046,"stv_name":"Uncletopia | Frankfurt | 4 | All Maps | STV","players":[{"user_id":154,"name":"ALARM","steam_id":76561198120686521,"connected_time":7276000000000,"state":"active","ping":59},{"user_id":253,"name":"El Gato Volador","steam_id":76561198021296882,"connected_time":61000000000,"state":"active","ping":74},{"user_id":210,"name":"MeDiciN","steam_id":76561199112280586,"connected_time":3882000000000,"state":"active","ping":153},{"user_id":233,"name":"Ghibley","steam_id":76561199037099624,"connected_time":1669000000000,"state":"active","ping":60},{"user_id":199,"name":"Khrinde","steam_id":76561198036744526,"connected_time":4452000000000,"state":"active","ping":101},{"user_id":214,"name":"–¢–æ–π, —â–æ –æ–≤–µ—Ü—å –ø–∞—Å\ufffd","steam_id":76561198237056456,"connected_time":2831000000000,"state":"active","ping":67},{"user_id":231,"name":"VIN WEASEL","steam_id":76561198014387066,"connected_time":1708000000000,"state":"active","ping":48},{"user_id":250,"name":"Mr. Hunts","steam_id":76561197981910397,"connected_time":342000000000,"state":"active","ping":67},{"user_id":245,"name":"Theleomaster","steam_id":76561198342580499,"connected_time":610000000000,"state":"active","ping":82},{"user_id":242,"name":"jmp","steam_id":76561198168283286,"connected_time":1285000000000,"state":"active","ping":63},{"user_id":248,"name":"ramko_","steam_id":76561198379753516,"connected_time":377000000000,"state":"active","ping":82},{"user_id":254,"name":"nodes","steam_id":76561198046782745,"connected_time":46000000000,"state":"active","ping":142},{"user_id":225,"name":"Blomman","steam_id":76561198059119716,"connected_time":2457000000000,"state":"active","ping":77},{"user_id":249,"name":"night.s","steam_id":76561198326287823,"connected_time":369000000000,"state":"active","ping":63},{"user_id":237,"name":"Liza–Ødl–ß","steam_id":76561198176750238,"connected_time":1582000000000,"state":"active","ping":74},{"user_id":246,"name":"Kr√≥licki_","steam_id":76561199109915352,"connected_time":396000000000,"state":"active","ping":57},{"user_id":201,"name":"Armored","steam_id":76561198267449130,"connected_time":4226000000000,"state":"active","ping":72},{"user_id":229,"name":"G√ºnther","steam_id":76561198333417038,"connected_time":1754000000000,"state":"active","ping":66},{"user_id":171,"name":"Pico","steam_id":76561198063552545,"connected_time":6325000000000,"state":"active","ping":96},{"user_id":119,"name":"Mr Season","steam_id":76561198014005263,"connected_time":9508000000000,"state":"active","ping":104},{"user_id":255,"name":"zeppa114","steam_id":76561198065192734,"connected_time":42000000000,"state":"active","ping":55},{"user_id":239,"name":"Hogs Sidekick","steam_id":76561198136433205,"connected_time":1509000000000,"state":"active","ping":55},{"user_id":230,"name":"goblinninja110","steam_id":76561198269159354,"connected_time":1739000000000,"state":"active","ping":75},{"user_id":240,"name":"Abakum","steam_id":76561198413243475,"connected_time":1487000000000,"state":"active","ping":67}]},{"server_id":310,"name":"Uncletopia | Frankfurt | 5 | All Maps","name_short":"frk-5","host":"frk-1.de.uncletopia.com","port":27055,"enabled":true,"region":"eu","cc":"de","latitude":50.110924,"longitude":8.682127,"reserved":0,"last_update":"0001-01-01T00:00:00Z","name_a2s":"Uncletopia | Frankfurt | 5 | All Maps","protocol":17,"map":"cp_sunshine","folder":"tf","game":"Team Fortress","app_id":440,"player_count":1,"max_players":24,"Bots":0,"server_type":"Dedicated","server_os":"Linux","password":true,"vac":true,"version":"7961495","steam_id":85568392924504277,"keywords":["cp","nocrits","nodmgspread","uncletopia"],"game_id":440,"stv_port":27056,"stv_name":"Uncletopia | Frankfurt | 5 | All Maps | STV","players":[{"user_id":19,"name":"–í–ò–ó","steam_id":76561198003150187,"connected_time":293000000000,"state":"active","ping":96}]},{"server_id":311,"name":"Uncletopia | Frankfurt | 6 | All Maps","name_short":"frk-6","host":"frk-1.de.uncletopia.com","port":27065,"enabled":true,"region":"eu","cc":"de","latitude":50.110924,"longitude":8.682127,"reserved":0,"last_update":"0001-01-01T00:00:00Z","name_a2s":"Uncletopia | Frankfurt | 6 | All Maps","protocol":17,"map":"cp_gorge","folder":"tf","game":"Team Fortress","app_id":440,"player_count":24,"max_players":24,"Bots":0,"server_type":"Dedicated","server_os":"Linux","password":true,"vac":true,"version":"7961495","steam_id":85568392924504278,"keywords":["cp","nocrits","nodmgspread","uncletopia"],"game_id":440,"stv_port":27066,"stv_name":"Uncletopia | Frankfurt | 6 | All Maps | STV","players":[{"user_id":135,"name":"leadsquid","steam_id":76561198071544109,"connected_time":205000000000,"state":"active","ping":120},{"user_id":113,"name":"021984","steam_id":76561198417999443,"connected_time":1781000000000,"state":"active","ping":92},{"user_id":122,"name":"Ben UFO","steam_id":76561198001648348,"connected_time":1281000000000,"state":"active","ping":59},{"user_id":137,"name":"Bin","steam_id":76561198308843607,"connected_time":146000000000,"state":"active","ping":55},{"user_id":134,"name":"SirVitek","steam_id":76561198142961758,"connected_time":229000000000,"state":"active","ping":61},{"user_id":138,"name":"N","steam_id":76561199094237497,"connected_time":133000000000,"state":"active","ping":57},{"user_id":139,"name":"swueuws","steam_id":76561198020716743,"connected_time":113000000000,"state":"active","ping":47},{"user_id":118,"name":"Ôº•Ôº•Ôº≠Ôº°ÔºÆ‚Ñ¢","steam_id":76561198044903016,"connected_time":1521000000000,"state":"active","ping":59},{"user_id":20,"name":"beetrootstrawberry2011","steam_id":76561198097239850,"connected_time":6369000000000,"state":"active","ping":58},{"user_id":89,"name":"QuestionMark","steam_id":76561198976108019,"connected_time":3119000000000,"state":"active","ping":143},{"user_id":126,"name":"@KINGDRIICK","steam_id":76561198048396162,"connected_time":1156000000000,"state":"active","ping":85},{"user_id":115,"name":"robsan","steam_id":76561198137375391,"connected_time":1728000000000,"state":"active","ping":85},{"user_id":62,"name":"jeezo","steam_id":76561198123592400,"connected_time":4599000000000,"state":"active","ping":90},{"user_id":140,"name":"LeGerooo","steam_id":76561199110422160,"connected_time":93000000000,"state":"active","ping":114},{"user_id":131,"name":"Mr. Salt Detector","steam_id":76561198089962282,"connected_time":277000000000,"state":"active","ping":55},{"user_id":141,"name":"ztrs6","steam_id":76561198314853803,"connected_time":82000000000,"state":"active","ping":85},{"user_id":123,"name":"Ama_r0","steam_id":76561198348377332,"connected_time":1249000000000,"state":"active","ping":110},{"user_id":127,"name":"burritoeater","steam_id":76561199124197813,"connected_time":1078000000000,"state":"active","ping":80},{"user_id":57,"name":"Lyncurion","steam_id":76561199260022725,"connected_time":4911000000000,"state":"active","ping":77},{"user_id":142,"name":"can718322","steam_id":76561199504094800,"connected_time":37000000000,"state":"active","ping":124},{"user_id":39,"name":"Hot Bean","steam_id":76561198803639155,"connected_time":5753000000000,"state":"active","ping":87},{"user_id":143,"name":"Soulman25 (FIN)","steam_id":76561198103611974,"connected_time":32000000000,"state":"active","ping":79},{"user_id":105,"name":"Huggou","steam_id":76561198258625053,"connected_time":2476000000000,"state":"active","ping":63},{"user_id":121,"name":"Mega Man Legends 3","steam_id":76561198014110199,"connected_time":1374000000000,"state":"active","ping":60}]},{"server_id":23,"name":"Uncletopia | Frankfurt | 7 | Stopwatch","name_short":"frk-7","host":"frk-1.de.uncletopia.com","port":27075,"enabled":true,"region":"eu","cc":"de","latitude":50.110924,"longitude":8.682127,"reserved":0,"last_update":"0001-01-01T00:00:00Z","name_a2s":"Uncletopia | Frankfurt | 7 | Stopwatch","protocol":17,"map":"workshop/pl_vigil_rc10.ugc1266210012","folder":"tf","game":"Team Fortress","app_id":440,"player_count":0,"max_players":24,"Bots":0,"server_type":"Dedicated","server_os":"Linux","password":true,"vac":true,"version":"7961495","steam_id":85568392924742827,"keywords":["nocrits","nodmgspread","payload","uncletopia"],"game_id":440,"stv_port":27076,"stv_name":"Uncletopia | Frankfurt | 7 | Stopwatch | STV","players":null},{"server_id":24,"name":"Uncletopia | Frankfurt | 8 | Community","name_short":"frk-8","host":"frk-1.de.uncletopia.com","port":27085,"enabled":true,"region":"eu","cc":"de","latitude":50.110924,"longitude":8.682127,"reserved":0,"last_update":"0001-01-01T00:00:00Z","name_a2s":"Uncletopia | Frankfurt | 8 | Community","protocol":17,"map":"workshop/pl_emerge_rc2.ugc888027758","folder":"tf","game":"Team Fortress","app_id":440,"player_count":0,"max_players":24,"Bots":0,"server_type":"Dedicated","server_os":"Linux","password":true,"vac":true,"version":"7961495","steam_id":85568392924742828,"keywords":["nocrits","nodmgspread","payload","uncletopia"],"game_id":440,"stv_port":27086,"stv_name":"Uncletopia | Frankfurt | 8 | Community | STV","players":null},{"server_id":202,"name":"Uncletopia | Hong Kong | 1 | All Maps","name_short":"hgk-1","host":"hgk-1.hk.uncletopia.com","port":27015,"enabled":true,"region":"asia","cc":"hk","latitude":22.302711,"longitude":114.177216,"reserved":0,"last_update":"0001-01-01T00:00:00Z","name_a2s":"Uncletopia | Hong Kong | 1 | All Maps","protocol":17,"map":"koth_cascade","folder":"tf","game":"Team Fortress","app_id":440,"player_count":7,"max_players":24,"Bots":0,"server_type":"Dedicated","server_os":"Linux","password":true,"vac":true,"version":"7961495","steam_id":85568392924494504,"keywords":["cp","nocrits","nodmgspread","uncletopia"],"game_id":440,"stv_port":27016,"stv_name":"Uncletopia | Hong Kong | 1 | All Maps | STV","players":[{"user_id":378,"name":"MEDIC!","steam_id":76561198238067374,"connected_time":996000000000,"state":"active","ping":114},{"user_id":389,"name":"fish jenga","steam_id":76561198080108480,"connected_time":182000000000,"state":"active","ping":48},{"user_id":209,"name":"Milf (The fan O'Milk)","steam_id":76561198213031155,"connected_time":11792000000000,"state":"active","ping":90},{"user_id":360,"name":"mogi","steam_id":76561198252950371,"connected_time":2234000000000,"state":"active","ping":83},{"user_id":354,"name":"Alice","steam_id":76561198052410860,"connected_time":2496000000000,"state":"active","ping":109},{"user_id":384,"name":"MrSparkeon","steam_id":76561198353131126,"connected_time":876000000000,"state":"active","ping":64},{"user_id":361,"name":"13MAN","steam_id":76561198900023603,"connected_time":2209000000000,"state":"active","ping":127}]},{"server_id":1,"name":"Uncletopia | Los Angeles | 1 | All Maps","name_short":"lax-1","host":"lax-1.us.uncletopia.com","port":27015,"enabled":true,"region":"us-west","cc":"us","latitude":33.94279,"longitude":-118.41004,"reserved":0,"last_update":"0001-01-01T00:00:00Z","name_a2s":"Uncletopia | Los Angeles | 1 | All Maps","protocol":17,"map":"koth_cascade","folder":"tf","game":"Team Fortress","app_id":440,"player_count":2,"max_players":24,"Bots":0,"server_type":"Dedicated","server_os":"Linux","password":true,"vac":true,"version":"7961495","steam_id":85568392924469991,"keywords":["cp","nocrits","nodmgspread","uncletopia"],"game_id":440,"stv_port":27016,"stv_name":"Uncletopia | Los Angeles | 1 | All Maps | STV","players":[{"user_id":5,"name":"Chomdyphoonus HQ C.E.O.","steam_id":76561199093893813,"connected_time":71000000000,"state":"active","ping":207},{"user_id":6,"name":"ProSlayer77","steam_id":76561199435273618,"connected_time":66000000000,"state":"active","ping":190}]},{"server_id":112,"name":"Uncletopia | Los Angeles | 2 | All Maps","name_short":"lax-2","host":"lax-1.us.uncletopia.com","port":27025,"enabled":true,"region":"us-west","cc":"us","latitude":33.94279,"longitude":-118.41004,"reserved":0,"last_update":"0001-01-01T00:00:00Z","name_a2s":"Uncletopia | Los Angeles | 2 | All Maps","protocol":17,"map":"cp_mountainlab","folder":"tf","game":"Team Fortress","app_id":440,"player_count":0,"max_players":24,"Bots":0,"server_type":"Dedicated","server_os":"Linux","password":true,"vac":true,"version":"7961495","steam_id":85568392924469992,"keywords":["cp","nocrits","nodmgspread","uncletopia"],"game_id":440,"stv_port":27026,"stv_name":"Uncletopia | Los Angeles | 2 | All Maps | STV","players":null},{"server_id":324,"name":"Uncletopia | Los Angeles | 3 | All Maps","name_short":"lax-3","host":"lax-1.us.uncletopia.com","port":27035,"enabled":true,"region":"us-west","cc":"us","latitude":33.94279,"longitude":-118.41004,"reserved":0,"last_update":"0001-01-01T00:00:00Z","name_a2s":"Uncletopia | Los Angeles | 3 | All Maps","protocol":17,"map":"pl_frontier_final","folder":"tf","game":"Team Fortress","app_id":440,"player_count":0,"max_players":24,"Bots":0,"server_type":"Dedicated","server_os":"Linux","password":true,"vac":true,"version":"7961495","steam_id":85568392924510198,"keywords":["nocrits","nodmgspread","payload","uncletopia"],"game_id":440,"stv_port":27036,"stv_name":"Uncletopia | Los Angeles | 3 | All Maps | STV","players":null},{"server_id":25,"name":"Uncletopia | Los Angeles | 4 | Stopwatch","name_short":"lax-4","host":"lax-1.us.uncletopia.com","port":27045,"enabled":true,"region":"us-west","cc":"us","latitude":33.94279,"longitude":-118.41004,"reserved":0,"last_update":"0001-01-01T00:00:00Z","name_a2s":"Uncletopia | Los Angeles | 4 | Stopwatch","protocol":17,"map":"pl_barnblitz","folder":"tf","game":"Team Fortress","app_id":440,"player_count":0,"max_players":24,"Bots":0,"server_type":"Dedicated","server_os":"Linux","password":true,"vac":true,"version":"7961495","steam_id":85568392924510199,"keywords":["nocrits","nodmgspread","payload","uncletopia"],"game_id":440,"stv_port":27046,"stv_name":"Uncletopia | Los Angeles | 4 | Stopwatch | STV","players":null},{"server_id":11,"name":"Uncletopia | London | 1 | All Maps","name_short":"lon-1","host":"lon-1.uk.uncletopia.com","port":27015,"enabled":true,"region":"eu","cc":"gb","latitude":51.509865,"longitude":-0.118092,"reserved":0,"last_update":"0001-01-01T00:00:00Z","name_a2s":"Uncletopia | London | 1 | All Maps","protocol":17,"map":"pl_barnblitz","folder":"tf","game":"Team Fortress","app_id":440,"player_count":24,"max_players":24,"Bots":0,"server_type":"Dedicated","server_os":"Linux","password":true,"vac":true,"version":"7961495","steam_id":85568392924367362,"keywords":["nocrits","nodmgspread","payload","uncletopia"],"game_id":440,"stv_port":27016,"stv_name":"Uncletopia | London | 1 | All Maps | STV","players":[{"user_id":469,"name":"Pats (Gifted items Collector)","steam_id":76561198418538887,"connected_time":2400000000000,"state":"active","ping":78},{"user_id":490,"name":"Woman (Real)","steam_id":76561199151823932,"connected_time":877000000000,"state":"active","ping":92},{"user_id":452,"name":"chestnutflea","steam_id":76561198144268690,"connected_time":4180000000000,"state":"active","ping":60},{"user_id":473,"name":"stroyo","steam_id":76561198409592046,"connected_time":1805000000000,"state":"active","ping":56},{"user_id":477,"name":"FLEXXX","steam_id":76561198210670927,"connected_time":1727000000000,"state":"active","ping":60},{"user_id":449,"name":"mertefe","steam_id":76561199237126613,"connected_time":4755000000000,"state":"active","ping":102},{"user_id":496,"name":"murderwow","steam_id":76561198024566944,"connected_time":345000000000,"state":"active","ping":112},{"user_id":463,"name":"hbivnm","steam_id":76561197996468677,"connected_time":3316000000000,"state":"active","ping":68},{"user_id":491,"name":"Archer","steam_id":76561197994239444,"connected_time":561000000000,"state":"active","ping":121},{"user_id":467,"name":"Losre","steam_id":76561198071393125,"connected_time":3029000000000,"state":"active","ping":63},{"user_id":494,"name":"*Stare*","steam_id":76561199072209884,"connected_time":396000000000,"state":"active","ping":56},{"user_id":498,"name":"Joe Biden","steam_id":76561198047299145,"connected_time":212000000000,"state":"active","ping":81},{"user_id":489,"name":"SKY_","steam_id":76561198080980508,"connected_time":990000000000,"state":"active","ping":64},{"user_id":487,"name":"The legendery balls","steam_id":76561199139344747,"connected_time":1460000000000,"state":"active","ping":101},{"user_id":486,"name":"G-Smokesz Gaming","steam_id":76561198278095231,"connected_time":1555000000000,"state":"active","ping":81},{"user_id":474,"name":"‡∂ûaura‡∂û","steam_id":76561198066258544,"connected_time":1770000000000,"state":"active","ping":59},{"user_id":495,"name":"Keany","steam_id":76561199041393458,"connected_time":394000000000,"state":"active","ping":55},{"user_id":468,"name":"Trans Femtress 2","steam_id":76561198014056212,"connected_time":3027000000000,"state":"active","ping":72},{"user_id":425,"name":"Janneke Maan","steam_id":76561198069290924,"connected_time":5909000000000,"state":"active","ping":65},{"user_id":456,"name":"Pitipit","steam_id":76561198343333412,"connected_time":3926000000000,"state":"active","ping":98},{"user_id":480,"name":"your car's extended warranty","steam_id":76561198124658396,"connected_time":1688000000000,"state":"active","ping":47},{"user_id":483,"name":"- Indigo -","steam_id":76561198380193071,"connected_time":1650000000000,"state":"active","ping":74},{"user_id":493,"name":"Mircoxi","steam_id":76561199407632710,"connected_time":400000000000,"state":"active","ping":63}]},{"server_id":114,"name":"Uncletopia | London | 2 | All Maps","name_short":"lon-2","host":"lon-1.uk.uncletopia.com","port":27025,"enabled":true,"region":"eu","cc":"gb","latitude":51.509865,"longitude":-0.118092,"reserved":0,"last_update":"0001-01-01T00:00:00Z","name_a2s":"Uncletopia | London | 2 | All Maps","protocol":17,"map":"plr_bananabay","folder":"tf","game":"Team Fortress","app_id":440,"player_count":12,"max_players":24,"Bots":0,"server_type":"Dedicated","server_os":"Linux","password":true,"vac":true,"version":"7961495","steam_id":85568392924470941,"keywords":["nocrits","nodmgspread","payload","uncletopia"],"game_id":440,"stv_port":27026,"stv_name":"Uncletopia | London | 2 | All Maps | STV","players":[{"user_id":257,"name":"rudolph","steam_id":76561198057399765,"connected_time":300000000000,"state":"active","ping":53},{"user_id":215,"name":"pyromaniac","steam_id":76561198292781255,"connected_time":3508000000000,"state":"active","ping":75},{"user_id":258,"name":"The worst TF2 player(Real)","steam_id":76561199184873889,"connected_time":256000000000,"state":"active","ping":64},{"user_id":260,"name":"i can spawn demons js like gmod","steam_id":76561199371070576,"connected_time":157000000000,"state":"active","ping":106},{"user_id":261,"name":"Cobalt","steam_id":76561198349228196,"connected_time":11000000000,"state":"spawning","ping":42},{"user_id":252,"name":"BD[PL]","steam_id":76561198115995871,"connected_time":914000000000,"state":"active","ping":91},{"user_id":237,"name":"Luigi","steam_id":76561199194954220,"connected_time":1832000000000,"state":"active","ping":68},{"user_id":239,"name":"clunk","steam_id":76561198836460767,"connected_time":1811000000000,"state":"active","ping":75},{"user_id":230,"name":"LordTrap.exe","steam_id":76561198318089716,"connected_time":2608000000000,"state":"active","ping":58},{"user_id":209,"name":"KFD","steam_id":76561198157183003,"connected_time":3580000000000,"state":"active","ping":85},{"user_id":250,"name":"Mr_Touchyou","steam_id":76561198452524697,"connected_time":933000000000,"state":"active","ping":118},{"user_id":253,"name":"Penis Gaming","steam_id":76561199198623988,"connected_time":876000000000,"state":"active","ping":46}]},{"server_id":320,"name":"Uncletopia | London | 3 | All Maps","name_short":"lon-3","host":"lon-1.uk.uncletopia.com","port":27035,"enabled":true,"region":"eu","cc":"gb","latitude":51.509865,"longitude":-0.118092,"reserved":0,"last_update":"0001-01-01T00:00:00Z","name_a2s":"Uncletopia | London | 3 | All Maps","protocol":17,"map":"pl_badwater","folder":"tf","game":"Team Fortress","app_id":440,"player_count":23,"max_players":24,"Bots":0,"server_type":"Dedicated","server_os":"Linux","password":true,"vac":true,"version":"7961495","steam_id":85568392924510192,"keywords":["nocrits","nodmgspread","payload","uncletopia"],"game_id":440,"stv_port":27036,"stv_name":"Uncletopia | London | 3 | All Maps | STV","players":[{"user_id":57,"name":"patrick","steam_id":76561198086684892,"connected_time":800000000000,"state":"active","ping":109},{"user_id":66,"name":"Dolcelatte","steam_id":76561198038501770,"connected_time":354000000000,"state":"active","ping":60},{"user_id":61,"name":"ote","steam_id":76561198165550964,"connected_time":458000000000,"state":"active","ping":49},{"user_id":46,"name":"Royal","steam_id":76561198157621024,"connected_time":1180000000000,"state":"active","ping":38},{"user_id":62,"name":"EricToGo","steam_id":76561198068019642,"connected_time":446000000000,"state":"active","ping":76},{"user_id":19,"name":"tr4ce","steam_id":76561198085296732,"connected_time":2619000000000,"state":"active","ping":39},{"user_id":64,"name":"SoaCrow","steam_id":76561198069420717,"connected_time":400000000000,"state":"active","ping":71},{"user_id":70,"name":"I sell exotic parrots","steam_id":76561199192434258,"connected_time":241000000000,"state":"active","ping":93},{"user_id":68,"name":"calum92","steam_id":76561197992188760,"connected_time":310000000000,"state":"active","ping":60},{"user_id":69,"name":"Cla1rv0yant","steam_id":76561198073841803,"connected_time":289000000000,"state":"active","ping":121},{"user_id":49,"name":"JohnTraveltime","steam_id":76561199244281754,"connected_time":1126000000000,"state":"active","ping":79},{"user_id":71,"name":"Der Geist des Hans Rosling","steam_id":76561198049231109,"connected_time":240000000000,"state":"active","ping":65},{"user_id":28,"name":"Jack","steam_id":76561198067267053,"connected_time":2214000000000,"state":"active","ping":59},{"user_id":72,"name":"delete System32","steam_id":76561198032787233,"connected_time":217000000000,"state":"active","ping":85},{"user_id":30,"name":"F2P Challenge","steam_id":76561199498773639,"connected_time":2197000000000,"state":"active","ping":85},{"user_id":76,"name":"Syd","steam_id":76561198020515027,"connected_time":163000000000,"state":"active","ping":91},{"user_id":48,"name":"Egor Pomidor","steam_id":76561199175688390,"connected_time":1160000000000,"state":"active","ping":89},{"user_id":34,"name":"DrExplosive","steam_id":76561198063678579,"connected_time":2118000000000,"state":"active","ping":49},{"user_id":74,"name":"wtabs","steam_id":76561198831766743,"connected_time":198000000000,"state":"active","ping":77},{"user_id":73,"name":"DOMAIN","steam_id":76561199095640319,"connected_time":210000000000,"state":"active","ping":80},{"user_id":38,"name":"Wardruna96","steam_id":76561199057083828,"connected_time":2093000000000,"state":"active","ping":74},{"user_id":75,"name":"FNF","steam_id":76561199151422826,"connected_time":193000000000,"state":"active","ping":130},{"user_id":40,"name":"techno ttv/rc4322","steam_id":76561198172101254,"connected_time":2034000000000,"state":"active","ping":74}]},{"server_id":321,"name":"Uncletopia | London | 4 | All Maps","name_short":"lon-4","host":"lon-1.uk.uncletopia.com","port":27045,"enabled":true,"region":"eu","cc":"gb","latitude":51.509865,"longitude":-0.118092,"reserved":0,"last_update":"0001-01-01T00:00:00Z","name_a2s":"Uncletopia | London | 4 | All Maps","protocol":17,"map":"pl_swiftwater_final1","folder":"tf","game":"Team Fortress","app_id":440,"player_count":5,"max_players":24,"Bots":0,"server_type":"Dedicated","server_os":"Linux","password":true,"vac":true,"version":"7961495","steam_id":85568392924510193,"keywords":["nocrits","nodmgspread","payload","uncletopia"],"game_id":440,"stv_port":27046,"stv_name":"Uncletopia | London | 4 | All Maps | STV","players":[{"user_id":8,"name":"Xuii Frog","steam_id":76561198191800994,"connected_time":1607000000000,"state":"active","ping":58},{"user_id":9,"name":"Mercy","steam_id":76561198151887344,"connected_time":1595000000000,"state":"active","ping":80},{"user_id":10,"name":"_Context_","steam_id":76561199163359312,"connected_time":718000000000,"state":"active","ping":65},{"user_id":11,"name":"ran is running","steam_id":76561199443185667,"connected_time":261000000000,"state":"active","ping":136},{"user_id":12,"name":"JC","steam_id":76561198438391624,"connected_time":58000000000,"state":"active","ping":57}]},{"server_id":21,"name":"Uncletopia | London | 5 | All Maps","name_short":"lon-5","host":"lon-1.uk.uncletopia.com","port":27055,"enabled":true,"region":"eu","cc":"gb","latitude":51.509865,"longitude":-0.118092,"reserved":0,"last_update":"0001-01-01T00:00:00Z","name_a2s":"Uncletopia | London | 5 | All Maps","protocol":17,"map":"cp_powerhouse","folder":"tf","game":"Team Fortress","app_id":440,"player_count":24,"max_players":24,"Bots":0,"server_type":"Dedicated","server_os":"Linux","password":true,"vac":true,"version":"7961495","steam_id":85568392924742829,"keywords":["cp","nocrits","nodmgspread","uncletopia"],"game_id":440,"stv_port":27056,"stv_name":"Uncletopia | London | 5 | All Maps | STV","players":[{"user_id":144,"name":"Not Sussy Tanuki","steam_id":76561198137289375,"connected_time":265000000000,"state":"active","ping":106},{"user_id":145,"name":"Solima","steam_id":76561198045349099,"connected_time":214000000000,"state":"active","ping":59},{"user_id":137,"name":"uhhh obama","steam_id":76561198084325004,"connected_time":689000000000,"state":"active","ping":68},{"user_id":143,"name":"sneaky snake","steam_id":76561198279965791,"connected_time":423000000000,"state":"active","ping":89},{"user_id":95,"name":"Pan Piotr","steam_id":76561198140016126,"connected_time":4830000000000,"state":"active","ping":85},{"user_id":136,"name":"lumiukko","steam_id":76561199103891073,"connected_time":741000000000,"state":"active","ping":106},{"user_id":98,"name":"Rudoss","steam_id":76561198018415787,"connected_time":4774000000000,"state":"active","ping":71},{"user_id":68,"name":"hyvakii705","steam_id":76561198086630552,"connected_time":6542000000000,"state":"active","ping":90},{"user_id":129,"name":"Pirik","steam_id":76561198013768203,"connected_time":1822000000000,"state":"active","ping":71},{"user_id":135,"name":"nefariousevilsorcerermoonGrass","steam_id":76561198799519725,"connected_time":912000000000,"state":"active","ping":100},{"user_id":139,"name":"WEEP","steam_id":76561199499933159,"connected_time":653000000000,"state":"active","ping":75},{"user_id":114,"name":"Dlaf'rferg (she/her)","steam_id":76561198284744735,"connected_time":3503000000000,"state":"active","ping":48},{"user_id":140,"name":"Cosmetic brain","steam_id":76561198055936410,"connected_time":649000000000,"state":"active","ping":89},{"user_id":126,"name":"Ullr","steam_id":76561198140547483,"connected_time":2015000000000,"state":"active","ping":40},{"user_id":141,"name":"Sniper","steam_id":76561199051749044,"connected_time":617000000000,"state":"active","ping":43},{"user_id":142,"name":"SpineJuice","steam_id":76561199084272069,"connected_time":612000000000,"state":"active","ping":70},{"user_id":125,"name":"Fors√©n","steam_id":76561199131971501,"connected_time":2647000000000,"state":"active","ping":87},{"user_id":146,"name":"Sunshine","steam_id":76561198885528098,"connected_time":182000000000,"state":"active","ping":113},{"user_id":130,"name":"Shapeshifter","steam_id":76561198052898368,"connected_time":1813000000000,"state":"active","ping":93},{"user_id":121,"name":"The Burger","steam_id":76561198124463930,"connected_time":3045000000000,"state":"active","ping":40},{"user_id":147,"name":"Welder","steam_id":76561198355300561,"connected_time":19000000000,"state":"active","ping":73},{"user_id":99,"name":"American Chjeff (‚ú™oficial)","steam_id":76561198019917466,"connected_time":4774000000000,"state":"active","ping":56},{"user_id":48,"name":"Thundercracker__","steam_id":76561199163505476,"connected_time":7952000000000,"state":"active","ping":53},{"user_id":103,"name":"Warrior555MainsGanon","steam_id":76561198388627786,"connected_time":4666000000000,"state":"active","ping":65}]},{"server_id":22,"name":"Uncletopia | London | 6 | All Maps","name_short":"lon-6","host":"lon-1.uk.uncletopia.com","port":27065,"enabled":true,"region":"eu","cc":"gb","latitude":51.509865,"longitude":-0.118092,"reserved":0,"last_update":"0001-01-01T00:00:00Z","name_a2s":"Uncletopia | London | 6 | All Maps","protocol":17,"map":"pl_borneo","folder":"tf","game":"Team Fortress","app_id":440,"player_count":0,"max_players":24,"Bots":0,"server_type":"Dedicated","server_os":"Linux","password":true,"vac":true,"version":"7961495","steam_id":85568392924742830,"keywords":["nocrits","nodmgspread","payload","uncletopia"],"game_id":440,"stv_port":27066,"stv_name":"Uncletopia | London | 6 | All Maps | STV","players":null},{"server_id":40,"name":"Uncletopia | London | 7 | Stopwatch","name_short":"lon-7","host":"lon-1.uk.uncletopia.com","port":27075,"enabled":true,"region":"eu","cc":"gb","latitude":51.509865,"longitude":-0.118092,"reserved":0,"last_update":"0001-01-01T00:00:00Z","name_a2s":"Uncletopia | London | 7 | Stopwatch","protocol":17,"map":"workshop/koth_bagel_rc6.ugc2514036946","folder":"tf","game":"Team Fortress","app_id":440,"player_count":0,"max_players":24,"Bots":0,"server_type":"Dedicated","server_os":"Linux","password":true,"vac":true,"version":"7961495","steam_id":85568392924964314,"keywords":["cp","nocrits","nodmgspread","uncletopia"],"game_id":440,"stv_port":27076,"stv_name":"Uncletopia | London | 7 | Stopwatch | STV","players":null},{"server_id":41,"name":"Uncletopia | London | 8 | Community","name_short":"lon-8","host":"lon-1.uk.uncletopia.com","port":27085,"enabled":true,"region":"eu","cc":"gb","latitude":51.509865,"longitude":-0.118092,"reserved":0,"last_update":"0001-01-01T00:00:00Z","name_a2s":"Uncletopia | London | 8 | Community","protocol":17,"map":"cp_snakewater_final1","folder":"tf","game":"Team Fortress","app_id":440,"player_count":0,"max_players":24,"Bots":0,"server_type":"Dedicated","server_os":"Linux","password":true,"vac":true,"version":"7961495","steam_id":85568392924964315,"keywords":["cp","nocrits","nodmgspread","uncletopia"],"game_id":440,"stv_port":27086,"stv_name":"Uncletopia | London | 8 | Community | STV","players":null},{"server_id":300,"name":"Uncletopia | Montr√©al | 1 | One Thousand Uncles","name_short":"mtl-1","host":"mtl-1.ca.uncletopia.com","port":27015,"enabled":true,"region":"us-east","cc":"ca","latitude":45.50889,"longitude":-73.56167,"reserved":0,"last_update":"0001-01-01T00:00:00Z","name_a2s":"","protocol":0,"map":"","folder":"","game":"","app_id":0,"player_count":0,"max_players":0,"Bots":0,"server_type":"","server_os":"","password":false,"vac":false,"version":"","steam_id":0,"keywords":null,"game_id":0,"stv_port":0,"stv_name":"","players":null},{"server_id":301,"name":"Uncletopia | Montr√©al | 2 | One Thousand Uncles","name_short":"mtl-2","host":"mtl-1.ca.uncletopia.com","port":27025,"enabled":true,"region":"us-east","cc":"ca","latitude":45.50889,"longitude":-73.56167,"reserved":0,"last_update":"0001-01-01T00:00:00Z","name_a2s":"","protocol":0,"map":"","folder":"","game":"","app_id":0,"player_count":0,"max_players":0,"Bots":0,"server_type":"","server_os":"","password":false,"vac":false,"version":"","steam_id":0,"keywords":null,"game_id":0,"stv_port":0,"stv_name":"","players":null},{"server_id":302,"name":"Uncletopia | Montr√©al | 3 | One Thousand Uncles","name_short":"mtl-3","host":"mtl-1.ca.uncletopia.com","port":27035,"enabled":true,"region":"us-east","cc":"ca","latitude":45.50889,"longitude":-73.56167,"reserved":0,"last_update":"0001-01-01T00:00:00Z","name_a2s":"","protocol":0,"map":"","folder":"","game":"","app_id":0,"player_count":0,"max_players":0,"Bots":0,"server_type":"","server_os":"","password":false,"vac":false,"version":"","steam_id":0,"keywords":null,"game_id":0,"stv_port":0,"stv_name":"","players":null},{"server_id":13,"name":"Uncletopia | New York City | 1 | All Maps","name_short":"nyc-1","host":"nyc-1.us.uncletopia.com","port":27015,"enabled":true,"region":"us-east","cc":"us","latitude":40.73061,"longitude":-73.93524,"reserved":0,"last_update":"0001-01-01T00:00:00Z","name_a2s":"Uncletopia | New York City | 1 | All Maps","protocol":17,"map":"koth_cascade","folder":"tf","game":"Team Fortress","app_id":440,"player_count":0,"max_players":24,"Bots":0,"server_type":"Dedicated","server_os":"Linux","password":true,"vac":true,"version":"7961495","steam_id":85568392924469993,"keywords":["cp","nocrits","nodmgspread","uncletopia"],"game_id":440,"stv_port":27016,"stv_name":"Uncletopia | New York City | 1 | All Maps | STV","players":null},{"server_id":14,"name":"Uncletopia | New York City | 2 | All Maps","name_short":"nyc-2","host":"nyc-1.us.uncletopia.com","port":27025,"enabled":true,"region":"us-east","cc":"us","latitude":40.73061,"longitude":-73.93524,"reserved":0,"last_update":"0001-01-01T00:00:00Z","name_a2s":"Uncletopia | New York City | 2 | All Maps","protocol":17,"map":"koth_viaduct","folder":"tf","game":"Team Fortress","app_id":440,"player_count":0,"max_players":24,"Bots":0,"server_type":"Dedicated","server_os":"Linux","password":true,"vac":true,"version":"7961495","steam_id":85568392924469994,"keywords":["cp","nocrits","nodmgspread","uncletopia"],"game_id":440,"stv_port":27026,"stv_name":"Uncletopia | New York City | 2 | All Maps | STV","players":null},{"server_id":15,"name":"Uncletopia | New York City | 3 | Stopwatch","name_short":"nyc-3","host":"nyc-1.us.uncletopia.com","port":27035,"enabled":true,"region":"us-east","cc":"us","latitude":40.73061,"longitude":-73.93524,"reserved":0,"last_update":"0001-01-01T00:00:00Z","name_a2s":"Uncletopia | New York City | 3 | Stopwatch","protocol":17,"map":"pl_snowycoast","folder":"tf","game":"Team Fortress","app_id":440,"player_count":0,"max_players":24,"Bots":0,"server_type":"Dedicated","server_os":"Linux","password":true,"vac":true,"version":"7961495","steam_id":85568392924742820,"keywords":["nocrits","nodmgspread","payload","uncletopia"],"game_id":440,"stv_port":27036,"stv_name":"Uncletopia | New York City | 3 | Stopwatch | STV","players":null},{"server_id":16,"name":"Uncletopia | New York City | 4 | Community","name_short":"nyc-4","host":"nyc-1.us.uncletopia.com","port":27045,"enabled":true,"region":"us-east","cc":"us","latitude":40.73061,"longitude":-73.93524,"reserved":0,"last_update":"0001-01-01T00:00:00Z","name_a2s":"Uncletopia | New York City | 4 | Community","protocol":17,"map":"cp_altitude","folder":"tf","game":"Team Fortress","app_id":440,"player_count":0,"max_players":24,"Bots":0,"server_type":"Dedicated","server_os":"Linux","password":true,"vac":true,"version":"7961495","steam_id":85568392924742821,"keywords":["cp","nocrits","nodmgspread","uncletopia"],"game_id":440,"stv_port":27046,"stv_name":"Uncletopia | New York City | 4 | Community | STV","players":null},{"server_id":142,"name":"Uncletopia | S√£o Paulo | 1 | All Maps","name_short":"sao-1","host":"sao-1.br.uncletopia.com","port":27015,"enabled":true,"region":"sa","cc":"br","latitude":-23.533773,"longitude":-46.62529,"reserved":0,"last_update":"0001-01-01T00:00:00Z","name_a2s":"Uncletopia | S√£o Paulo | 1 | All Maps","protocol":17,"map":"cp_mountainlab","folder":"tf","game":"Team Fortress","app_id":440,"player_count":0,"max_players":24,"Bots":0,"server_type":"Dedicated","server_os":"Linux","password":true,"vac":true,"version":"7961495","steam_id":85568392924469996,"keywords":["cp","nocrits","nodmgspread","uncletopia"],"game_id":440,"stv_port":27016,"stv_name":"Uncletopia | S√£o Paulo | 1 | All Maps | STV","players":null},{"server_id":143,"name":"Uncletopia | S√£o Paulo | 2 | Community","name_short":"sao-2","host":"sao-2.br.uncletopia.com","port":27015,"enabled":true,"region":"sa","cc":"br","latitude":-23.533773,"longitude":-46.62529,"reserved":0,"last_update":"0001-01-01T00:00:00Z","name_a2s":"Uncletopia | S√£o Paulo | 2 | Community","protocol":17,"map":"pl_badwater","folder":"tf","game":"Team Fortress","app_id":440,"player_count":0,"max_players":24,"Bots":0,"server_type":"Dedicated","server_os":"Linux","password":true,"vac":true,"version":"7961495","steam_id":85568392924485349,"keywords":["nocrits","nodmgspread","payload","uncletopia"],"game_id":440,"stv_port":27016,"stv_name":"Uncletopia | S√£o Paulo | 2 | Community | STV","players":null},{"server_id":7,"name":"Uncletopia | Seattle | 1 | All Maps","name_short":"sea-1","host":"sea-1.us.uncletopia.com","port":27015,"enabled":true,"region":"us-west","cc":"us","latitude":47.608013,"longitude":-122.33517,"reserved":0,"last_update":"0001-01-01T00:00:00Z","name_a2s":"Uncletopia | Seattle | 1 | All Maps","protocol":17,"map":"pl_pier","folder":"tf","game":"Team Fortress","app_id":440,"player_count":0,"max_players":24,"Bots":0,"server_type":"Dedicated","server_os":"Linux","password":true,"vac":true,"version":"7961495","steam_id":85568392924469997,"keywords":["nocrits","nodmgspread","payload","uncletopia"],"game_id":440,"stv_port":27016,"stv_name":"Uncletopia | Seattle | 1 | All Maps | STV","players":null},{"server_id":119,"name":"Uncletopia | Seattle | 2 | All Maps","name_short":"sea-2","host":"sea-1.us.uncletopia.com","port":27025,"enabled":true,"region":"us-west","cc":"us","latitude":47.608013,"longitude":-122.33517,"reserved":0,"last_update":"0001-01-01T00:00:00Z","name_a2s":"Uncletopia | Seattle | 2 | All Maps","protocol":17,"map":"cp_process_final","folder":"tf","game":"Team Fortress","app_id":440,"player_count":0,"max_players":24,"Bots":0,"server_type":"Dedicated","server_os":"Linux","password":true,"vac":true,"version":"7961495","steam_id":85568392924469998,"keywords":["cp","nocrits","nodmgspread","uncletopia"],"game_id":440,"stv_port":27026,"stv_name":"Uncletopia | Seattle | 2 | All Maps | STV","players":null},{"server_id":406,"name":"Uncletopia | Seattle | 3 | Stopwatch","name_short":"sea-3","host":"sea-1.us.uncletopia.com","port":27035,"enabled":true,"region":"us-west","cc":"us","latitude":47.608013,"longitude":-122.33517,"reserved":0,"last_update":"0001-01-01T00:00:00Z","name_a2s":"Uncletopia | Seattle | 3 | Stopwatch","protocol":17,"map":"pl_pier","folder":"tf","game":"Team Fortress","app_id":440,"player_count":0,"max_players":24,"Bots":0,"server_type":"Dedicated","server_os":"Linux","password":true,"vac":true,"version":"7961495","steam_id":85568392924515217,"keywords":["nocrits","nodmgspread","payload","uncletopia"],"game_id":440,"stv_port":27036,"stv_name":"Uncletopia | Seattle | 3 | Stopwatch | STV","players":null},{"server_id":17,"name":"Uncletopia | San Francisco | 1 | All Maps","name_short":"sfo-1","host":"sfo-1.us.uncletopia.com","port":27015,"enabled":true,"region":"us-west","cc":"us","latitude":37.77397,"longitude":-122.4313,"reserved":0,"last_update":"0001-01-01T00:00:00Z","name_a2s":"Uncletopia | San Francisco | 1 | All Maps","protocol":17,"map":"koth_cascade","folder":"tf","game":"Team Fortress","app_id":440,"player_count":0,"max_players":24,"Bots":0,"server_type":"Dedicated","server_os":"Linux","password":true,"vac":true,"version":"7961495","steam_id":85568392924469999,"keywords":["cp","nocrits","nodmgspread","uncletopia"],"game_id":440,"stv_port":27016,"stv_name":"Uncletopia | San Francisco | 1 | All Maps | STV","players":null},{"server_id":18,"name":"Uncletopia | San Francisco | 2 | All Maps","name_short":"sfo-2","host":"sfo-1.us.uncletopia.com","port":27025,"enabled":true,"region":"us-west","cc":"us","latitude":37.77397,"longitude":-122.4313,"reserved":0,"last_update":"0001-01-01T00:00:00Z","name_a2s":"Uncletopia | San Francisco | 2 | All Maps","protocol":17,"map":"pl_frontier_final","folder":"tf","game":"Team Fortress","app_id":440,"player_count":0,"max_players":24,"Bots":0,"server_type":"Dedicated","server_os":"Linux","password":true,"vac":true,"version":"7961495","steam_id":85568392924470000,"keywords":["nocrits","nodmgspread","payload","uncletopia"],"game_id":440,"stv_port":27026,"stv_name":"Uncletopia | San Francisco | 2 | All Maps | STV","players":null},{"server_id":19,"name":"Uncletopia | San Francisco | 3 | Stopwatch","name_short":"sfo-3","host":"sfo-1.us.uncletopia.com","port":27035,"enabled":true,"region":"us-west","cc":"us","latitude":37.77397,"longitude":-122.4313,"reserved":0,"last_update":"0001-01-01T00:00:00Z","name_a2s":"Uncletopia | San Francisco | 3 | Stopwatch","protocol":17,"map":"pl_pier","folder":"tf","game":"Team Fortress","app_id":440,"player_count":0,"max_players":24,"Bots":0,"server_type":"Dedicated","server_os":"Linux","password":true,"vac":true,"version":"7961495","steam_id":85568392924742824,"keywords":["nocrits","nodmgspread","payload","uncletopia"],"game_id":440,"stv_port":27036,"stv_name":"Uncletopia | San Francisco | 3 | Stopwatch | STV","players":null},{"server_id":20,"name":"Uncletopia | San Francisco | 4 | Community","name_short":"sfo-4","host":"sfo-1.us.uncletopia.com","port":27045,"enabled":true,"region":"us-west","cc":"us","latitude":37.77397,"longitude":-122.4313,"reserved":0,"last_update":"0001-01-01T00:00:00Z","name_a2s":"Uncletopia | San Francisco | 4 | Community","protocol":17,"map":"pl_pier","folder":"tf","game":"Team Fortress","app_id":440,"player_count":0,"max_players":24,"Bots":0,"server_type":"Dedicated","server_os":"Linux","password":true,"vac":true,"version":"7961495","steam_id":85568392924742826,"keywords":["nocrits","nodmgspread","payload","uncletopia"],"game_id":440,"stv_port":27046,"stv_name":"Uncletopia | San Francisco | 4 | Community | STV","players":null},{"server_id":141,"name":"Uncletopia | Sydney | 1 | All Maps","name_short":"syd-1","host":"syd-1.au.uncletopia.com","port":27015,"enabled":true,"region":"au","cc":"au","latitude":-33.865143,"longitude":151.2099,"reserved":0,"last_update":"0001-01-01T00:00:00Z","name_a2s":"Uncletopia | Sydney | 1 | All Maps","protocol":17,"map":"pl_pier","folder":"tf","game":"Team Fortress","app_id":440,"player_count":13,"max_players":24,"Bots":0,"server_type":"Dedicated","server_os":"Linux","password":true,"vac":true,"version":"7961495","steam_id":85568392924470001,"keywords":["nocrits","nodmgspread","payload","uncletopia"],"game_id":440,"stv_port":27016,"stv_name":"Uncletopia | Sydney | 1 | All Maps | STV","players":[{"user_id":389,"name":"MoistNipple","steam_id":76561198180956833,"connected_time":3662000000000,"state":"active","ping":68},{"user_id":419,"name":"GH578","steam_id":76561199493262585,"connected_time":214000000000,"state":"active","ping":277},{"user_id":420,"name":"M320 Smoke","steam_id":76561199161637215,"connected_time":150000000000,"state":"active","ping":96},{"user_id":391,"name":"uhhhh huhuhhuhuhuhhuh","steam_id":76561198025099660,"connected_time":3321000000000,"state":"active","ping":35},{"user_id":412,"name":"Kh√¢rn the Betrayer","steam_id":76561199165005160,"connected_time":1442000000000,"state":"active","ping":104},{"user_id":405,"name":"the concrete will never recover","steam_id":76561198067978287,"connected_time":1980000000000,"state":"active","ping":99},{"user_id":415,"name":"Chocolate Lightning","steam_id":76561198213958971,"connected_time":1041000000000,"state":"active","ping":98},{"user_id":393,"name":":sticky::sticky::sticky:","steam_id":76561198183060018,"connected_time":3285000000000,"state":"active","ping":63},{"user_id":406,"name":"Doctor!","steam_id":76561198041851238,"connected_time":1971000000000,"state":"active","ping":90},{"user_id":399,"name":"Mooty","steam_id":76561198301293435,"connected_time":2635000000000,"state":"active","ping":46},{"user_id":411,"name":"Rags","steam_id":76561198179481430,"connected_time":1497000000000,"state":"active","ping":85},{"user_id":328,"name":"L. Presidente","steam_id":76561198857147659,"connected_time":8973000000000,"state":"active","ping":104},{"user_id":329,"name":"cones2nite","steam_id":76561198101111240,"connected_time":8911000000000,"state":"active","ping":118}]},{"server_id":123,"name":"Uncletopia | Sydney | 2 | All Maps","name_short":"syd-2","host":"syd-1.au.uncletopia.com","port":27025,"enabled":true,"region":"au","cc":"au","latitude":-33.865143,"longitude":151.2099,"reserved":0,"last_update":"0001-01-01T00:00:00Z","name_a2s":"Uncletopia | Sydney | 2 | All Maps","protocol":17,"map":"koth_highpass","folder":"tf","game":"Team Fortress","app_id":440,"player_count":0,"max_players":24,"Bots":0,"server_type":"Dedicated","server_os":"Linux","password":true,"vac":true,"version":"7961495","steam_id":85568392924470002,"keywords":["cp","nocrits","nodmgspread","uncletopia"],"game_id":440,"stv_port":27026,"stv_name":"Uncletopia | Sydney | 2 | All Maps | STV","players":null},{"server_id":395,"name":"Uncletopia | Sydney | 3 | All Maps","name_short":"syd-3","host":"syd-1.au.uncletopia.com","port":27035,"enabled":true,"region":"au","cc":"au","latitude":-33.865143,"longitude":151.2099,"reserved":0,"last_update":"0001-01-01T00:00:00Z","name_a2s":"Uncletopia | Sydney | 3 | All Maps","protocol":17,"map":"koth_highpass","folder":"tf","game":"Team Fortress","app_id":440,"player_count":0,"max_players":24,"Bots":0,"server_type":"Dedicated","server_os":"Linux","password":true,"vac":true,"version":"7961495","steam_id":85568392925194467,"keywords":["cp","nocrits","nodmgspread","uncletopia"],"game_id":440,"stv_port":27036,"stv_name":"Uncletopia | Sydney | 3 | All Maps | STV","players":null},{"server_id":396,"name":"Uncletopia | Sydney | 4 | All Maps","name_short":"syd-4","host":"syd-1.au.uncletopia.com","port":27045,"enabled":true,"region":"au","cc":"au","latitude":-33.865143,"longitude":151.2099,"reserved":0,"last_update":"0001-01-01T00:00:00Z","name_a2s":"Uncletopia | Sydney | 4 | All Maps","protocol":17,"map":"cp_sunshine","folder":"tf","game":"Team Fortress","app_id":440,"player_count":0,"max_players":24,"Bots":0,"server_type":"Dedicated","server_os":"Linux","password":true,"vac":true,"version":"7961495","steam_id":85568392925397958,"keywords":["cp","nocrits","nodmgspread","uncletopia"],"game_id":440,"stv_port":27046,"stv_name":"Uncletopia | Sydney | 4 | All Maps | STV","players":null},{"server_id":58,"name":"Uncletopia | Sydney | 5 | Stopwatch","name_short":"syd-5","host":"syd-1.au.uncletopia.com","port":27055,"enabled":true,"region":"au","cc":"au","latitude":-33.865143,"longitude":151.2099,"reserved":0,"last_update":"0001-01-01T00:00:00Z","name_a2s":"Uncletopia | Sydney | 5 | Stopwatch","protocol":17,"map":"workshop/pl_badwater_pro_v12.ugc2142942074","folder":"tf","game":"Team Fortress","app_id":440,"player_count":0,"max_players":24,"Bots":0,"server_type":"Dedicated","server_os":"Linux","password":true,"vac":true,"version":"7961495","steam_id":85568392925397959,"keywords":["nocrits","nodmgspread","payload","uncletopia"],"game_id":440,"stv_port":27056,"stv_name":"Uncletopia | Sydney | 5 | Stopwatch | STV","players":null},{"server_id":59,"name":"Uncletopia | Sydney | 6 | Community","name_short":"syd-6","host":"syd-1.au.uncletopia.com","port":27065,"enabled":true,"region":"au","cc":"au","latitude":-33.865143,"longitude":151.2099,"reserved":0,"last_update":"0001-01-01T00:00:00Z","name_a2s":"Uncletopia | Sydney | 6 | Community","protocol":17,"map":"workshop/koth_slaughter_rc1.ugc1712845210","folder":"tf","game":"Team Fortress","app_id":440,"player_count":0,"max_players":24,"Bots":0,"server_type":"Dedicated","server_os":"Linux","password":true,"vac":true,"version":"7961495","steam_id":85568392925397960,"keywords":["cp","nocrits","nodmgspread","uncletopia"],"game_id":440,"stv_port":27066,"stv_name":"Uncletopia | Sydney | 6 | Community | STV","players":null},{"server_id":49,"name":"Uncletopia | Warsaw | 1 | One Thousand Uncles","name_short":"waw-1","host":"waw-1.pl.uncletopia.com","port":27015,"enabled":true,"region":"eu","cc":"pl","latitude":52.2297,"longitude":21.017532,"reserved":0,"last_update":"0001-01-01T00:00:00Z","name_a2s":"Uncletopia | Warsaw | 1 | One Thousand Uncles","protocol":17,"map":"pl_pier","folder":"tf","game":"Team Fortress","app_id":440,"player_count":17,"max_players":32,"Bots":16,"server_type":"Dedicated","server_os":"Linux","password":true,"vac":true,"version":"7961495","steam_id":85568392925397850,"keywords":["alltalk","bots","danepve","increased_maxplayers","nocrits","norespawntime","payload","uncletopia"],"game_id":440,"stv_port":0,"stv_name":"","players":[{"user_id":149,"name":"BUCKET:\\soldier\\Desktop\\","steam_id":76561199047240319,"connected_time":3313000000000,"state":"active","ping":102}]},{"server_id":50,"name":"Uncletopia | Warsaw | 2 | One Thousand Uncles","name_short":"waw-2","host":"waw-1.pl.uncletopia.com","port":27025,"enabled":true,"region":"eu","cc":"pl","latitude":52.2297,"longitude":21.017532,"reserved":0,"last_update":"0001-01-01T00:00:00Z","name_a2s":"Uncletopia | Warsaw | 2 | One Thousand Uncles","protocol":17,"map":"pl_badwater","folder":"tf","game":"Team Fortress","app_id":440,"player_count":25,"max_players":32,"Bots":16,"server_type":"Dedicated","server_os":"Linux","password":true,"vac":true,"version":"7961495","steam_id":85568392925397851,"keywords":["alltalk","bots","danepve","increased_maxplayers","nocrits","norespawntime","payload","uncletopia"],"game_id":440,"stv_port":0,"stv_name":"","players":[{"user_id":473,"name":"Fried_Dough","steam_id":76561198068746207,"connected_time":1052000000000,"state":"active","ping":197},{"user_id":493,"name":"Proud Noob","steam_id":76561198049626913,"connected_time":102000000000,"state":"active","ping":60},{"user_id":463,"name":"AngryTranswoman","steam_id":76561198276537926,"connected_time":2288000000000,"state":"active","ping":85},{"user_id":470,"name":"Tispy","steam_id":76561199207410049,"connected_time":1767000000000,"state":"active","ping":117},{"user_id":458,"name":"Se√±or Gonz√°lez","steam_id":76561198278515252,"connected_time":2461000000000,"state":"active","ping":73},{"user_id":490,"name":"Kenny","steam_id":76561198994898206,"connected_time":859000000000,"state":"active","ping":82},{"user_id":492,"name":"ùó°ùó≤ùòÜùó∫ùóÆùóø ùó®","steam_id":76561199471220062,"connected_time":314000000000,"state":"active","ping":67},{"user_id":462,"name":"DaNugget_Prime","steam_id":76561198360512945,"connected_time":2322000000000,"state":"active","ping":65},{"user_id":468,"name":"The Dutiful Dasein","steam_id":76561198003269215,"connected_time":1877000000000,"state":"active","ping":56}]},{"server_id":51,"name":"Uncletopia | Warsaw | 3 | All Maps","name_short":"waw-3","host":"waw-1.pl.uncletopia.com","port":27035,"enabled":true,"region":"eu","cc":"pl","latitude":52.2297,"longitude":21.017532,"reserved":0,"last_update":"0001-01-01T00:00:00Z","name_a2s":"Uncletopia | Warsaw | 3 | All Maps","protocol":17,"map":"plr_pipeline","folder":"tf","game":"Team Fortress","app_id":440,"player_count":0,"max_players":24,"Bots":0,"server_type":"Dedicated","server_os":"Linux","password":true,"vac":true,"version":"7961495","steam_id":85568392925397852,"keywords":["nocrits","nodmgspread","payload","uncletopia"],"game_id":440,"stv_port":27036,"stv_name":"Uncletopia | Warsaw | 3 | All Maps | STV","players":null},{"server_id":52,"name":"Uncletopia | Warsaw | 4 | All Maps","name_short":"waw-4","host":"waw-1.pl.uncletopia.com","port":27045,"enabled":true,"region":"eu","cc":"pl","latitude":52.2297,"longitude":21.017532,"reserved":0,"last_update":"0001-01-01T00:00:00Z","name_a2s":"Uncletopia | Warsaw | 4 | All Maps","protocol":17,"map":"cp_mountainlab","folder":"tf","game":"Team Fortress","app_id":440,"player_count":1,"max_players":24,"Bots":0,"server_type":"Dedicated","server_os":"Linux","password":true,"vac":true,"version":"7961495","steam_id":85568392925397853,"keywords":["cp","nocrits","nodmgspread","uncletopia"],"game_id":440,"stv_port":27046,"stv_name":"Uncletopia | Warsaw | 4 | All Maps | STV","players":[{"user_id":80,"name":"diearheasonpoop","steam_id":76561199049351992,"connected_time":53000000000,"state":"active","ping":95}]},{"server_id":53,"name":"Uncletopia | Warsaw | 5 | Stopwatch","name_short":"waw-5","host":"waw-1.pl.uncletopia.com","port":27055,"enabled":true,"region":"eu","cc":"pl","latitude":52.2297,"longitude":21.017532,"reserved":0,"last_update":"0001-01-01T00:00:00Z","name_a2s":"Uncletopia | Warsaw | 5 | Stopwatch","protocol":17,"map":"pl_swiftwater_final1","folder":"tf","game":"Team Fortress","app_id":440,"player_count":0,"max_players":24,"Bots":0,"server_type":"Dedicated","server_os":"Linux","password":true,"vac":true,"version":"7961495","steam_id":85568392925397854,"keywords":["nocrits","nodmgspread","payload","uncletopia"],"game_id":440,"stv_port":27056,"stv_name":"Uncletopia | Warsaw | 5 | Stopwatch | STV","players":null},{"server_id":54,"name":"Uncletopia | Warsaw | 6 | Community","name_short":"waw-6","host":"waw-1.pl.uncletopia.com","port":27065,"enabled":true,"region":"eu","cc":"pl","latitude":52.2297,"longitude":21.017532,"reserved":0,"last_update":"0001-01-01T00:00:00Z","name_a2s":"Uncletopia | Warsaw | 6 | Community","protocol":17,"map":"workshop/koth_kemptown_rc1.ugc767410655","folder":"tf","game":"Team Fortress","app_id":440,"player_count":14,"max_players":24,"Bots":0,"server_type":"Dedicated","server_os":"Linux","password":true,"vac":true,"version":"7961495","steam_id":85568392925397856,"keywords":["cp","nocrits","nodmgspread","uncletopia"],"game_id":440,"stv_port":27066,"stv_name":"Uncletopia | Warsaw | 6 | Community | STV","players":[{"user_id":3,"name":"RayTrain","steam_id":76561198874299515,"connected_time":4786000000000,"state":"active","ping":59},{"user_id":4,"name":"Moondrop","steam_id":76561199421181719,"connected_time":4773000000000,"state":"active","ping":64},{"user_id":37,"name":"Tas Sklan Rau≈°","steam_id":76561198150212823,"connected_time":651000000000,"state":"active","ping":65},{"user_id":40,"name":"Dragon","steam_id":76561198163255365,"connected_time":19000000000,"state":"spawning","ping":192},{"user_id":7,"name":"Angela ‚òò","steam_id":76561198105207050,"connected_time":3959000000000,"state":"active","ping":58},{"user_id":38,"name":"Cold Heart","steam_id":76561198109838745,"connected_time":187000000000,"state":"active","ping":47},{"user_id":29,"name":"silicon based life form","steam_id":76561199127121346,"connected_time":1290000000000,"state":"active","ping":73},{"user_id":30,"name":"god.jpg","steam_id":76561199466437586,"connected_time":846000000000,"state":"active","ping":37},{"user_id":31,"name":"Darko","steam_id":76561198271659979,"connected_time":843000000000,"state":"active","ping":83},{"user_id":27,"name":"Topme","steam_id":76561198091734693,"connected_time":2112000000000,"state":"active","ping":91},{"user_id":28,"name":"Zorutan","steam_id":76561198166758127,"connected_time":2086000000000,"state":"active","ping":82},{"user_id":16,"name":"_3tHeR_","steam_id":76561199109870743,"connected_time":3002000000000,"state":"active","ping":57},{"user_id":39,"name":"Rick the gravekeeper","steam_id":76561199067658590,"connected_time":73000000000,"state":"spawning","ping":511},{"user_id":36,"name":"TylowStar","steam_id":76561198357107806,"connected_time":706000000000,"state":"active","ping":90}]}]}