{"status":true,"message":"","result":[{"server_id":0,"name_short":"","name":"Uncletopia | Chicago | 3 | All Maps","host":"","port":0,"enabled":false,"region":"","cc":"","latitude":0,"longitude":0,"reserved":0,"last_update":"0001-01-01T00:00:00Z","protocol":17,"map":"pl_borneo","folder":"tf","game":"Team Fortress","app_id":440,"player_count":24,"max_players":24,"Bots":0,"server_type":"Dedicated","server_os":"Linux","password":true,"vac":true,"version":"7961495","steam_id":85568392924515191,"keywords":["nocrits","nodmgspread","payload","uncletopia"],"edicts":[1029,2048],"game_id":440,"stv_port":27036,"stv_name":"Uncletopia | Chicago | 3 | All Maps | STV","players":[{"user_id":275,"name":"aint that just the way","steam_id":76561198301423746,"connected_time":1103000000000,"state":"active","ping":49},{"user_id":269,"name":"CrŒªf227","steam_id":76561198196211121,"connected_time":1687000000000,"state":"active","ping":85},{"user_id":278,"name":"Colossal Falafel","steam_id":76561198108086245,"connected_time":991000000000,"state":"active","ping":46},{"user_id":274,"name":"Alpha","steam_id":76561199482290132,"connected_time":1137000000000,"state":"active","ping":67},{"user_id":257,"name":"meo ‚ô•","steam_id":76561197992719272,"connected_time":1918000000000,"state":"active","ping":46},{"user_id":262,"name":"Point then Click","steam_id":76561198076133259,"connected_time":1794000000000,"state":"active","ping":110},{"user_id":280,"name":"b4rry","steam_id":76561198365887154,"connected_time":482000000000,"state":"active","ping":73},{"user_id":239,"name":"Fuyutake","steam_id":76561199123206779,"connected_time":3243000000000,"state":"active","ping":67},{"user_id":233,"name":"fudo myoo","steam_id":76561198456258164,"connected_time":3726000000000,"state":"active","ping":73},{"user_id":218,"name":"Free2Play","steam_id":76561198065920486,"connected_time":4577000000000,"state":"active","ping":57},{"user_id":273,"name":"leumas","steam_id":76561198240408540,"connected_time":1165000000000,"state":"active","ping":74},{"user_id":169,"name":"HumFreY","steam_id":76561198076639682,"connected_time":7999000000000,"state":"active","ping":76},{"user_id":263,"name":"bakkhertz","steam_id":76561198046745579,"connected_time":1792000000000,"state":"active","ping":82},{"user_id":192,"name":"joosssh","steam_id":76561198072130805,"connected_time":6950000000000,"state":"active","ping":158},{"user_id":272,"name":"truezyoungblood","steam_id":76561198044589114,"connected_time":1177000000000,"state":"active","ping":70},{"user_id":279,"name":"Juan Pablo Gonzalez 2023","steam_id":76561199197961413,"connected_time":612000000000,"state":"active","ping":60},{"user_id":264,"name":"DEADHORSE","steam_id":76561198066342171,"connected_time":1775000000000,"state":"active","ping":91},{"user_id":271,"name":"COOL REGGAE PARTY","steam_id":76561198072179483,"connected_time":1392000000000,"state":"active","ping":95},{"user_id":221,"name":"hearthian","steam_id":76561198113235260,"connected_time":4329000000000,"state":"active","ping":98},{"user_id":237,"name":"todd howard (real)","steam_id":76561198046650995,"connected_time":3417000000000,"state":"active","ping":80},{"user_id":270,"name":"B R O W N","steam_id":76561198084016173,"connected_time":1514000000000,"state":"active","ping":69},{"user_id":281,"name":"Rukks","steam_id":76561197993918954,"connected_time":93000000000,"state":"active","ping":90},{"user_id":156,"name":"Siz","steam_id":76561198072962154,"connected_time":9082000000000,"state":"active","ping":65},{"user_id":267,"name":"Dog Goggles","steam_id":76561197995233692,"connected_time":1752000000000,"state":"active","ping":90}]},{"server_id":0,"name_short":"","name":"Uncletopia | Chicago | 7 | Stopwatch","host":"","port":0,"enabled":false,"region":"","cc":"","latitude":0,"longitude":0,"reserved":0,"last_update":"0001-01-01T00:00:00Z","protocol":17,"map":"koth_lakeside_final","folder":"tf","game":"Team Fortress","app_id":440,"player_count":0,"max_players":24,"Bots":0,"server_type":"Dedicated","server_os":"Linux","password":true,"vac":true,"version":"7961495","steam_id":85568392924866364,"keywords":["cp","nocrits","nodmgspread","uncletopia"],"edicts":[304,2048],"game_id":440,"stv_port":27036,"stv_name":"Uncletopia | Chicago | 7 | Stopwatch | STV","players":null},{"server_id":0,"name_short":"","name":"Uncletopia | Warsaw | 4 | All Maps","host":"","port":0,"enabled":false,"region":"","cc":"","latitude":0,"longitude":0,"reserved":0,"last_update":"0001-01-01T00:00:00Z","protocol":17,"map":"koth_viaduct","folder":"tf","game":"Team Fortress","app_id":440,"player_count":0,"max_players":24,"Bots":0,"server_type":"Dedicated","server_os":"Linux","password":true,"vac":true,"version":"7961495","steam_id":85568392925397853,"keywords":["cp","nocrits","nodmgspread","uncletopia"],"edicts":[215,2048],"game_id":440,"stv_port":27046,"stv_name":"Uncletopia | Warsaw | 4 | All Maps | STV","players":null},{"server_id":0,"name_short":"","name":"Uncletopia | Chicago | 5 | All Maps","host":"","port":0,"enabled":false,"region":"","cc":"","latitude":0,"longitude":0,"reserved":0,"last_update":"0001-01-01T00:00:00Z","protocol":17,"map":"koth_highpass","folder":"tf","game":"Team Fortress","app_id":440,"player_count":0,"max_players":24,"Bots":0,"server_type":"Dedicated","server_os":"Linux","password":true,"vac":true,"version":"7961495","steam_id":85568392924866362,"keywords":["cp","nocrits","nodmgspread","uncletopia"],"edicts":[415,2048],"game_id":440,"stv_port":27016,"stv_name":"Uncletopia | Chicago | 5 | All Maps | STV","players":null},{"server_id":0,"name_short":"","name":"Uncletopia | Atlanta | 4 | Community","host":"","port":0,"enabled":false,"region":"","cc":"","latitude":0,"longitude":0,"reserved":0,"last_update":"0001-01-01T00:00:00Z","protocol":17,"map":"koth_logwash_rc4","folder":"tf","game":"Team Fortress","app_id":440,"player_count":20,"max_players":24,"Bots":0,"server_type":"Dedicated","server_os":"Linux","password":true,"vac":true,"version":"7961495","steam_id":85568392924515188,"keywords":["cp","nocrits","nodmgspread","uncletopia"],"edicts":[575,2048],"game_id":440,"stv_port":27046,"stv_name":"Uncletopia | Atlanta | 4 | Community | STV","players":[{"user_id":17,"name":"Albino Jellyfish","steam_id":76561198208561097,"connected_time":2757000000000,"state":"active","ping":52},{"user_id":43,"name":"Pango","steam_id":76561198069811545,"connected_time":135000000000,"state":"active","ping":42},{"user_id":13,"name":"Avo","steam_id":76561197993340494,"connected_time":2807000000000,"state":"active","ping":45},{"user_id":19,"name":"Lily (she/her)","steam_id":76561198355495948,"connected_time":2367000000000,"state":"active","ping":51},{"user_id":28,"name":"stink","steam_id":76561198099318923,"connected_time":1045000000000,"state":"active","ping":76},{"user_id":16,"name":"oak","steam_id":76561198092135570,"connected_time":2784000000000,"state":"active","ping":60},{"user_id":44,"name":"jri22896","steam_id":76561199369035331,"connected_time":118000000000,"state":"active","ping":86},{"user_id":22,"name":"Vee (very cool)","steam_id":76561198330432889,"connected_time":1848000000000,"state":"active","ping":64},{"user_id":24,"name":"p4ka","steam_id":76561198315291317,"connected_time":1533000000000,"state":"active","ping":74},{"user_id":25,"name":"user_glitched404","steam_id":76561199452655992,"connected_time":1494000000000,"state":"active","ping":102},{"user_id":31,"name":"BananaMangoFestival2013","steam_id":76561198218558897,"connected_time":634000000000,"state":"active","ping":159},{"user_id":45,"name":"john egbert","steam_id":76561198366204757,"connected_time":83000000000,"state":"active","ping":41},{"user_id":32,"name":"friendly salamander","steam_id":76561198888219116,"connected_time":588000000000,"state":"active","ping":62},{"user_id":33,"name":"PewPew","steam_id":76561198011299099,"connected_time":573000000000,"state":"active","ping":60},{"user_id":34,"name":"Intro Bonito","steam_id":76561198119478838,"connected_time":543000000000,"state":"active","ping":47},{"user_id":36,"name":"Overwatch's PvE Mode","steam_id":76561198046127710,"connected_time":500000000000,"state":"active","ping":67},{"user_id":37,"name":"Jack and Diane Divorce Papers","steam_id":76561198381923138,"connected_time":466000000000,"state":"active","ping":88},{"user_id":38,"name":"krd","steam_id":76561198347660282,"connected_time":440000000000,"state":"active","ping":114},{"user_id":46,"name":"Chris U","steam_id":76561198219486405,"connected_time":66000000000,"state":"active","ping":59},{"user_id":47,"name":"mynamajeff","steam_id":76561198202151516,"connected_time":42000000000,"state":"active","ping":216}]},{"server_id":0,"name_short":"","name":"Uncletopia | Dallas | 2 | All Maps","host":"","port":0,"enabled":false,"region":"","cc":"","latitude":0,"longitude":0,"reserved":0,"last_update":"0001-01-01T00:00:00Z","protocol":17,"map":"cp_dustbowl","folder":"tf","game":"Team Fortress","app_id":440,"player_count":8,"max_players":24,"Bots":0,"server_type":"Dedicated","server_os":"Linux","password":true,"vac":true,"version":"7961495","steam_id":85568392924469988,"keywords":["cp","nocrits","nodmgspread","uncletopia"],"edicts":[836,2048],"game_id":440,"stv_port":27026,"stv_name":"Uncletopia | Dallas | 2 | All Maps | STV","players":[{"user_id":537,"name":"Zero Tech","steam_id":76561199257316028,"connected_time":1025000000000,"state":"active","ping":82},{"user_id":543,"name":"AlistairSamuel720","steam_id":76561198805603832,"connected_time":654000000000,"state":"active","ping":86},{"user_id":538,"name":"ango","steam_id":76561199049101604,"connected_time":1008000000000,"state":"active","ping":83},{"user_id":546,"name":"GrantTheMedicYT","steam_id":76561199077176696,"connected_time":153000000000,"state":"active","ping":73},{"user_id":502,"name":"Verily","steam_id":76561198200558318,"connected_time":3382000000000,"state":"active","ping":104},{"user_id":539,"name":"Sir.Skulldozer","steam_id":76561198346559060,"connected_time":874000000000,"state":"active","ping":74},{"user_id":535,"name":"SgT_Spam","steam_id":76561198275753768,"connected_time":1282000000000,"state":"active","ping":46},{"user_id":525,"name":"Cheetose Intolerant","steam_id":76561198013399809,"connected_time":1805000000000,"state":"active","ping":60}]},{"server_id":0,"name_short":"","name":"Uncletopia | Frankfurt | 7 | Stopwatch","host":"","port":0,"enabled":false,"region":"","cc":"","latitude":0,"longitude":0,"reserved":0,"last_update":"0001-01-01T00:00:00Z","protocol":17,"map":"koth_lakeside_final","folder":"tf","game":"Team Fortress","app_id":440,"player_count":0,"max_players":24,"Bots":0,"server_type":"Dedicated","server_os":"Linux","password":true,"vac":true,"version":"7961495","steam_id":85568392924742827,"keywords":["cp","nocrits","nodmgspread","uncletopia"],"edicts":[303,2048],"game_id":440,"stv_port":27076,"stv_name":"Uncletopia | Frankfurt | 7 | Stopwatch | STV","players":null},{"server_id":0,"name_short":"","name":"Uncletopia | Frankfurt | 2 | All Maps","host":"","port":0,"enabled":false,"region":"","cc":"","latitude":0,"longitude":0,"reserved":0,"last_update":"0001-01-01T00:00:00Z","protocol":17,"map":"pl_badwater","folder":"tf","game":"Team Fortress","app_id":440,"player_count":24,"max_players":24,"Bots":0,"server_type":"Dedicated","server_os":"Linux","password":true,"vac":true,"version":"7961495","steam_id":85568392924469990,"keywords":["nocrits","nodmgspread","payload","uncletopia"],"edicts":[1008,2048],"game_id":440,"stv_port":27026,"stv_name":"Uncletopia | Frankfurt | 2 | All Maps | STV","players":[{"user_id":394,"name":"freyja_valla","steam_id":76561198190386454,"connected_time":1084000000000,"state":"active","ping":69},{"user_id":308,"name":"jones","steam_id":76561198044434971,"connected_time":8471000000000,"state":"active","ping":56},{"user_id":368,"name":"Kanye VEST","steam_id":76561198294476402,"connected_time":3550000000000,"state":"active","ping":86},{"user_id":385,"name":"IL011","steam_id":76561198068715697,"connected_time":2160000000000,"state":"active","ping":130},{"user_id":379,"name":"Reflector","steam_id":76561198078999855,"connected_time":2391000000000,"state":"active","ping":158},{"user_id":407,"name":"KrAk3rs","steam_id":76561198298179344,"connected_time":339000000000,"state":"active","ping":57},{"user_id":389,"name":"Wilderhammer","steam_id":76561198132133702,"connected_time":1638000000000,"state":"active","ping":44},{"user_id":357,"name":"Edsuedi","steam_id":76561198074722832,"connected_time":4302000000000,"state":"active","ping":59},{"user_id":358,"name":"lulu","steam_id":76561199147764133,"connected_time":4299000000000,"state":"active","ping":79},{"user_id":396,"name":"Silver\u003c3 (12k hours and trash)","steam_id":76561198022351828,"connected_time":1046000000000,"state":"active","ping":59},{"user_id":397,"name":"kyopolou","steam_id":76561198215949919,"connected_time":1039000000000,"state":"active","ping":53},{"user_id":328,"name":"Asocial","steam_id":76561198328594578,"connected_time":7276000000000,"state":"active","ping":94},{"user_id":398,"name":"HilldogGaming‚ôõ","steam_id":76561198082209322,"connected_time":997000000000,"state":"active","ping":83},{"user_id":345,"name":"Lyncurion","steam_id":76561199260022725,"connected_time":5510000000000,"state":"active","ping":80},{"user_id":370,"name":"‚òÆ mrgreen90s ‚òÆ","steam_id":76561197998076292,"connected_time":3265000000000,"state":"active","ping":58},{"user_id":406,"name":"medick","steam_id":76561199380849468,"connected_time":558000000000,"state":"active","ping":86},{"user_id":371,"name":"SoulHunter1512","steam_id":76561198287557826,"connected_time":3235000000000,"state":"active","ping":65},{"user_id":348,"name":"SocialistBacon","steam_id":76561198055872267,"connected_time":5274000000000,"state":"active","ping":96},{"user_id":401,"name":"Bill Carr","steam_id":76561198110033943,"connected_time":925000000000,"state":"active","ping":48},{"user_id":392,"name":"Krefa12","steam_id":76561198268375393,"connected_time":1338000000000,"state":"active","ping":87},{"user_id":341,"name":"finbar","steam_id":76561198056812396,"connected_time":6093000000000,"state":"active","ping":75},{"user_id":393,"name":"Solima","steam_id":76561198045349099,"connected_time":1316000000000,"state":"active","ping":50},{"user_id":366,"name":"Valfezant","steam_id":76561199063983797,"connected_time":3925000000000,"state":"active","ping":52},{"user_id":402,"name":"radek","steam_id":76561197998883721,"connected_time":903000000000,"state":"active","ping":63}]},{"server_id":0,"name_short":"","name":"Uncletopia | San Francisco | 3 | Stopwatch","host":"","port":0,"enabled":false,"region":"","cc":"","latitude":0,"longitude":0,"reserved":0,"last_update":"0001-01-01T00:00:00Z","protocol":17,"map":"koth_clearcut_b15","folder":"tf","game":"Team Fortress","app_id":440,"player_count":0,"max_players":24,"Bots":0,"server_type":"Dedicated","server_os":"Linux","password":true,"vac":true,"version":"7961495","steam_id":85568392924742824,"keywords":["cp","nocrits","nodmgspread","uncletopia"],"edicts":[445,2048],"game_id":440,"stv_port":27036,"stv_name":"Uncletopia | San Francisco | 3 | Stopwatch | STV","players":null},{"server_id":0,"name_short":"","name":"Uncletopia | London | 5 | All Maps","host":"","port":0,"enabled":false,"region":"","cc":"","latitude":0,"longitude":0,"reserved":0,"last_update":"0001-01-01T00:00:00Z","protocol":17,"map":"pl_frontier_final","folder":"tf","game":"Team Fortress","app_id":440,"player_count":24,"max_players":24,"Bots":0,"server_type":"Dedicated","server_os":"Linux","password":true,"vac":true,"version":"7961495","steam_id":85568392924742829,"keywords":["nocrits","nodmgspread","payload","uncletopia"],"edicts":[996,2048],"game_id":440,"stv_port":27056,"stv_name":"Uncletopia | London | 5 | All Maps | STV","players":[{"user_id":558,"name":"bigganalls","steam_id":76561198214145893,"connected_time":1360000000000,"state":"active","ping":49},{"user_id":561,"name":"*BaTaX*","steam_id":76561198185681331,"connected_time":1272000000000,"state":"active","ping":76},{"user_id":452,"name":"Gasket","steam_id":76561198107889867,"connected_time":7949000000000,"state":"active","ping":63},{"user_id":575,"name":"//[Matthew]","steam_id":76561198439187898,"connected_time":180000000000,"state":"active","ping":51},{"user_id":570,"name":"trans werewolf","steam_id":76561198107235989,"connected_time":538000000000,"state":"active","ping":60},{"user_id":534,"name":"Glitch","steam_id":76561198081895538,"connected_time":2912000000000,"state":"active","ping":54},{"user_id":577,"name":"Minimi","steam_id":76561198873850443,"connected_time":111000000000,"state":"active","ping":68},{"user_id":571,"name":"Ake","steam_id":76561198099722662,"connected_time":530000000000,"state":"active","ping":91},{"user_id":505,"name":"tyroksi :D","steam_id":76561198103875245,"connected_time":4613000000000,"state":"active","ping":106},{"user_id":551,"name":"Cosmetic brain","steam_id":76561198055936410,"connected_time":1660000000000,"state":"active","ping":89},{"user_id":523,"name":"Ehbigdug","steam_id":76561198288568654,"connected_time":3481000000000,"state":"active","ping":56},{"user_id":559,"name":"ChPerette üéÆ","steam_id":76561198060004887,"connected_time":1348000000000,"state":"active","ping":45},{"user_id":574,"name":"sprinkle ‚úß* ‡ºù","steam_id":76561198055871696,"connected_time":183000000000,"state":"active","ping":81},{"user_id":548,"name":"can u die from gargling honey","steam_id":76561197996269312,"connected_time":2079000000000,"state":"active","ping":37},{"user_id":572,"name":"Funny Cat Song","steam_id":76561199229682408,"connected_time":449000000000,"state":"active","ping":44},{"user_id":563,"name":"Dan Dan the Furious","steam_id":76561198091032527,"connected_time":1205000000000,"state":"active","ping":55},{"user_id":569,"name":"nordstream bomber","steam_id":76561199401283123,"connected_time":613000000000,"state":"active","ping":50},{"user_id":533,"name":"MaRo","steam_id":76561198992286676,"connected_time":3166000000000,"state":"active","ping":74},{"user_id":526,"name":"wa","steam_id":76561198151121990,"connected_time":3380000000000,"state":"active","ping":70},{"user_id":573,"name":"Uselss Joe","steam_id":76561198275853629,"connected_time":214000000000,"state":"active","ping":55},{"user_id":566,"name":"big bug buttz","steam_id":76561198115106008,"connected_time":749000000000,"state":"active","ping":49},{"user_id":527,"name":"Ralle Shadow Wizard Money Gang","steam_id":76561198160975724,"connected_time":3347000000000,"state":"active","ping":85},{"user_id":529,"name":"MACHO MAN RANDY SAVAGE","steam_id":76561197995723404,"connected_time":3312000000000,"state":"active","ping":256},{"user_id":567,"name":"Bobo","steam_id":76561198052308399,"connected_time":742000000000,"state":"active","ping":64}]},{"server_id":0,"name_short":"","name":"Uncletopia | Frankfurt | 1 | All Maps","host":"","port":0,"enabled":false,"region":"","cc":"","latitude":0,"longitude":0,"reserved":0,"last_update":"0001-01-01T00:00:00Z","protocol":17,"map":"cp_snakewater_final1","folder":"tf","game":"Team Fortress","app_id":440,"player_count":15,"max_players":24,"Bots":0,"server_type":"Dedicated","server_os":"Linux","password":true,"vac":true,"version":"7961495","steam_id":85568392924469989,"keywords":["cp","nocrits","nodmgspread","uncletopia"],"edicts":[634,2048],"game_id":440,"stv_port":27016,"stv_name":"Uncletopia | Frankfurt | 1 | All Maps | STV","players":[{"user_id":770,"name":"HHHHHHHH","steam_id":76561198042174214,"connected_time":699000000000,"state":"spawning","ping":52},{"user_id":772,"name":"Jack","steam_id":76561198397105421,"connected_time":684000000000,"state":"spawning","ping":81},{"user_id":782,"name":"Yarozak","steam_id":76561198138215623,"connected_time":13000000000,"state":"connecting","ping":93},{"user_id":753,"name":"Analog Feelings","steam_id":76561198269554197,"connected_time":1832000000000,"state":"spawning","ping":80},{"user_id":780,"name":"Vitun vittu","steam_id":76561198110679463,"connected_time":100000000000,"state":"spawning","ping":96},{"user_id":773,"name":"Frodo Sagbag","steam_id":76561198272964365,"connected_time":666000000000,"state":"spawning","ping":73},{"user_id":742,"name":"Lucky Number 13","steam_id":76561198043951279,"connected_time":2747000000000,"state":"spawning","ping":68},{"user_id":771,"name":"Arseni","steam_id":76561198042602892,"connected_time":690000000000,"state":"spawning","ping":62},{"user_id":778,"name":"teddy","steam_id":76561198007436837,"connected_time":422000000000,"state":"spawning","ping":58},{"user_id":779,"name":"Summer ‚ô•","steam_id":76561198047723907,"connected_time":187000000000,"state":"spawning","ping":56},{"user_id":709,"name":"washed up","steam_id":76561198275742101,"connected_time":5398000000000,"state":"spawning","ping":65},{"user_id":746,"name":"Frazzle","steam_id":76561198262577951,"connected_time":2603000000000,"state":"spawning","ping":75},{"user_id":776,"name":"kael","steam_id":76561198041128282,"connected_time":596000000000,"state":"spawning","ping":74},{"user_id":777,"name":"Jeryx","steam_id":76561197995602803,"connected_time":551000000000,"state":"spawning","ping":76},{"user_id":755,"name":"engineergaming","steam_id":76561199510512133,"connected_time":1667000000000,"state":"spawning","ping":123}]},{"server_id":0,"name_short":"","name":"Uncletopia | Sydney | 4 | All Maps","host":"","port":0,"enabled":false,"region":"","cc":"","latitude":0,"longitude":0,"reserved":0,"last_update":"0001-01-01T00:00:00Z","protocol":17,"map":"cp_standin_final","folder":"tf","game":"Team Fortress","app_id":440,"player_count":0,"max_players":24,"Bots":0,"server_type":"Dedicated","server_os":"Linux","password":true,"vac":true,"version":"7961495","steam_id":85568392925397958,"keywords":["cp","nocrits","nodmgspread","uncletopia"],"edicts":[426,2048],"game_id":440,"stv_port":27046,"stv_name":"Uncletopia | Sydney | 4 | All Maps | STV","players":null},{"server_id":0,"name_short":"","name":"Uncletopia | New York City | 1 | All Maps","host":"","port":0,"enabled":false,"region":"","cc":"","latitude":0,"longitude":0,"reserved":0,"last_update":"0001-01-01T00:00:00Z","protocol":17,"map":"cp_coldfront","folder":"tf","game":"Team Fortress","app_id":440,"player_count":24,"max_players":24,"Bots":0,"server_type":"Dedicated","server_os":"Linux","password":true,"vac":true,"version":"7961495","steam_id":85568392924469993,"keywords":["cp","nocrits","nodmgspread","uncletopia"],"edicts":[1084,2048],"game_id":440,"stv_port":27016,"stv_name":"Uncletopia | New York City | 1 | All Maps | STV","players":[{"user_id":124,"name":"Jordan","steam_id":76561198134123296,"connected_time":2689000000000,"state":"active","ping":119},{"user_id":130,"name":"on that zaza?","steam_id":76561198038713198,"connected_time":2184000000000,"state":"active","ping":47},{"user_id":137,"name":"4Lukaska","steam_id":76561198083515060,"connected_time":1654000000000,"state":"active","ping":47},{"user_id":153,"name":"pixilinga do baguio","steam_id":76561198415484497,"connected_time":327000000000,"state":"active","ping":163},{"user_id":142,"name":"Lt. Don Draper","steam_id":76561198030866017,"connected_time":1023000000000,"state":"active","ping":79},{"user_id":115,"name":"Strange Diplomat","steam_id":76561198428191920,"connected_time":3145000000000,"state":"active","ping":49},{"user_id":154,"name":"delta","steam_id":76561198288966901,"connected_time":302000000000,"state":"active","ping":172},{"user_id":110,"name":"BOTH | Sunshine","steam_id":76561198885528098,"connected_time":3545000000000,"state":"active","ping":45},{"user_id":145,"name":"bug emotions","steam_id":76561199189794054,"connected_time":963000000000,"state":"active","ping":51},{"user_id":158,"name":"The Communist Party Animal","steam_id":76561198023931487,"connected_time":208000000000,"state":"active","ping":66},{"user_id":119,"name":"WibbyOne","steam_id":76561198052843846,"connected_time":2937000000000,"state":"active","ping":34},{"user_id":159,"name":"DoctorDrew","steam_id":76561197962400538,"connected_time":196000000000,"state":"active","ping":71},{"user_id":157,"name":"undercover crayon sniffer","steam_id":76561199388637537,"connected_time":251000000000,"state":"active","ping":43},{"user_id":161,"name":"your very own pocket medic","steam_id":76561199489320369,"connected_time":56000000000,"state":"active","ping":59},{"user_id":133,"name":"muad 'dib","steam_id":76561198065650507,"connected_time":1958000000000,"state":"active","ping":53},{"user_id":103,"name":"Kobbert","steam_id":76561198045040833,"connected_time":4103000000000,"state":"active","ping":59},{"user_id":82,"name":"CreateADebate","steam_id":76561198115760035,"connected_time":5107000000000,"state":"active","ping":63},{"user_id":152,"name":"BOTH | stratsboneless","steam_id":76561198975447100,"connected_time":531000000000,"state":"active","ping":51},{"user_id":156,"name":"poleve540","steam_id":76561199024684841,"connected_time":268000000000,"state":"active","ping":67},{"user_id":144,"name":"Starkitten","steam_id":76561198123838363,"connected_time":1000000000000,"state":"active","ping":44},{"user_id":160,"name":"Typh","steam_id":76561198315344079,"connected_time":169000000000,"state":"active","ping":73},{"user_id":150,"name":"silverus","steam_id":76561198417289824,"connected_time":666000000000,"state":"active","ping":81},{"user_id":151,"name":"Sex Midfielder","steam_id":76561198048918192,"connected_time":604000000000,"state":"active","ping":85},{"user_id":106,"name":"BOTH | BERSERKER","steam_id":76561198303464488,"connected_time":3906000000000,"state":"active","ping":88}]},{"server_id":0,"name_short":"","name":"Uncletopia | Los Angeles | 3 | All Maps","host":"","port":0,"enabled":false,"region":"","cc":"","latitude":0,"longitude":0,"reserved":0,"last_update":"0001-01-01T00:00:00Z","protocol":17,"map":"koth_lakeside_final","folder":"tf","game":"Team Fortress","app_id":440,"player_count":0,"max_players":24,"Bots":0,"server_type":"Dedicated","server_os":"Linux","password":true,"vac":true,"version":"7961495","steam_id":85568392924510198,"keywords":["cp","nocrits","nodmgspread","uncletopia"],"edicts":[304,2048],"game_id":440,"stv_port":27036,"stv_name":"Uncletopia | Los Angeles | 3 | All Maps | STV","players":null},{"server_id":0,"name_short":"","name":"Uncletopia | San Francisco | 1 | All Maps","host":"","port":0,"enabled":false,"region":"","cc":"","latitude":0,"longitude":0,"reserved":0,"last_update":"0001-01-01T00:00:00Z","protocol":17,"map":"pl_barnblitz","folder":"tf","game":"Team Fortress","app_id":440,"player_count":0,"max_players":24,"Bots":0,"server_type":"Dedicated","server_os":"Linux","password":true,"vac":true,"version":"7961495","steam_id":85568392924469999,"keywords":["nocrits","nodmgspread","payload","uncletopia"],"edicts":[804,2048],"game_id":440,"stv_port":27016,"stv_name":"Uncletopia | San Francisco | 1 | All Maps | STV","players":null},{"server_id":0,"name_short":"","name":"Uncletopia | Los Angeles | 2 | All Maps","host":"","port":0,"enabled":false,"region":"","cc":"","latitude":0,"longitude":0,"reserved":0,"last_update":"0001-01-01T00:00:00Z","protocol":17,"map":"koth_lazarus","folder":"tf","game":"Team Fortress","app_id":440,"player_count":0,"max_players":24,"Bots":0,"server_type":"Dedicated","server_os":"Linux","password":true,"vac":true,"version":"7961495","steam_id":85568392924469992,"keywords":["cp","nocrits","nodmgspread","uncletopia"],"edicts":[863,2048],"game_id":440,"stv_port":27026,"stv_name":"Uncletopia | Los Angeles | 2 | All Maps | STV","players":null},{"server_id":0,"name_short":"","name":"Uncletopia | Frankfurt | 6 | All Maps","host":"","port":0,"enabled":false,"region":"","cc":"","latitude":0,"longitude":0,"reserved":0,"last_update":"0001-01-01T00:00:00Z","protocol":17,"map":"plr_pipeline","folder":"tf","game":"Team Fortress","app_id":440,"player_count":0,"max_players":24,"Bots":0,"server_type":"Dedicated","server_os":"Linux","password":true,"vac":true,"version":"7961495","steam_id":85568392924504278,"keywords":["nocrits","nodmgspread","payload","uncletopia"],"edicts":[900,2048],"game_id":440,"stv_port":27066,"stv_name":"Uncletopia | Frankfurt | 6 | All Maps | STV","players":null},{"server_id":0,"name_short":"","name":"Uncletopia | Frankfurt | 8 | Community","host":"","port":0,"enabled":false,"region":"","cc":"","latitude":0,"longitude":0,"reserved":0,"last_update":"0001-01-01T00:00:00Z","protocol":17,"map":"pl_stallberg_rc3","folder":"tf","game":"Team Fortress","app_id":440,"player_count":0,"max_players":24,"Bots":0,"server_type":"Dedicated","server_os":"Linux","password":true,"vac":true,"version":"7961495","steam_id":85568392924742828,"keywords":["nocrits","nodmgspread","payload","uncletopia"],"edicts":[603,2048],"game_id":440,"stv_port":27086,"stv_name":"Uncletopia | Frankfurt | 8 | Community | STV","players":null},{"server_id":0,"name_short":"","name":"Uncletopia | Warsaw | 5 | Stopwatch","host":"","port":0,"enabled":false,"region":"","cc":"","latitude":0,"longitude":0,"reserved":0,"last_update":"0001-01-01T00:00:00Z","protocol":17,"map":"koth_jamram_rc1a","folder":"tf","game":"Team Fortress","app_id":440,"player_count":0,"max_players":24,"Bots":0,"server_type":"Dedicated","server_os":"Linux","password":true,"vac":true,"version":"7961495","steam_id":85568392925397854,"keywords":["cp","nocrits","nodmgspread","uncletopia"],"edicts":[483,2048],"game_id":440,"stv_port":27056,"stv_name":"Uncletopia | Warsaw | 5 | Stopwatch | STV","players":null},{"server_id":0,"name_short":"","name":"Uncletopia | Atlanta | 2 | All Maps","host":"","port":0,"enabled":false,"region":"","cc":"","latitude":0,"longitude":0,"reserved":0,"last_update":"0001-01-01T00:00:00Z","protocol":17,"map":"pl_snowycoast","folder":"tf","game":"Team Fortress","app_id":440,"player_count":24,"max_players":24,"Bots":0,"server_type":"Dedicated","server_os":"Linux","password":true,"vac":true,"version":"7961495","steam_id":85568392924469983,"keywords":["nocrits","nodmgspread","payload","uncletopia"],"edicts":[1168,2048],"game_id":440,"stv_port":27026,"stv_name":"Uncletopia | Atlanta | 2 | All Maps | STV","players":[{"user_id":279,"name":"the.land.of.avalon","steam_id":76561198245431668,"connected_time":2467000000000,"state":"active","ping":78},{"user_id":297,"name":"KATSURB","steam_id":76561199172118456,"connected_time":852000000000,"state":"active","ping":45},{"user_id":298,"name":"cbv jhygui8ho;/ohp8byy","steam_id":76561198304661367,"connected_time":819000000000,"state":"active","ping":52},{"user_id":190,"name":"gretchling","steam_id":76561198046111695,"connected_time":9479000000000,"state":"active","ping":64},{"user_id":257,"name":"Kick Down Door 6:00AM TUCK‚òÉRO","steam_id":76561197976146738,"connected_time":4058000000000,"state":"active","ping":80},{"user_id":272,"name":"kratomSnorter.1quarter","steam_id":76561198946987511,"connected_time":3072000000000,"state":"active","ping":86},{"user_id":303,"name":"captain falcon selfsuck","steam_id":76561198954087361,"connected_time":655000000000,"state":"active","ping":66},{"user_id":295,"name":"JerlBays","steam_id":76561198096773292,"connected_time":1126000000000,"state":"active","ping":47},{"user_id":300,"name":"icm2008 #SaveTF2","steam_id":76561199277408836,"connected_time":770000000000,"state":"active","ping":60},{"user_id":302,"name":"Sgt. Pepper","steam_id":76561198063674627,"connected_time":683000000000,"state":"active","ping":65},{"user_id":252,"name":"TI-83 Plus","steam_id":76561198316134443,"connected_time":4596000000000,"state":"active","ping":60},{"user_id":281,"name":"muddy","steam_id":76561198035015260,"connected_time":2370000000000,"state":"active","ping":89},{"user_id":278,"name":"GuyGoom","steam_id":76561198254522178,"connected_time":2502000000000,"state":"active","ping":84},{"user_id":271,"name":"Sex Defender","steam_id":76561198039710677,"connected_time":3246000000000,"state":"active","ping":75},{"user_id":170,"name":"Inworth","steam_id":76561197999777003,"connected_time":10952000000000,"state":"active","ping":77},{"user_id":288,"name":"MARIOPARTYDSFAN","steam_id":76561198872122117,"connected_time":1981000000000,"state":"active","ping":79},{"user_id":296,"name":"BlueMew","steam_id":76561198060454348,"connected_time":1039000000000,"state":"active","ping":82},{"user_id":151,"name":"captainspatklz","steam_id":76561198432167270,"connected_time":12084000000000,"state":"active","ping":58},{"user_id":268,"name":"Dosux2","steam_id":76561198390916062,"connected_time":3450000000000,"state":"active","ping":167},{"user_id":289,"name":"catgirl of the void","steam_id":76561198052542017,"connected_time":1876000000000,"state":"active","ping":50},{"user_id":308,"name":"simply","steam_id":76561198215728721,"connected_time":24000000000,"state":"active","ping":55},{"user_id":291,"name":"Frankenstein","steam_id":76561198256750389,"connected_time":1715000000000,"state":"active","ping":101},{"user_id":283,"name":"kill kill kill kill","steam_id":76561199038370433,"connected_time":2362000000000,"state":"active","ping":164},{"user_id":305,"name":"Oopsie Daisy ‚ùã","steam_id":76561198042144492,"connected_time":454000000000,"state":"active","ping":65}]},{"server_id":0,"name_short":"","name":"Uncletopia | Los Angeles | 1 | All Maps","host":"","port":0,"enabled":false,"region":"","cc":"","latitude":0,"longitude":0,"reserved":0,"last_update":"0001-01-01T00:00:00Z","protocol":17,"map":"cp_mountainlab","folder":"tf","game":"Team Fortress","app_id":440,"player_count":0,"max_players":24,"Bots":0,"server_type":"Dedicated","server_os":"Linux","password":true,"vac":true,"version":"7961495","steam_id":85568392924469991,"keywords":["cp","nocrits","nodmgspread","uncletopia"],"edicts":[533,2048],"game_id":440,"stv_port":27016,"stv_name":"Uncletopia | Los Angeles | 1 | All Maps | STV","players":null},{"server_id":0,"name_short":"","name":"Uncletopia | Sydney | 2 | All Maps","host":"","port":0,"enabled":false,"region":"","cc":"","latitude":0,"longitude":0,"reserved":0,"last_update":"0001-01-01T00:00:00Z","protocol":17,"map":"cp_dustbowl","folder":"tf","game":"Team Fortress","app_id":440,"player_count":0,"max_players":24,"Bots":0,"server_type":"Dedicated","server_os":"Linux","password":true,"vac":true,"version":"7961495","steam_id":85568392924470002,"keywords":["cp","nocrits","nodmgspread","uncletopia"],"edicts":[741,2048],"game_id":440,"stv_port":27026,"stv_name":"Uncletopia | Sydney | 2 | All Maps | STV","players":null},{"server_id":0,"name_short":"","name":"Uncletopia | Seattle | 1 | All Maps","host":"","port":0,"enabled":false,"region":"","cc":"","latitude":0,"longitude":0,"reserved":0,"last_update":"0001-01-01T00:00:00Z","protocol":17,"map":"cp_process_final","folder":"tf","game":"Team Fortress","app_id":440,"player_count":24,"max_players":24,"Bots":0,"server_type":"Dedicated","server_os":"Linux","password":true,"vac":true,"version":"7961495","steam_id":85568392924469997,"keywords":["cp","nocrits","nodmgspread","uncletopia"],"edicts":[829,2048],"game_id":440,"stv_port":27016,"stv_name":"Uncletopia | Seattle | 1 | All Maps | STV","players":[{"user_id":469,"name":"Thunder","steam_id":76561198097721532,"connected_time":587000000000,"state":"active","ping":131},{"user_id":439,"name":"Trips","steam_id":76561198054581597,"connected_time":3871000000000,"state":"active","ping":61},{"user_id":472,"name":"Arsonist Goose","steam_id":76561198147441830,"connected_time":548000000000,"state":"active","ping":75},{"user_id":420,"name":"Engynier Gaimeang (F2P)","steam_id":76561199013888779,"connected_time":4812000000000,"state":"active","ping":79},{"user_id":473,"name":"gorlab","steam_id":76561198025089694,"connected_time":493000000000,"state":"active","ping":75},{"user_id":467,"name":"Dextersbrain","steam_id":76561198011831579,"connected_time":1241000000000,"state":"active","ping":62},{"user_id":459,"name":"Cheezbeargur","steam_id":76561198164702899,"connected_time":2564000000000,"state":"active","ping":62},{"user_id":451,"name":"furiOus","steam_id":76561198450073779,"connected_time":3300000000000,"state":"active","ping":45},{"user_id":350,"name":"oo","steam_id":76561198119626492,"connected_time":11429000000000,"state":"active","ping":73},{"user_id":435,"name":"evilOlive","steam_id":76561198106222025,"connected_time":4053000000000,"state":"active","ping":83},{"user_id":474,"name":"Falleax","steam_id":76561198021154908,"connected_time":483000000000,"state":"active","ping":97},{"user_id":441,"name":"Aardappel","steam_id":76561198030894676,"connected_time":3711000000000,"state":"active","ping":74},{"user_id":475,"name":"stir-fried human tonsils","steam_id":76561198312126442,"connected_time":447000000000,"state":"active","ping":45},{"user_id":426,"name":"Eden","steam_id":76561198081284664,"connected_time":4560000000000,"state":"active","ping":76},{"user_id":468,"name":"Captain Faptain","steam_id":76561198141819053,"connected_time":1124000000000,"state":"active","ping":64},{"user_id":454,"name":"Banana Man","steam_id":76561199012105803,"connected_time":3266000000000,"state":"active","ping":51},{"user_id":470,"name":"MrYadaization","steam_id":76561198050770818,"connected_time":585000000000,"state":"active","ping":71},{"user_id":429,"name":"thunderous prophet","steam_id":76561198131166135,"connected_time":4271000000000,"state":"active","ping":44},{"user_id":455,"name":"goos  e","steam_id":76561198036774894,"connected_time":3049000000000,"state":"active","ping":34},{"user_id":452,"name":"2 Point Tom","steam_id":76561198087617008,"connected_time":3284000000000,"state":"active","ping":50},{"user_id":461,"name":"Mocha Josie","steam_id":76561198066452726,"connected_time":2294000000000,"state":"active","ping":68},{"user_id":460,"name":"Klone","steam_id":76561198854485605,"connected_time":2379000000000,"state":"active","ping":108},{"user_id":464,"name":"New_guy","steam_id":76561199379823082,"connected_time":1825000000000,"state":"active","ping":126},{"user_id":385,"name":"‚ú´P‚àÄnck‚àà‚ú´","steam_id":76561198050163618,"connected_time":8390000000000,"state":"active","ping":76}]},{"server_id":0,"name_short":"","name":"Uncletopia | Warsaw | 6 | Community","host":"","port":0,"enabled":false,"region":"","cc":"","latitude":0,"longitude":0,"reserved":0,"last_update":"0001-01-01T00:00:00Z","protocol":17,"map":"pl_cactuscanyon_redux_final2","folder":"tf","game":"Team Fortress","app_id":440,"player_count":0,"max_players":24,"Bots":0,"server_type":"Dedicated","server_os":"Linux","password":true,"vac":true,"version":"7961495","steam_id":85568392925397856,"keywords":["nocrits","nodmgspread","payload","uncletopia"],"edicts":[979,2048],"game_id":440,"stv_port":27066,"stv_name":"Uncletopia | Warsaw | 6 | Community | STV","players":null},{"server_id":0,"name_short":"","name":"Uncletopia | S√£o Paulo | 2 | Community","host":"","port":0,"enabled":false,"region":"","cc":"","latitude":0,"longitude":0,"reserved":0,"last_update":"0001-01-01T00:00:00Z","protocol":17,"map":"koth_trenchfoot_ab1","folder":"tf","game":"Team Fortress","app_id":440,"player_count":0,"max_players":24,"Bots":0,"server_type":"Dedicated","server_os":"Linux","password":true,"vac":true,"version":"7961495","steam_id":85568392924485349,"keywords":["cp","nocrits","nodmgspread","uncletopia"],"edicts":[236,2048],"game_id":440,"stv_port":27016,"stv_name":"Uncletopia | S√£o Paulo | 2 | Community | STV","players":null},{"server_id":0,"name_short":"","name":"Uncletopia | Hong Kong | 1 | All Maps","host":"","port":0,"enabled":false,"region":"","cc":"","latitude":0,"longitude":0,"reserved":0,"last_update":"0001-01-01T00:00:00Z","protocol":17,"map":"cp_metalworks","folder":"tf","game":"Team Fortress","app_id":440,"player_count":0,"max_players":24,"Bots":0,"server_type":"Dedicated","server_os":"Linux","password":true,"vac":true,"version":"7961495","steam_id":85568392924494504,"keywords":["cp","nocrits","nodmgspread","uncletopia"],"edicts":[461,2048],"game_id":440,"stv_port":27016,"stv_name":"Uncletopia | Hong Kong | 1 | All Maps | STV","players":null},{"server_id":0,"name_short":"","name":"Uncletopia | New York City | 2 | All Maps","host":"","port":0,"enabled":false,"region":"","cc":"","latitude":0,"longitude":0,"reserved":0,"last_update":"0001-01-01T00:00:00Z","protocol":17,"map":"cp_dustbowl","folder":"tf","game":"Team Fortress","app_id":440,"player_count":24,"max_players":24,"Bots":0,"server_type":"Dedicated","server_os":"Linux","password":true,"vac":true,"version":"7961495","steam_id":85568392924469994,"keywords":["cp","nocrits","nodmgspread","uncletopia"],"edicts":[988,2048],"game_id":440,"stv_port":27026,"stv_name":"Uncletopia | New York City | 2 | All Maps | STV","players":[{"user_id":254,"name":"Squishy","steam_id":76561198959468574,"connected_time":1405000000000,"state":"active","ping":121},{"user_id":264,"name":"Gruko","steam_id":76561198282965665,"connected_time":840000000000,"state":"active","ping":43},{"user_id":234,"name":"MechaSixVII","steam_id":76561198014927379,"connected_time":2158000000000,"state":"active","ping":59},{"user_id":271,"name":"pog frog","steam_id":76561198985071114,"connected_time":3000000000,"state":"spawning","ping":446},{"user_id":265,"name":"Cooki","steam_id":76561198051705314,"connected_time":800000000000,"state":"active","ping":90},{"user_id":235,"name":"Smrpermlepes","steam_id":76561197997917267,"connected_time":2141000000000,"state":"active","ping":67},{"user_id":253,"name":"3am drywall","steam_id":76561198964609865,"connected_time":1446000000000,"state":"active","ping":81},{"user_id":226,"name":"Thr33boys","steam_id":76561198035639627,"connected_time":2844000000000,"state":"active","ping":62},{"user_id":266,"name":"Braided ass-hair","steam_id":76561198041623428,"connected_time":787000000000,"state":"active","ping":84},{"user_id":241,"name":"Dullahan","steam_id":76561198119668908,"connected_time":1706000000000,"state":"active","ping":122},{"user_id":263,"name":"cap'n #FindElephantJohn","steam_id":76561198034008930,"connected_time":1151000000000,"state":"active","ping":51},{"user_id":267,"name":"Koi","steam_id":76561198064411172,"connected_time":680000000000,"state":"active","ping":45},{"user_id":239,"name":"Harry S. Truman","steam_id":76561197993339757,"connected_time":1802000000000,"state":"active","ping":57},{"user_id":240,"name":"DB1","steam_id":76561199172642819,"connected_time":1787000000000,"state":"active","ping":69},{"user_id":270,"name":"frag movie extra","steam_id":76561198041048289,"connected_time":21000000000,"state":"active","ping":41},{"user_id":229,"name":"Xx_Savage_Twerks_xX","steam_id":76561198011665915,"connected_time":2522000000000,"state":"active","ping":45},{"user_id":242,"name":"GreenApples","steam_id":76561198120559543,"connected_time":1705000000000,"state":"active","ping":122},{"user_id":243,"name":"Marzz","steam_id":76561198059034982,"connected_time":1696000000000,"state":"active","ping":54},{"user_id":256,"name":"Lettuce_Plays","steam_id":76561198872255639,"connected_time":1379000000000,"state":"active","ping":50},{"user_id":269,"name":"OKLOLOM3","steam_id":76561199151881507,"connected_time":335000000000,"state":"active","ping":34},{"user_id":261,"name":"Windup Monkey in a Human Suit","steam_id":76561198119501444,"connected_time":1242000000000,"state":"active","ping":77},{"user_id":255,"name":"gamerfan539","steam_id":76561198803527852,"connected_time":1401000000000,"state":"active","ping":47},{"user_id":259,"name":"El Dont√©","steam_id":76561198301428433,"connected_time":1315000000000,"state":"active","ping":103},{"user_id":262,"name":"olivia","steam_id":76561198288130849,"connected_time":1242000000000,"state":"active","ping":61}]},{"server_id":0,"name_short":"","name":"Uncletopia | Chicago | 1 | All Maps","host":"","port":0,"enabled":false,"region":"","cc":"","latitude":0,"longitude":0,"reserved":0,"last_update":"0001-01-01T00:00:00Z","protocol":17,"map":"koth_harvest_final","folder":"tf","game":"Team Fortress","app_id":440,"player_count":24,"max_players":24,"Bots":0,"server_type":"Dedicated","server_os":"Linux","password":true,"vac":true,"version":"7961495","steam_id":85568392924469984,"keywords":["cp","nocrits","nodmgspread","uncletopia"],"edicts":[557,2048],"game_id":440,"stv_port":27016,"stv_name":"Uncletopia | Chicago | 1 | All Maps | STV","players":[{"user_id":465,"name":"Bomb Squirtle‚Ñ¢","steam_id":76561197998931145,"connected_time":2794000000000,"state":"active","ping":90},{"user_id":491,"name":"pan","steam_id":76561198093968095,"connected_time":1229000000000,"state":"active","ping":96},{"user_id":503,"name":"Û†Å≥‚Åß‚Åß Argo","steam_id":76561198353725622,"connected_time":357000000000,"state":"active","ping":74},{"user_id":501,"name":"momlovie","steam_id":76561198843933742,"connected_time":393000000000,"state":"active","ping":70},{"user_id":505,"name":"LoboSolo","steam_id":76561198006883170,"connected_time":329000000000,"state":"active","ping":105},{"user_id":452,"name":"LegendaryMister151","steam_id":76561198064890524,"connected_time":3137000000000,"state":"active","ping":85},{"user_id":457,"name":"Mr. Pink","steam_id":76561198065858172,"connected_time":2929000000000,"state":"active","ping":61},{"user_id":497,"name":"Tay","steam_id":76561198059605568,"connected_time":828000000000,"state":"active","ping":72},{"user_id":473,"name":"Praise_to_the_Flashlight!","steam_id":76561199001728789,"connected_time":2282000000000,"state":"active","ping":58},{"user_id":488,"name":"Fobby #Savetf2","steam_id":76561198047681469,"connected_time":1377000000000,"state":"active","ping":71},{"user_id":441,"name":"richard clock","steam_id":76561198048455671,"connected_time":3544000000000,"state":"active","ping":58},{"user_id":506,"name":"ThatGamingKiwi","steam_id":76561199170522237,"connected_time":323000000000,"state":"active","ping":80},{"user_id":507,"name":"sloped wall (fake) [not real]","steam_id":76561198203952392,"connected_time":314000000000,"state":"active","ping":62},{"user_id":496,"name":"gps","steam_id":76561198067492304,"connected_time":849000000000,"state":"active","ping":78},{"user_id":417,"name":"NUt","steam_id":76561198031007966,"connected_time":5182000000000,"state":"active","ping":74},{"user_id":456,"name":"Kazz","steam_id":76561198074541498,"connected_time":3002000000000,"state":"active","ping":67},{"user_id":498,"name":"Tibalt Nyahuma","steam_id":76561198034779431,"connected_time":815000000000,"state":"active","ping":76},{"user_id":508,"name":"Capybara Enjoyer","steam_id":76561199147114434,"connected_time":309000000000,"state":"active","ping":109},{"user_id":510,"name":"Oh, it's Zach","steam_id":76561198103309672,"connected_time":76000000000,"state":"active","ping":58},{"user_id":504,"name":"Qball","steam_id":76561198179016466,"connected_time":353000000000,"state":"active","ping":58},{"user_id":500,"name":"Milkmur","steam_id":76561198210043821,"connected_time":489000000000,"state":"active","ping":84},{"user_id":471,"name":"wiiblob","steam_id":76561198109106242,"connected_time":2420000000000,"state":"active","ping":140},{"user_id":509,"name":"Sentry Gun","steam_id":76561199056503496,"connected_time":285000000000,"state":"active","ping":116},{"user_id":494,"name":"Dead Silent Lia","steam_id":76561198151569597,"connected_time":1009000000000,"state":"active","ping":148}]},{"server_id":0,"name_short":"","name":"Uncletopia | Atlanta | 1 | All Maps","host":"","port":0,"enabled":false,"region":"","cc":"","latitude":0,"longitude":0,"reserved":0,"last_update":"0001-01-01T00:00:00Z","protocol":17,"map":"pl_upward","folder":"tf","game":"Team Fortress","app_id":440,"player_count":24,"max_players":24,"Bots":0,"server_type":"Dedicated","server_os":"Linux","password":true,"vac":true,"version":"7961495","steam_id":85568392924469982,"keywords":["nocrits","nodmgspread","payload","uncletopia"],"edicts":[948,2048],"game_id":440,"stv_port":27016,"stv_name":"Uncletopia | Atlanta | 1 | All Maps | STV","players":[{"user_id":351,"name":"joshuatheSAVAGE2007","steam_id":76561198184900753,"connected_time":5078000000000,"state":"active","ping":73},{"user_id":374,"name":"z #based","steam_id":76561198377478982,"connected_time":2788000000000,"state":"active","ping":71},{"user_id":377,"name":"Aku+","steam_id":76561198813782795,"connected_time":2708000000000,"state":"active","ping":165},{"user_id":420,"name":"ATL1 | to4st","steam_id":76561198981009008,"connected_time":1437000000000,"state":"active","ping":71},{"user_id":363,"name":"skafan777","steam_id":76561198386344068,"connected_time":3851000000000,"state":"active","ping":74},{"user_id":437,"name":"Dabbledornk","steam_id":76561198065241300,"connected_time":339000000000,"state":"active","ping":60},{"user_id":432,"name":"TerrorRigg","steam_id":76561198125947844,"connected_time":448000000000,"state":"active","ping":105},{"user_id":422,"name":"Stick","steam_id":76561198001509374,"connected_time":1387000000000,"state":"active","ping":73},{"user_id":370,"name":"Ghetto Smosh Fan","steam_id":76561198097272509,"connected_time":3135000000000,"state":"active","ping":40},{"user_id":434,"name":"DrCrent","steam_id":76561198182204161,"connected_time":409000000000,"state":"active","ping":67},{"user_id":357,"name":"barrybackshots14","steam_id":76561198388095559,"connected_time":5044000000000,"state":"active","ping":123},{"user_id":427,"name":"terrytennisball418","steam_id":76561198048882285,"connected_time":936000000000,"state":"active","ping":67},{"user_id":368,"name":"Ok-Par","steam_id":76561199221067945,"connected_time":3218000000000,"state":"active","ping":81},{"user_id":435,"name":"zzealot","steam_id":76561198332527242,"connected_time":407000000000,"state":"active","ping":64},{"user_id":387,"name":"SPYCHECK ME","steam_id":76561198980994364,"connected_time":2360000000000,"state":"active","ping":91},{"user_id":436,"name":"UNRELIABLE TEAMMATE","steam_id":76561198063526102,"connected_time":392000000000,"state":"active","ping":91},{"user_id":438,"name":"ATL 1 | Save your wifi","steam_id":76561198286147372,"connected_time":34000000000,"state":"active","ping":70},{"user_id":306,"name":"Heathcliff","steam_id":76561198044288534,"connected_time":10101000000000,"state":"active","ping":74},{"user_id":426,"name":"Toxic Medic Main (he/they)","steam_id":76561198009314845,"connected_time":1144000000000,"state":"active","ping":119},{"user_id":428,"name":"lemme get a bbl the ocky way","steam_id":76561198115458307,"connected_time":914000000000,"state":"active","ping":113},{"user_id":433,"name":"Kine¬≤","steam_id":76561198061505962,"connected_time":435000000000,"state":"active","ping":49},{"user_id":431,"name":"Jin Gulilo","steam_id":76561198065151242,"connected_time":509000000000,"state":"active","ping":78},{"user_id":372,"name":"Killbasa","steam_id":76561198064868400,"connected_time":2800000000000,"state":"active","ping":86},{"user_id":414,"name":"finnishhospital89","steam_id":76561198249206656,"connected_time":1812000000000,"state":"active","ping":89}]},{"server_id":0,"name_short":"","name":"Uncletopia | Dallas | 3 | All Maps","host":"","port":0,"enabled":false,"region":"","cc":"","latitude":0,"longitude":0,"reserved":0,"last_update":"0001-01-01T00:00:00Z","protocol":17,"map":"koth_lakeside_final","folder":"tf","game":"Team Fortress","app_id":440,"player_count":9,"max_players":24,"Bots":0,"server_type":"Dedicated","server_os":"Linux","password":true,"vac":true,"version":"7961495","steam_id":85568392924515219,"keywords":["cp","nocrits","nodmgspread","uncletopia"],"edicts":[394,2048],"game_id":440,"stv_port":27036,"stv_name":"Uncletopia | Dallas | 3 | All Maps | STV","players":[{"user_id":276,"name":"Creamus Maximus","steam_id":76561198085135600,"connected_time":339000000000,"state":"active","ping":71},{"user_id":275,"name":"Jovyel","steam_id":76561198118777065,"connected_time":494000000000,"state":"active","ping":50},{"user_id":277,"name":"üÖúüÖîüÖîüÖöüÖ¢üÖ£üÖî\ufffd\ufffd\ufffd","steam_id":76561197999748343,"connected_time":337000000000,"state":"active","ping":32},{"user_id":260,"name":"tghalepeno","steam_id":76561198858018027,"connected_time":2338000000000,"state":"active","ping":68},{"user_id":278,"name":"Bully Maguire","steam_id":76561199081621029,"connected_time":324000000000,"state":"active","ping":65},{"user_id":279,"name":"Prinz","steam_id":76561198175476071,"connected_time":23000000000,"state":"active","ping":74},{"user_id":280,"name":"JackDaSnac","steam_id":76561198991858250,"connected_time":16000000000,"state":"spawning","ping":82},{"user_id":224,"name":"grim reaper","steam_id":76561199389114520,"connected_time":5142000000000,"state":"active","ping":92},{"user_id":214,"name":"lilicopter1","steam_id":76561199109281757,"connected_time":6019000000000,"state":"active","ping":90}]},{"server_id":0,"name_short":"","name":"Uncletopia | London | 7 | Stopwatch","host":"","port":0,"enabled":false,"region":"","cc":"","latitude":0,"longitude":0,"reserved":0,"last_update":"0001-01-01T00:00:00Z","protocol":17,"map":"koth_bagel_rc6","folder":"tf","game":"Team Fortress","app_id":440,"player_count":0,"max_players":24,"Bots":0,"server_type":"Dedicated","server_os":"Linux","password":true,"vac":true,"version":"7961495","steam_id":85568392924964314,"keywords":["cp","nocrits","nodmgspread","uncletopia"],"edicts":[598,2048],"game_id":440,"stv_port":27076,"stv_name":"Uncletopia | London | 7 | Stopwatch | STV","players":null},{"server_id":0,"name_short":"","name":"Uncletopia | S√£o Paulo | 1 | All Maps","host":"","port":0,"enabled":false,"region":"","cc":"","latitude":0,"longitude":0,"reserved":0,"last_update":"0001-01-01T00:00:00Z","protocol":17,"map":"koth_lakeside_final","folder":"tf","game":"Team Fortress","app_id":440,"player_count":0,"max_players":24,"Bots":0,"server_type":"Dedicated","server_os":"Linux","password":true,"vac":true,"version":"7961495","steam_id":85568392924469996,"keywords":["cp","nocrits","nodmgspread","uncletopia"],"edicts":[301,2048],"game_id":440,"stv_port":27016,"stv_name":"Uncletopia | S√£o Paulo | 1 | All Maps | STV","players":null},{"server_id":0,"name_short":"","name":"Uncletopia | Sydney | 3 | All Maps","host":"","port":0,"enabled":false,"region":"","cc":"","latitude":0,"longitude":0,"reserved":0,"last_update":"0001-01-01T00:00:00Z","protocol":17,"map":"koth_brazil","folder":"tf","game":"Team Fortress","app_id":440,"player_count":0,"max_players":24,"Bots":0,"server_type":"Dedicated","server_os":"Linux","password":true,"vac":true,"version":"7961495","steam_id":85568392925194467,"keywords":["cp","nocrits","nodmgspread","uncletopia"],"edicts":[417,2048],"game_id":440,"stv_port":27036,"stv_name":"Uncletopia | Sydney | 3 | All Maps | STV","players":null},{"server_id":0,"name_short":"","name":"Uncletopia | Montr√©al | 3 | One Thousand Uncles","host":"","port":0,"enabled":false,"region":"","cc":"","latitude":0,"longitude":0,"reserved":0,"last_update":"0001-01-01T00:00:00Z","protocol":17,"map":"cp_dustbowl","folder":"tf","game":"Team Fortress","app_id":440,"player_count":0,"max_players":32,"Bots":0,"server_type":"Dedicated","server_os":"Linux","password":true,"vac":true,"version":"7961495","steam_id":85568392924500089,"keywords":["alltalk","cp","danepve","increased_maxplayers","norespawntime","uncletopia"],"edicts":[736,2048],"game_id":440,"stv_port":0,"stv_name":"","players":null},{"server_id":0,"name_short":"","name":"Uncletopia | Chicago | 8 | Community","host":"","port":0,"enabled":false,"region":"","cc":"","latitude":0,"longitude":0,"reserved":0,"last_update":"0001-01-01T00:00:00Z","protocol":17,"map":"cp_caldera_rc3","folder":"tf","game":"Team Fortress","app_id":440,"player_count":0,"max_players":24,"Bots":0,"server_type":"Dedicated","server_os":"Linux","password":true,"vac":true,"version":"7961495","steam_id":85568392924866365,"keywords":["cp","nocrits","nodmgspread","uncletopia"],"edicts":[717,2048],"game_id":440,"stv_port":27046,"stv_name":"Uncletopia | Chicago | 8 | Community | STV","players":null},{"server_id":0,"name_short":"","name":"Uncletopia | Dallas | 4 | Community","host":"","port":0,"enabled":false,"region":"","cc":"","latitude":0,"longitude":0,"reserved":0,"last_update":"0001-01-01T00:00:00Z","protocol":17,"map":"pl_extinction_rc1","folder":"tf","game":"Team Fortress","app_id":440,"player_count":2,"max_players":24,"Bots":0,"server_type":"Dedicated","server_os":"Linux","password":true,"vac":true,"version":"7961495","steam_id":85568392924515220,"keywords":["nocrits","nodmgspread","payload","uncletopia"],"edicts":[1100,2048],"game_id":440,"stv_port":27046,"stv_name":"Uncletopia | Dallas | 4 | Community | STV","players":[{"user_id":14,"name":"Orange","steam_id":76561198169914315,"connected_time":2163000000000,"state":"active","ping":62},{"user_id":15,"name":"drillstevejr","steam_id":76561198905993824,"connected_time":2069000000000,"state":"active","ping":113}]},{"server_id":0,"name_short":"","name":"Uncletopia | San Francisco | 4 | Community","host":"","port":0,"enabled":false,"region":"","cc":"","latitude":0,"longitude":0,"reserved":0,"last_update":"0001-01-01T00:00:00Z","protocol":17,"map":"pl_badwater_pro_v12","folder":"tf","game":"Team Fortress","app_id":440,"player_count":0,"max_players":24,"Bots":0,"server_type":"Dedicated","server_os":"Linux","password":true,"vac":true,"version":"7961495","steam_id":85568392924742826,"keywords":["nocrits","nodmgspread","payload","uncletopia"],"edicts":[735,2048],"game_id":440,"stv_port":27046,"stv_name":"Uncletopia | San Francisco | 4 | Community | STV","players":null},{"server_id":0,"name_short":"","name":"Uncletopia | London | 2 | All Maps","host":"","port":0,"enabled":false,"region":"","cc":"","latitude":0,"longitude":0,"reserved":0,"last_update":"0001-01-01T00:00:00Z","protocol":17,"map":"koth_highpass","folder":"tf","game":"Team Fortress","app_id":440,"player_count":0,"max_players":24,"Bots":0,"server_type":"Dedicated","server_os":"Linux","password":true,"vac":true,"version":"7961495","steam_id":85568392924470941,"keywords":["cp","nocrits","nodmgspread","uncletopia"],"edicts":[413,2048],"game_id":440,"stv_port":27026,"stv_name":"Uncletopia | London | 2 | All Maps | STV","players":null},{"server_id":0,"name_short":"","name":"Uncletopia | Warsaw | 2 | One Thousand Uncles","host":"","port":0,"enabled":false,"region":"","cc":"","latitude":0,"longitude":0,"reserved":0,"last_update":"0001-01-01T00:00:00Z","protocol":17,"map":"pl_goldrush","folder":"tf","game":"Team Fortress","app_id":440,"player_count":0,"max_players":32,"Bots":0,"server_type":"Dedicated","server_os":"Linux","password":true,"vac":true,"version":"7961495","steam_id":85568392925397851,"keywords":["alltalk","danepve","increased_maxplayers","norespawntime","payload","uncletopia"],"edicts":[1122,2048],"game_id":440,"stv_port":0,"stv_name":"","players":null},{"server_id":0,"name_short":"","name":"Uncletopia | Sydney | 5 | Stopwatch","host":"","port":0,"enabled":false,"region":"","cc":"","latitude":0,"longitude":0,"reserved":0,"last_update":"0001-01-01T00:00:00Z","protocol":17,"map":"koth_highpass","folder":"tf","game":"Team Fortress","app_id":440,"player_count":0,"max_players":24,"Bots":0,"server_type":"Dedicated","server_os":"Linux","password":true,"vac":true,"version":"7961495","steam_id":85568392925397959,"keywords":["cp","nocrits","nodmgspread","uncletopia"],"edicts":[413,2048],"game_id":440,"stv_port":27056,"stv_name":"Uncletopia | Sydney | 5 | Stopwatch | STV","players":null},{"server_id":0,"name_short":"","name":"Uncletopia | Chicago | 2 | All Maps","host":"","port":0,"enabled":false,"region":"","cc":"","latitude":0,"longitude":0,"reserved":0,"last_update":"0001-01-01T00:00:00Z","protocol":17,"map":"pl_swiftwater_final1","folder":"tf","game":"Team Fortress","app_id":440,"player_count":24,"max_players":24,"Bots":0,"server_type":"Dedicated","server_os":"Linux","password":true,"vac":true,"version":"7961495","steam_id":85568392924469985,"keywords":["nocrits","nodmgspread","payload","uncletopia"],"edicts":[1181,2048],"game_id":440,"stv_port":27026,"stv_name":"Uncletopia | Chicago | 2 | All Maps | STV","players":[{"user_id":321,"name":"TheoLynwood","steam_id":76561198079596878,"connected_time":2646000000000,"state":"active","ping":64},{"user_id":363,"name":"mobe","steam_id":76561198121633820,"connected_time":180000000000,"state":"active","ping":91},{"user_id":337,"name":"Nondescript","steam_id":76561198035777247,"connected_time":1032000000000,"state":"active","ping":109},{"user_id":343,"name":"luxl1","steam_id":76561198975034056,"connected_time":968000000000,"state":"active","ping":116},{"user_id":358,"name":"Orange","steam_id":76561198282214019,"connected_time":394000000000,"state":"active","ping":72},{"user_id":365,"name":"The jesus guy (FRNK)","steam_id":76561198237997622,"connected_time":35000000000,"state":"active","ping":171},{"user_id":320,"name":"Avg Native Canadian","steam_id":76561198260451626,"connected_time":2728000000000,"state":"active","ping":70},{"user_id":338,"name":"Liminality","steam_id":76561198002601402,"connected_time":1025000000000,"state":"active","ping":104},{"user_id":357,"name":"jorjor wells","steam_id":76561199073429082,"connected_time":475000000000,"state":"active","ping":62},{"user_id":327,"name":"Zeodexic","steam_id":76561198055636655,"connected_time":1905000000000,"state":"active","ping":80},{"user_id":364,"name":"Arcelite","steam_id":76561198007089716,"connected_time":114000000000,"state":"active","ping":79},{"user_id":366,"name":"TeyiaYT","steam_id":76561199216048520,"connected_time":14000000000,"state":"active","ping":77},{"user_id":346,"name":"Pigzilla","steam_id":76561198373968267,"connected_time":883000000000,"state":"active","ping":60},{"user_id":339,"name":"SPONGE :)","steam_id":76561198432719042,"connected_time":1000000000000,"state":"active","ping":65},{"user_id":347,"name":"„ÇØ„É¨„Ç™„É©","steam_id":76561198000830794,"connected_time":829000000000,"state":"active","ping":100},{"user_id":361,"name":"Donk","steam_id":76561199202761955,"connected_time":316000000000,"state":"active","ping":57},{"user_id":348,"name":"Rice","steam_id":76561199150353089,"connected_time":815000000000,"state":"active","ping":74},{"user_id":351,"name":"The Jar","steam_id":76561198146013385,"connected_time":685000000000,"state":"active","ping":98},{"user_id":352,"name":"Tailsmonster12","steam_id":76561198399989261,"connected_time":633000000000,"state":"active","ping":60},{"user_id":353,"name":"Mug Moment Gaming","steam_id":76561198233098136,"connected_time":625000000000,"state":"active","ping":58},{"user_id":354,"name":"Gian","steam_id":76561198041434512,"connected_time":604000000000,"state":"active","ping":119},{"user_id":355,"name":"Jest","steam_id":76561198170173062,"connected_time":587000000000,"state":"active","ping":105},{"user_id":329,"name":"WorldsWorstGamer","steam_id":76561199126634917,"connected_time":1873000000000,"state":"active","ping":57},{"user_id":356,"name":"WaywardFinn","steam_id":76561198040391296,"connected_time":584000000000,"state":"active","ping":87}]},{"server_id":0,"name_short":"","name":"Uncletopia | San Francisco | 2 | All Maps","host":"","port":0,"enabled":false,"region":"","cc":"","latitude":0,"longitude":0,"reserved":0,"last_update":"0001-01-01T00:00:00Z","protocol":17,"map":"pl_hoodoo_final","folder":"tf","game":"Team Fortress","app_id":440,"player_count":4,"max_players":24,"Bots":0,"server_type":"Dedicated","server_os":"Linux","password":true,"vac":true,"version":"7961495","steam_id":85568392924470000,"keywords":["nocrits","nodmgspread","payload","uncletopia"],"edicts":[1168,2048],"game_id":440,"stv_port":27026,"stv_name":"Uncletopia | San Francisco | 2 | All Maps | STV","players":[{"user_id":5,"name":"sonicbrand","steam_id":76561198040929901,"connected_time":778000000000,"state":"active","ping":63},{"user_id":6,"name":"Mmuki","steam_id":76561198272036612,"connected_time":760000000000,"state":"active","ping":110},{"user_id":7,"name":"Tsuki","steam_id":76561198169233358,"connected_time":751000000000,"state":"active","ping":104},{"user_id":8,"name":"[AOUF] CamoKevin","steam_id":76561198116367336,"connected_time":741000000000,"state":"active","ping":107}]},{"server_id":0,"name_short":"","name":"Uncletopia | Seattle | 2 | All Maps","host":"","port":0,"enabled":false,"region":"","cc":"","latitude":0,"longitude":0,"reserved":0,"last_update":"0001-01-01T00:00:00Z","protocol":17,"map":"koth_lakeside_final","folder":"tf","game":"Team Fortress","app_id":440,"player_count":23,"max_players":24,"Bots":0,"server_type":"Dedicated","server_os":"Linux","password":true,"vac":true,"version":"7961495","steam_id":85568392924469998,"keywords":["cp","nocrits","nodmgspread","uncletopia"],"edicts":[592,2048],"game_id":440,"stv_port":27026,"stv_name":"Uncletopia | Seattle | 2 | All Maps | STV","players":[{"user_id":80,"name":"tomandjerry085","steam_id":76561198800789071,"connected_time":752000000000,"state":"active","ping":71},{"user_id":81,"name":"hatbill","steam_id":76561198184814466,"connected_time":688000000000,"state":"active","ping":46},{"user_id":91,"name":"vueko","steam_id":76561199001918194,"connected_time":300000000000,"state":"active","ping":85},{"user_id":82,"name":"Jacob Deveau","steam_id":76561198997341499,"connected_time":641000000000,"state":"active","ping":102},{"user_id":83,"name":"Bestmaster202","steam_id":76561198235282680,"connected_time":625000000000,"state":"active","ping":70},{"user_id":63,"name":"MCman","steam_id":76561198412110305,"connected_time":1414000000000,"state":"active","ping":87},{"user_id":84,"name":"[DATS‚û°] Sugar Meowth","steam_id":76561197995251793,"connected_time":595000000000,"state":"active","ping":41},{"user_id":85,"name":"Just washed","steam_id":76561199030160932,"connected_time":540000000000,"state":"active","ping":135},{"user_id":69,"name":"Vibrantword3732","steam_id":76561198916638641,"connected_time":1232000000000,"state":"active","ping":66},{"user_id":74,"name":"Throws Before BrosÛ†Ä°","steam_id":76561197992905530,"connected_time":922000000000,"state":"active","ping":74},{"user_id":70,"name":"Zack Fox","steam_id":76561198046057008,"connected_time":1202000000000,"state":"active","ping":77},{"user_id":90,"name":"skittle ducks jr.","steam_id":76561198309823950,"connected_time":383000000000,"state":"active","ping":29},{"user_id":41,"name":"garten of banban","steam_id":76561198110145844,"connected_time":2691000000000,"state":"active","ping":76},{"user_id":71,"name":"Doc Mochi","steam_id":76561198035479925,"connected_time":1136000000000,"state":"active","ping":69},{"user_id":79,"name":"morgan","steam_id":76561199012126174,"connected_time":774000000000,"state":"active","ping":83},{"user_id":45,"name":"=Silver=","steam_id":76561198292307127,"connected_time":2589000000000,"state":"active","ping":61},{"user_id":49,"name":"Kitsuki","steam_id":76561199158009337,"connected_time":2303000000000,"state":"active","ping":42},{"user_id":77,"name":"Goofy From The Simpsons","steam_id":76561198060836760,"connected_time":849000000000,"state":"active","ping":50},{"user_id":89,"name":"greens beans","steam_id":76561198153611491,"connected_time":406000000000,"state":"active","ping":32},{"user_id":73,"name":"MegawrightAA","steam_id":76561198338063642,"connected_time":1019000000000,"state":"active","ping":83},{"user_id":75,"name":"stool zoftnerr","steam_id":76561198128750352,"connected_time":918000000000,"state":"active","ping":106},{"user_id":76,"name":"lag","steam_id":76561197963872739,"connected_time":882000000000,"state":"active","ping":59},{"user_id":87,"name":"peachy","steam_id":76561198028721790,"connected_time":448000000000,"state":"active","ping":66}]},{"server_id":0,"name_short":"","name":"Uncletopia | Los Angeles | 4 | Stopwatch","host":"","port":0,"enabled":false,"region":"","cc":"","latitude":0,"longitude":0,"reserved":0,"last_update":"0001-01-01T00:00:00Z","protocol":17,"map":"cp_process_final","folder":"tf","game":"Team Fortress","app_id":440,"player_count":0,"max_players":24,"Bots":0,"server_type":"Dedicated","server_os":"Linux","password":true,"vac":true,"version":"7961495","steam_id":85568392924510199,"keywords":["cp","nocrits","nodmgspread","uncletopia"],"edicts":[537,2048],"game_id":440,"stv_port":27046,"stv_name":"Uncletopia | Los Angeles | 4 | Stopwatch | STV","players":null},{"server_id":0,"name_short":"","name":"Uncletopia | New York City | 4 | Community","host":"","port":0,"enabled":false,"region":"","cc":"","latitude":0,"longitude":0,"reserved":0,"last_update":"0001-01-01T00:00:00Z","protocol":17,"map":"cp_villa_b19","folder":"tf","game":"Team Fortress","app_id":440,"player_count":0,"max_players":24,"Bots":0,"server_type":"Dedicated","server_os":"Linux","password":true,"vac":true,"version":"7961495","steam_id":85568392924742821,"keywords":["cp","nocrits","nodmgspread","uncletopia"],"edicts":[441,2048],"game_id":440,"stv_port":27046,"stv_name":"Uncletopia | New York City | 4 | Community | STV","players":null},{"server_id":0,"name_short":"","name":"Uncletopia | Montr√©al | 1 | One Thousand Uncles","host":"","port":0,"enabled":false,"region":"","cc":"","latitude":0,"longitude":0,"reserved":0,"last_update":"0001-01-01T00:00:00Z","protocol":17,"map":"pl_barnblitz","folder":"tf","game":"Team Fortress","app_id":440,"player_count":0,"max_players":32,"Bots":0,"server_type":"Dedicated","server_os":"Linux","password":true,"vac":true,"version":"7961495","steam_id":85568392924500087,"keywords":["alltalk","danepve","increased_maxplayers","norespawntime","payload","uncletopia"],"edicts":[803,2048],"game_id":440,"stv_port":0,"stv_name":"","players":null},{"server_id":0,"name_short":"","name":"Uncletopia | Frankfurt | 3 | All Maps","host":"","port":0,"enabled":false,"region":"","cc":"","latitude":0,"longitude":0,"reserved":0,"last_update":"0001-01-01T00:00:00Z","protocol":17,"map":"koth_suijin","folder":"tf","game":"Team Fortress","app_id":440,"player_count":0,"max_players":24,"Bots":0,"server_type":"Dedicated","server_os":"Linux","password":true,"vac":true,"version":"7961495","steam_id":85568392924504274,"keywords":["cp","nocrits","nodmgspread","uncletopia"],"edicts":[422,2048],"game_id":440,"stv_port":27036,"stv_name":"Uncletopia | Frankfurt | 3 | All Maps | STV","players":null},{"server_id":0,"name_short":"","name":"Uncletopia | Chicago | 4 | All Maps","host":"","port":0,"enabled":false,"region":"","cc":"","latitude":0,"longitude":0,"reserved":0,"last_update":"0001-01-01T00:00:00Z","protocol":17,"map":"cp_snakewater_final1","folder":"tf","game":"Team Fortress","app_id":440,"player_count":20,"max_players":24,"Bots":0,"server_type":"Dedicated","server_os":"Linux","password":true,"vac":true,"version":"7961495","steam_id":85568392924515193,"keywords":["cp","nocrits","nodmgspread","uncletopia"],"edicts":[868,2048],"game_id":440,"stv_port":27046,"stv_name":"Uncletopia | Chicago | 4 | All Maps | STV","players":[{"user_id":114,"name":"SodaKid_7","steam_id":76561198079419485,"connected_time":1760000000000,"state":"active","ping":95},{"user_id":141,"name":"Oni","steam_id":76561198112066584,"connected_time":121000000000,"state":"active","ping":62},{"user_id":101,"name":"toastman","steam_id":76561198207073088,"connected_time":2237000000000,"state":"active","ping":69},{"user_id":137,"name":"User","steam_id":76561199213704223,"connected_time":367000000000,"state":"active","ping":105},{"user_id":142,"name":"BOTH | cheapskate!","steam_id":76561198880304614,"connected_time":112000000000,"state":"active","ping":60},{"user_id":98,"name":"Empyrean","steam_id":76561198116398716,"connected_time":2356000000000,"state":"active","ping":102},{"user_id":99,"name":"Pinhed Lary","steam_id":76561198378320706,"connected_time":2349000000000,"state":"active","ping":75},{"user_id":117,"name":"craig_fisherman","steam_id":76561198823526581,"connected_time":1533000000000,"state":"active","ping":74},{"user_id":112,"name":"yomo","steam_id":76561198063175935,"connected_time":1905000000000,"state":"active","ping":72},{"user_id":116,"name":"lil' Wayne","steam_id":76561198050136796,"connected_time":1656000000000,"state":"active","ping":82},{"user_id":111,"name":"i drive a nissan altima","steam_id":76561198143132686,"connected_time":2018000000000,"state":"active","ping":87},{"user_id":139,"name":"Ninjoth","steam_id":76561198038611753,"connected_time":179000000000,"state":"active","ping":77},{"user_id":138,"name":"[P-CAN] At\u0026t Home Internet","steam_id":76561198126700526,"connected_time":217000000000,"state":"active","ping":109},{"user_id":120,"name":"Asanez3","steam_id":76561198037381436,"connected_time":1446000000000,"state":"active","ping":81},{"user_id":123,"name":"CombustibleToast","steam_id":76561198051358882,"connected_time":1393000000000,"state":"active","ping":52},{"user_id":134,"name":"AFunkyPigeon","steam_id":76561199350099870,"connected_time":750000000000,"state":"active","ping":65},{"user_id":135,"name":"William Lovett","steam_id":76561197991063996,"connected_time":685000000000,"state":"active","ping":53},{"user_id":127,"name":"sweglord227","steam_id":76561198415510262,"connected_time":1245000000000,"state":"active","ping":55},{"user_id":128,"name":"squaggles!","steam_id":76561197994995011,"connected_time":1188000000000,"state":"active","ping":47},{"user_id":136,"name":"RubWub","steam_id":76561198089623364,"connected_time":658000000000,"state":"active","ping":88}]},{"server_id":0,"name_short":"","name":"Uncletopia | Atlanta | 3 | Stopwatch","host":"","port":0,"enabled":false,"region":"","cc":"","latitude":0,"longitude":0,"reserved":0,"last_update":"0001-01-01T00:00:00Z","protocol":17,"map":"koth_bagel_rc6","folder":"tf","game":"Team Fortress","app_id":440,"player_count":0,"max_players":24,"Bots":0,"server_type":"Dedicated","server_os":"Linux","password":true,"vac":true,"version":"7961495","steam_id":85568392924515187,"keywords":["cp","nocrits","nodmgspread","uncletopia"],"edicts":[600,2048],"game_id":440,"stv_port":27036,"stv_name":"Uncletopia | Atlanta | 3 | Stopwatch | STV","players":null},{"server_id":0,"name_short":"","name":"Uncletopia | Dallas | 1 | All Maps","host":"","port":0,"enabled":false,"region":"","cc":"","latitude":0,"longitude":0,"reserved":0,"last_update":"0001-01-01T00:00:00Z","protocol":17,"map":"pl_barnblitz","folder":"tf","game":"Team Fortress","app_id":440,"player_count":24,"max_players":24,"Bots":0,"server_type":"Dedicated","server_os":"Linux","password":true,"vac":true,"version":"7961495","steam_id":85568392924469986,"keywords":["nocrits","nodmgspread","payload","uncletopia"],"edicts":[1060,2048],"game_id":440,"stv_port":27016,"stv_name":"Uncletopia | Dallas | 1 | All Maps | STV","players":[{"user_id":303,"name":"Derblitz","steam_id":76561198040953176,"connected_time":554000000000,"state":"active","ping":91},{"user_id":263,"name":"ndvr (femboy (REAL))","steam_id":76561199379200102,"connected_time":2790000000000,"state":"active","ping":81},{"user_id":315,"name":"Normalux","steam_id":76561198293891426,"connected_time":219000000000,"state":"active","ping":104},{"user_id":292,"name":"Bogey","steam_id":76561198096227944,"connected_time":1223000000000,"state":"active","ping":46},{"user_id":267,"name":"buhn","steam_id":76561198106117196,"connected_time":2752000000000,"state":"active","ping":78},{"user_id":300,"name":"triph","steam_id":76561198067196509,"connected_time":1004000000000,"state":"active","ping":84},{"user_id":312,"name":"Dr. No Name","steam_id":76561198058656869,"connected_time":364000000000,"state":"active","ping":93},{"user_id":278,"name":"fish","steam_id":76561198111396488,"connected_time":2066000000000,"state":"active","ping":50},{"user_id":287,"name":"SAGE(‡§∏‡§ó‡•á*)","steam_id":76561198811114074,"connected_time":1398000000000,"state":"active","ping":59},{"user_id":314,"name":"ack.awesome676","steam_id":76561199109415958,"connected_time":233000000000,"state":"active","ping":64},{"user_id":291,"name":"Wounded","steam_id":76561199440954924,"connected_time":1278000000000,"state":"active","ping":132},{"user_id":107,"name":"Perry (The White Fang Goon)","steam_id":76561198870926636,"connected_time":10251000000000,"state":"active","ping":95},{"user_id":275,"name":"tsz","steam_id":76561199246231090,"connected_time":2541000000000,"state":"active","ping":80},{"user_id":310,"name":"Hamlindigo Blue‚Ñ¢","steam_id":76561198116337540,"connected_time":432000000000,"state":"active","ping":77},{"user_id":317,"name":"EnragedWaters","steam_id":76561198317135757,"connected_time":151000000000,"state":"active","ping":82},{"user_id":316,"name":"DrMisteryous2","steam_id":76561198336307012,"connected_time":218000000000,"state":"active","ping":202},{"user_id":295,"name":"Deltaco","steam_id":76561198094572694,"connected_time":1126000000000,"state":"active","ping":126},{"user_id":318,"name":"Spinch","steam_id":76561198296224166,"connected_time":99000000000,"state":"active","ping":65},{"user_id":296,"name":"Deeply","steam_id":76561199000786530,"connected_time":1116000000000,"state":"active","ping":71},{"user_id":319,"name":"Publo","steam_id":76561198161777140,"connected_time":74000000000,"state":"active","ping":63},{"user_id":268,"name":"Enderkill777","steam_id":76561198876915153,"connected_time":2745000000000,"state":"active","ping":102},{"user_id":320,"name":"squeaker","steam_id":76561198055626638,"connected_time":72000000000,"state":"active","ping":119},{"user_id":306,"name":"hunrah","steam_id":76561198185509070,"connected_time":510000000000,"state":"active","ping":86},{"user_id":311,"name":"Babypool","steam_id":76561198329213832,"connected_time":418000000000,"state":"active","ping":84}]},{"server_id":0,"name_short":"","name":"Uncletopia | London | 4 | All Maps","host":"","port":0,"enabled":false,"region":"","cc":"","latitude":0,"longitude":0,"reserved":0,"last_update":"0001-01-01T00:00:00Z","protocol":17,"map":"cp_process_final","folder":"tf","game":"Team Fortress","app_id":440,"player_count":0,"max_players":24,"Bots":0,"server_type":"Dedicated","server_os":"Linux","password":true,"vac":true,"version":"7961495","steam_id":85568392924510193,"keywords":["cp","nocrits","nodmgspread","uncletopia"],"edicts":[538,2048],"game_id":440,"stv_port":27046,"stv_name":"Uncletopia | London | 4 | All Maps | STV","players":null},{"server_id":0,"name_short":"","name":"Uncletopia | Warsaw | 1 | One Thousand Uncles","host":"","port":0,"enabled":false,"region":"","cc":"","latitude":0,"longitude":0,"reserved":0,"last_update":"0001-01-01T00:00:00Z","protocol":17,"map":"pl_hoodoo_final","folder":"tf","game":"Team Fortress","app_id":440,"player_count":22,"max_players":32,"Bots":20,"server_type":"Dedicated","server_os":"Linux","password":true,"vac":true,"version":"7961495","steam_id":85568392925397850,"keywords":["alltalk","bots","danepve","increased_maxplayers","norespawntime","payload","uncletopia"],"edicts":[1548,2048],"game_id":440,"stv_port":0,"stv_name":"","players":[{"user_id":646,"name":"MrTalon63","steam_id":76561198169518632,"connected_time":2164000000000,"state":"active","ping":57},{"user_id":560,"name":"Zedifo","steam_id":76561198044032070,"connected_time":11702000000000,"state":"active","ping":74}]},{"server_id":0,"name_short":"","name":"Uncletopia | Montr√©al | 2 | One Thousand Uncles","host":"","port":0,"enabled":false,"region":"","cc":"","latitude":0,"longitude":0,"reserved":0,"last_update":"0001-01-01T00:00:00Z","protocol":17,"map":"cp_mossrock","folder":"tf","game":"Team Fortress","app_id":440,"player_count":0,"max_players":32,"Bots":0,"server_type":"Dedicated","server_os":"Linux","password":true,"vac":true,"version":"7961495","steam_id":85568392924500088,"keywords":["alltalk","cp","danepve","increased_maxplayers","norespawntime","uncletopia"],"edicts":[444,2048],"game_id":440,"stv_port":0,"stv_name":"","players":null},{"server_id":0,"name_short":"","name":"Uncletopia | Chicago | 6 | All Maps","host":"","port":0,"enabled":false,"region":"","cc":"","latitude":0,"longitude":0,"reserved":0,"last_update":"0001-01-01T00:00:00Z","protocol":17,"map":"pl_frontier_final","folder":"tf","game":"Team Fortress","app_id":440,"player_count":23,"max_players":24,"Bots":0,"server_type":"Dedicated","server_os":"Linux","password":true,"vac":true,"version":"7961495","steam_id":85568392924866363,"keywords":["nocrits","nodmgspread","payload","uncletopia"],"edicts":[1006,2048],"game_id":440,"stv_port":27026,"stv_name":"Uncletopia | Chicago | 6 | All Maps | STV","players":[{"user_id":34,"name":"PoonDriver Gaming","steam_id":76561198104671993,"connected_time":2553000000000,"state":"active","ping":49},{"user_id":66,"name":"Jango","steam_id":76561198084589742,"connected_time":279000000000,"state":"active","ping":75},{"user_id":72,"name":"pickle","steam_id":76561198160650463,"connected_time":125000000000,"state":"active","ping":53},{"user_id":57,"name":"Smashy","steam_id":76561198030704307,"connected_time":684000000000,"state":"active","ping":75},{"user_id":67,"name":"Squigly","steam_id":76561198084811625,"connected_time":272000000000,"state":"active","ping":76},{"user_id":59,"name":"hector.alvarez223","steam_id":76561199339997328,"connected_time":574000000000,"state":"active","ping":80},{"user_id":32,"name":"Gingoguy","steam_id":76561198088931297,"connected_time":2649000000000,"state":"active","ping":56},{"user_id":56,"name":"ÂèñÂêçÂè´ÂÅöÂøç","steam_id":76561198278282836,"connected_time":766000000000,"state":"active","ping":55},{"user_id":35,"name":"Isiahx514","steam_id":76561198124154535,"connected_time":2473000000000,"state":"active","ping":58},{"user_id":39,"name":"kyler","steam_id":76561198087837755,"connected_time":1490000000000,"state":"active","ping":59},{"user_id":40,"name":"haxxorman","steam_id":76561199155156400,"connected_time":1250000000000,"state":"active","ping":49},{"user_id":41,"name":"beerinabox","steam_id":76561198070614450,"connected_time":1228000000000,"state":"active","ping":68},{"user_id":45,"name":"punk cock","steam_id":76561198418182764,"connected_time":1015000000000,"state":"active","ping":70},{"user_id":43,"name":"Kindagoodplayer","steam_id":76561198814625843,"connected_time":1145000000000,"state":"active","ping":85},{"user_id":68,"name":"extradoodley","steam_id":76561198094207323,"connected_time":214000000000,"state":"active","ping":104},{"user_id":47,"name":"dadgummit","steam_id":76561198005806915,"connected_time":983000000000,"state":"active","ping":58},{"user_id":69,"name":"iBMWRyS","steam_id":76561198041005664,"connected_time":147000000000,"state":"active","ping":46},{"user_id":70,"name":"Shady Businessman","steam_id":76561198143855968,"connected_time":138000000000,"state":"active","ping":93},{"user_id":51,"name":"Hovg9000","steam_id":76561199191556710,"connected_time":862000000000,"state":"active","ping":79},{"user_id":71,"name":"Crazy","steam_id":76561198063922221,"connected_time":137000000000,"state":"active","ping":58},{"user_id":65,"name":"azulatherealone","steam_id":76561198211138176,"connected_time":363000000000,"state":"active","ping":59},{"user_id":73,"name":"FranckyFox2468","steam_id":76561198037679126,"connected_time":104000000000,"state":"active","ping":62},{"user_id":63,"name":"opps fucked up his do","steam_id":76561198803704016,"connected_time":536000000000,"state":"active","ping":73}]},{"server_id":0,"name_short":"","name":"Uncletopia | London | 1 | All Maps","host":"","port":0,"enabled":false,"region":"","cc":"","latitude":0,"longitude":0,"reserved":0,"last_update":"0001-01-01T00:00:00Z","protocol":17,"map":"pl_pier","folder":"tf","game":"Team Fortress","app_id":440,"player_count":0,"max_players":24,"Bots":0,"server_type":"Dedicated","server_os":"Linux","password":true,"vac":true,"version":"7961495","steam_id":85568392924367362,"keywords":["nocrits","nodmgspread","payload","uncletopia"],"edicts":[957,2048],"game_id":440,"stv_port":27016,"stv_name":"Uncletopia | London | 1 | All Maps | STV","players":null},{"server_id":0,"name_short":"","name":"Uncletopia | London | 8 | Community","host":"","port":0,"enabled":false,"region":"","cc":"","latitude":0,"longitude":0,"reserved":0,"last_update":"0001-01-01T00:00:00Z","protocol":17,"map":"cp_propaganda_b18","folder":"tf","game":"Team Fortress","app_id":440,"player_count":0,"max_players":24,"Bots":0,"server_type":"Dedicated","server_os":"Linux","password":true,"vac":true,"version":"7961495","steam_id":85568392924964315,"keywords":["cp","nocrits","nodmgspread","uncletopia"],"edicts":[412,2048],"game_id":440,"stv_port":27086,"stv_name":"Uncletopia | London | 8 | Community | STV","players":null},{"server_id":0,"name_short":"","name":"Uncletopia | London | 3 | All Maps","host":"","port":0,"enabled":false,"region":"","cc":"","latitude":0,"longitude":0,"reserved":0,"last_update":"0001-01-01T00:00:00Z","protocol":17,"map":"pl_badwater","folder":"tf","game":"Team Fortress","app_id":440,"player_count":24,"max_players":24,"Bots":0,"server_type":"Dedicated","server_os":"Linux","password":true,"vac":true,"version":"7961495","steam_id":85568392924510192,"keywords":["nocrits","nodmgspread","payload","uncletopia"],"edicts":[912,2048],"game_id":440,"stv_port":27036,"stv_name":"Uncletopia | London | 3 | All Maps | STV","players":[{"user_id":360,"name":"ULTIDUO CUP BatChest","steam_id":76561198051852765,"connected_time":519000000000,"state":"active","ping":76},{"user_id":361,"name":"Mike","steam_id":76561198228455736,"connected_time":497000000000,"state":"active","ping":37},{"user_id":272,"name":"ayy üçã","steam_id":76561198033695429,"connected_time":6936000000000,"state":"active","ping":36},{"user_id":358,"name":"angry russian man","steam_id":76561198386712795,"connected_time":902000000000,"state":"active","ping":56},{"user_id":312,"name":"KuzmosI42","steam_id":76561198064986592,"connected_time":4979000000000,"state":"active","ping":82},{"user_id":354,"name":"Drunk russian with pyromania","steam_id":76561198195527328,"connected_time":1307000000000,"state":"active","ping":45},{"user_id":362,"name":"Estamie","steam_id":76561198058527691,"connected_time":454000000000,"state":"active","ping":74},{"user_id":320,"name":"v0ddo","steam_id":76561198092745537,"connected_time":4543000000000,"state":"active","ping":47},{"user_id":280,"name":"Your honor Freebird was playing","steam_id":76561198017513012,"connected_time":6580000000000,"state":"active","ping":62},{"user_id":309,"name":"cisgender clown","steam_id":76561199469909295,"connected_time":5582000000000,"state":"active","ping":73},{"user_id":350,"name":"Napa cabbage","steam_id":76561198103825541,"connected_time":2091000000000,"state":"active","ping":134},{"user_id":363,"name":"glue eating champion","steam_id":76561198100963738,"connected_time":361000000000,"state":"active","ping":45},{"user_id":355,"name":"finn","steam_id":76561198366652456,"connected_time":1307000000000,"state":"active","ping":64},{"user_id":364,"name":"Coac","steam_id":76561198085265740,"connected_time":317000000000,"state":"active","ping":72},{"user_id":373,"name":"KAISER OF KRIEG","steam_id":76561198011223050,"connected_time":122000000000,"state":"active","ping":40},{"user_id":366,"name":"sword machine","steam_id":76561198895235231,"connected_time":270000000000,"state":"active","ping":74},{"user_id":334,"name":"CiVillain","steam_id":76561198059617732,"connected_time":3830000000000,"state":"active","ping":60},{"user_id":369,"name":"your mum","steam_id":76561198086323694,"connected_time":227000000000,"state":"active","ping":59},{"user_id":368,"name":"r06u3","steam_id":76561198254099253,"connected_time":231000000000,"state":"active","ping":182},{"user_id":374,"name":"Springfield Crack","steam_id":76561198044818161,"connected_time":5000000000,"state":"spawning","ping":95},{"user_id":371,"name":"Four Legged Elsa ‚ù§","steam_id":76561198101502273,"connected_time":223000000000,"state":"active","ping":44},{"user_id":353,"name":"fart","steam_id":76561198862535506,"connected_time":1313000000000,"state":"active","ping":79},{"user_id":335,"name":"Sneaky boi","steam_id":76561199195985387,"connected_time":3794000000000,"state":"active","ping":93},{"user_id":372,"name":"Dei Genetrix","steam_id":76561198305678122,"connected_time":221000000000,"state":"active","ping":45}]},{"server_id":0,"name_short":"","name":"Uncletopia | London | 6 | All Maps","host":"","port":0,"enabled":false,"region":"","cc":"","latitude":0,"longitude":0,"reserved":0,"last_update":"0001-01-01T00:00:00Z","protocol":17,"map":"koth_cascade","folder":"tf","game":"Team Fortress","app_id":440,"player_count":0,"max_players":24,"Bots":0,"server_type":"Dedicated","server_os":"Linux","password":true,"vac":true,"version":"7961495","steam_id":85568392924742830,"keywords":["cp","nocrits","nodmgspread","uncletopia"],"edicts":[546,2048],"game_id":440,"stv_port":27066,"stv_name":"Uncletopia | London | 6 | All Maps | STV","players":null},{"server_id":0,"name_short":"","name":"Uncletopia | Frankfurt | 5 | All Maps","host":"","port":0,"enabled":false,"region":"","cc":"","latitude":0,"longitude":0,"reserved":0,"last_update":"0001-01-01T00:00:00Z","protocol":17,"map":"cp_dustbowl","folder":"tf","game":"Team Fortress","app_id":440,"player_count":0,"max_players":24,"Bots":0,"server_type":"Dedicated","server_os":"Linux","password":true,"vac":true,"version":"7961495","steam_id":85568392924504277,"keywords":["cp","nocrits","nodmgspread","uncletopia"],"edicts":[741,2048],"game_id":440,"stv_port":27056,"stv_name":"Uncletopia | Frankfurt | 5 | All Maps | STV","players":null},{"server_id":0,"name_short":"","name":"Uncletopia | Sydney | 6 | Community","host":"","port":0,"enabled":false,"region":"","cc":"","latitude":0,"longitude":0,"reserved":0,"last_update":"0001-01-01T00:00:00Z","protocol":17,"map":"koth_soot_final1","folder":"tf","game":"Team Fortress","app_id":440,"player_count":0,"max_players":24,"Bots":0,"server_type":"Dedicated","server_os":"Linux","password":true,"vac":true,"version":"7961495","steam_id":85568392925397960,"keywords":["cp","nocrits","nodmgspread","uncletopia"],"edicts":[240,2048],"game_id":440,"stv_port":27066,"stv_name":"Uncletopia | Sydney | 6 | Community | STV","players":null},{"server_id":0,"name_short":"","name":"Uncletopia | Sydney | 1 | All Maps","host":"","port":0,"enabled":false,"region":"","cc":"","latitude":0,"longitude":0,"reserved":0,"last_update":"0001-01-01T00:00:00Z","protocol":17,"map":"cp_dustbowl","folder":"tf","game":"Team Fortress","app_id":440,"player_count":0,"max_players":24,"Bots":0,"server_type":"Dedicated","server_os":"Linux","password":true,"vac":true,"version":"7961495","steam_id":85568392924470001,"keywords":["cp","nocrits","nodmgspread","uncletopia"],"edicts":[739,2048],"game_id":440,"stv_port":27016,"stv_name":"Uncletopia | Sydney | 1 | All Maps | STV","players":null},{"server_id":0,"name_short":"","name":"Uncletopia | New York City | 3 | Stopwatch","host":"","port":0,"enabled":false,"region":"","cc":"","latitude":0,"longitude":0,"reserved":0,"last_update":"0001-01-01T00:00:00Z","protocol":17,"map":"koth_bagel_rc6","folder":"tf","game":"Team Fortress","app_id":440,"player_count":0,"max_players":24,"Bots":0,"server_type":"Dedicated","server_os":"Linux","password":true,"vac":true,"version":"7961495","steam_id":85568392924742820,"keywords":["cp","nocrits","nodmgspread","uncletopia"],"edicts":[600,2048],"game_id":440,"stv_port":27036,"stv_name":"Uncletopia | New York City | 3 | Stopwatch | STV","players":null},{"server_id":0,"name_short":"","name":"Uncletopia | Seattle | 3 | Stopwatch","host":"","port":0,"enabled":false,"region":"","cc":"","latitude":0,"longitude":0,"reserved":0,"last_update":"0001-01-01T00:00:00Z","protocol":17,"map":"koth_product_final","folder":"tf","game":"Team Fortress","app_id":440,"player_count":0,"max_players":24,"Bots":0,"server_type":"Dedicated","server_os":"Linux","password":true,"vac":true,"version":"7961495","steam_id":85568392924515217,"keywords":["cp","nocrits","nodmgspread","uncletopia"],"edicts":[355,2048],"game_id":440,"stv_port":27036,"stv_name":"Uncletopia | Seattle | 3 | Stopwatch | STV","players":null},{"server_id":0,"name_short":"","name":"Uncletopia | Frankfurt | 4 | All Maps","host":"","port":0,"enabled":false,"region":"","cc":"","latitude":0,"longitude":0,"reserved":0,"last_update":"0001-01-01T00:00:00Z","protocol":17,"map":"cp_altitude","folder":"tf","game":"Team Fortress","app_id":440,"player_count":0,"max_players":24,"Bots":0,"server_type":"Dedicated","server_os":"Linux","password":true,"vac":true,"version":"7961495","steam_id":85568392924504275,"keywords":["cp","nocrits","nodmgspread","uncletopia"],"edicts":[500,2048],"game_id":440,"stv_port":27046,"stv_name":"Uncletopia | Frankfurt | 4 | All Maps | STV","players":null},{"server_id":0,"name_short":"","name":"Uncletopia | Warsaw | 3 | All Maps","host":"","port":0,"enabled":false,"region":"","cc":"","latitude":0,"longitude":0,"reserved":0,"last_update":"0001-01-01T00:00:00Z","protocol":17,"map":"pl_swiftwater_final1","folder":"tf","game":"Team Fortress","app_id":440,"player_count":0,"max_players":24,"Bots":0,"server_type":"Dedicated","server_os":"Linux","password":true,"vac":true,"version":"7961495","steam_id":85568392925397852,"keywords":["nocrits","nodmgspread","payload","uncletopia"],"edicts":[895,2048],"game_id":440,"stv_port":27036,"stv_name":"Uncletopia | Warsaw | 3 | All Maps | STV","players":null}]}