{"status":true,"message":"","result":[{"server_id":9,"name":"Uncletopia | Atlanta | 1 | All Maps","name_short":"atl-1","host":"atl-1.us.uncletopia.com","port":27015,"enabled":true,"region":"us-east","cc":"us","latitude":33.753746,"longitude":-84.38633,"reserved":0,"last_update":"0001-01-01T00:00:00Z","name_a2s":"Uncletopia | Atlanta | 1 | All Maps","protocol":17,"map":"pl_badwater","folder":"tf","game":"Team Fortress","app_id":440,"player_count":20,"max_players":24,"Bots":0,"server_type":"Dedicated","server_os":"Linux","password":true,"vac":true,"version":"7961495","steam_id":85568392924469982,"keywords":["nocrits","nodmgspread","payload","uncletopia"],"game_id":440,"stv_port":27016,"stv_name":"Uncletopia | Atlanta | 1 | All Maps | STV","players":null},{"server_id":104,"name":"Uncletopia | Atlanta | 2 | All Maps","name_short":"atl-2","host":"atl-1.us.uncletopia.com","port":27025,"enabled":true,"region":"us-east","cc":"us","latitude":33.753746,"longitude":-84.38633,"reserved":0,"last_update":"0001-01-01T00:00:00Z","name_a2s":"Uncletopia | Atlanta | 2 | All Maps","protocol":17,"map":"pl_barnblitz","folder":"tf","game":"Team Fortress","app_id":440,"player_count":24,"max_players":24,"Bots":0,"server_type":"Dedicated","server_os":"Linux","password":true,"vac":true,"version":"7961495","steam_id":85568392924469983,"keywords":["nocrits","nodmgspread","payload","uncletopia"],"game_id":440,"stv_port":27026,"stv_name":"Uncletopia | Atlanta | 2 | All Maps | STV","players":null},{"server_id":400,"name":"Uncletopia | Atlanta | 3 | Stopwatch","name_short":"atl-3","host":"atl-1.us.uncletopia.com","port":27035,"enabled":true,"region":"us-east","cc":"us","latitude":33.753746,"longitude":-84.38633,"reserved":0,"last_update":"0001-01-01T00:00:00Z","name_a2s":"Uncletopia | Atlanta | 3 | Stopwatch","protocol":17,"map":"koth_clearcut_b15","folder":"tf","game":"Team Fortress","app_id":440,"player_count":0,"max_players":24,"Bots":0,"server_type":"Dedicated","server_os":"Linux","password":true,"vac":true,"version":"7961495","steam_id":85568392924515187,"keywords":["cp","nocrits","nodmgspread","uncletopia"],"game_id":440,"stv_port":27036,"stv_name":"Uncletopia | Atlanta | 3 | Stopwatch | STV","players":null},{"server_id":401,"name":"Uncletopia | Atlanta | 4 | Community","name_short":"atl-4","host":"atl-1.us.uncletopia.com","port":27045,"enabled":true,"region":"us-east","cc":"us","latitude":33.753746,"longitude":-84.38633,"reserved":0,"last_update":"0001-01-01T00:00:00Z","name_a2s":"Uncletopia | Atlanta | 4 | Community","protocol":17,"map":"cp_indulge","folder":"tf","game":"Team Fortress","app_id":440,"player_count":0,"max_players":24,"Bots":0,"server_type":"Dedicated","server_os":"Linux","password":true,"vac":true,"version":"7961495","steam_id":85568392924515188,"keywords":["cp","nocrits","nodmgspread","uncletopia"],"game_id":440,"stv_port":27046,"stv_name":"Uncletopia | Atlanta | 4 | Community | STV","players":null},{"server_id":2,"name":"Uncletopia | Chicago | 1 | All Maps","name_short":"chi-1","host":"chi-1.us.uncletopia.com","port":27015,"enabled":true,"region":"us-central","cc":"us","latitude":41.881832,"longitude":-87.62318,"reserved":0,"last_update":"0001-01-01T00:00:00Z","name_a2s":"Uncletopia | Chicago | 1 | All Maps","protocol":17,"map":"pl_barnblitz","folder":"tf","game":"Team Fortress","app_id":440,"player_count":24,"max_players":24,"Bots":0,"server_type":"Dedicated","server_os":"Linux","password":true,"vac":true,"version":"7961495","steam_id":85568392924469984,"keywords":["nocrits","nodmgspread","payload","uncletopia"],"game_id":440,"stv_port":27016,"stv_name":"Uncletopia | Chicago | 1 | All Maps | STV","players":[{"user_id":97,"name":"Rappitor","steam_id":76561198105613110,"connected_time":970000000000,"state":"active","ping":58},{"user_id":98,"name":"rapscallion","steam_id":76561198188722751,"connected_time":951000000000,"state":"active","ping":92},{"user_id":109,"name":"SamFec","steam_id":76561198414538682,"connected_time":293000000000,"state":"active","ping":147},{"user_id":112,"name":"Crazy Hungarian","steam_id":76561198025498172,"connected_time":102000000000,"state":"active","ping":108},{"user_id":93,"name":"Jerry Bondle","steam_id":76561198337512213,"connected_time":1825000000000,"state":"active","ping":61},{"user_id":59,"name":"Pachimari","steam_id":76561198114464970,"connected_time":3953000000000,"state":"active","ping":65},{"user_id":90,"name":"Praise_to_the_Flashlight!","steam_id":76561199001728789,"connected_time":2131000000000,"state":"active","ping":61},{"user_id":88,"name":"sih3","steam_id":76561198081462396,"connected_time":2367000000000,"state":"active","ping":61},{"user_id":103,"name":"Dan!","steam_id":76561199126958455,"connected_time":549000000000,"state":"active","ping":103},{"user_id":96,"name":"Melody","steam_id":76561198407789232,"connected_time":1072000000000,"state":"active","ping":114},{"user_id":100,"name":"Cloud","steam_id":76561198954987128,"connected_time":928000000000,"state":"active","ping":99},{"user_id":113,"name":"IcyScrumpy","steam_id":76561198084605065,"connected_time":94000000000,"state":"active","ping":55},{"user_id":72,"name":"SnazzyCelestial","steam_id":76561198328763813,"connected_time":3299000000000,"state":"active","ping":81},{"user_id":89,"name":"Mindset","steam_id":76561198107074449,"connected_time":2138000000000,"state":"active","ping":52},{"user_id":94,"name":"bachira","steam_id":76561198054832449,"connected_time":1380000000000,"state":"active","ping":64},{"user_id":104,"name":"INFINITE","steam_id":76561197971285557,"connected_time":528000000000,"state":"active","ping":64},{"user_id":107,"name":"Undertime Slopper","steam_id":76561198396789061,"connected_time":396000000000,"state":"active","ping":84},{"user_id":108,"name":"Ripheart","steam_id":76561198089661561,"connected_time":316000000000,"state":"active","ping":42},{"user_id":111,"name":"Kbenzo23","steam_id":76561199214006167,"connected_time":109000000000,"state":"active","ping":59},{"user_id":106,"name":"dna$ty","steam_id":76561199060575719,"connected_time":514000000000,"state":"active","ping":97},{"user_id":81,"name":"Dareu","steam_id":76561198081781710,"connected_time":3189000000000,"state":"active","ping":62},{"user_id":82,"name":"vandeer","steam_id":76561198120124007,"connected_time":3188000000000,"state":"active","ping":89},{"user_id":84,"name":"Maxley","steam_id":76561198148602225,"connected_time":3172000000000,"state":"active","ping":84},{"user_id":85,"name":"Lia_Rein","steam_id":76561198151569597,"connected_time":2780000000000,"state":"active","ping":152}]},{"server_id":106,"name":"Uncletopia | Chicago | 2 | All Maps","name_short":"chi-2","host":"chi-1.us.uncletopia.com","port":27025,"enabled":true,"region":"us-central","cc":"us","latitude":41.881832,"longitude":-87.62318,"reserved":0,"last_update":"0001-01-01T00:00:00Z","name_a2s":"Uncletopia | Chicago | 2 | All Maps","protocol":17,"map":"pl_enclosure_final","folder":"tf","game":"Team Fortress","app_id":440,"player_count":24,"max_players":24,"Bots":0,"server_type":"Dedicated","server_os":"Linux","password":true,"vac":true,"version":"7961495","steam_id":85568392924469985,"keywords":["nocrits","nodmgspread","payload","uncletopia"],"game_id":440,"stv_port":27026,"stv_name":"Uncletopia | Chicago | 2 | All Maps | STV","players":[{"user_id":346,"name":"msay","steam_id":76561198170888029,"connected_time":2953000000000,"state":"active","ping":99},{"user_id":353,"name":"TheSnipersHat","steam_id":76561198057684066,"connected_time":2269000000000,"state":"active","ping":54},{"user_id":344,"name":"LittleFieryOne","steam_id":76561198107463724,"connected_time":3067000000000,"state":"active","ping":61},{"user_id":354,"name":"Not_Douglas","steam_id":76561199024184136,"connected_time":2264000000000,"state":"active","ping":63},{"user_id":389,"name":"cowboy","steam_id":76561199079124758,"connected_time":344000000000,"state":"active","ping":64},{"user_id":284,"name":"Sentient Plaid Shirt","steam_id":76561198073338999,"connected_time":4363000000000,"state":"active","ping":73},{"user_id":280,"name":"Silly individual","steam_id":76561198237489960,"connected_time":4435000000000,"state":"active","ping":155},{"user_id":391,"name":"Manrage","steam_id":76561198043798397,"connected_time":189000000000,"state":"active","ping":81},{"user_id":246,"name":"uberslak","steam_id":76561198064715241,"connected_time":5444000000000,"state":"active","ping":114},{"user_id":392,"name":"Aspxts","steam_id":76561199125254746,"connected_time":181000000000,"state":"active","ping":55},{"user_id":372,"name":"Space Lizard","steam_id":76561198056798193,"connected_time":1677000000000,"state":"active","ping":70},{"user_id":356,"name":"RiceRiceDesu","steam_id":76561198018568723,"connected_time":2240000000000,"state":"active","ping":56},{"user_id":357,"name":"4 life","steam_id":76561198175961598,"connected_time":2218000000000,"state":"active","ping":117},{"user_id":358,"name":"DamerDoozle","steam_id":76561199121686201,"connected_time":2205000000000,"state":"active","ping":67},{"user_id":384,"name":"Professional Brohamad","steam_id":76561198824025210,"connected_time":1009000000000,"state":"active","ping":46},{"user_id":374,"name":"ThePatheticMedic","steam_id":76561198873083105,"connected_time":1309000000000,"state":"active","ping":59},{"user_id":390,"name":"notpanmanmemes","steam_id":76561199168536547,"connected_time":292000000000,"state":"active","ping":62},{"user_id":388,"name":"Proto","steam_id":76561197984119828,"connected_time":498000000000,"state":"active","ping":88},{"user_id":361,"name":"eight bees","steam_id":76561198305560736,"connected_time":2163000000000,"state":"active","ping":67},{"user_id":369,"name":"Nassu","steam_id":76561198147367577,"connected_time":1816000000000,"state":"active","ping":64},{"user_id":393,"name":"MrKokonut","steam_id":76561198879575825,"connected_time":179000000000,"state":"active","ping":62},{"user_id":385,"name":"do you remember poptropica?","steam_id":76561199025227085,"connected_time":1009000000000,"state":"active","ping":69},{"user_id":394,"name":"Fasted9","steam_id":76561198115425962,"connected_time":151000000000,"state":"active","ping":45},{"user_id":380,"name":"black ops 2 hank hill trolling","steam_id":76561198095313463,"connected_time":1208000000000,"state":"active","ping":85}]},{"server_id":402,"name":"Uncletopia | Chicago | 3 | All Maps","name_short":"chi-3","host":"chi-1.us.uncletopia.com","port":27035,"enabled":true,"region":"us-central","cc":"us","latitude":41.881832,"longitude":-87.62318,"reserved":0,"last_update":"0001-01-01T00:00:00Z","name_a2s":"Uncletopia | Chicago | 3 | All Maps","protocol":17,"map":"pl_pier","folder":"tf","game":"Team Fortress","app_id":440,"player_count":24,"max_players":24,"Bots":0,"server_type":"Dedicated","server_os":"Linux","password":true,"vac":true,"version":"7961495","steam_id":85568392924515191,"keywords":["nocrits","nodmgspread","payload","uncletopia"],"game_id":440,"stv_port":27036,"stv_name":"Uncletopia | Chicago | 3 | All Maps | STV","players":[{"user_id":495,"name":"Horrific Necktie","steam_id":76561197999439391,"connected_time":7841000000000,"state":"active","ping":79},{"user_id":611,"name":"Nephs","steam_id":76561198136763403,"connected_time":866000000000,"state":"active","ping":73},{"user_id":614,"name":"Let ε \u003e 0","steam_id":76561198111790388,"connected_time":728000000000,"state":"active","ping":88},{"user_id":602,"name":"menonamed","steam_id":76561198199564382,"connected_time":1517000000000,"state":"active","ping":70},{"user_id":592,"name":"i46","steam_id":76561198031675881,"connected_time":1764000000000,"state":"active","ping":45},{"user_id":612,"name":"Garfielder92","steam_id":76561199208425791,"connected_time":795000000000,"state":"active","ping":72},{"user_id":608,"name":"Jean Deere","steam_id":76561198105101309,"connected_time":1106000000000,"state":"active","ping":74},{"user_id":599,"name":"the keebler","steam_id":76561199486326945,"connected_time":1561000000000,"state":"active","ping":75},{"user_id":617,"name":"ItsFoxx","steam_id":76561198934549562,"connected_time":453000000000,"state":"active","ping":62},{"user_id":593,"name":"Torensz64(But weezer)","steam_id":76561198239036482,"connected_time":1763000000000,"state":"active","ping":51},{"user_id":583,"name":"my mom","steam_id":76561199225201569,"connected_time":2315000000000,"state":"active","ping":69},{"user_id":600,"name":"we're so back","steam_id":76561198058485742,"connected_time":1526000000000,"state":"active","ping":69},{"user_id":597,"name":"Hawkborne","steam_id":76561198107249245,"connected_time":1629000000000,"state":"active","ping":75},{"user_id":609,"name":"Doober","steam_id":76561198056661095,"connected_time":1023000000000,"state":"active","ping":82},{"user_id":570,"name":"Catsontrains","steam_id":76561198066686704,"connected_time":3227000000000,"state":"active","ping":69},{"user_id":613,"name":"johnny","steam_id":76561198855841242,"connected_time":780000000000,"state":"active","ping":86},{"user_id":535,"name":"MakerRov","steam_id":76561198914108894,"connected_time":6091000000000,"state":"active","ping":112},{"user_id":572,"name":"Raynesko.Yung.Vitamix.Baklava.G","steam_id":76561198044113229,"connected_time":3218000000000,"state":"active","ping":72},{"user_id":610,"name":"Provocator","steam_id":76561197961830410,"connected_time":951000000000,"state":"active","ping":73},{"user_id":615,"name":"=Silver=","steam_id":76561198292307127,"connected_time":597000000000,"state":"active","ping":90},{"user_id":549,"name":"[NAME-REDACTED]","steam_id":76561198035682975,"connected_time":5051000000000,"state":"active","ping":70},{"user_id":618,"name":"Phyyrin","steam_id":76561198154532657,"connected_time":452000000000,"state":"active","ping":113},{"user_id":619,"name":"Dr.StrangeGlove","steam_id":76561198286114229,"connected_time":429000000000,"state":"active","ping":64},{"user_id":607,"name":"simplyhere141","steam_id":76561199204117948,"connected_time":1370000000000,"state":"active","ping":66}]},{"server_id":403,"name":"Uncletopia | Chicago | 4 | All Maps","name_short":"chi-4","host":"chi-1.us.uncletopia.com","port":27045,"enabled":true,"region":"us-central","cc":"us","latitude":41.881832,"longitude":-87.62318,"reserved":0,"last_update":"0001-01-01T00:00:00Z","name_a2s":"Uncletopia | Chicago | 4 | All Maps","protocol":17,"map":"cp_snakewater_final1","folder":"tf","game":"Team Fortress","app_id":440,"player_count":24,"max_players":24,"Bots":0,"server_type":"Dedicated","server_os":"Linux","password":true,"vac":true,"version":"7961495","steam_id":85568392924515193,"keywords":["cp","nocrits","nodmgspread","uncletopia"],"game_id":440,"stv_port":27046,"stv_name":"Uncletopia | Chicago | 4 | All Maps | STV","players":[{"user_id":315,"name":"chiswola","steam_id":76561198046920142,"connected_time":296000000000,"state":"active","ping":70},{"user_id":254,"name":"i want to die","steam_id":76561198178681366,"connected_time":4728000000000,"state":"active","ping":38},{"user_id":293,"name":"gorf?","steam_id":76561198142286417,"connected_time":1776000000000,"state":"active","ping":60},{"user_id":288,"name":"munch","steam_id":76561198820480684,"connected_time":2659000000000,"state":"active","ping":55},{"user_id":308,"name":"Kartyac","steam_id":76561197991069005,"connected_time":1025000000000,"state":"active","ping":77},{"user_id":307,"name":"kjorbjort","steam_id":76561198855201444,"connected_time":1152000000000,"state":"active","ping":114},{"user_id":283,"name":"haraldＨＡＲＡＬＤ","steam_id":76561198116998970,"connected_time":3316000000000,"state":"active","ping":152},{"user_id":318,"name":"pim","steam_id":76561198095163441,"connected_time":224000000000,"state":"active","ping":84},{"user_id":316,"name":"knave","steam_id":76561198119759695,"connected_time":293000000000,"state":"active","ping":61},{"user_id":312,"name":"DRUMMY GRAMMY","steam_id":76561198047642540,"connected_time":711000000000,"state":"active","ping":93},{"user_id":291,"name":"Hyperactivedimwit","steam_id":76561198134221704,"connected_time":2047000000000,"state":"active","ping":47},{"user_id":310,"name":"OrangeSodaMachine","steam_id":76561198079230156,"connected_time":876000000000,"state":"active","ping":83},{"user_id":314,"name":"FOOL","steam_id":76561198370866973,"connected_time":497000000000,"state":"active","ping":114},{"user_id":263,"name":"Ojen","steam_id":76561197998414482,"connected_time":4392000000000,"state":"active","ping":63},{"user_id":319,"name":"stupid ape","steam_id":76561198350027075,"connected_time":188000000000,"state":"active","ping":52},{"user_id":290,"name":"hank","steam_id":76561197977182378,"connected_time":2273000000000,"state":"active","ping":45},{"user_id":262,"name":"qt pa 2t","steam_id":76561198066867150,"connected_time":4426000000000,"state":"active","ping":75},{"user_id":296,"name":"imng","steam_id":76561198014988031,"connected_time":1746000000000,"state":"active","ping":71},{"user_id":298,"name":"Ultra","steam_id":76561198204547111,"connected_time":1714000000000,"state":"active","ping":69},{"user_id":311,"name":"Shrake","steam_id":76561198114379995,"connected_time":763000000000,"state":"active","ping":45},{"user_id":289,"name":"Deathpill","steam_id":76561197994404793,"connected_time":2533000000000,"state":"active","ping":71},{"user_id":301,"name":"Gigacheat","steam_id":76561198862843572,"connected_time":1651000000000,"state":"active","ping":57},{"user_id":313,"name":"Severeburrito16","steam_id":76561198353155991,"connected_time":610000000000,"state":"active","ping":74},{"user_id":317,"name":"THE_DEFENDER625","steam_id":76561199068687025,"connected_time":282000000000,"state":"active","ping":75}]},{"server_id":36,"name":"Uncletopia | Chicago | 5 | All Maps","name_short":"chi-5","host":"chi-2.us.uncletopia.com","port":27015,"enabled":true,"region":"us-central","cc":"us","latitude":41.881832,"longitude":-87.62318,"reserved":0,"last_update":"0001-01-01T00:00:00Z","name_a2s":"Uncletopia | Chicago | 5 | All Maps","protocol":17,"map":"koth_highpass","folder":"tf","game":"Team Fortress","app_id":440,"player_count":0,"max_players":24,"Bots":0,"server_type":"Dedicated","server_os":"Linux","password":true,"vac":true,"version":"7961495","steam_id":85568392924866362,"keywords":["cp","nocrits","nodmgspread","uncletopia"],"game_id":440,"stv_port":27016,"stv_name":"Uncletopia | Chicago | 5 | All Maps | STV","players":null},{"server_id":37,"name":"Uncletopia | Chicago | 6 | All Maps","name_short":"chi-6","host":"chi-2.us.uncletopia.com","port":27025,"enabled":true,"region":"us-central","cc":"us","latitude":41.881832,"longitude":-87.62318,"reserved":0,"last_update":"0001-01-01T00:00:00Z","name_a2s":"Uncletopia | Chicago | 6 | All Maps","protocol":17,"map":"pl_upward","folder":"tf","game":"Team Fortress","app_id":440,"player_count":24,"max_players":24,"Bots":0,"server_type":"Dedicated","server_os":"Linux","password":true,"vac":true,"version":"7961495","steam_id":85568392924866363,"keywords":["nocrits","nodmgspread","payload","uncletopia"],"game_id":440,"stv_port":27026,"stv_name":"Uncletopia | Chicago | 6 | All Maps | STV","players":[{"user_id":64,"name":"Kermit","steam_id":76561198034559979,"connected_time":2632000000000,"state":"active","ping":87},{"user_id":9,"name":"6 million bees","steam_id":76561198400438007,"connected_time":6820000000000,"state":"active","ping":56},{"user_id":90,"name":"Pocket Medic","steam_id":76561199190380290,"connected_time":558000000000,"state":"active","ping":106},{"user_id":96,"name":"leumas","steam_id":76561198240408540,"connected_time":11000000000,"state":"active","ping":76},{"user_id":75,"name":"Mortal Flame","steam_id":76561198130698418,"connected_time":1975000000000,"state":"active","ping":78},{"user_id":66,"name":"Sveniven","steam_id":76561198118864411,"connected_time":2606000000000,"state":"active","ping":75},{"user_id":91,"name":"LILGI4THAW","steam_id":76561198403803842,"connected_time":491000000000,"state":"active","ping":107},{"user_id":67,"name":"super clickteam fusion","steam_id":76561198275101482,"connected_time":2591000000000,"state":"active","ping":135},{"user_id":92,"name":"Jill","steam_id":76561198097398193,"connected_time":459000000000,"state":"active","ping":91},{"user_id":94,"name":"Gibby","steam_id":76561199336569123,"connected_time":332000000000,"state":"active","ping":127},{"user_id":93,"name":"Hans","steam_id":76561198029373733,"connected_time":382000000000,"state":"active","ping":106},{"user_id":88,"name":"bocky","steam_id":76561198096088301,"connected_time":1085000000000,"state":"active","ping":74},{"user_id":52,"name":"[82DK] Ike","steam_id":76561198135256526,"connected_time":3780000000000,"state":"active","ping":76},{"user_id":24,"name":"owsham","steam_id":76561199436404346,"connected_time":4945000000000,"state":"active","ping":73},{"user_id":95,"name":"Guns Blazing","steam_id":76561198379461118,"connected_time":30000000000,"state":"spawning","ping":119},{"user_id":73,"name":"Cat","steam_id":76561198328159094,"connected_time":2139000000000,"state":"active","ping":68},{"user_id":89,"name":"ultralisk52","steam_id":76561198051666604,"connected_time":808000000000,"state":"active","ping":65},{"user_id":86,"name":"Captain Nathaniel J. Claw","steam_id":76561198020584106,"connected_time":1198000000000,"state":"active","ping":67},{"user_id":71,"name":"Johnny Lawrence #JohnnyMaxxing","steam_id":76561199367141671,"connected_time":2499000000000,"state":"active","ping":74},{"user_id":72,"name":"Artyom","steam_id":76561198132986712,"connected_time":2493000000000,"state":"active","ping":99},{"user_id":32,"name":"misterspud","steam_id":76561198195306218,"connected_time":4828000000000,"state":"active","ping":54},{"user_id":33,"name":"stiGGy","steam_id":76561198049311931,"connected_time":4826000000000,"state":"active","ping":75},{"user_id":74,"name":"lexi","steam_id":76561198176299759,"connected_time":2125000000000,"state":"active","ping":81},{"user_id":63,"name":"ANIMAL!","steam_id":76561198325273156,"connected_time":2961000000000,"state":"active","ping":53}]},{"server_id":38,"name":"Uncletopia | Chicago | 7 | Stopwatch","name_short":"chi-7","host":"chi-2.us.uncletopia.com","port":27035,"enabled":true,"region":"us-central","cc":"us","latitude":41.881832,"longitude":-87.62318,"reserved":0,"last_update":"0001-01-01T00:00:00Z","name_a2s":"Uncletopia | Chicago | 7 | Stopwatch","protocol":17,"map":"workshop/koth_product_final.ugc454272353","folder":"tf","game":"Team Fortress","app_id":440,"player_count":24,"max_players":24,"Bots":0,"server_type":"Dedicated","server_os":"Linux","password":true,"vac":true,"version":"7961495","steam_id":85568392924866364,"keywords":["cp","nocrits","nodmgspread","uncletopia"],"game_id":440,"stv_port":27036,"stv_name":"Uncletopia | Chicago | 7 | Stopwatch | STV","players":[{"user_id":243,"name":"A_dude","steam_id":76561199261495418,"connected_time":473000000000,"state":"active","ping":75},{"user_id":192,"name":"flarifier","steam_id":76561198315072848,"connected_time":2441000000000,"state":"active","ping":73},{"user_id":164,"name":"ttv/IanTheAwsm","steam_id":76561198093031738,"connected_time":4466000000000,"state":"active","ping":57},{"user_id":244,"name":"neet","steam_id":76561197968115168,"connected_time":410000000000,"state":"active","ping":53},{"user_id":206,"name":"Scootermouse","steam_id":76561198008665354,"connected_time":1760000000000,"state":"active","ping":97},{"user_id":208,"name":"hoOmIN","steam_id":76561198334947079,"connected_time":1510000000000,"state":"active","ping":90},{"user_id":202,"name":"Acidbrawler","steam_id":76561198174803983,"connected_time":1821000000000,"state":"active","ping":101},{"user_id":229,"name":"Xi","steam_id":76561198196768967,"connected_time":964000000000,"state":"active","ping":134},{"user_id":233,"name":"indyjacob","steam_id":76561198065158713,"connected_time":780000000000,"state":"active","ping":125},{"user_id":230,"name":"Sirfub","steam_id":76561198160767583,"connected_time":961000000000,"state":"active","ping":100},{"user_id":232,"name":"Thequirka","steam_id":76561198968058652,"connected_time":810000000000,"state":"active","ping":96},{"user_id":146,"name":"TV12Lime","steam_id":76561199036195384,"connected_time":5236000000000,"state":"active","ping":73},{"user_id":212,"name":"Scribble_","steam_id":76561198966103272,"connected_time":1427000000000,"state":"active","ping":62},{"user_id":205,"name":"Don Beatle","steam_id":76561198046129368,"connected_time":1788000000000,"state":"active","ping":75},{"user_id":238,"name":"veemdya yaymign :)","steam_id":76561199175434022,"connected_time":661000000000,"state":"active","ping":110},{"user_id":235,"name":"Vimchi","steam_id":76561198151927029,"connected_time":707000000000,"state":"active","ping":92},{"user_id":237,"name":"Living_Zombie","steam_id":76561198204503240,"connected_time":667000000000,"state":"active","ping":99},{"user_id":216,"name":"Wizard02","steam_id":76561198178293623,"connected_time":1382000000000,"state":"active","ping":85},{"user_id":239,"name":"Nyany","steam_id":76561198314591517,"connected_time":660000000000,"state":"active","ping":87},{"user_id":218,"name":"Agent Tibbs","steam_id":76561198139418570,"connected_time":1368000000000,"state":"active","ping":91},{"user_id":240,"name":"Shopkeeper","steam_id":76561198105888756,"connected_time":656000000000,"state":"active","ping":99},{"user_id":224,"name":"Ⓑ⓪⓪ⓣⓨⓒⓐⓚⓔⓢ","steam_id":76561198088776421,"connected_time":1201000000000,"state":"active","ping":61},{"user_id":241,"name":"atmBomb","steam_id":76561198055557988,"connected_time":596000000000,"state":"active","ping":72},{"user_id":245,"name":"_Bluestone_","steam_id":76561198141453830,"connected_time":397000000000,"state":"active","ping":159}]},{"server_id":39,"name":"Uncletopia | Chicago | 8 | Community","name_short":"chi-8","host":"chi-2.us.uncletopia.com","port":27045,"enabled":true,"region":"us-central","cc":"us","latitude":41.881832,"longitude":-87.62318,"reserved":0,"last_update":"0001-01-01T00:00:00Z","name_a2s":"Uncletopia | Chicago | 8 | Community","protocol":17,"map":"workshop/pl_cashworks_final1.ugc2904065412","folder":"tf","game":"Team Fortress","app_id":440,"player_count":14,"max_players":24,"Bots":0,"server_type":"Dedicated","server_os":"Linux","password":true,"vac":true,"version":"7961495","steam_id":85568392924866365,"keywords":["nocrits","nodmgspread","payload","uncletopia"],"game_id":440,"stv_port":27046,"stv_name":"Uncletopia | Chicago | 8 | Community | STV","players":[{"user_id":10,"name":"Engineer Gaming","steam_id":76561198840761529,"connected_time":3165000000000,"state":"active","ping":60},{"user_id":41,"name":"GibbusGod","steam_id":76561199232436690,"connected_time":23000000000,"state":"spawning","ping":119},{"user_id":37,"name":"Super crak 202 9","steam_id":76561199176207530,"connected_time":196000000000,"state":"active","ping":118},{"user_id":21,"name":"Huey","steam_id":76561198972816386,"connected_time":1624000000000,"state":"active","ping":85},{"user_id":42,"name":"459d","steam_id":76561198336142389,"connected_time":22000000000,"state":"active","ping":55},{"user_id":39,"name":"green bean","steam_id":76561198113099204,"connected_time":166000000000,"state":"active","ping":80},{"user_id":16,"name":"MARKED","steam_id":76561199086346913,"connected_time":2374000000000,"state":"active","ping":67},{"user_id":43,"name":"Wallem","steam_id":76561198052361822,"connected_time":19000000000,"state":"spawning","ping":338},{"user_id":44,"name":"Artificial","steam_id":76561199013455885,"connected_time":19000000000,"state":"spawning","ping":212},{"user_id":29,"name":"Induce Salt","steam_id":76561198116645978,"connected_time":1258000000000,"state":"active","ping":71},{"user_id":30,"name":"Danmar33","steam_id":76561198056453091,"connected_time":1218000000000,"state":"active","ping":64},{"user_id":31,"name":"The Hose on Upward","steam_id":76561197965092192,"connected_time":1177000000000,"state":"active","ping":84},{"user_id":32,"name":"GulfGiggle","steam_id":76561198317506335,"connected_time":1167000000000,"state":"active","ping":115},{"user_id":33,"name":"NobodyTheWorst","steam_id":76561198044497547,"connected_time":1057000000000,"state":"active","ping":60}]},{"server_id":8,"name":"Uncletopia | Dallas | 1 | All Maps","name_short":"dal-1","host":"dal-1.us.uncletopia.com","port":27015,"enabled":true,"region":"us-central","cc":"us","latitude":32.779167,"longitude":-96.80889,"reserved":0,"last_update":"0001-01-01T00:00:00Z","name_a2s":"Uncletopia | Dallas | 1 | All Maps","protocol":17,"map":"pl_barnblitz","folder":"tf","game":"Team Fortress","app_id":440,"player_count":24,"max_players":24,"Bots":0,"server_type":"Dedicated","server_os":"Linux","password":true,"vac":true,"version":"7961495","steam_id":85568392924469986,"keywords":["nocrits","nodmgspread","payload","uncletopia"],"game_id":440,"stv_port":27016,"stv_name":"Uncletopia | Dallas | 1 | All Maps | STV","players":[{"user_id":364,"name":"ZILICON","steam_id":76561199044705592,"connected_time":603000000000,"state":"active","ping":110},{"user_id":344,"name":"Viren","steam_id":76561198012636897,"connected_time":1342000000000,"state":"active","ping":50},{"user_id":367,"name":"everettroth63","steam_id":76561199237772642,"connected_time":317000000000,"state":"active","ping":82},{"user_id":346,"name":"OHGODBEES!","steam_id":76561198000653374,"connected_time":1331000000000,"state":"active","ping":153},{"user_id":347,"name":"quick food","steam_id":76561198068257774,"connected_time":1316000000000,"state":"active","ping":93},{"user_id":360,"name":"magicmellen","steam_id":76561199210337711,"connected_time":760000000000,"state":"active","ping":95},{"user_id":365,"name":"spot_the_cow","steam_id":76561198151135298,"connected_time":464000000000,"state":"active","ping":64},{"user_id":314,"name":"Tommy Provolone","steam_id":76561198170062377,"connected_time":3100000000000,"state":"active","ping":65},{"user_id":357,"name":"Synical","steam_id":76561198917787801,"connected_time":1145000000000,"state":"active","ping":60},{"user_id":366,"name":"Huh?","steam_id":76561198305380082,"connected_time":458000000000,"state":"active","ping":79},{"user_id":326,"name":"Lunaul","steam_id":76561198169208358,"connected_time":2201000000000,"state":"active","ping":85},{"user_id":358,"name":"Chhaam","steam_id":76561198058508132,"connected_time":1040000000000,"state":"active","ping":75},{"user_id":342,"name":"Average","steam_id":76561199247786983,"connected_time":1486000000000,"state":"active","ping":45},{"user_id":351,"name":"Maurdakar","steam_id":76561197983420976,"connected_time":1298000000000,"state":"active","ping":91},{"user_id":265,"name":"UP IN DA CLUB","steam_id":76561199127423378,"connected_time":6947000000000,"state":"active","ping":94},{"user_id":359,"name":"Lord_Tamal","steam_id":76561199144369334,"connected_time":953000000000,"state":"active","ping":167},{"user_id":356,"name":"pro_gamer_2010","steam_id":76561199020244051,"connected_time":1174000000000,"state":"active","ping":102},{"user_id":136,"name":"small meth pouch","steam_id":76561198130412963,"connected_time":17759000000000,"state":"active","ping":66},{"user_id":363,"name":"D4DE","steam_id":76561199077954761,"connected_time":668000000000,"state":"active","ping":103},{"user_id":298,"name":"flippercurve","steam_id":76561199238295034,"connected_time":4626000000000,"state":"active","ping":61},{"user_id":362,"name":"Poi","steam_id":76561198176914898,"connected_time":705000000000,"state":"active","ping":104},{"user_id":285,"name":"himbomccree","steam_id":76561198373330850,"connected_time":5795000000000,"state":"active","ping":80},{"user_id":355,"name":"Hugh Mann","steam_id":76561198212049401,"connected_time":1247000000000,"state":"active","ping":56}]},{"server_id":108,"name":"Uncletopia | Dallas | 2 | All Maps","name_short":"dal-2","host":"dal-1.us.uncletopia.com","port":27025,"enabled":true,"region":"us-central","cc":"us","latitude":32.779167,"longitude":-96.80889,"reserved":0,"last_update":"0001-01-01T00:00:00Z","name_a2s":"Uncletopia | Dallas | 2 | All Maps","protocol":17,"map":"cp_altitude","folder":"tf","game":"Team Fortress","app_id":440,"player_count":24,"max_players":24,"Bots":0,"server_type":"Dedicated","server_os":"Linux","password":true,"vac":true,"version":"7961495","steam_id":85568392924469988,"keywords":["cp","nocrits","nodmgspread","uncletopia"],"game_id":440,"stv_port":27026,"stv_name":"Uncletopia | Dallas | 2 | All Maps | STV","players":[{"user_id":590,"name":"SHOOTING STARS","steam_id":76561198138221795,"connected_time":577000000000,"state":"active","ping":75},{"user_id":550,"name":"Plant Enthusiast","steam_id":76561198045718960,"connected_time":3024000000000,"state":"active","ping":73},{"user_id":588,"name":"THRONGLER","steam_id":76561198198563466,"connected_time":811000000000,"state":"active","ping":45},{"user_id":586,"name":"pool shark","steam_id":76561198130191179,"connected_time":952000000000,"state":"active","ping":64},{"user_id":593,"name":"gulch","steam_id":76561199227946025,"connected_time":256000000000,"state":"active","ping":70},{"user_id":541,"name":"Fluffy","steam_id":76561198429285704,"connected_time":3556000000000,"state":"active","ping":97},{"user_id":551,"name":"duffy penis nuts","steam_id":76561198126503703,"connected_time":3010000000000,"state":"active","ping":90},{"user_id":589,"name":"Fletcher","steam_id":76561198317846538,"connected_time":766000000000,"state":"active","ping":78},{"user_id":582,"name":"catfish from toontown","steam_id":76561198060070002,"connected_time":1339000000000,"state":"active","ping":64},{"user_id":571,"name":"mkl","steam_id":76561197986401685,"connected_time":1986000000000,"state":"active","ping":62},{"user_id":585,"name":"redecorate","steam_id":76561198036167494,"connected_time":1013000000000,"state":"active","ping":47},{"user_id":572,"name":"Kanye Asada","steam_id":76561198186678831,"connected_time":1975000000000,"state":"active","ping":90},{"user_id":573,"name":"Jake_Spencer","steam_id":76561198025176750,"connected_time":1969000000000,"state":"active","ping":85},{"user_id":584,"name":"grand piano tuna","steam_id":76561198135137213,"connected_time":1159000000000,"state":"active","ping":46},{"user_id":591,"name":"Sagertooth","steam_id":76561198060863894,"connected_time":347000000000,"state":"active","ping":62},{"user_id":553,"name":"Gazelle","steam_id":76561198336397088,"connected_time":2999000000000,"state":"active","ping":69},{"user_id":594,"name":"Mr. Cakes","steam_id":76561198007400043,"connected_time":236000000000,"state":"active","ping":60},{"user_id":567,"name":"paper","steam_id":76561199075241499,"connected_time":2240000000000,"state":"active","ping":64},{"user_id":535,"name":"cyren caster","steam_id":76561198204509499,"connected_time":4042000000000,"state":"active","ping":95},{"user_id":595,"name":"Sheeba","steam_id":76561199065168566,"connected_time":218000000000,"state":"active","ping":118},{"user_id":549,"name":"John CounterStrike","steam_id":76561198129346110,"connected_time":3062000000000,"state":"active","ping":54},{"user_id":578,"name":"RockMan","steam_id":76561199228684720,"connected_time":1417000000000,"state":"active","ping":60},{"user_id":596,"name":"seats","steam_id":76561197998756039,"connected_time":199000000000,"state":"active","ping":79},{"user_id":597,"name":"elliot :·3","steam_id":76561198272013500,"connected_time":191000000000,"state":"active","ping":190}]},{"server_id":404,"name":"Uncletopia | Dallas | 3 | All Maps","name_short":"dal-3","host":"dal-1.us.uncletopia.com","port":27035,"enabled":true,"region":"us-central","cc":"us","latitude":32.779167,"longitude":-96.80889,"reserved":0,"last_update":"0001-01-01T00:00:00Z","name_a2s":"Uncletopia | Dallas | 3 | All Maps","protocol":17,"map":"pl_swiftwater_final1","folder":"tf","game":"Team Fortress","app_id":440,"player_count":23,"max_players":24,"Bots":0,"server_type":"Dedicated","server_os":"Linux","password":true,"vac":true,"version":"7961495","steam_id":85568392924515219,"keywords":["nocrits","nodmgspread","payload","uncletopia"],"game_id":440,"stv_port":27036,"stv_name":"Uncletopia | Dallas | 3 | All Maps | STV","players":[{"user_id":108,"name":"moe","steam_id":76561198929586245,"connected_time":1312000000000,"state":"active","ping":75},{"user_id":119,"name":"Bacon","steam_id":76561199078407152,"connected_time":843000000000,"state":"active","ping":81},{"user_id":63,"name":"Mr.Pan","steam_id":76561198069030613,"connected_time":5085000000000,"state":"active","ping":64},{"user_id":80,"name":"孫子","steam_id":76561198083112681,"connected_time":3916000000000,"state":"active","ping":54},{"user_id":99,"name":"Addy \u003c3","steam_id":76561198045819723,"connected_time":1884000000000,"state":"active","ping":108},{"user_id":103,"name":"Jester","steam_id":76561198153102922,"connected_time":1348000000000,"state":"active","ping":53},{"user_id":84,"name":"Fostrel","steam_id":76561198152160601,"connected_time":3790000000000,"state":"active","ping":55},{"user_id":64,"name":"The Wind Fucker Lives","steam_id":76561198275362375,"connected_time":5080000000000,"state":"active","ping":80},{"user_id":92,"name":"Ryzema","steam_id":76561198165594229,"connected_time":2423000000000,"state":"active","ping":85},{"user_id":114,"name":"PeePeeMann69","steam_id":76561198170887727,"connected_time":1014000000000,"state":"active","ping":72},{"user_id":85,"name":"Aerobro","steam_id":76561198033530996,"connected_time":3783000000000,"state":"active","ping":71},{"user_id":65,"name":"deep fried water","steam_id":76561198077272494,"connected_time":5058000000000,"state":"active","ping":72},{"user_id":95,"name":"The Noise","steam_id":76561199390353195,"connected_time":2407000000000,"state":"active","ping":71},{"user_id":98,"name":"ZeFizzyPop™","steam_id":76561198258104981,"connected_time":1911000000000,"state":"active","ping":89},{"user_id":104,"name":"Midnight Flame","steam_id":76561198279692754,"connected_time":1345000000000,"state":"active","ping":82},{"user_id":122,"name":"Malamitch","steam_id":76561198850484687,"connected_time":586000000000,"state":"active","ping":86},{"user_id":123,"name":"TrueChaos","steam_id":76561198280651661,"connected_time":250000000000,"state":"active","ping":97},{"user_id":124,"name":"Alkimia","steam_id":76561198385763137,"connected_time":4000000000,"state":"spawning","ping":122},{"user_id":116,"name":"I Am Not Human","steam_id":76561198211511400,"connected_time":988000000000,"state":"active","ping":96},{"user_id":120,"name":"Lancerland","steam_id":76561198130497320,"connected_time":772000000000,"state":"active","ping":84},{"user_id":112,"name":"Perry the Platypus","steam_id":76561198273045773,"connected_time":1182000000000,"state":"active","ping":96},{"user_id":117,"name":"yadaman2020","steam_id":76561198413707253,"connected_time":961000000000,"state":"active","ping":98},{"user_id":90,"name":"._.","steam_id":76561198300316801,"connected_time":3401000000000,"state":"active","ping":75}]},{"server_id":405,"name":"Uncletopia | Dallas | 4 | Community","name_short":"dal-4","host":"dal-1.us.uncletopia.com","port":27045,"enabled":true,"region":"us-central","cc":"us","latitude":32.779167,"longitude":-96.80889,"reserved":0,"last_update":"0001-01-01T00:00:00Z","name_a2s":"Uncletopia | Dallas | 4 | Community","protocol":17,"map":"workshop/koth_trenchfoot_b1a.ugc731436616","folder":"tf","game":"Team Fortress","app_id":440,"player_count":0,"max_players":24,"Bots":0,"server_type":"Dedicated","server_os":"Linux","password":true,"vac":true,"version":"7961495","steam_id":85568392924515220,"keywords":["cp","nocrits","nodmgspread","uncletopia"],"game_id":440,"stv_port":27046,"stv_name":"Uncletopia | Dallas | 4 | Community | STV","players":null},{"server_id":5,"name":"Uncletopia | Frankfurt | 1 | All Maps","name_short":"frk-1","host":"frk-1.de.uncletopia.com","port":27015,"enabled":true,"region":"eu","cc":"de","latitude":50.110924,"longitude":8.682127,"reserved":0,"last_update":"0001-01-01T00:00:00Z","name_a2s":"Uncletopia | Frankfurt | 1 | All Maps","protocol":17,"map":"pl_frontier_final","folder":"tf","game":"Team Fortress","app_id":440,"player_count":21,"max_players":24,"Bots":0,"server_type":"Dedicated","server_os":"Linux","password":true,"vac":true,"version":"7961495","steam_id":85568392924469989,"keywords":["nocrits","nodmgspread","payload","uncletopia"],"game_id":440,"stv_port":27016,"stv_name":"Uncletopia | Frankfurt | 1 | All Maps | STV","players":[{"user_id":622,"name":"British Police Mann","steam_id":76561198361819597,"connected_time":1091000000000,"state":"active","ping":53},{"user_id":636,"name":"HamsterPi","steam_id":76561198079430842,"connected_time":431000000000,"state":"active","ping":65},{"user_id":635,"name":"yungcan","steam_id":76561198080655733,"connected_time":511000000000,"state":"active","ping":71},{"user_id":627,"name":"Ｌｕｎｄｅｒｓ儚","steam_id":76561198001599722,"connected_time":696000000000,"state":"active","ping":84},{"user_id":629,"name":"Worm","steam_id":76561198296497176,"connected_time":592000000000,"state":"active","ping":59},{"user_id":601,"name":"pierogi","steam_id":76561198718760200,"connected_time":3139000000000,"state":"active","ping":61},{"user_id":639,"name":"resu","steam_id":76561198992026574,"connected_time":230000000000,"state":"active","ping":60},{"user_id":631,"name":"grandpa's post-mortem photo","steam_id":76561198130116078,"connected_time":560000000000,"state":"active","ping":93},{"user_id":632,"name":"Jetstream Samuel Beckett","steam_id":76561198072017971,"connected_time":551000000000,"state":"active","ping":61},{"user_id":562,"name":"chillrend_morphs_high_lod6","steam_id":76561198452963141,"connected_time":4820000000000,"state":"active","ping":74},{"user_id":633,"name":"Long Lost Soul","steam_id":76561198187090805,"connected_time":535000000000,"state":"active","ping":84},{"user_id":634,"name":"Ishbel","steam_id":76561198211990879,"connected_time":526000000000,"state":"active","ping":65},{"user_id":638,"name":"Death March","steam_id":76561199068956882,"connected_time":274000000000,"state":"active","ping":170},{"user_id":610,"name":"blibby smalls","steam_id":76561198984296222,"connected_time":2777000000000,"state":"active","ping":78},{"user_id":640,"name":"JustaBadPlaya","steam_id":76561198408318646,"connected_time":182000000000,"state":"active","ping":57},{"user_id":641,"name":"Vlandemart","steam_id":76561198041758135,"connected_time":168000000000,"state":"active","ping":87},{"user_id":617,"name":"toy elf","steam_id":76561198089655018,"connected_time":1721000000000,"state":"active","ping":87},{"user_id":642,"name":"Mr. Watch","steam_id":76561198276103501,"connected_time":158000000000,"state":"active","ping":76},{"user_id":540,"name":"krazy kukri sniper","steam_id":76561199036865103,"connected_time":5690000000000,"state":"active","ping":96},{"user_id":582,"name":"Xiqui","steam_id":76561198818386611,"connected_time":3837000000000,"state":"active","ping":88},{"user_id":644,"name":"pnh","steam_id":76561198264590662,"connected_time":6000000000,"state":"spawning","ping":86}]},{"server_id":110,"name":"Uncletopia | Frankfurt | 2 | All Maps","name_short":"frk-2","host":"frk-1.de.uncletopia.com","port":27025,"enabled":true,"region":"eu","cc":"de","latitude":50.110924,"longitude":8.682127,"reserved":0,"last_update":"0001-01-01T00:00:00Z","name_a2s":"Uncletopia | Frankfurt | 2 | All Maps","protocol":17,"map":"koth_viaduct","folder":"tf","game":"Team Fortress","app_id":440,"player_count":24,"max_players":24,"Bots":0,"server_type":"Dedicated","server_os":"Linux","password":true,"vac":true,"version":"7961495","steam_id":85568392924469990,"keywords":["cp","nocrits","nodmgspread","uncletopia"],"game_id":440,"stv_port":27026,"stv_name":"Uncletopia | Frankfurt | 2 | All Maps | STV","players":[{"user_id":521,"name":"woop","steam_id":76561198985105074,"connected_time":1105000000000,"state":"active","ping":77},{"user_id":525,"name":"Sabour","steam_id":76561197963965445,"connected_time":1042000000000,"state":"active","ping":58},{"user_id":505,"name":"gromu","steam_id":76561198874167244,"connected_time":2372000000000,"state":"active","ping":45},{"user_id":509,"name":"Rodrygo","steam_id":76561199047345001,"connected_time":1799000000000,"state":"active","ping":75},{"user_id":530,"name":"frosty","steam_id":76561198094560834,"connected_time":822000000000,"state":"active","ping":61},{"user_id":508,"name":"Hazo","steam_id":76561198137686270,"connected_time":2166000000000,"state":"active","ping":78},{"user_id":510,"name":"Grinding contracts","steam_id":76561199053338374,"connected_time":1794000000000,"state":"active","ping":73},{"user_id":511,"name":"Fynndavila","steam_id":76561199087893583,"connected_time":1790000000000,"state":"active","ping":69},{"user_id":512,"name":"jpmarquest7","steam_id":76561199022958349,"connected_time":1789000000000,"state":"active","ping":89},{"user_id":513,"name":"Blxzzer","steam_id":76561199052217700,"connected_time":1776000000000,"state":"active","ping":84},{"user_id":514,"name":"SUCATAS","steam_id":76561199006698256,"connected_time":1767000000000,"state":"active","ping":91},{"user_id":515,"name":"the indomitable dwarven spirit","steam_id":76561198280834819,"connected_time":1712000000000,"state":"active","ping":58},{"user_id":533,"name":"Vibing Wave","steam_id":76561198866358613,"connected_time":808000000000,"state":"active","ping":146},{"user_id":517,"name":"bobby","steam_id":76561198296803933,"connected_time":1591000000000,"state":"active","ping":83},{"user_id":531,"name":"Dragon","steam_id":76561198163255365,"connected_time":821000000000,"state":"active","ping":96},{"user_id":538,"name":"Star in a pond","steam_id":76561198205501279,"connected_time":596000000000,"state":"active","ping":93},{"user_id":528,"name":"Sad Sandy","steam_id":76561198232913456,"connected_time":907000000000,"state":"active","ping":100},{"user_id":540,"name":"Velvet","steam_id":76561198180081394,"connected_time":564000000000,"state":"active","ping":53},{"user_id":529,"name":"Vivas","steam_id":76561199118814729,"connected_time":895000000000,"state":"active","ping":64},{"user_id":532,"name":"coella","steam_id":76561198442803577,"connected_time":812000000000,"state":"active","ping":73},{"user_id":534,"name":"Selfish","steam_id":76561198014759487,"connected_time":789000000000,"state":"active","ping":60},{"user_id":535,"name":"snowycoast","steam_id":76561198346638308,"connected_time":776000000000,"state":"active","ping":62},{"user_id":539,"name":"MrWeis","steam_id":76561198115443579,"connected_time":591000000000,"state":"active","ping":67},{"user_id":537,"name":"shankz","steam_id":76561198128803260,"connected_time":742000000000,"state":"active","ping":61}]},{"server_id":308,"name":"Uncletopia | Frankfurt | 3 | All Maps","name_short":"frk-3","host":"frk-1.de.uncletopia.com","port":27035,"enabled":true,"region":"eu","cc":"de","latitude":50.110924,"longitude":8.682127,"reserved":0,"last_update":"0001-01-01T00:00:00Z","name_a2s":"Uncletopia | Frankfurt | 3 | All Maps","protocol":17,"map":"cp_gravelpit","folder":"tf","game":"Team Fortress","app_id":440,"player_count":1,"max_players":24,"Bots":0,"server_type":"Dedicated","server_os":"Linux","password":true,"vac":true,"version":"7961495","steam_id":85568392924504274,"keywords":["cp","nocrits","nodmgspread","uncletopia"],"game_id":440,"stv_port":27036,"stv_name":"Uncletopia | Frankfurt | 3 | All Maps | STV","players":[{"user_id":706,"name":"klara.vdoleckova","steam_id":76561199147004472,"connected_time":33000000000,"state":"spawning","ping":55}]},{"server_id":309,"name":"Uncletopia | Frankfurt | 4 | All Maps","name_short":"frk-4","host":"frk-1.de.uncletopia.com","port":27045,"enabled":true,"region":"eu","cc":"de","latitude":50.110924,"longitude":8.682127,"reserved":0,"last_update":"0001-01-01T00:00:00Z","name_a2s":"Uncletopia | Frankfurt | 4 | All Maps","protocol":17,"map":"pl_pier","folder":"tf","game":"Team Fortress","app_id":440,"player_count":3,"max_players":24,"Bots":0,"server_type":"Dedicated","server_os":"Linux","password":true,"vac":true,"version":"7961495","steam_id":85568392924504275,"keywords":["nocrits","nodmgspread","payload","uncletopia"],"game_id":440,"stv_port":27046,"stv_name":"Uncletopia | Frankfurt | 4 | All Maps | STV","players":[{"user_id":481,"name":"TF2 Goblin","steam_id":76561198922879432,"connected_time":1134000000000,"state":"active","ping":77},{"user_id":456,"name":"tuhana","steam_id":76561198963363419,"connected_time":5352000000000,"state":"active","ping":103},{"user_id":444,"name":"Pinos","steam_id":76561198101624996,"connected_time":5980000000000,"state":"active","ping":93}]},{"server_id":310,"name":"Uncletopia | Frankfurt | 5 | All Maps","name_short":"frk-5","host":"frk-1.de.uncletopia.com","port":27055,"enabled":true,"region":"eu","cc":"de","latitude":50.110924,"longitude":8.682127,"reserved":0,"last_update":"0001-01-01T00:00:00Z","name_a2s":"Uncletopia | Frankfurt | 5 | All Maps","protocol":17,"map":"koth_cascade","folder":"tf","game":"Team Fortress","app_id":440,"player_count":0,"max_players":24,"Bots":0,"server_type":"Dedicated","server_os":"Linux","password":true,"vac":true,"version":"7961495","steam_id":85568392924504277,"keywords":["cp","nocrits","nodmgspread","uncletopia"],"game_id":440,"stv_port":27056,"stv_name":"Uncletopia | Frankfurt | 5 | All Maps | STV","players":null},{"server_id":311,"name":"Uncletopia | Frankfurt | 6 | All Maps","name_short":"frk-6","host":"frk-1.de.uncletopia.com","port":27065,"enabled":true,"region":"eu","cc":"de","latitude":50.110924,"longitude":8.682127,"reserved":0,"last_update":"0001-01-01T00:00:00Z","name_a2s":"Uncletopia | Frankfurt | 6 | All Maps","protocol":17,"map":"koth_highpass","folder":"tf","game":"Team Fortress","app_id":440,"player_count":0,"max_players":24,"Bots":0,"server_type":"Dedicated","server_os":"Linux","password":true,"vac":true,"version":"7961495","steam_id":85568392924504278,"keywords":["cp","nocrits","nodmgspread","uncletopia"],"game_id":440,"stv_port":27066,"stv_name":"Uncletopia | Frankfurt | 6 | All Maps | STV","players":null},{"server_id":23,"name":"Uncletopia | Frankfurt | 7 | Stopwatch","name_short":"frk-7","host":"frk-1.de.uncletopia.com","port":27075,"enabled":true,"region":"eu","cc":"de","latitude":50.110924,"longitude":8.682127,"reserved":0,"last_update":"0001-01-01T00:00:00Z","name_a2s":"Uncletopia | Frankfurt | 7 | Stopwatch","protocol":17,"map":"koth_lakeside_final","folder":"tf","game":"Team Fortress","app_id":440,"player_count":0,"max_players":24,"Bots":0,"server_type":"Dedicated","server_os":"Linux","password":true,"vac":true,"version":"7961495","steam_id":85568392924742827,"keywords":["cp","nocrits","nodmgspread","uncletopia"],"game_id":440,"stv_port":27076,"stv_name":"Uncletopia | Frankfurt | 7 | Stopwatch | STV","players":null},{"server_id":24,"name":"Uncletopia | Frankfurt | 8 | Community","name_short":"frk-8","host":"frk-1.de.uncletopia.com","port":27085,"enabled":true,"region":"eu","cc":"de","latitude":50.110924,"longitude":8.682127,"reserved":0,"last_update":"0001-01-01T00:00:00Z","name_a2s":"Uncletopia | Frankfurt | 8 | Community","protocol":17,"map":"workshop/koth_ramjam_rc1.ugc459778887","folder":"tf","game":"Team Fortress","app_id":440,"player_count":0,"max_players":24,"Bots":0,"server_type":"Dedicated","server_os":"Linux","password":true,"vac":true,"version":"7961495","steam_id":85568392924742828,"keywords":["cp","nocrits","nodmgspread","uncletopia"],"game_id":440,"stv_port":27086,"stv_name":"Uncletopia | Frankfurt | 8 | Community | STV","players":null},{"server_id":202,"name":"Uncletopia | Hong Kong | 1 | All Maps","name_short":"hgk-1","host":"hgk-1.hk.uncletopia.com","port":27015,"enabled":true,"region":"asia","cc":"hk","latitude":22.302711,"longitude":114.177216,"reserved":0,"last_update":"0001-01-01T00:00:00Z","name_a2s":"Uncletopia | Hong Kong | 1 | All Maps","protocol":17,"map":"pl_frontier_final","folder":"tf","game":"Team Fortress","app_id":440,"player_count":0,"max_players":24,"Bots":0,"server_type":"Dedicated","server_os":"Linux","password":true,"vac":true,"version":"7961495","steam_id":85568392924494504,"keywords":["nocrits","nodmgspread","payload","uncletopia"],"game_id":440,"stv_port":27016,"stv_name":"Uncletopia | Hong Kong | 1 | All Maps | STV","players":null},{"server_id":1,"name":"Uncletopia | Los Angeles | 1 | All Maps","name_short":"lax-1","host":"lax-1.us.uncletopia.com","port":27015,"enabled":true,"region":"us-west","cc":"us","latitude":33.94279,"longitude":-118.41004,"reserved":0,"last_update":"0001-01-01T00:00:00Z","name_a2s":"Uncletopia | Los Angeles | 1 | All Maps","protocol":17,"map":"pl_upward","folder":"tf","game":"Team Fortress","app_id":440,"player_count":24,"max_players":24,"Bots":0,"server_type":"Dedicated","server_os":"Linux","password":true,"vac":true,"version":"7961495","steam_id":85568392924469991,"keywords":["nocrits","nodmgspread","payload","uncletopia"],"game_id":440,"stv_port":27016,"stv_name":"Uncletopia | Los Angeles | 1 | All Maps | STV","players":[{"user_id":215,"name":"BlazedBunny","steam_id":76561198243610560,"connected_time":1573000000000,"state":"active","ping":106},{"user_id":203,"name":"knight of light","steam_id":76561198025551646,"connected_time":2082000000000,"state":"active","ping":100},{"user_id":152,"name":"Pybro's Day Off","steam_id":76561197996353534,"connected_time":4985000000000,"state":"active","ping":46},{"user_id":174,"name":"Green_GarBear","steam_id":76561199468912415,"connected_time":3873000000000,"state":"active","ping":57},{"user_id":211,"name":"Tom","steam_id":76561198139202942,"connected_time":1793000000000,"state":"active","ping":121},{"user_id":207,"name":"Lord","steam_id":76561198303081758,"connected_time":1860000000000,"state":"active","ping":38},{"user_id":222,"name":"K2f","steam_id":76561198049600563,"connected_time":571000000000,"state":"active","ping":37},{"user_id":212,"name":"Mugen","steam_id":76561198411174773,"connected_time":1791000000000,"state":"active","ping":51},{"user_id":221,"name":"yogi","steam_id":76561198067986753,"connected_time":772000000000,"state":"active","ping":47},{"user_id":229,"name":"Gerbias","steam_id":76561198001002427,"connected_time":55000000000,"state":"active","ping":60},{"user_id":227,"name":"Look at me Hector","steam_id":76561198089414077,"connected_time":138000000000,"state":"active","ping":38},{"user_id":216,"name":"Drive-By-Fish-Guy","steam_id":76561198105513652,"connected_time":1450000000000,"state":"active","ping":57},{"user_id":199,"name":"ScoutBox","steam_id":76561198111539895,"connected_time":2438000000000,"state":"active","ping":47},{"user_id":218,"name":"zinnk","steam_id":76561198092081825,"connected_time":1367000000000,"state":"active","ping":47},{"user_id":224,"name":"mafia is mafia","steam_id":76561198042574722,"connected_time":400000000000,"state":"active","ping":76},{"user_id":219,"name":"Livin' Like Larry","steam_id":76561198313360974,"connected_time":883000000000,"state":"active","ping":46},{"user_id":225,"name":"bleh :p","steam_id":76561198880268129,"connected_time":353000000000,"state":"active","ping":66},{"user_id":228,"name":"Jango","steam_id":76561198121922413,"connected_time":118000000000,"state":"active","ping":47},{"user_id":209,"name":"tqman","steam_id":76561199031963925,"connected_time":1824000000000,"state":"active","ping":71},{"user_id":223,"name":"cookiegenius2398.r2","steam_id":76561198970759258,"connected_time":537000000000,"state":"active","ping":56},{"user_id":193,"name":"Avem","steam_id":76561198058763710,"connected_time":2634000000000,"state":"active","ping":46},{"user_id":180,"name":"Tmiracle","steam_id":76561198052375275,"connected_time":3551000000000,"state":"active","ping":53},{"user_id":205,"name":"chanoc","steam_id":76561198026734746,"connected_time":2072000000000,"state":"active","ping":60},{"user_id":226,"name":"yall need me frfr","steam_id":76561198294192287,"connected_time":338000000000,"state":"active","ping":53}]},{"server_id":112,"name":"Uncletopia | Los Angeles | 2 | All Maps","name_short":"lax-2","host":"lax-1.us.uncletopia.com","port":27025,"enabled":true,"region":"us-west","cc":"us","latitude":33.94279,"longitude":-118.41004,"reserved":0,"last_update":"0001-01-01T00:00:00Z","name_a2s":"Uncletopia | Los Angeles | 2 | All Maps","protocol":17,"map":"cp_dustbowl","folder":"tf","game":"Team Fortress","app_id":440,"player_count":0,"max_players":24,"Bots":0,"server_type":"Dedicated","server_os":"Linux","password":true,"vac":true,"version":"7961495","steam_id":85568392924469992,"keywords":["cp","nocrits","nodmgspread","uncletopia"],"game_id":440,"stv_port":27026,"stv_name":"Uncletopia | Los Angeles | 2 | All Maps | STV","players":null},{"server_id":324,"name":"Uncletopia | Los Angeles | 3 | All Maps","name_short":"lax-3","host":"lax-1.us.uncletopia.com","port":27035,"enabled":true,"region":"us-west","cc":"us","latitude":33.94279,"longitude":-118.41004,"reserved":0,"last_update":"0001-01-01T00:00:00Z","name_a2s":"Uncletopia | Los Angeles | 3 | All Maps","protocol":17,"map":"koth_highpass","folder":"tf","game":"Team Fortress","app_id":440,"player_count":1,"max_players":24,"Bots":0,"server_type":"Dedicated","server_os":"Linux","password":true,"vac":true,"version":"7961495","steam_id":85568392924510198,"keywords":["cp","nocrits","nodmgspread","uncletopia"],"game_id":440,"stv_port":27036,"stv_name":"Uncletopia | Los Angeles | 3 | All Maps | STV","players":[{"user_id":8,"name":"rebite","steam_id":76561198036739643,"connected_time":2000000000,"state":"spawning","ping":87}]},{"server_id":25,"name":"Uncletopia | Los Angeles | 4 | Stopwatch","name_short":"lax-4","host":"lax-1.us.uncletopia.com","port":27045,"enabled":true,"region":"us-west","cc":"us","latitude":33.94279,"longitude":-118.41004,"reserved":0,"last_update":"0001-01-01T00:00:00Z","name_a2s":"Uncletopia | Los Angeles | 4 | Stopwatch","protocol":17,"map":"pl_barnblitz","folder":"tf","game":"Team Fortress","app_id":440,"player_count":0,"max_players":24,"Bots":0,"server_type":"Dedicated","server_os":"Linux","password":true,"vac":true,"version":"7961495","steam_id":85568392924510199,"keywords":["nocrits","nodmgspread","payload","uncletopia"],"game_id":440,"stv_port":27046,"stv_name":"Uncletopia | Los Angeles | 4 | Stopwatch | STV","players":null},{"server_id":11,"name":"Uncletopia | London | 1 | All Maps","name_short":"lon-1","host":"lon-1.uk.uncletopia.com","port":27015,"enabled":true,"region":"eu","cc":"gb","latitude":51.509865,"longitude":-0.118092,"reserved":0,"last_update":"0001-01-01T00:00:00Z","name_a2s":"Uncletopia | London | 1 | All Maps","protocol":17,"map":"pl_badwater","folder":"tf","game":"Team Fortress","app_id":440,"player_count":24,"max_players":24,"Bots":0,"server_type":"Dedicated","server_os":"Linux","password":true,"vac":true,"version":"7961495","steam_id":85568392924367362,"keywords":["nocrits","nodmgspread","payload","uncletopia"],"game_id":440,"stv_port":27016,"stv_name":"Uncletopia | London | 1 | All Maps | STV","players":[{"user_id":788,"name":"The Lady","steam_id":76561198029895809,"connected_time":2269000000000,"state":"active","ping":86},{"user_id":794,"name":"bio woman (huge penis)","steam_id":76561198151172590,"connected_time":1985000000000,"state":"active","ping":152},{"user_id":792,"name":"✪ Danny","steam_id":76561198104483241,"connected_time":1998000000000,"state":"active","ping":54},{"user_id":807,"name":"Prome","steam_id":76561199050383942,"connected_time":624000000000,"state":"active","ping":54},{"user_id":757,"name":"SOPHIIEE","steam_id":76561198443798981,"connected_time":5647000000000,"state":"active","ping":57},{"user_id":799,"name":"beebo","steam_id":76561199120277007,"connected_time":1806000000000,"state":"active","ping":96},{"user_id":795,"name":"Milk","steam_id":76561198125876588,"connected_time":1982000000000,"state":"active","ping":41},{"user_id":790,"name":"Flashback","steam_id":76561197973978552,"connected_time":2057000000000,"state":"active","ping":55},{"user_id":806,"name":"Superiumentarius","steam_id":76561198081642249,"connected_time":676000000000,"state":"active","ping":60},{"user_id":808,"name":"sad monkey hands on his head","steam_id":76561198116530769,"connected_time":143000000000,"state":"active","ping":95},{"user_id":768,"name":"BreadBubbles","steam_id":76561198174332826,"connected_time":5178000000000,"state":"active","ping":97},{"user_id":803,"name":"Boop","steam_id":76561198042167559,"connected_time":729000000000,"state":"active","ping":51},{"user_id":801,"name":"Marquis de Hoto","steam_id":76561198080687708,"connected_time":1209000000000,"state":"active","ping":74},{"user_id":773,"name":"sui","steam_id":76561198185348855,"connected_time":4374000000000,"state":"active","ping":81},{"user_id":703,"name":"Krucial","steam_id":76561198144464665,"connected_time":9248000000000,"state":"active","ping":81},{"user_id":800,"name":"Slifer","steam_id":76561198062255803,"connected_time":1597000000000,"state":"active","ping":68},{"user_id":780,"name":"Vitun vittu","steam_id":76561198110679463,"connected_time":3593000000000,"state":"active","ping":75},{"user_id":759,"name":"Chucky.","steam_id":76561197969361063,"connected_time":5638000000000,"state":"active","ping":76},{"user_id":785,"name":"flappi","steam_id":76561198072892783,"connected_time":2750000000000,"state":"active","ping":71},{"user_id":802,"name":"Qxillum","steam_id":76561198037201297,"connected_time":1068000000000,"state":"active","ping":48},{"user_id":746,"name":"sora","steam_id":76561198096547662,"connected_time":7242000000000,"state":"active","ping":53},{"user_id":804,"name":"Pantroglodytestherapy","steam_id":76561198236015392,"connected_time":723000000000,"state":"active","ping":121},{"user_id":701,"name":"Minimi","steam_id":76561198873850443,"connected_time":9971000000000,"state":"active","ping":45},{"user_id":805,"name":"Purps","steam_id":76561198053886680,"connected_time":722000000000,"state":"active","ping":43}]},{"server_id":114,"name":"Uncletopia | London | 2 | All Maps","name_short":"lon-2","host":"lon-1.uk.uncletopia.com","port":27025,"enabled":true,"region":"eu","cc":"gb","latitude":51.509865,"longitude":-0.118092,"reserved":0,"last_update":"0001-01-01T00:00:00Z","name_a2s":"Uncletopia | London | 2 | All Maps","protocol":17,"map":"pl_upward","folder":"tf","game":"Team Fortress","app_id":440,"player_count":21,"max_players":24,"Bots":0,"server_type":"Dedicated","server_os":"Linux","password":true,"vac":true,"version":"7961495","steam_id":85568392924470941,"keywords":["nocrits","nodmgspread","payload","uncletopia"],"game_id":440,"stv_port":27026,"stv_name":"Uncletopia | London | 2 | All Maps | STV","players":[{"user_id":222,"name":"Gry","steam_id":76561198053961616,"connected_time":6296000000000,"state":"active","ping":55},{"user_id":307,"name":"etc","steam_id":76561197998394797,"connected_time":955000000000,"state":"active","ping":55},{"user_id":261,"name":"ryan55510","steam_id":76561198054750052,"connected_time":4283000000000,"state":"active","ping":57},{"user_id":284,"name":"drwhut","steam_id":76561198070218857,"connected_time":2943000000000,"state":"active","ping":35},{"user_id":313,"name":"Drippin","steam_id":76561198285334670,"connected_time":297000000000,"state":"active","ping":89},{"user_id":296,"name":"r0la","steam_id":76561198128315340,"connected_time":1728000000000,"state":"active","ping":75},{"user_id":314,"name":"Hyppy ja liipasin pohjaan :D","steam_id":76561198080669698,"connected_time":286000000000,"state":"active","ping":101},{"user_id":253,"name":"ham","steam_id":76561198092186935,"connected_time":4609000000000,"state":"active","ping":47},{"user_id":255,"name":"Simply Devine","steam_id":76561198079023104,"connected_time":4462000000000,"state":"active","ping":153},{"user_id":310,"name":"Eujekas","steam_id":76561198010527145,"connected_time":867000000000,"state":"active","ping":109},{"user_id":317,"name":"Kid named download","steam_id":76561199192074448,"connected_time":16000000000,"state":"spawning","ping":146},{"user_id":302,"name":"bongo","steam_id":76561198015489880,"connected_time":1471000000000,"state":"active","ping":41},{"user_id":316,"name":"ReanuKeeves","steam_id":76561198798940895,"connected_time":25000000000,"state":"active","ping":147},{"user_id":279,"name":"...","steam_id":76561199024512720,"connected_time":3629000000000,"state":"active","ping":58},{"user_id":275,"name":"f0x","steam_id":76561198072921704,"connected_time":3800000000000,"state":"active","ping":47},{"user_id":298,"name":"MastahDizzy","steam_id":76561198123024093,"connected_time":1694000000000,"state":"active","ping":47},{"user_id":292,"name":"Neeeiks","steam_id":76561198009156801,"connected_time":2145000000000,"state":"active","ping":77},{"user_id":288,"name":"kalid","steam_id":76561198051468640,"connected_time":2333000000000,"state":"active","ping":59},{"user_id":293,"name":"Femboy Gaming","steam_id":76561198174108515,"connected_time":2140000000000,"state":"active","ping":57},{"user_id":294,"name":"TheVikingTheRed","steam_id":76561199221731253,"connected_time":2065000000000,"state":"active","ping":48},{"user_id":246,"name":"cat","steam_id":76561198837071509,"connected_time":5377000000000,"state":"active","ping":104}]},{"server_id":320,"name":"Uncletopia | London | 3 | All Maps","name_short":"lon-3","host":"lon-1.uk.uncletopia.com","port":27035,"enabled":true,"region":"eu","cc":"gb","latitude":51.509865,"longitude":-0.118092,"reserved":0,"last_update":"0001-01-01T00:00:00Z","name_a2s":"Uncletopia | London | 3 | All Maps","protocol":17,"map":"koth_sawmill","folder":"tf","game":"Team Fortress","app_id":440,"player_count":0,"max_players":24,"Bots":0,"server_type":"Dedicated","server_os":"Linux","password":true,"vac":true,"version":"7961495","steam_id":85568392924510192,"keywords":["cp","nocrits","nodmgspread","uncletopia"],"game_id":440,"stv_port":27036,"stv_name":"Uncletopia | London | 3 | All Maps | STV","players":null},{"server_id":321,"name":"Uncletopia | London | 4 | All Maps","name_short":"lon-4","host":"lon-1.uk.uncletopia.com","port":27045,"enabled":true,"region":"eu","cc":"gb","latitude":51.509865,"longitude":-0.118092,"reserved":0,"last_update":"0001-01-01T00:00:00Z","name_a2s":"Uncletopia | London | 4 | All Maps","protocol":17,"map":"koth_viaduct","folder":"tf","game":"Team Fortress","app_id":440,"player_count":1,"max_players":24,"Bots":0,"server_type":"Dedicated","server_os":"Linux","password":true,"vac":true,"version":"7961495","steam_id":85568392924510193,"keywords":["cp","nocrits","nodmgspread","uncletopia"],"game_id":440,"stv_port":27046,"stv_name":"Uncletopia | London | 4 | All Maps | STV","players":[{"user_id":522,"name":"zeen","steam_id":76561198141020179,"connected_time":3129000000000,"state":"active","ping":78}]},{"server_id":21,"name":"Uncletopia | London | 5 | All Maps","name_short":"lon-5","host":"lon-1.uk.uncletopia.com","port":27055,"enabled":true,"region":"eu","cc":"gb","latitude":51.509865,"longitude":-0.118092,"reserved":0,"last_update":"0001-01-01T00:00:00Z","name_a2s":"Uncletopia | London | 5 | All Maps","protocol":17,"map":"pl_upward","folder":"tf","game":"Team Fortress","app_id":440,"player_count":24,"max_players":24,"Bots":0,"server_type":"Dedicated","server_os":"Linux","password":true,"vac":true,"version":"7961495","steam_id":85568392924742829,"keywords":["nocrits","nodmgspread","payload","uncletopia"],"game_id":440,"stv_port":27056,"stv_name":"Uncletopia | London | 5 | All Maps | STV","players":[{"user_id":619,"name":"hardway","steam_id":76561198272529254,"connected_time":198000000000,"state":"active","ping":57},{"user_id":616,"name":"cora","steam_id":76561199474154775,"connected_time":403000000000,"state":"active","ping":57},{"user_id":613,"name":"♥ Emma ♥","steam_id":76561198046796406,"connected_time":488000000000,"state":"active","ping":59},{"user_id":561,"name":"mq","steam_id":76561198091888948,"connected_time":4239000000000,"state":"active","ping":57},{"user_id":611,"name":"Hok","steam_id":76561198354431918,"connected_time":628000000000,"state":"active","ping":56},{"user_id":615,"name":"Vexu","steam_id":76561198113145846,"connected_time":445000000000,"state":"active","ping":90},{"user_id":605,"name":"flr","steam_id":76561198249327786,"connected_time":886000000000,"state":"active","ping":62},{"user_id":550,"name":"Spycrab101","steam_id":76561198141836805,"connected_time":4590000000000,"state":"active","ping":52},{"user_id":612,"name":"true","steam_id":76561198031145243,"connected_time":625000000000,"state":"active","ping":85},{"user_id":580,"name":"mohemmedmokhter2005","steam_id":76561199197650506,"connected_time":2872000000000,"state":"active","ping":115},{"user_id":617,"name":"tommy","steam_id":76561198195628823,"connected_time":308000000000,"state":"active","ping":51},{"user_id":592,"name":"BeefHammer","steam_id":76561198078426223,"connected_time":1883000000000,"state":"active","ping":94},{"user_id":618,"name":"dumbest bitch","steam_id":76561198097712283,"connected_time":240000000000,"state":"active","ping":76},{"user_id":620,"name":"Dat Fat Cat","steam_id":76561198058652558,"connected_time":75000000000,"state":"active","ping":39},{"user_id":600,"name":"Xeno","steam_id":76561198975556646,"connected_time":1196000000000,"state":"active","ping":59},{"user_id":556,"name":"Maximilian1359","steam_id":76561198152439608,"connected_time":4477000000000,"state":"active","ping":65},{"user_id":610,"name":"Urfangonultasadana","steam_id":76561199389286151,"connected_time":665000000000,"state":"active","ping":109},{"user_id":595,"name":"A simple berry picker","steam_id":76561198091969871,"connected_time":1813000000000,"state":"active","ping":71},{"user_id":565,"name":"Schmack","steam_id":76561198026535437,"connected_time":4165000000000,"state":"active","ping":60},{"user_id":597,"name":"Przemomalin","steam_id":76561197987528170,"connected_time":1719000000000,"state":"active","ping":108},{"user_id":621,"name":"Post-It Paige","steam_id":76561198294059159,"connected_time":58000000000,"state":"active","ping":165},{"user_id":623,"name":"Artgrendadier","steam_id":76561198063305359,"connected_time":26000000000,"state":"spawning","ping":111},{"user_id":579,"name":"Kernel Panic","steam_id":76561198215811047,"connected_time":2910000000000,"state":"active","ping":34},{"user_id":622,"name":"Mike","steam_id":76561198228455736,"connected_time":55000000000,"state":"active","ping":47}]},{"server_id":22,"name":"Uncletopia | London | 6 | All Maps","name_short":"lon-6","host":"lon-1.uk.uncletopia.com","port":27065,"enabled":true,"region":"eu","cc":"gb","latitude":51.509865,"longitude":-0.118092,"reserved":0,"last_update":"0001-01-01T00:00:00Z","name_a2s":"Uncletopia | London | 6 | All Maps","protocol":17,"map":"pl_swiftwater_final1","folder":"tf","game":"Team Fortress","app_id":440,"player_count":3,"max_players":24,"Bots":0,"server_type":"Dedicated","server_os":"Linux","password":true,"vac":true,"version":"7961495","steam_id":85568392924742830,"keywords":["nocrits","nodmgspread","payload","uncletopia"],"game_id":440,"stv_port":27066,"stv_name":"Uncletopia | London | 6 | All Maps | STV","players":[{"user_id":275,"name":"Potshott","steam_id":76561198184014158,"connected_time":3065000000000,"state":"active","ping":43},{"user_id":304,"name":"The_Pulle","steam_id":76561199390511229,"connected_time":1467000000000,"state":"active","ping":69},{"user_id":276,"name":"Batch Number 443714","steam_id":76561197977497969,"connected_time":3043000000000,"state":"active","ping":44}]},{"server_id":40,"name":"Uncletopia | London | 7 | Stopwatch","name_short":"lon-7","host":"lon-1.uk.uncletopia.com","port":27075,"enabled":true,"region":"eu","cc":"gb","latitude":51.509865,"longitude":-0.118092,"reserved":0,"last_update":"0001-01-01T00:00:00Z","name_a2s":"Uncletopia | London | 7 | Stopwatch","protocol":17,"map":"workshop/koth_ramjam_rc1.ugc459778887","folder":"tf","game":"Team Fortress","app_id":440,"player_count":2,"max_players":24,"Bots":0,"server_type":"Dedicated","server_os":"Linux","password":true,"vac":true,"version":"7961495","steam_id":85568392924964314,"keywords":["cp","nocrits","nodmgspread","uncletopia"],"game_id":440,"stv_port":27076,"stv_name":"Uncletopia | London | 7 | Stopwatch | STV","players":[{"user_id":27,"name":"Sherif Birb","steam_id":76561198374140438,"connected_time":4568000000000,"state":"active","ping":60},{"user_id":32,"name":"Nova","steam_id":76561198108601005,"connected_time":2723000000000,"state":"active","ping":76}]},{"server_id":41,"name":"Uncletopia | London | 8 | Community","name_short":"lon-8","host":"lon-1.uk.uncletopia.com","port":27085,"enabled":true,"region":"eu","cc":"gb","latitude":51.509865,"longitude":-0.118092,"reserved":0,"last_update":"0001-01-01T00:00:00Z","name_a2s":"Uncletopia | London | 8 | Community","protocol":17,"map":"workshop/koth_kemptown_rc1.ugc767410655","folder":"tf","game":"Team Fortress","app_id":440,"player_count":0,"max_players":24,"Bots":0,"server_type":"Dedicated","server_os":"Linux","password":true,"vac":true,"version":"7961495","steam_id":85568392924964315,"keywords":["cp","nocrits","nodmgspread","uncletopia"],"game_id":440,"stv_port":27086,"stv_name":"Uncletopia | London | 8 | Community | STV","players":null},{"server_id":300,"name":"Uncletopia | Montréal | 1 | All Maps","name_short":"mtl-1","host":"mtl-1.ca.uncletopia.com","port":27015,"enabled":true,"region":"us-east","cc":"ca","latitude":45.50889,"longitude":-73.56167,"reserved":0,"last_update":"0001-01-01T00:00:00Z","name_a2s":"","protocol":0,"map":"","folder":"","game":"","app_id":0,"player_count":0,"max_players":0,"Bots":0,"server_type":"","server_os":"","password":false,"vac":false,"version":"","steam_id":0,"keywords":null,"game_id":0,"stv_port":0,"stv_name":"","players":null},{"server_id":301,"name":"Uncletopia | Montréal | 2 | All Maps","name_short":"mtl-2","host":"mtl-1.ca.uncletopia.com","port":27025,"enabled":true,"region":"us-east","cc":"ca","latitude":45.50889,"longitude":-73.56167,"reserved":0,"last_update":"0001-01-01T00:00:00Z","name_a2s":"","protocol":0,"map":"","folder":"","game":"","app_id":0,"player_count":0,"max_players":0,"Bots":0,"server_type":"","server_os":"","password":false,"vac":false,"version":"","steam_id":0,"keywords":null,"game_id":0,"stv_port":0,"stv_name":"","players":null},{"server_id":302,"name":"Uncletopia | Montréal | 3 | All Maps","name_short":"mtl-3","host":"mtl-1.ca.uncletopia.com","port":27035,"enabled":true,"region":"us-east","cc":"ca","latitude":45.50889,"longitude":-73.56167,"reserved":0,"last_update":"0001-01-01T00:00:00Z","name_a2s":"","protocol":0,"map":"","folder":"","game":"","app_id":0,"player_count":0,"max_players":0,"Bots":0,"server_type":"","server_os":"","password":false,"vac":false,"version":"","steam_id":0,"keywords":null,"game_id":0,"stv_port":0,"stv_name":"","players":null},{"server_id":303,"name":"Uncletopia | Montréal | 4 | No Payload","name_short":"mtl-4","host":"mtl-1.ca.uncletopia.com","port":27045,"enabled":true,"region":"us-east","cc":"ca","latitude":45.50889,"longitude":-73.56167,"reserved":0,"last_update":"0001-01-01T00:00:00Z","name_a2s":"","protocol":0,"map":"","folder":"","game":"","app_id":0,"player_count":0,"max_players":0,"Bots":0,"server_type":"","server_os":"","password":false,"vac":false,"version":"","steam_id":0,"keywords":null,"game_id":0,"stv_port":0,"stv_name":"","players":null},{"server_id":13,"name":"Uncletopia | New York City | 1 | All Maps","name_short":"nyc-1","host":"nyc-1.us.uncletopia.com","port":27015,"enabled":true,"region":"us-east","cc":"us","latitude":40.73061,"longitude":-73.93524,"reserved":0,"last_update":"0001-01-01T00:00:00Z","name_a2s":"Uncletopia | New York City | 1 | All Maps","protocol":17,"map":"cp_process_final","folder":"tf","game":"Team Fortress","app_id":440,"player_count":24,"max_players":24,"Bots":0,"server_type":"Dedicated","server_os":"Linux","password":true,"vac":true,"version":"7961495","steam_id":85568392924469993,"keywords":["cp","nocrits","nodmgspread","uncletopia"],"game_id":440,"stv_port":27016,"stv_name":"Uncletopia | New York City | 1 | All Maps | STV","players":[{"user_id":224,"name":"Helloppl65","steam_id":76561198272420658,"connected_time":2324000000000,"state":"active","ping":115},{"user_id":257,"name":"LeeleeLiv #SaveTF2","steam_id":76561198072060574,"connected_time":105000000000,"state":"active","ping":50},{"user_id":258,"name":"vriska serket","steam_id":76561199345823430,"connected_time":92000000000,"state":"active","ping":65},{"user_id":220,"name":"Scum Knight | T.I.D.K.","steam_id":76561198282444763,"connected_time":2407000000000,"state":"active","ping":54},{"user_id":246,"name":"stardust","steam_id":76561198413930183,"connected_time":846000000000,"state":"active","ping":44},{"user_id":254,"name":"A Puppy","steam_id":76561198828184456,"connected_time":286000000000,"state":"active","ping":45},{"user_id":189,"name":"JokingJayquanda","steam_id":76561198055867599,"connected_time":4412000000000,"state":"active","ping":86},{"user_id":230,"name":"bran","steam_id":76561199028457134,"connected_time":1822000000000,"state":"active","ping":45},{"user_id":261,"name":"φCliff Racerφ","steam_id":76561198095908193,"connected_time":1000000000,"state":"spawning","ping":43},{"user_id":236,"name":"Eraserhead Baby","steam_id":76561198010968514,"connected_time":1327000000000,"state":"active","ping":103},{"user_id":249,"name":"Cosmic sR","steam_id":76561198081738675,"connected_time":678000000000,"state":"active","ping":84},{"user_id":216,"name":"Virtual Zorua","steam_id":76561198196180302,"connected_time":2576000000000,"state":"active","ping":92},{"user_id":191,"name":"HiddenEgg","steam_id":76561199045105518,"connected_time":4391000000000,"state":"active","ping":115},{"user_id":259,"name":"Bingleton","steam_id":76561198020364188,"connected_time":51000000000,"state":"active","ping":70},{"user_id":226,"name":"Preacher","steam_id":76561198022215764,"connected_time":2033000000000,"state":"active","ping":56},{"user_id":232,"name":"RyInc","steam_id":76561198874261643,"connected_time":1766000000000,"state":"active","ping":60},{"user_id":250,"name":"Mr.Soup7560","steam_id":76561198060401317,"connected_time":594000000000,"state":"active","ping":89},{"user_id":240,"name":"Condensed milk","steam_id":76561199209016136,"connected_time":1095000000000,"state":"active","ping":68},{"user_id":241,"name":"SnickerNoodle","steam_id":76561198064359644,"connected_time":1092000000000,"state":"active","ping":51},{"user_id":244,"name":"breathingtrees","steam_id":76561198118931690,"connected_time":910000000000,"state":"active","ping":57},{"user_id":253,"name":"GrandShroombah","steam_id":76561199375564529,"connected_time":322000000000,"state":"active","ping":92},{"user_id":260,"name":"MyrButCool","steam_id":76561198177245933,"connected_time":19000000000,"state":"active","ping":83},{"user_id":171,"name":"VelocityCubeR","steam_id":76561198044351011,"connected_time":5886000000000,"state":"active","ping":73},{"user_id":215,"name":"MaineGameBoy","steam_id":76561198278698726,"connected_time":2733000000000,"state":"active","ping":92}]},{"server_id":14,"name":"Uncletopia | New York City | 2 | All Maps","name_short":"nyc-2","host":"nyc-1.us.uncletopia.com","port":27025,"enabled":true,"region":"us-east","cc":"us","latitude":40.73061,"longitude":-73.93524,"reserved":0,"last_update":"0001-01-01T00:00:00Z","name_a2s":"Uncletopia | New York City | 2 | All Maps","protocol":17,"map":"koth_king","folder":"tf","game":"Team Fortress","app_id":440,"player_count":24,"max_players":24,"Bots":0,"server_type":"Dedicated","server_os":"Linux","password":true,"vac":true,"version":"7961495","steam_id":85568392924469994,"keywords":["cp","nocrits","nodmgspread","uncletopia"],"game_id":440,"stv_port":27026,"stv_name":"Uncletopia | New York City | 2 | All Maps | STV","players":[{"user_id":487,"name":"DJtrickshot2013","steam_id":76561199184622920,"connected_time":205000000000,"state":"active","ping":69},{"user_id":436,"name":"ChaoticAngel","steam_id":76561198293528217,"connected_time":4238000000000,"state":"active","ping":53},{"user_id":468,"name":"Loser420","steam_id":76561199049823558,"connected_time":1711000000000,"state":"active","ping":72},{"user_id":452,"name":"De","steam_id":76561198206728044,"connected_time":3291000000000,"state":"active","ping":74},{"user_id":480,"name":"Lucille_Bluth","steam_id":76561198206133916,"connected_time":879000000000,"state":"active","ping":67},{"user_id":488,"name":"Tony hawks pro skater 2 dlc","steam_id":76561198243387974,"connected_time":110000000000,"state":"active","ping":47},{"user_id":447,"name":"irritable vowel syndrome","steam_id":76561198117033273,"connected_time":3996000000000,"state":"active","ping":125},{"user_id":457,"name":"Okpar","steam_id":76561199221067945,"connected_time":2884000000000,"state":"active","ping":98},{"user_id":485,"name":"Zhong Xina","steam_id":76561198048157121,"connected_time":415000000000,"state":"active","ping":66},{"user_id":441,"name":"Bippums","steam_id":76561198366406729,"connected_time":4121000000000,"state":"active","ping":90},{"user_id":425,"name":"Toxapex","steam_id":76561198341537452,"connected_time":4991000000000,"state":"active","ping":71},{"user_id":477,"name":"Asanez3","steam_id":76561198037381436,"connected_time":1024000000000,"state":"active","ping":67},{"user_id":432,"name":"Mcfighter2","steam_id":76561198168073956,"connected_time":4588000000000,"state":"active","ping":72},{"user_id":459,"name":"retinz","steam_id":76561198135563495,"connected_time":2531000000000,"state":"active","ping":56},{"user_id":474,"name":"faythwalkerjr","steam_id":76561199230023978,"connected_time":1431000000000,"state":"active","ping":60},{"user_id":489,"name":"Just washed","steam_id":76561199030160932,"connected_time":27000000000,"state":"active","ping":78},{"user_id":451,"name":"googa","steam_id":76561198133130452,"connected_time":3484000000000,"state":"active","ping":45},{"user_id":409,"name":"dirty tuna","steam_id":76561198021535785,"connected_time":6174000000000,"state":"active","ping":71},{"user_id":479,"name":"Pinhead Larry","steam_id":76561199088542196,"connected_time":967000000000,"state":"active","ping":46},{"user_id":472,"name":"joachym","steam_id":76561198428579761,"connected_time":1515000000000,"state":"active","ping":157},{"user_id":473,"name":"Tf2isafungame","steam_id":76561199070031623,"connected_time":1473000000000,"state":"active","ping":66},{"user_id":483,"name":"Spyincorporated","steam_id":76561198080956951,"connected_time":651000000000,"state":"active","ping":79},{"user_id":456,"name":"J-Booty Rasengan","steam_id":76561198088854411,"connected_time":3027000000000,"state":"active","ping":57},{"user_id":460,"name":"Broadway Rose","steam_id":76561198046083342,"connected_time":2531000000000,"state":"active","ping":44}]},{"server_id":15,"name":"Uncletopia | New York City | 3 | Stopwatch","name_short":"nyc-3","host":"nyc-1.us.uncletopia.com","port":27035,"enabled":true,"region":"us-east","cc":"us","latitude":40.73061,"longitude":-73.93524,"reserved":0,"last_update":"0001-01-01T00:00:00Z","name_a2s":"Uncletopia | New York City | 3 | Stopwatch","protocol":17,"map":"koth_highpass","folder":"tf","game":"Team Fortress","app_id":440,"player_count":0,"max_players":24,"Bots":0,"server_type":"Dedicated","server_os":"Linux","password":true,"vac":true,"version":"7961495","steam_id":85568392924742820,"keywords":["cp","nocrits","nodmgspread","uncletopia"],"game_id":440,"stv_port":27036,"stv_name":"Uncletopia | New York City | 3 | Stopwatch | STV","players":null},{"server_id":16,"name":"Uncletopia | New York City | 4 | Community","name_short":"nyc-4","host":"nyc-1.us.uncletopia.com","port":27045,"enabled":true,"region":"us-east","cc":"us","latitude":40.73061,"longitude":-73.93524,"reserved":0,"last_update":"0001-01-01T00:00:00Z","name_a2s":"Uncletopia | New York City | 4 | Community","protocol":17,"map":"workshop/pl_barnblitz_pro7.ugc582280235","folder":"tf","game":"Team Fortress","app_id":440,"player_count":24,"max_players":24,"Bots":0,"server_type":"Dedicated","server_os":"Linux","password":true,"vac":true,"version":"7961495","steam_id":85568392924742821,"keywords":["nocrits","nodmgspread","payload","uncletopia"],"game_id":440,"stv_port":27046,"stv_name":"Uncletopia | New York City | 4 | Community | STV","players":[{"user_id":86,"name":"Onion Woods 320","steam_id":76561198184981377,"connected_time":291000000000,"state":"active","ping":51},{"user_id":49,"name":"novastarphantom","steam_id":76561198045909935,"connected_time":2508000000000,"state":"active","ping":45},{"user_id":73,"name":"Red_Hatkins","steam_id":76561198214004105,"connected_time":1008000000000,"state":"active","ping":84},{"user_id":30,"name":"armaghgeddon™","steam_id":76561198018519640,"connected_time":3139000000000,"state":"active","ping":70},{"user_id":31,"name":"Winters","steam_id":76561198010673011,"connected_time":3127000000000,"state":"active","ping":48},{"user_id":81,"name":"el wiwi","steam_id":76561198857304367,"connected_time":699000000000,"state":"active","ping":62},{"user_id":33,"name":"ernesto.fortnitepro.2008","steam_id":76561198139267571,"connected_time":3063000000000,"state":"active","ping":96},{"user_id":68,"name":"RarestGuide","steam_id":76561198050338923,"connected_time":1392000000000,"state":"active","ping":63},{"user_id":74,"name":"Mighty","steam_id":76561198096569755,"connected_time":997000000000,"state":"active","ping":128},{"user_id":75,"name":"Titar Industries","steam_id":76561198143078476,"connected_time":949000000000,"state":"active","ping":69},{"user_id":87,"name":"Domswish","steam_id":76561198331444240,"connected_time":263000000000,"state":"active","ping":57},{"user_id":55,"name":"fogell gaming","steam_id":76561199096789036,"connected_time":2349000000000,"state":"active","ping":60},{"user_id":61,"name":"LukeLeal","steam_id":76561198049822995,"connected_time":2158000000000,"state":"active","ping":154},{"user_id":85,"name":"Pussy Slambasket","steam_id":76561198093694322,"connected_time":366000000000,"state":"active","ping":67},{"user_id":45,"name":"Rated_C","steam_id":76561199226478414,"connected_time":2590000000000,"state":"active","ping":91},{"user_id":79,"name":"primordialheath","steam_id":76561199386942638,"connected_time":740000000000,"state":"active","ping":73},{"user_id":71,"name":"emerge","steam_id":76561198186882891,"connected_time":1052000000000,"state":"active","ping":77},{"user_id":51,"name":"Grum","steam_id":76561198168964967,"connected_time":2482000000000,"state":"active","ping":130},{"user_id":82,"name":"Juan Pablo Gonzalez 2023","steam_id":76561199197961413,"connected_time":681000000000,"state":"active","ping":42},{"user_id":90,"name":"Knavish","steam_id":76561198073434372,"connected_time":140000000000,"state":"active","ping":113},{"user_id":69,"name":"freddy","steam_id":76561199466097513,"connected_time":1268000000000,"state":"active","ping":102},{"user_id":58,"name":"AXZIOM","steam_id":76561198255074952,"connected_time":2227000000000,"state":"active","ping":57},{"user_id":91,"name":"ink","steam_id":76561198081308147,"connected_time":112000000000,"state":"active","ping":77},{"user_id":89,"name":"Sheppy","steam_id":76561198295126940,"connected_time":224000000000,"state":"active","ping":72}]},{"server_id":142,"name":"Uncletopia | São Paulo | 1 | All Maps","name_short":"sao-1","host":"sao-1.br.uncletopia.com","port":27015,"enabled":true,"region":"sa","cc":"br","latitude":-23.533773,"longitude":-46.62529,"reserved":0,"last_update":"0001-01-01T00:00:00Z","name_a2s":"Uncletopia | São Paulo | 1 | All Maps","protocol":17,"map":"cp_snakewater_final1","folder":"tf","game":"Team Fortress","app_id":440,"player_count":0,"max_players":24,"Bots":0,"server_type":"Dedicated","server_os":"Linux","password":true,"vac":true,"version":"7961495","steam_id":85568392924469996,"keywords":["cp","nocrits","nodmgspread","uncletopia"],"game_id":440,"stv_port":27016,"stv_name":"Uncletopia | São Paulo | 1 | All Maps | STV","players":null},{"server_id":143,"name":"Uncletopia | São Paulo | 2 | Community","name_short":"sao-2","host":"sao-2.br.uncletopia.com","port":27015,"enabled":true,"region":"sa","cc":"br","latitude":-23.533773,"longitude":-46.62529,"reserved":0,"last_update":"0001-01-01T00:00:00Z","name_a2s":"Uncletopia | São Paulo | 2 | Community","protocol":17,"map":"workshop/pl_fifthcurve_rc1.ugc648227046","folder":"tf","game":"Team Fortress","app_id":440,"player_count":4,"max_players":24,"Bots":0,"server_type":"Dedicated","server_os":"Linux","password":true,"vac":true,"version":"7961495","steam_id":85568392924485349,"keywords":["nocrits","nodmgspread","payload","uncletopia"],"game_id":440,"stv_port":27016,"stv_name":"Uncletopia | São Paulo | 2 | Community | STV","players":[{"user_id":15,"name":"mg11a3","steam_id":76561198872798175,"connected_time":779000000000,"state":"active","ping":44},{"user_id":13,"name":"RHD BRAZIL [\u003c O \u003e]","steam_id":76561198028190080,"connected_time":1294000000000,"state":"active","ping":31},{"user_id":18,"name":"cezar","steam_id":76561198426484905,"connected_time":486000000000,"state":"active","ping":56},{"user_id":19,"name":"minem6956","steam_id":76561199493142413,"connected_time":281000000000,"state":"active","ping":58}]},{"server_id":7,"name":"Uncletopia | Seattle | 1 | All Maps","name_short":"sea-1","host":"sea-1.us.uncletopia.com","port":27015,"enabled":true,"region":"us-west","cc":"us","latitude":47.608013,"longitude":-122.33517,"reserved":0,"last_update":"0001-01-01T00:00:00Z","name_a2s":"Uncletopia | Seattle | 1 | All Maps","protocol":17,"map":"cp_steel","folder":"tf","game":"Team Fortress","app_id":440,"player_count":22,"max_players":24,"Bots":0,"server_type":"Dedicated","server_os":"Linux","password":true,"vac":true,"version":"7961495","steam_id":85568392924469997,"keywords":["cp","nocrits","nodmgspread","uncletopia"],"game_id":440,"stv_port":27016,"stv_name":"Uncletopia | Seattle | 1 | All Maps | STV","players":[{"user_id":269,"name":"omugai_","steam_id":76561198086481768,"connected_time":810000000000,"state":"active","ping":60},{"user_id":256,"name":"slushy :))","steam_id":76561198135281802,"connected_time":1910000000000,"state":"active","ping":30},{"user_id":272,"name":"Cleverless Biped","steam_id":76561198045984856,"connected_time":580000000000,"state":"active","ping":86},{"user_id":267,"name":"Copy","steam_id":76561198025031590,"connected_time":866000000000,"state":"active","ping":46},{"user_id":262,"name":"Dr. Medicine","steam_id":76561198165309820,"connected_time":1229000000000,"state":"active","ping":82},{"user_id":264,"name":"tr","steam_id":76561198046944222,"connected_time":973000000000,"state":"active","ping":44},{"user_id":257,"name":"penis pincher","steam_id":76561198131166135,"connected_time":1708000000000,"state":"active","ping":37},{"user_id":275,"name":"ms. anthrope","steam_id":76561198063533082,"connected_time":98000000000,"state":"active","ping":41},{"user_id":230,"name":"[TrC] Nosy","steam_id":76561197978859310,"connected_time":4258000000000,"state":"active","ping":60},{"user_id":247,"name":"lionel MESSI","steam_id":76561199495822785,"connected_time":2565000000000,"state":"active","ping":111},{"user_id":235,"name":"c a l l i e ↟ ↟","steam_id":76561198058199952,"connected_time":3788000000000,"state":"active","ping":52},{"user_id":268,"name":"seeyouauntie","steam_id":76561198045852999,"connected_time":850000000000,"state":"active","ping":100},{"user_id":274,"name":"Chilihuahua","steam_id":76561198004929152,"connected_time":437000000000,"state":"active","ping":85},{"user_id":252,"name":"TrixieHap","steam_id":76561198728548389,"connected_time":2120000000000,"state":"active","ping":53},{"user_id":251,"name":"COOL master_9","steam_id":76561198073041151,"connected_time":2177000000000,"state":"active","ping":94},{"user_id":270,"name":"Fh","steam_id":76561198000903511,"connected_time":797000000000,"state":"active","ping":60},{"user_id":261,"name":"peachy","steam_id":76561198028721790,"connected_time":1275000000000,"state":"active","ping":69},{"user_id":254,"name":"Grill Skills","steam_id":76561198053575147,"connected_time":2043000000000,"state":"active","ping":59},{"user_id":263,"name":"Xnopyt","steam_id":76561198052516404,"connected_time":1023000000000,"state":"active","ping":63},{"user_id":273,"name":"SesataPomang","steam_id":76561198145133059,"connected_time":484000000000,"state":"active","ping":96},{"user_id":233,"name":"[TrC] Dackstrus","steam_id":76561197973518509,"connected_time":3970000000000,"state":"active","ping":55}]},{"server_id":119,"name":"Uncletopia | Seattle | 2 | All Maps","name_short":"sea-2","host":"sea-1.us.uncletopia.com","port":27025,"enabled":true,"region":"us-west","cc":"us","latitude":47.608013,"longitude":-122.33517,"reserved":0,"last_update":"0001-01-01T00:00:00Z","name_a2s":"Uncletopia | Seattle | 2 | All Maps","protocol":17,"map":"cp_mountainlab","folder":"tf","game":"Team Fortress","app_id":440,"player_count":1,"max_players":24,"Bots":0,"server_type":"Dedicated","server_os":"Linux","password":true,"vac":true,"version":"7961495","steam_id":85568392924469998,"keywords":["cp","nocrits","nodmgspread","uncletopia"],"game_id":440,"stv_port":27026,"stv_name":"Uncletopia | Seattle | 2 | All Maps | STV","players":[{"user_id":29,"name":"Magic Sam","steam_id":76561198089426224,"connected_time":88000000000,"state":"active","ping":58}]},{"server_id":406,"name":"Uncletopia | Seattle | 3 | Stopwatch","name_short":"sea-3","host":"sea-1.us.uncletopia.com","port":27035,"enabled":true,"region":"us-west","cc":"us","latitude":47.608013,"longitude":-122.33517,"reserved":0,"last_update":"0001-01-01T00:00:00Z","name_a2s":"Uncletopia | Seattle | 3 | Stopwatch","protocol":17,"map":"pl_swiftwater_final1","folder":"tf","game":"Team Fortress","app_id":440,"player_count":0,"max_players":24,"Bots":0,"server_type":"Dedicated","server_os":"Linux","password":true,"vac":true,"version":"7961495","steam_id":85568392924515217,"keywords":["nocrits","nodmgspread","payload","uncletopia"],"game_id":440,"stv_port":27036,"stv_name":"Uncletopia | Seattle | 3 | Stopwatch | STV","players":null},{"server_id":17,"name":"Uncletopia | San Francisco | 1 | All Maps","name_short":"sfo-1","host":"sfo-1.us.uncletopia.com","port":27015,"enabled":true,"region":"us-west","cc":"us","latitude":37.77397,"longitude":-122.4313,"reserved":0,"last_update":"0001-01-01T00:00:00Z","name_a2s":"Uncletopia | San Francisco | 1 | All Maps","protocol":17,"map":"koth_cascade","folder":"tf","game":"Team Fortress","app_id":440,"player_count":0,"max_players":24,"Bots":0,"server_type":"Dedicated","server_os":"Linux","password":true,"vac":true,"version":"7961495","steam_id":85568392924469999,"keywords":["cp","nocrits","nodmgspread","uncletopia"],"game_id":440,"stv_port":27016,"stv_name":"Uncletopia | San Francisco | 1 | All Maps | STV","players":null},{"server_id":18,"name":"Uncletopia | San Francisco | 2 | All Maps","name_short":"sfo-2","host":"sfo-1.us.uncletopia.com","port":27025,"enabled":true,"region":"us-west","cc":"us","latitude":37.77397,"longitude":-122.4313,"reserved":0,"last_update":"0001-01-01T00:00:00Z","name_a2s":"Uncletopia | San Francisco | 2 | All Maps","protocol":17,"map":"koth_viaduct","folder":"tf","game":"Team Fortress","app_id":440,"player_count":0,"max_players":24,"Bots":0,"server_type":"Dedicated","server_os":"Linux","password":true,"vac":true,"version":"7961495","steam_id":85568392924470000,"keywords":["cp","nocrits","nodmgspread","uncletopia"],"game_id":440,"stv_port":27026,"stv_name":"Uncletopia | San Francisco | 2 | All Maps | STV","players":null},{"server_id":19,"name":"Uncletopia | San Francisco | 3 | Stopwatch","name_short":"sfo-3","host":"sfo-1.us.uncletopia.com","port":27035,"enabled":true,"region":"us-west","cc":"us","latitude":37.77397,"longitude":-122.4313,"reserved":0,"last_update":"0001-01-01T00:00:00Z","name_a2s":"Uncletopia | San Francisco | 3 | Stopwatch","protocol":17,"map":"workshop/koth_clearcut_b15.ugc2107050255","folder":"tf","game":"Team Fortress","app_id":440,"player_count":0,"max_players":24,"Bots":0,"server_type":"Dedicated","server_os":"Linux","password":true,"vac":true,"version":"7961495","steam_id":85568392924742824,"keywords":["cp","nocrits","nodmgspread","uncletopia"],"game_id":440,"stv_port":27036,"stv_name":"Uncletopia | San Francisco | 3 | Stopwatch | STV","players":null},{"server_id":20,"name":"Uncletopia | San Francisco | 4 | Community","name_short":"sfo-4","host":"sfo-1.us.uncletopia.com","port":27045,"enabled":true,"region":"us-west","cc":"us","latitude":37.77397,"longitude":-122.4313,"reserved":0,"last_update":"0001-01-01T00:00:00Z","name_a2s":"Uncletopia | San Francisco | 4 | Community","protocol":17,"map":"workshop/koth_slaughter_rc1.ugc1712845210","folder":"tf","game":"Team Fortress","app_id":440,"player_count":0,"max_players":24,"Bots":0,"server_type":"Dedicated","server_os":"Linux","password":true,"vac":true,"version":"7961495","steam_id":85568392924742826,"keywords":["cp","nocrits","nodmgspread","uncletopia"],"game_id":440,"stv_port":27046,"stv_name":"Uncletopia | San Francisco | 4 | Community | STV","players":null},{"server_id":141,"name":"Uncletopia | Sydney | 1 | All Maps","name_short":"syd-1","host":"syd-1.au.uncletopia.com","port":27015,"enabled":true,"region":"au","cc":"au","latitude":-33.865143,"longitude":151.2099,"reserved":0,"last_update":"0001-01-01T00:00:00Z","name_a2s":"Uncletopia | Sydney | 1 | All Maps","protocol":17,"map":"koth_viaduct","folder":"tf","game":"Team Fortress","app_id":440,"player_count":0,"max_players":24,"Bots":0,"server_type":"Dedicated","server_os":"Linux","password":true,"vac":true,"version":"7961495","steam_id":85568392924470001,"keywords":["cp","nocrits","nodmgspread","uncletopia"],"game_id":440,"stv_port":27016,"stv_name":"Uncletopia | Sydney | 1 | All Maps | STV","players":null},{"server_id":123,"name":"Uncletopia | Sydney | 2 | All Maps","name_short":"syd-2","host":"syd-1.au.uncletopia.com","port":27025,"enabled":true,"region":"au","cc":"au","latitude":-33.865143,"longitude":151.2099,"reserved":0,"last_update":"0001-01-01T00:00:00Z","name_a2s":"Uncletopia | Sydney | 2 | All Maps","protocol":17,"map":"koth_badlands","folder":"tf","game":"Team Fortress","app_id":440,"player_count":1,"max_players":24,"Bots":0,"server_type":"Dedicated","server_os":"Linux","password":true,"vac":true,"version":"7961495","steam_id":85568392924470002,"keywords":["cp","nocrits","nodmgspread","uncletopia"],"game_id":440,"stv_port":27026,"stv_name":"Uncletopia | Sydney | 2 | All Maps | STV","players":[{"user_id":5,"name":"HJGuard","steam_id":76561199275636067,"connected_time":862000000000,"state":"active","ping":70}]},{"server_id":395,"name":"Uncletopia | Sydney | 3 | All Maps","name_short":"syd-3","host":"syd-1.au.uncletopia.com","port":27035,"enabled":true,"region":"au","cc":"au","latitude":-33.865143,"longitude":151.2099,"reserved":0,"last_update":"0001-01-01T00:00:00Z","name_a2s":"Uncletopia | Sydney | 3 | All Maps","protocol":17,"map":"pl_frontier_final","folder":"tf","game":"Team Fortress","app_id":440,"player_count":0,"max_players":24,"Bots":0,"server_type":"Dedicated","server_os":"Linux","password":true,"vac":true,"version":"7961495","steam_id":85568392925194467,"keywords":["nocrits","nodmgspread","payload","uncletopia"],"game_id":440,"stv_port":27036,"stv_name":"Uncletopia | Sydney | 3 | All Maps | STV","players":null},{"server_id":396,"name":"Uncletopia | Sydney | 4 | All Maps","name_short":"syd-4","host":"syd-1.au.uncletopia.com","port":27045,"enabled":true,"region":"au","cc":"au","latitude":-33.865143,"longitude":151.2099,"reserved":0,"last_update":"0001-01-01T00:00:00Z","name_a2s":"Uncletopia | Sydney | 4 | All Maps","protocol":17,"map":"cp_process_final","folder":"tf","game":"Team Fortress","app_id":440,"player_count":0,"max_players":24,"Bots":0,"server_type":"Dedicated","server_os":"Linux","password":true,"vac":true,"version":"7961495","steam_id":85568392925397958,"keywords":["cp","nocrits","nodmgspread","uncletopia"],"game_id":440,"stv_port":27046,"stv_name":"Uncletopia | Sydney | 4 | All Maps | STV","players":null},{"server_id":58,"name":"Uncletopia | Sydney | 5 | Stopwatch","name_short":"syd-5","host":"syd-1.au.uncletopia.com","port":27055,"enabled":true,"region":"au","cc":"au","latitude":-33.865143,"longitude":151.2099,"reserved":0,"last_update":"0001-01-01T00:00:00Z","name_a2s":"Uncletopia | Sydney | 5 | Stopwatch","protocol":17,"map":"pl_frontier_final","folder":"tf","game":"Team Fortress","app_id":440,"player_count":0,"max_players":24,"Bots":0,"server_type":"Dedicated","server_os":"Linux","password":true,"vac":true,"version":"7961495","steam_id":85568392925397959,"keywords":["nocrits","nodmgspread","payload","uncletopia"],"game_id":440,"stv_port":27056,"stv_name":"Uncletopia | Sydney | 5 | Stopwatch | STV","players":null},{"server_id":59,"name":"Uncletopia | Sydney | 6 | Community","name_short":"syd-6","host":"syd-1.au.uncletopia.com","port":27065,"enabled":true,"region":"au","cc":"au","latitude":-33.865143,"longitude":151.2099,"reserved":0,"last_update":"0001-01-01T00:00:00Z","name_a2s":"Uncletopia | Sydney | 6 | Community","protocol":17,"map":"cp_sunshine","folder":"tf","game":"Team Fortress","app_id":440,"player_count":0,"max_players":24,"Bots":0,"server_type":"Dedicated","server_os":"Linux","password":true,"vac":true,"version":"7961495","steam_id":85568392925397960,"keywords":["cp","nocrits","nodmgspread","uncletopia"],"game_id":440,"stv_port":27066,"stv_name":"Uncletopia | Sydney | 6 | Community | STV","players":null},{"server_id":49,"name":"Uncletopia | Warsaw | 1 | All Maps","name_short":"waw-1","host":"waw-1.pl.uncletopia.com","port":27015,"enabled":true,"region":"eu","cc":"pl","latitude":52.2297,"longitude":21.017532,"reserved":0,"last_update":"0001-01-01T00:00:00Z","name_a2s":"Uncletopia | Warsaw | 1 | All Maps","protocol":17,"map":"koth_lakeside_final","folder":"tf","game":"Team Fortress","app_id":440,"player_count":0,"max_players":24,"Bots":0,"server_type":"Dedicated","server_os":"Linux","password":true,"vac":true,"version":"7961495","steam_id":85568392925397850,"keywords":["cp","nocrits","nodmgspread","uncletopia"],"game_id":440,"stv_port":27016,"stv_name":"Uncletopia | Warsaw | 1 | All Maps | STV","players":null},{"server_id":50,"name":"Uncletopia | Warsaw | 2 | All Maps","name_short":"waw-2","host":"waw-1.pl.uncletopia.com","port":27025,"enabled":true,"region":"eu","cc":"pl","latitude":52.2297,"longitude":21.017532,"reserved":0,"last_update":"0001-01-01T00:00:00Z","name_a2s":"Uncletopia | Warsaw | 2 | All Maps","protocol":17,"map":"koth_lakeside_final","folder":"tf","game":"Team Fortress","app_id":440,"player_count":0,"max_players":24,"Bots":0,"server_type":"Dedicated","server_os":"Linux","password":true,"vac":true,"version":"7961495","steam_id":85568392925397851,"keywords":["cp","nocrits","nodmgspread","uncletopia"],"game_id":440,"stv_port":27026,"stv_name":"Uncletopia | Warsaw | 2 | All Maps | STV","players":null},{"server_id":51,"name":"Uncletopia | Warsaw | 3 | All Maps","name_short":"waw-3","host":"waw-1.pl.uncletopia.com","port":27035,"enabled":true,"region":"eu","cc":"pl","latitude":52.2297,"longitude":21.017532,"reserved":0,"last_update":"0001-01-01T00:00:00Z","name_a2s":"Uncletopia | Warsaw | 3 | All Maps","protocol":17,"map":"koth_viaduct","folder":"tf","game":"Team Fortress","app_id":440,"player_count":0,"max_players":24,"Bots":0,"server_type":"Dedicated","server_os":"Linux","password":true,"vac":true,"version":"7961495","steam_id":85568392925397852,"keywords":["cp","nocrits","nodmgspread","uncletopia"],"game_id":440,"stv_port":27036,"stv_name":"Uncletopia | Warsaw | 3 | All Maps | STV","players":null},{"server_id":52,"name":"Uncletopia | Warsaw | 4 | All Maps","name_short":"waw-4","host":"waw-1.pl.uncletopia.com","port":27045,"enabled":true,"region":"eu","cc":"pl","latitude":52.2297,"longitude":21.017532,"reserved":0,"last_update":"0001-01-01T00:00:00Z","name_a2s":"Uncletopia | Warsaw | 4 | All Maps","protocol":17,"map":"koth_viaduct","folder":"tf","game":"Team Fortress","app_id":440,"player_count":0,"max_players":24,"Bots":0,"server_type":"Dedicated","server_os":"Linux","password":true,"vac":true,"version":"7961495","steam_id":85568392925397853,"keywords":["cp","nocrits","nodmgspread","uncletopia"],"game_id":440,"stv_port":27046,"stv_name":"Uncletopia | Warsaw | 4 | All Maps | STV","players":null},{"server_id":53,"name":"Uncletopia | Warsaw | 5 | Stopwatch","name_short":"waw-5","host":"waw-1.pl.uncletopia.com","port":27055,"enabled":true,"region":"eu","cc":"pl","latitude":52.2297,"longitude":21.017532,"reserved":0,"last_update":"0001-01-01T00:00:00Z","name_a2s":"Uncletopia | Warsaw | 5 | Stopwatch","protocol":17,"map":"workshop/koth_product_final.ugc454272353","folder":"tf","game":"Team Fortress","app_id":440,"player_count":0,"max_players":24,"Bots":0,"server_type":"Dedicated","server_os":"Linux","password":true,"vac":true,"version":"7961495","steam_id":85568392925397854,"keywords":["cp","nocrits","nodmgspread","uncletopia"],"game_id":440,"stv_port":27056,"stv_name":"Uncletopia | Warsaw | 5 | Stopwatch | STV","players":null},{"server_id":54,"name":"Uncletopia | Warsaw | 6 | Community","name_short":"waw-6","host":"waw-1.pl.uncletopia.com","port":27065,"enabled":true,"region":"eu","cc":"pl","latitude":52.2297,"longitude":21.017532,"reserved":0,"last_update":"0001-01-01T00:00:00Z","name_a2s":"Uncletopia | Warsaw | 6 | Community","protocol":17,"map":"workshop/koth_ashville_final.ugc2130459942","folder":"tf","game":"Team Fortress","app_id":440,"player_count":0,"max_players":24,"Bots":0,"server_type":"Dedicated","server_os":"Linux","password":true,"vac":true,"version":"7961495","steam_id":85568392925397856,"keywords":["cp","nocrits","nodmgspread","uncletopia"],"game_id":440,"stv_port":27066,"stv_name":"Uncletopia | Warsaw | 6 | Community | STV","players":null}]}