{"status":true,"message":"","result":[{"server_id":9,"name":"Uncletopia | Atlanta | 1 | All Maps","name_short":"atl-1","host":"atl-1.us.uncletopia.com","port":27015,"enabled":true,"region":"us-east","cc":"us","latitude":33.753746,"longitude":-84.38633,"reserved":0,"last_update":"0001-01-01T00:00:00Z","name_a2s":"Uncletopia | Atlanta | 1 | All Maps","protocol":17,"map":"pl_upward","folder":"tf","game":"Team Fortress","app_id":440,"player_count":10,"max_players":24,"Bots":0,"server_type":"Dedicated","server_os":"Linux","password":true,"vac":true,"version":"7757534","steam_id":85568392924469982,"keywords":["nocrits","nodmgspread","payload","uncletopia"],"game_id":440,"stv_port":27016,"stv_name":"Uncletopia | Atlanta | 1 | All Maps | STV","players":[{"user_id":35,"name":"みやげ品_ララ | Quicksell","steam_id":76561198988202968,"connected_time":393000000000,"state":"active","ping":157},{"user_id":34,"name":"Wiggee","steam_id":76561197972792989,"connected_time":683000000000,"state":"active","ping":58},{"user_id":27,"name":"Mask","steam_id":76561198877649728,"connected_time":2327000000000,"state":"active","ping":114},{"user_id":36,"name":"Boone","steam_id":76561198837687228,"connected_time":309000000000,"state":"active","ping":60},{"user_id":37,"name":"manbearswineflu","steam_id":76561198083945137,"connected_time":236000000000,"state":"active","ping":77},{"user_id":30,"name":"Bleem","steam_id":76561199013619130,"connected_time":1249000000000,"state":"active","ping":111},{"user_id":38,"name":"olmets the truew","steam_id":76561199033068184,"connected_time":230000000000,"state":"active","ping":77},{"user_id":39,"name":"_Lusty_","steam_id":76561198876948142,"connected_time":129000000000,"state":"active","ping":75},{"user_id":40,"name":"13 INCH TGIRL SCHLONG","steam_id":76561198122059018,"connected_time":87000000000,"state":"active","ping":75},{"user_id":41,"name":"tortoise","steam_id":76561198295287457,"connected_time":64000000000,"state":"active","ping":166}]},{"server_id":400,"name":"Uncletopia | Atlanta | 3 | Community","name_short":"atl-3","host":"atl-1.us.uncletopia.com","port":27035,"enabled":true,"region":"us-east","cc":"us","latitude":33.753746,"longitude":-84.38633,"reserved":0,"last_update":"0001-01-01T00:00:00Z","name_a2s":"Uncletopia | Atlanta | 3 | Community","protocol":17,"map":"workshop/koth_ashville_final.ugc2130459942","folder":"tf","game":"Team Fortress","app_id":440,"player_count":0,"max_players":24,"Bots":0,"server_type":"Dedicated","server_os":"Linux","password":true,"vac":true,"version":"7757534","steam_id":85568392924515187,"keywords":["cp","nocrits","nodmgspread","uncletopia"],"game_id":440,"stv_port":27036,"stv_name":"Uncletopia | Atlanta | 3 | Community | STV","players":null},{"server_id":401,"name":"Uncletopia | Atlanta | 4 | No Payload","name_short":"atl-4","host":"atl-1.us.uncletopia.com","port":27045,"enabled":true,"region":"us-east","cc":"us","latitude":33.753746,"longitude":-84.38633,"reserved":0,"last_update":"0001-01-01T00:00:00Z","name_a2s":"","protocol":0,"map":"","folder":"","game":"","app_id":0,"player_count":0,"max_players":0,"Bots":0,"server_type":"","server_os":"","password":false,"vac":false,"version":"","steam_id":0,"keywords":null,"game_id":0,"stv_port":0,"stv_name":"","players":null},{"server_id":2,"name":"Uncletopia | Chicago | 1 | All Maps","name_short":"chi-1","host":"chi-1.us.uncletopia.com","port":27015,"enabled":true,"region":"us-central","cc":"us","latitude":41.881832,"longitude":-87.62318,"reserved":0,"last_update":"0001-01-01T00:00:00Z","name_a2s":"Uncletopia | Chicago | 1 | All Maps","protocol":17,"map":"cp_steel","folder":"tf","game":"Team Fortress","app_id":440,"player_count":23,"max_players":24,"Bots":0,"server_type":"Dedicated","server_os":"Linux","password":true,"vac":true,"version":"7757534","steam_id":85568392924469984,"keywords":["cp","nocrits","nodmgspread","uncletopia"],"game_id":440,"stv_port":27016,"stv_name":"Uncletopia | Chicago | 1 | All Maps | STV","players":[{"user_id":3,"name":"daemon","steam_id":76561198001541433,"connected_time":11535000000000,"state":"active","ping":56},{"user_id":101,"name":"JoCaleb02","steam_id":76561198272389829,"connected_time":3602000000000,"state":"active","ping":74},{"user_id":88,"name":"dtnk","steam_id":76561199007189876,"connected_time":4800000000000,"state":"active","ping":44},{"user_id":116,"name":"Avizzo","steam_id":76561198127023219,"connected_time":2570000000000,"state":"active","ping":74},{"user_id":123,"name":"Rornir","steam_id":76561198081829615,"connected_time":1838000000000,"state":"active","ping":35},{"user_id":111,"name":"SCARY MONSTERS","steam_id":76561198042034176,"connected_time":2819000000000,"state":"active","ping":60},{"user_id":128,"name":"Doctor Dingus","steam_id":76561198063488519,"connected_time":1676000000000,"state":"active","ping":135},{"user_id":124,"name":"SKULL GOODMAN","steam_id":76561198062560907,"connected_time":1826000000000,"state":"active","ping":67},{"user_id":14,"name":"Dot.","steam_id":76561198149463984,"connected_time":11509000000000,"state":"active","ping":47},{"user_id":129,"name":"Wahooka","steam_id":76561197962240925,"connected_time":1633000000000,"state":"active","ping":60},{"user_id":139,"name":"CookieJar6502","steam_id":76561198026993667,"connected_time":805000000000,"state":"active","ping":82},{"user_id":112,"name":"Wolfe","steam_id":76561197997350470,"connected_time":2785000000000,"state":"active","ping":85},{"user_id":135,"name":"Swedish Crowbar","steam_id":76561199105488936,"connected_time":832000000000,"state":"active","ping":153},{"user_id":137,"name":"chowder908","steam_id":76561198075858535,"connected_time":808000000000,"state":"active","ping":72},{"user_id":149,"name":"Chase McCain","steam_id":76561198314538469,"connected_time":581000000000,"state":"active","ping":74},{"user_id":165,"name":"AttackCommander","steam_id":76561198111522679,"connected_time":298000000000,"state":"active","ping":82},{"user_id":131,"name":"No Telefrag Plz","steam_id":76561198113931312,"connected_time":1143000000000,"state":"active","ping":76},{"user_id":98,"name":"Glide","steam_id":76561198046011621,"connected_time":4013000000000,"state":"active","ping":54},{"user_id":96,"name":"Super","steam_id":76561199179611350,"connected_time":4406000000000,"state":"active","ping":64},{"user_id":109,"name":"One Chill Daddio","steam_id":76561198074026282,"connected_time":3098000000000,"state":"active","ping":74},{"user_id":141,"name":"awalkingwarcrime","steam_id":76561199434372948,"connected_time":780000000000,"state":"active","ping":85},{"user_id":144,"name":"CJDGuy","steam_id":76561198213009545,"connected_time":728000000000,"state":"active","ping":67},{"user_id":173,"name":"D3kuSkrub","steam_id":76561198028308369,"connected_time":125000000000,"state":"active","ping":81}]},{"server_id":106,"name":"Uncletopia | Chicago | 2 | All Maps","name_short":"chi-2","host":"chi-1.us.uncletopia.com","port":27025,"enabled":true,"region":"us-central","cc":"us","latitude":41.881832,"longitude":-87.62318,"reserved":0,"last_update":"0001-01-01T00:00:00Z","name_a2s":"Uncletopia | Chicago | 2 | All Maps","protocol":17,"map":"koth_viaduct","folder":"tf","game":"Team Fortress","app_id":440,"player_count":0,"max_players":24,"Bots":0,"server_type":"Dedicated","server_os":"Linux","password":true,"vac":true,"version":"7757534","steam_id":85568392924469985,"keywords":["cp","nocrits","nodmgspread","uncletopia"],"game_id":440,"stv_port":27026,"stv_name":"Uncletopia | Chicago | 2 | All Maps | STV","players":null},{"server_id":402,"name":"Uncletopia | Chicago | 3 | All Maps","name_short":"chi-3","host":"chi-1.us.uncletopia.com","port":27035,"enabled":true,"region":"us-central","cc":"us","latitude":41.881832,"longitude":-87.62318,"reserved":0,"last_update":"0001-01-01T00:00:00Z","name_a2s":"Uncletopia | Chicago | 3 | All Maps","protocol":17,"map":"koth_lakeside_final","folder":"tf","game":"Team Fortress","app_id":440,"player_count":0,"max_players":24,"Bots":0,"server_type":"Dedicated","server_os":"Linux","password":true,"vac":true,"version":"7757534","steam_id":85568392924515191,"keywords":["cp","nocrits","nodmgspread","uncletopia"],"game_id":440,"stv_port":27036,"stv_name":"Uncletopia | Chicago | 3 | All Maps | STV","players":null},{"server_id":403,"name":"Uncletopia | Chicago | 4 | All Maps","name_short":"chi-4","host":"chi-1.us.uncletopia.com","port":27045,"enabled":true,"region":"us-central","cc":"us","latitude":41.881832,"longitude":-87.62318,"reserved":0,"last_update":"0001-01-01T00:00:00Z","name_a2s":"Uncletopia | Chicago | 4 | All Maps","protocol":17,"map":"pl_badwater","folder":"tf","game":"Team Fortress","app_id":440,"player_count":24,"max_players":24,"Bots":0,"server_type":"Dedicated","server_os":"Linux","password":true,"vac":true,"version":"7757534","steam_id":85568392924515193,"keywords":["nocrits","nodmgspread","payload","uncletopia"],"game_id":440,"stv_port":27046,"stv_name":"Uncletopia | Chicago | 4 | All Maps | STV","players":[{"user_id":45,"name":"Agent Matti","steam_id":76561198321761754,"connected_time":753000000000,"state":"active","ping":157},{"user_id":32,"name":"Wool","steam_id":76561198332704108,"connected_time":1237000000000,"state":"active","ping":51},{"user_id":42,"name":"Timur","steam_id":76561197989552257,"connected_time":778000000000,"state":"active","ping":56},{"user_id":10,"name":"vinny6","steam_id":76561198386735728,"connected_time":2133000000000,"state":"active","ping":60},{"user_id":11,"name":"beanlord6942069420","steam_id":76561199445884540,"connected_time":2125000000000,"state":"active","ping":56},{"user_id":14,"name":"DSM-IVCE","steam_id":76561199438515797,"connected_time":1996000000000,"state":"active","ping":136},{"user_id":13,"name":"Mr.Mrausky","steam_id":76561199120622265,"connected_time":2054000000000,"state":"active","ping":81},{"user_id":15,"name":"kametro4","steam_id":76561198835430429,"connected_time":1924000000000,"state":"active","ping":90},{"user_id":16,"name":"bojack from the show bojack hor","steam_id":76561198053006712,"connected_time":1884000000000,"state":"active","ping":59},{"user_id":41,"name":"Vibey","steam_id":76561198342873474,"connected_time":804000000000,"state":"active","ping":79},{"user_id":22,"name":"Manly Emerald","steam_id":76561198245838476,"connected_time":1484000000000,"state":"active","ping":55},{"user_id":31,"name":"Bees make honey","steam_id":76561198086107548,"connected_time":1242000000000,"state":"active","ping":64},{"user_id":40,"name":"Joshy","steam_id":76561198065488506,"connected_time":1019000000000,"state":"active","ping":73},{"user_id":26,"name":"Kartyac","steam_id":76561197991069005,"connected_time":1381000000000,"state":"active","ping":76},{"user_id":44,"name":"El Bondin","steam_id":76561198820792434,"connected_time":765000000000,"state":"active","ping":100},{"user_id":28,"name":"DawnNannas","steam_id":76561198042915117,"connected_time":1295000000000,"state":"active","ping":101},{"user_id":29,"name":"dzcreeper","steam_id":76561198072250723,"connected_time":1277000000000,"state":"active","ping":75},{"user_id":50,"name":"Jon Snuh","steam_id":76561198075298635,"connected_time":102000000000,"state":"active","ping":70},{"user_id":43,"name":"super","steam_id":76561198800358844,"connected_time":772000000000,"state":"active","ping":84},{"user_id":49,"name":"relay","steam_id":76561198314662811,"connected_time":133000000000,"state":"active","ping":102},{"user_id":36,"name":"Krampus Kraut","steam_id":76561198018912093,"connected_time":1159000000000,"state":"active","ping":160},{"user_id":37,"name":"BetoelAff es","steam_id":76561198377842585,"connected_time":1118000000000,"state":"active","ping":119},{"user_id":38,"name":"Lord Scrubling","steam_id":76561198263744445,"connected_time":1111000000000,"state":"active","ping":75},{"user_id":47,"name":"Huntpk","steam_id":76561198340591674,"connected_time":694000000000,"state":"active","ping":40}]},{"server_id":36,"name":"Uncletopia | Chicago | 5 | All Maps","name_short":"chi-5","host":"chi-2.us.uncletopia.com","port":27015,"enabled":true,"region":"us-central","cc":"us","latitude":41.881832,"longitude":-87.62318,"reserved":0,"last_update":"0001-01-01T00:00:00Z","name_a2s":"Uncletopia | Chicago | 5 | All Maps","protocol":17,"map":"pl_swiftwater_final1","folder":"tf","game":"Team Fortress","app_id":440,"player_count":24,"max_players":24,"Bots":0,"server_type":"Dedicated","server_os":"Linux","password":true,"vac":true,"version":"7757534","steam_id":85568392924866362,"keywords":["nocrits","nodmgspread","payload","uncletopia"],"game_id":440,"stv_port":27016,"stv_name":"Uncletopia | Chicago | 5 | All Maps | STV","players":[{"user_id":144,"name":"Nic0","steam_id":76561198305690218,"connected_time":2171000000000,"state":"active","ping":66},{"user_id":105,"name":"Jay F","steam_id":76561198046082188,"connected_time":5513000000000,"state":"active","ping":57},{"user_id":168,"name":"moon","steam_id":76561198111147624,"connected_time":515000000000,"state":"active","ping":94},{"user_id":122,"name":"psychic","steam_id":76561198136301926,"connected_time":4236000000000,"state":"active","ping":90},{"user_id":161,"name":"ThreatLvl9","steam_id":76561198079410533,"connected_time":1088000000000,"state":"active","ping":80},{"user_id":91,"name":"Acro Banwagon","steam_id":76561198092451804,"connected_time":6749000000000,"state":"active","ping":69},{"user_id":167,"name":"George","steam_id":76561198020046873,"connected_time":549000000000,"state":"active","ping":55},{"user_id":169,"name":"Ġ1 ♦ Synth","steam_id":76561198058660228,"connected_time":320000000000,"state":"active","ping":56},{"user_id":104,"name":"Boop Oop A Doop","steam_id":76561198036370174,"connected_time":5642000000000,"state":"active","ping":106},{"user_id":134,"name":"Reg the Paintbrush","steam_id":76561198063970639,"connected_time":3126000000000,"state":"active","ping":74},{"user_id":163,"name":"Literally a Trans Woman","steam_id":76561198054639925,"connected_time":1076000000000,"state":"active","ping":62},{"user_id":73,"name":"HollowMan","steam_id":76561198967266827,"connected_time":7439000000000,"state":"active","ping":88},{"user_id":158,"name":"Backside540","steam_id":76561197960602545,"connected_time":1458000000000,"state":"active","ping":89},{"user_id":132,"name":"nrsn","steam_id":76561197970532423,"connected_time":3270000000000,"state":"active","ping":83},{"user_id":118,"name":"DeathByGinger","steam_id":76561198145825228,"connected_time":4770000000000,"state":"active","ping":61},{"user_id":127,"name":"Ghost","steam_id":76561198110914180,"connected_time":3486000000000,"state":"active","ping":177},{"user_id":152,"name":"IPlayGamez","steam_id":76561198041387508,"connected_time":1943000000000,"state":"active","ping":64},{"user_id":157,"name":"shadow6","steam_id":76561197979807910,"connected_time":1562000000000,"state":"active","ping":81},{"user_id":116,"name":"drippy man","steam_id":76561199074936388,"connected_time":4976000000000,"state":"active","ping":84},{"user_id":141,"name":"Lunchboxx","steam_id":76561198079735916,"connected_time":2333000000000,"state":"active","ping":60},{"user_id":166,"name":"Pancreas Enjoyer","steam_id":76561199438598904,"connected_time":665000000000,"state":"active","ping":102},{"user_id":155,"name":"soldier got tf2 logos!!","steam_id":76561198328675913,"connected_time":1891000000000,"state":"active","ping":135},{"user_id":170,"name":"Kugen","steam_id":76561198067686692,"connected_time":250000000000,"state":"active","ping":90},{"user_id":98,"name":"Takumi Fujiwara","steam_id":76561198146281101,"connected_time":6089000000000,"state":"active","ping":75}]},{"server_id":37,"name":"Uncletopia | Chicago | 6 | All Maps","name_short":"chi-6","host":"chi-2.us.uncletopia.com","port":27025,"enabled":true,"region":"us-central","cc":"us","latitude":41.881832,"longitude":-87.62318,"reserved":0,"last_update":"0001-01-01T00:00:00Z","name_a2s":"Uncletopia | Chicago | 6 | All Maps","protocol":17,"map":"koth_cascade","folder":"tf","game":"Team Fortress","app_id":440,"player_count":0,"max_players":24,"Bots":0,"server_type":"Dedicated","server_os":"Linux","password":true,"vac":true,"version":"7757534","steam_id":85568392924866363,"keywords":["cp","nocrits","nodmgspread","uncletopia"],"game_id":440,"stv_port":27026,"stv_name":"Uncletopia | Chicago | 6 | All Maps | STV","players":null},{"server_id":38,"name":"Uncletopia | Chicago | 7 | Stopwatch Beta","name_short":"chi-7","host":"chi-2.us.uncletopia.com","port":27035,"enabled":true,"region":"us-central","cc":"us","latitude":41.881832,"longitude":-87.62318,"reserved":0,"last_update":"0001-01-01T00:00:00Z","name_a2s":"Uncletopia | Chicago | 7 | Stopwatch Beta","protocol":17,"map":"pl_upward","folder":"tf","game":"Team Fortress","app_id":440,"player_count":0,"max_players":24,"Bots":0,"server_type":"Dedicated","server_os":"Linux","password":true,"vac":true,"version":"7757534","steam_id":85568392924866364,"keywords":["nocrits","nodmgspread","payload","uncletopia"],"game_id":440,"stv_port":27036,"stv_name":"Uncletopia | Chicago | 7 | Stopwatch Beta | STV","players":null},{"server_id":39,"name":"Uncletopia | Chicago | 8 | Community","name_short":"chi-8","host":"chi-2.us.uncletopia.com","port":27045,"enabled":true,"region":"us-central","cc":"us","latitude":41.881832,"longitude":-87.62318,"reserved":0,"last_update":"0001-01-01T00:00:00Z","name_a2s":"Uncletopia | Chicago | 8 | Community","protocol":17,"map":"pl_barnblitz","folder":"tf","game":"Team Fortress","app_id":440,"player_count":0,"max_players":24,"Bots":0,"server_type":"Dedicated","server_os":"Linux","password":true,"vac":true,"version":"7757534","steam_id":85568392924866365,"keywords":["nocrits","nodmgspread","payload","uncletopia"],"game_id":440,"stv_port":27046,"stv_name":"Uncletopia | Chicago | 8 | Community | STV","players":null},{"server_id":8,"name":"Uncletopia | Dallas | 1 | All Maps","name_short":"dal-1","host":"dal-1.us.uncletopia.com","port":27015,"enabled":true,"region":"us-central","cc":"us","latitude":32.779167,"longitude":-96.80889,"reserved":0,"last_update":"0001-01-01T00:00:00Z","name_a2s":"Uncletopia | Dallas | 1 | All Maps","protocol":17,"map":"koth_cascade","folder":"tf","game":"Team Fortress","app_id":440,"player_count":0,"max_players":24,"Bots":0,"server_type":"Dedicated","server_os":"Linux","password":true,"vac":true,"version":"7757534","steam_id":85568392924469986,"keywords":["cp","nocrits","nodmgspread","uncletopia"],"game_id":440,"stv_port":27016,"stv_name":"Uncletopia | Dallas | 1 | All Maps | STV","players":null},{"server_id":108,"name":"Uncletopia | Dallas | 2 | All Maps","name_short":"dal-2","host":"dal-1.us.uncletopia.com","port":27025,"enabled":true,"region":"us-central","cc":"us","latitude":32.779167,"longitude":-96.80889,"reserved":0,"last_update":"0001-01-01T00:00:00Z","name_a2s":"Uncletopia | Dallas | 2 | All Maps","protocol":17,"map":"cp_altitude","folder":"tf","game":"Team Fortress","app_id":440,"player_count":0,"max_players":24,"Bots":0,"server_type":"Dedicated","server_os":"Linux","password":true,"vac":true,"version":"7757534","steam_id":85568392924469988,"keywords":["cp","nocrits","nodmgspread","uncletopia"],"game_id":440,"stv_port":27026,"stv_name":"Uncletopia | Dallas | 2 | All Maps | STV","players":null},{"server_id":5,"name":"Uncletopia | Frankfurt | 1 | All Maps","name_short":"frk-1","host":"frk-1.de.uncletopia.com","port":27015,"enabled":true,"region":"eu","cc":"de","latitude":50.110924,"longitude":8.682127,"reserved":0,"last_update":"0001-01-01T00:00:00Z","name_a2s":"Uncletopia | Frankfurt | 1 | All Maps","protocol":17,"map":"pl_borneo","folder":"tf","game":"Team Fortress","app_id":440,"player_count":22,"max_players":24,"Bots":0,"server_type":"Dedicated","server_os":"Linux","password":true,"vac":true,"version":"7757534","steam_id":85568392924469989,"keywords":["nocrits","nodmgspread","payload","uncletopia"],"game_id":440,"stv_port":27016,"stv_name":"Uncletopia | Frankfurt | 1 | All Maps | STV","players":[{"user_id":93,"name":"WAP assassin","steam_id":76561198133532980,"connected_time":297000000000,"state":"active","ping":60},{"user_id":84,"name":"TheEventGuy","steam_id":76561197972797744,"connected_time":1507000000000,"state":"active","ping":60},{"user_id":89,"name":"Taskyy","steam_id":76561198134901175,"connected_time":676000000000,"state":"active","ping":78},{"user_id":13,"name":"Aspartus","steam_id":76561198101385763,"connected_time":5364000000000,"state":"active","ping":42},{"user_id":62,"name":"Churaq Cyril","steam_id":76561198125381319,"connected_time":3041000000000,"state":"active","ping":79},{"user_id":79,"name":"playing while wearing crocs.","steam_id":76561198139404261,"connected_time":1982000000000,"state":"active","ping":61},{"user_id":48,"name":"LOBZIK","steam_id":76561198114830120,"connected_time":4157000000000,"state":"active","ping":75},{"user_id":85,"name":"Antonio Gilipollas Caraculo","steam_id":76561198412197820,"connected_time":1466000000000,"state":"active","ping":90},{"user_id":18,"name":"Kestrel","steam_id":76561198144033005,"connected_time":5320000000000,"state":"active","ping":67},{"user_id":96,"name":"ricky pee pee","steam_id":76561198152620745,"connected_time":33000000000,"state":"spawning","ping":58},{"user_id":94,"name":"..","steam_id":76561198380752444,"connected_time":47000000000,"state":"active","ping":69},{"user_id":91,"name":"CaparezzaMunnezza","steam_id":76561198262231733,"connected_time":530000000000,"state":"active","ping":61},{"user_id":90,"name":"Edla","steam_id":76561198062815315,"connected_time":672000000000,"state":"active","ping":97},{"user_id":60,"name":"Piox","steam_id":76561198125689157,"connected_time":3171000000000,"state":"active","ping":68},{"user_id":86,"name":"AwterSix","steam_id":76561198042561678,"connected_time":1235000000000,"state":"active","ping":54},{"user_id":92,"name":"Optimist 50","steam_id":76561198039631442,"connected_time":519000000000,"state":"active","ping":72},{"user_id":76,"name":"Huscper","steam_id":76561198106229481,"connected_time":2406000000000,"state":"active","ping":78},{"user_id":88,"name":"VZS","steam_id":76561198133050665,"connected_time":951000000000,"state":"active","ping":60},{"user_id":34,"name":"yush","steam_id":76561198121688934,"connected_time":5095000000000,"state":"active","ping":73},{"user_id":54,"name":"Doriian","steam_id":76561198071438810,"connected_time":3452000000000,"state":"active","ping":76},{"user_id":80,"name":"Carrot","steam_id":76561198119340863,"connected_time":1968000000000,"state":"active","ping":62},{"user_id":95,"name":"101 000 tuns of democracy","steam_id":76561198218257120,"connected_time":36000000000,"state":"active","ping":66}]},{"server_id":110,"name":"Uncletopia | Frankfurt | 2 | All Maps","name_short":"frk-2","host":"frk-1.de.uncletopia.com","port":27025,"enabled":true,"region":"eu","cc":"de","latitude":50.110924,"longitude":8.682127,"reserved":0,"last_update":"0001-01-01T00:00:00Z","name_a2s":"Uncletopia | Frankfurt | 2 | All Maps","protocol":17,"map":"pl_barnblitz","folder":"tf","game":"Team Fortress","app_id":440,"player_count":0,"max_players":24,"Bots":0,"server_type":"Dedicated","server_os":"Linux","password":true,"vac":true,"version":"7757534","steam_id":85568392924469990,"keywords":["nocrits","nodmgspread","payload","uncletopia"],"game_id":440,"stv_port":27026,"stv_name":"Uncletopia | Frankfurt | 2 | All Maps | STV","players":null},{"server_id":308,"name":"Uncletopia | Frankfurt | 3 | All Maps","name_short":"frk-3","host":"frk-1.de.uncletopia.com","port":27035,"enabled":true,"region":"eu","cc":"de","latitude":50.110924,"longitude":8.682127,"reserved":0,"last_update":"0001-01-01T00:00:00Z","name_a2s":"Uncletopia | Frankfurt | 3 | All Maps","protocol":17,"map":"pl_barnblitz","folder":"tf","game":"Team Fortress","app_id":440,"player_count":24,"max_players":24,"Bots":0,"server_type":"Dedicated","server_os":"Linux","password":true,"vac":true,"version":"7757534","steam_id":85568392924504274,"keywords":["nocrits","nodmgspread","payload","uncletopia"],"game_id":440,"stv_port":27036,"stv_name":"Uncletopia | Frankfurt | 3 | All Maps | STV","players":[{"user_id":125,"name":"Greenmaker","steam_id":76561198060466591,"connected_time":1337000000000,"state":"active","ping":82},{"user_id":142,"name":"snake","steam_id":76561198097712283,"connected_time":22000000000,"state":"active","ping":91},{"user_id":77,"name":"PWizard","steam_id":76561198026458489,"connected_time":5065000000000,"state":"active","ping":68},{"user_id":136,"name":"ඞbominasus 2137  #SaveTF2","steam_id":76561198030062981,"connected_time":375000000000,"state":"active","ping":69},{"user_id":141,"name":"SCRAMMMBLED","steam_id":76561197998307746,"connected_time":77000000000,"state":"active","ping":67},{"user_id":138,"name":"Sparky","steam_id":76561198036754195,"connected_time":243000000000,"state":"active","ping":45},{"user_id":140,"name":"10 hours on pyro","steam_id":76561199388826335,"connected_time":145000000000,"state":"active","ping":154},{"user_id":135,"name":"Salty","steam_id":76561198271527694,"connected_time":406000000000,"state":"active","ping":60},{"user_id":120,"name":"majora's boostio","steam_id":76561198392628642,"connected_time":2418000000000,"state":"active","ping":61},{"user_id":90,"name":"Pumpkin jucio","steam_id":76561199064334950,"connected_time":3828000000000,"state":"active","ping":79},{"user_id":28,"name":"DeCypher","steam_id":76561198171992619,"connected_time":8456000000000,"state":"active","ping":81},{"user_id":124,"name":"Vanta_BlackLD","steam_id":76561198346271576,"connected_time":1472000000000,"state":"active","ping":62},{"user_id":114,"name":"Kolanciasty ♥","steam_id":76561198020042179,"connected_time":2452000000000,"state":"active","ping":84},{"user_id":117,"name":"Dithmarschen","steam_id":76561198068917140,"connected_time":2430000000000,"state":"active","ping":96},{"user_id":134,"name":"pinkerton","steam_id":76561198083103830,"connected_time":607000000000,"state":"active","ping":91},{"user_id":115,"name":"Ghost11","steam_id":76561198068892992,"connected_time":2449000000000,"state":"active","ping":106},{"user_id":137,"name":"SuperBob103","steam_id":76561199175360012,"connected_time":248000000000,"state":"active","ping":74},{"user_id":118,"name":"SantiThePug #ReviveTheCaber","steam_id":76561199049615996,"connected_time":2430000000000,"state":"active","ping":79},{"user_id":98,"name":"HOLY FUCK","steam_id":76561198845745328,"connected_time":3586000000000,"state":"active","ping":68},{"user_id":132,"name":"aura","steam_id":76561197991687793,"connected_time":735000000000,"state":"active","ping":71},{"user_id":65,"name":"dotdotdot","steam_id":76561198057628751,"connected_time":6160000000000,"state":"active","ping":59},{"user_id":101,"name":"dairy","steam_id":76561198117033273,"connected_time":3464000000000,"state":"active","ping":73},{"user_id":127,"name":"Kati","steam_id":76561198007231088,"connected_time":1284000000000,"state":"active","ping":64},{"user_id":130,"name":"ᶦˢʳᵃᵉˡ","steam_id":76561198051832269,"connected_time":820000000000,"state":"active","ping":69}]},{"server_id":309,"name":"Uncletopia | Frankfurt | 4 | All Maps","name_short":"frk-4","host":"frk-1.de.uncletopia.com","port":27045,"enabled":true,"region":"eu","cc":"de","latitude":50.110924,"longitude":8.682127,"reserved":0,"last_update":"0001-01-01T00:00:00Z","name_a2s":"Uncletopia | Frankfurt | 4 | All Maps","protocol":17,"map":"cp_snakewater_final1","folder":"tf","game":"Team Fortress","app_id":440,"player_count":0,"max_players":24,"Bots":0,"server_type":"Dedicated","server_os":"Linux","password":true,"vac":true,"version":"7757534","steam_id":85568392924504275,"keywords":["cp","nocrits","nodmgspread","uncletopia"],"game_id":440,"stv_port":27046,"stv_name":"Uncletopia | Frankfurt | 4 | All Maps | STV","players":null},{"server_id":310,"name":"Uncletopia | Frankfurt | 5 | All Maps","name_short":"frk-5","host":"frk-1.de.uncletopia.com","port":27055,"enabled":true,"region":"eu","cc":"de","latitude":50.110924,"longitude":8.682127,"reserved":0,"last_update":"0001-01-01T00:00:00Z","name_a2s":"Uncletopia | Frankfurt | 5 | All Maps","protocol":17,"map":"pl_badwater","folder":"tf","game":"Team Fortress","app_id":440,"player_count":24,"max_players":24,"Bots":0,"server_type":"Dedicated","server_os":"Linux","password":true,"vac":true,"version":"7757534","steam_id":85568392924504277,"keywords":["nocrits","nodmgspread","payload","uncletopia"],"game_id":440,"stv_port":27056,"stv_name":"Uncletopia | Frankfurt | 5 | All Maps | STV","players":[{"user_id":229,"name":"Mandrake","steam_id":76561197970852048,"connected_time":1291000000000,"state":"active","ping":60},{"user_id":193,"name":"Balls","steam_id":76561198086400484,"connected_time":3749000000000,"state":"active","ping":91},{"user_id":228,"name":"Pyrolander","steam_id":76561198050785450,"connected_time":1357000000000,"state":"active","ping":49},{"user_id":232,"name":"Cumbustible Punda #SaveTF2","steam_id":76561197974274677,"connected_time":825000000000,"state":"active","ping":49},{"user_id":247,"name":"M.L.JEW","steam_id":76561198997375055,"connected_time":199000000000,"state":"active","ping":179},{"user_id":205,"name":"Techm32","steam_id":76561198317134994,"connected_time":2514000000000,"state":"active","ping":59},{"user_id":240,"name":"gwynon","steam_id":76561198032595090,"connected_time":494000000000,"state":"active","ping":75},{"user_id":241,"name":"skibidi bop yes yes yes","steam_id":76561198306177608,"connected_time":463000000000,"state":"active","ping":66},{"user_id":246,"name":"Tlad2","steam_id":76561198854897667,"connected_time":214000000000,"state":"active","ping":75},{"user_id":217,"name":"Mr.Schnittlauch","steam_id":76561198295868113,"connected_time":1742000000000,"state":"active","ping":59},{"user_id":213,"name":"Vectillion","steam_id":76561198074292454,"connected_time":2187000000000,"state":"active","ping":72},{"user_id":234,"name":"R3inis","steam_id":76561199030393569,"connected_time":819000000000,"state":"active","ping":80},{"user_id":220,"name":"Jyoukero","steam_id":76561199214266029,"connected_time":1646000000000,"state":"active","ping":98},{"user_id":198,"name":"jill valentine","steam_id":76561198075068529,"connected_time":3332000000000,"state":"active","ping":64},{"user_id":211,"name":"mt","steam_id":76561197961319303,"connected_time":2239000000000,"state":"active","ping":52},{"user_id":248,"name":"[Z7]DrNo","steam_id":76561197969376290,"connected_time":197000000000,"state":"active","ping":72},{"user_id":251,"name":"panakid","steam_id":76561198364121077,"connected_time":58000000000,"state":"active","ping":105},{"user_id":239,"name":"choop","steam_id":76561197963552834,"connected_time":591000000000,"state":"active","ping":92},{"user_id":201,"name":"Snortman","steam_id":76561199012566222,"connected_time":3260000000000,"state":"active","ping":57},{"user_id":249,"name":"XavierSweet","steam_id":76561198091781913,"connected_time":179000000000,"state":"active","ping":77},{"user_id":226,"name":"Dummy","steam_id":76561198349741126,"connected_time":1596000000000,"state":"active","ping":61},{"user_id":243,"name":"JamesPepega","steam_id":76561198019156154,"connected_time":434000000000,"state":"active","ping":70},{"user_id":165,"name":"raime","steam_id":76561198024903775,"connected_time":6562000000000,"state":"active","ping":91},{"user_id":225,"name":"Er Pomata","steam_id":76561198133085347,"connected_time":1605000000000,"state":"active","ping":60}]},{"server_id":311,"name":"Uncletopia | Frankfurt | 6 | All Maps","name_short":"frk-6","host":"frk-1.de.uncletopia.com","port":27065,"enabled":true,"region":"eu","cc":"de","latitude":50.110924,"longitude":8.682127,"reserved":0,"last_update":"0001-01-01T00:00:00Z","name_a2s":"Uncletopia | Frankfurt | 6 | All Maps","protocol":17,"map":"pl_borneo","folder":"tf","game":"Team Fortress","app_id":440,"player_count":1,"max_players":24,"Bots":0,"server_type":"Dedicated","server_os":"Linux","password":true,"vac":true,"version":"7757534","steam_id":85568392924504278,"keywords":["nocrits","nodmgspread","payload","uncletopia"],"game_id":440,"stv_port":27066,"stv_name":"Uncletopia | Frankfurt | 6 | All Maps | STV","players":[{"user_id":21,"name":"icebro","steam_id":76561199123450840,"connected_time":620000000000,"state":"active","ping":62}]},{"server_id":23,"name":"Uncletopia | Frankfurt | 7 | Stopwatch Beta","name_short":"frk-7","host":"frk-1.de.uncletopia.com","port":27075,"enabled":true,"region":"eu","cc":"de","latitude":50.110924,"longitude":8.682127,"reserved":0,"last_update":"0001-01-01T00:00:00Z","name_a2s":"Uncletopia | Frankfurt | 7 | Stopwatch Beta","protocol":17,"map":"pl_frontier_final","folder":"tf","game":"Team Fortress","app_id":440,"player_count":0,"max_players":24,"Bots":0,"server_type":"Dedicated","server_os":"Linux","password":true,"vac":true,"version":"7757534","steam_id":85568392924742827,"keywords":["nocrits","nodmgspread","payload","uncletopia"],"game_id":440,"stv_port":27076,"stv_name":"Uncletopia | Frankfurt | 7 | Stopwatch Beta | STV","players":null},{"server_id":24,"name":"Uncletopia | Frankfurt | 8 | Community","name_short":"frk-8","host":"frk-1.de.uncletopia.com","port":27085,"enabled":true,"region":"eu","cc":"de","latitude":50.110924,"longitude":8.682127,"reserved":0,"last_update":"0001-01-01T00:00:00Z","name_a2s":"Uncletopia | Frankfurt | 8 | Community","protocol":17,"map":"workshop/koth_product_final.ugc454272353","folder":"tf","game":"Team Fortress","app_id":440,"player_count":0,"max_players":24,"Bots":0,"server_type":"Dedicated","server_os":"Linux","password":true,"vac":true,"version":"7757534","steam_id":85568392924742828,"keywords":["cp","nocrits","nodmgspread","uncletopia"],"game_id":440,"stv_port":27086,"stv_name":"Uncletopia | Frankfurt | 8 | Community | STV","players":null},{"server_id":202,"name":"Uncletopia | Hong Kong | 1 | All Maps","name_short":"hgk-1","host":"hgk-1.hk.uncletopia.com","port":27015,"enabled":true,"region":"asia","cc":"hk","latitude":22.302711,"longitude":114.177216,"reserved":0,"last_update":"0001-01-01T00:00:00Z","name_a2s":"Uncletopia | Hong Kong | 1 | All Maps","protocol":17,"map":"cp_steel","folder":"tf","game":"Team Fortress","app_id":440,"player_count":24,"max_players":24,"Bots":0,"server_type":"Dedicated","server_os":"Linux","password":true,"vac":true,"version":"7757534","steam_id":85568392924494504,"keywords":["cp","nocrits","nodmgspread","uncletopia"],"game_id":440,"stv_port":27016,"stv_name":"Uncletopia | Hong Kong | 1 | All Maps | STV","players":[{"user_id":795,"name":"why must you treat me this way","steam_id":76561199146847474,"connected_time":527000000000,"state":"active","ping":57},{"user_id":783,"name":"Pillboi","steam_id":76561198011172886,"connected_time":1899000000000,"state":"active","ping":38},{"user_id":753,"name":"AmaiToxic","steam_id":76561199122491157,"connected_time":3203000000000,"state":"active","ping":118},{"user_id":780,"name":". ᴗ.","steam_id":76561198208632261,"connected_time":2073000000000,"state":"active","ping":44},{"user_id":557,"name":"silverhouse7","steam_id":76561198349634906,"connected_time":8008000000000,"state":"active","ping":60},{"user_id":776,"name":"p1st0n","steam_id":76561198992723983,"connected_time":2247000000000,"state":"active","ping":98},{"user_id":788,"name":"domjni","steam_id":76561198287931508,"connected_time":1578000000000,"state":"active","ping":77},{"user_id":779,"name":"screaming sniper","steam_id":76561199085568674,"connected_time":2100000000000,"state":"active","ping":78},{"user_id":741,"name":"Buttman","steam_id":76561198044693388,"connected_time":3885000000000,"state":"active","ping":48},{"user_id":772,"name":"moguizhong","steam_id":76561198152588681,"connected_time":2389000000000,"state":"active","ping":80},{"user_id":724,"name":"Pisces","steam_id":76561198429887240,"connected_time":4526000000000,"state":"active","ping":72},{"user_id":785,"name":"твоя капитуляция","steam_id":76561198883349993,"connected_time":1681000000000,"state":"active","ping":142},{"user_id":745,"name":"Violezine The Luckiest Archer","steam_id":76561199000502615,"connected_time":3664000000000,"state":"active","ping":89},{"user_id":796,"name":"Nerdy Virgin","steam_id":76561198039478798,"connected_time":456000000000,"state":"active","ping":86},{"user_id":797,"name":"Marika","steam_id":76561198212649929,"connected_time":71000000000,"state":"active","ping":69},{"user_id":740,"name":"R=pp9Y?k^09i+7.+a^HR","steam_id":76561198413116920,"connected_time":3895000000000,"state":"active","ping":105},{"user_id":649,"name":"母の肉団子@hao123.com","steam_id":76561198069561896,"connected_time":6155000000000,"state":"active","ping":40},{"user_id":755,"name":"chainsemen","steam_id":76561198442507642,"connected_time":3167000000000,"state":"active","ping":94},{"user_id":789,"name":"dake","steam_id":76561198294958967,"connected_time":1343000000000,"state":"active","ping":89},{"user_id":791,"name":"big fat dog","steam_id":76561198130197694,"connected_time":1167000000000,"state":"active","ping":95},{"user_id":601,"name":"ironhelmet8","steam_id":76561198354900426,"connected_time":7257000000000,"state":"active","ping":77},{"user_id":790,"name":"Corey","steam_id":76561198055202938,"connected_time":1342000000000,"state":"active","ping":103},{"user_id":613,"name":"Jumanji™","steam_id":76561198431664383,"connected_time":6588000000000,"state":"active","ping":60},{"user_id":719,"name":"titoru","steam_id":76561199106456445,"connected_time":4690000000000,"state":"active","ping":83}]},{"server_id":1,"name":"Uncletopia | Los Angeles | 1 | All Maps","name_short":"lax-1","host":"lax-1.us.uncletopia.com","port":27015,"enabled":true,"region":"us-west","cc":"us","latitude":33.94279,"longitude":-118.41004,"reserved":0,"last_update":"0001-01-01T00:00:00Z","name_a2s":"Uncletopia | Los Angeles | 1 | All Maps","protocol":17,"map":"pl_borneo","folder":"tf","game":"Team Fortress","app_id":440,"player_count":0,"max_players":24,"Bots":0,"server_type":"Dedicated","server_os":"Linux","password":true,"vac":true,"version":"7757534","steam_id":85568392924469991,"keywords":["nocrits","nodmgspread","payload","uncletopia"],"game_id":440,"stv_port":27016,"stv_name":"Uncletopia | Los Angeles | 1 | All Maps | STV","players":null},{"server_id":112,"name":"Uncletopia | Los Angeles | 2 | All Maps","name_short":"lax-2","host":"lax-1.us.uncletopia.com","port":27025,"enabled":true,"region":"us-west","cc":"us","latitude":33.94279,"longitude":-118.41004,"reserved":0,"last_update":"0001-01-01T00:00:00Z","name_a2s":"Uncletopia | Los Angeles | 2 | All Maps","protocol":17,"map":"koth_cascade","folder":"tf","game":"Team Fortress","app_id":440,"player_count":0,"max_players":24,"Bots":0,"server_type":"Dedicated","server_os":"Linux","password":true,"vac":true,"version":"7757534","steam_id":85568392924469992,"keywords":["cp","nocrits","nodmgspread","uncletopia"],"game_id":440,"stv_port":27026,"stv_name":"Uncletopia | Los Angeles | 2 | All Maps | STV","players":null},{"server_id":324,"name":"Uncletopia | Los Angeles | 3 | All Maps","name_short":"lax-3","host":"lax-1.us.uncletopia.com","port":27035,"enabled":true,"region":"us-west","cc":"us","latitude":33.94279,"longitude":-118.41004,"reserved":0,"last_update":"0001-01-01T00:00:00Z","name_a2s":"Uncletopia | Los Angeles | 3 | All Maps","protocol":17,"map":"pl_pier","folder":"tf","game":"Team Fortress","app_id":440,"player_count":0,"max_players":24,"Bots":0,"server_type":"Dedicated","server_os":"Linux","password":true,"vac":true,"version":"7757534","steam_id":85568392924510198,"keywords":["nocrits","nodmgspread","payload","uncletopia"],"game_id":440,"stv_port":27036,"stv_name":"Uncletopia | Los Angeles | 3 | All Maps | STV","players":null},{"server_id":25,"name":"Uncletopia | Los Angeles | 4 | Stopwatch Beta","name_short":"lax-4","host":"lax-1.us.uncletopia.com","port":27045,"enabled":true,"region":"us-west","cc":"us","latitude":33.94279,"longitude":-118.41004,"reserved":0,"last_update":"0001-01-01T00:00:00Z","name_a2s":"Uncletopia | Los Angeles | 4 | Stopwatch Beta","protocol":17,"map":"pl_frontier_final","folder":"tf","game":"Team Fortress","app_id":440,"player_count":0,"max_players":24,"Bots":0,"server_type":"Dedicated","server_os":"Linux","password":true,"vac":true,"version":"7757534","steam_id":85568392924510199,"keywords":["nocrits","nodmgspread","payload","uncletopia"],"game_id":440,"stv_port":27046,"stv_name":"Uncletopia | Los Angeles | 4 | Stopwatch Beta | STV","players":null},{"server_id":11,"name":"Uncletopia | London | 1 | All Maps","name_short":"lon-1","host":"lon-1.uk.uncletopia.com","port":27015,"enabled":true,"region":"eu","cc":"gb","latitude":51.509865,"longitude":-0.118092,"reserved":0,"last_update":"0001-01-01T00:00:00Z","name_a2s":"Uncletopia | London | 1 | All Maps","protocol":17,"map":"cp_process_final","folder":"tf","game":"Team Fortress","app_id":440,"player_count":24,"max_players":24,"Bots":0,"server_type":"Dedicated","server_os":"Linux","password":true,"vac":true,"version":"7757534","steam_id":85568392924367362,"keywords":["cp","nocrits","nodmgspread","uncletopia"],"game_id":440,"stv_port":27016,"stv_name":"Uncletopia | London | 1 | All Maps | STV","players":[{"user_id":299,"name":"dominic :)","steam_id":76561198042663518,"connected_time":4312000000000,"state":"active","ping":52},{"user_id":279,"name":"Bone","steam_id":76561198073117364,"connected_time":5050000000000,"state":"active","ping":129},{"user_id":295,"name":"P Diddy","steam_id":76561198829344838,"connected_time":4650000000000,"state":"active","ping":50},{"user_id":346,"name":"Marioalexsan","steam_id":76561198125512367,"connected_time":662000000000,"state":"active","ping":87},{"user_id":330,"name":"Sora The Fox","steam_id":76561198072998702,"connected_time":1702000000000,"state":"active","ping":54},{"user_id":344,"name":"r06u3","steam_id":76561198254099253,"connected_time":986000000000,"state":"active","ping":187},{"user_id":302,"name":"Fat Pigeon","steam_id":76561198817940142,"connected_time":4017000000000,"state":"active","ping":47},{"user_id":304,"name":"Asfreild","steam_id":76561198055901120,"connected_time":3905000000000,"state":"active","ping":82},{"user_id":328,"name":"pizza time","steam_id":76561199015899793,"connected_time":2031000000000,"state":"active","ping":45},{"user_id":343,"name":"Laggy","steam_id":76561198069355441,"connected_time":1033000000000,"state":"active","ping":70},{"user_id":331,"name":"FERME_TA_GUEULE","steam_id":76561198087713683,"connected_time":1486000000000,"state":"active","ping":59},{"user_id":334,"name":"Homicidal Tendencies","steam_id":76561198828681043,"connected_time":1237000000000,"state":"active","ping":43},{"user_id":315,"name":"@realJoeBiden","steam_id":76561198166682199,"connected_time":3114000000000,"state":"active","ping":59},{"user_id":347,"name":"Nebunuliii","steam_id":76561198953360954,"connected_time":651000000000,"state":"active","ping":86},{"user_id":345,"name":"És muita maricas","steam_id":76561198043515389,"connected_time":687000000000,"state":"active","ping":71},{"user_id":329,"name":"Renard pos4","steam_id":76561197998908594,"connected_time":1884000000000,"state":"active","ping":69},{"user_id":305,"name":"X-tis","steam_id":76561198043837480,"connected_time":3856000000000,"state":"active","ping":74},{"user_id":326,"name":"kotamine","steam_id":76561198068907991,"connected_time":2247000000000,"state":"active","ping":76},{"user_id":332,"name":"Hkitchen","steam_id":76561198194779526,"connected_time":1293000000000,"state":"active","ping":40},{"user_id":337,"name":"Zhongding Construction Group Lt","steam_id":76561198065915748,"connected_time":1183000000000,"state":"active","ping":49},{"user_id":348,"name":"Fredrick","steam_id":76561197981419964,"connected_time":525000000000,"state":"active","ping":122},{"user_id":341,"name":"Le Nain","steam_id":76561198050638632,"connected_time":1058000000000,"state":"active","ping":69},{"user_id":349,"name":"htkern123","steam_id":76561199465710045,"connected_time":509000000000,"state":"active","ping":55},{"user_id":298,"name":"Rory","steam_id":76561198354037580,"connected_time":4332000000000,"state":"active","ping":41}]},{"server_id":114,"name":"Uncletopia | London | 2 | All Maps","name_short":"lon-2","host":"lon-1.uk.uncletopia.com","port":27025,"enabled":true,"region":"eu","cc":"gb","latitude":51.509865,"longitude":-0.118092,"reserved":0,"last_update":"0001-01-01T00:00:00Z","name_a2s":"Uncletopia | London | 2 | All Maps","protocol":17,"map":"cp_mountainlab","folder":"tf","game":"Team Fortress","app_id":440,"player_count":24,"max_players":24,"Bots":0,"server_type":"Dedicated","server_os":"Linux","password":true,"vac":true,"version":"7757534","steam_id":85568392924470941,"keywords":["cp","nocrits","nodmgspread","uncletopia"],"game_id":440,"stv_port":27026,"stv_name":"Uncletopia | London | 2 | All Maps | STV","players":[{"user_id":317,"name":"gary","steam_id":76561198051623751,"connected_time":694000000000,"state":"active","ping":85},{"user_id":322,"name":"Senior_Pablo","steam_id":76561199254031480,"connected_time":472000000000,"state":"active","ping":63},{"user_id":321,"name":"MÉZ","steam_id":76561198167504701,"connected_time":528000000000,"state":"active","ping":84},{"user_id":199,"name":"Swayer","steam_id":76561198056192460,"connected_time":8188000000000,"state":"active","ping":61},{"user_id":283,"name":"tactical783","steam_id":76561199051688560,"connected_time":3301000000000,"state":"active","ping":67},{"user_id":278,"name":"Jitters","steam_id":76561199154425482,"connected_time":3808000000000,"state":"active","ping":51},{"user_id":313,"name":"TV","steam_id":76561198177326926,"connected_time":767000000000,"state":"active","ping":162},{"user_id":314,"name":"Bilbo Ballbaggins","steam_id":76561198070593514,"connected_time":748000000000,"state":"active","ping":43},{"user_id":290,"name":"Leituga","steam_id":76561198051127598,"connected_time":2938000000000,"state":"active","ping":91},{"user_id":309,"name":"Ray","steam_id":76561199471696026,"connected_time":1111000000000,"state":"active","ping":71},{"user_id":323,"name":"Monitor69","steam_id":76561198097339531,"connected_time":458000000000,"state":"active","ping":94},{"user_id":319,"name":"Redkiller","steam_id":76561199453655288,"connected_time":688000000000,"state":"active","ping":138},{"user_id":310,"name":"skilltissues","steam_id":76561198025828664,"connected_time":1038000000000,"state":"active","ping":57},{"user_id":325,"name":"zazuza","steam_id":76561198049820905,"connected_time":320000000000,"state":"active","ping":74},{"user_id":291,"name":"jerf","steam_id":76561199213901239,"connected_time":2910000000000,"state":"active","ping":46},{"user_id":303,"name":"Avitz","steam_id":76561197986150359,"connected_time":1719000000000,"state":"active","ping":43},{"user_id":318,"name":"the real lancer from deltarune","steam_id":76561199078505144,"connected_time":693000000000,"state":"active","ping":82},{"user_id":299,"name":"[BROBOT] Nergal","steam_id":76561198098172161,"connected_time":2190000000000,"state":"active","ping":84},{"user_id":275,"name":"kojitori","steam_id":76561198838072150,"connected_time":3892000000000,"state":"active","ping":47},{"user_id":304,"name":"Nick","steam_id":76561198036109469,"connected_time":1655000000000,"state":"active","ping":105},{"user_id":292,"name":"Zen","steam_id":76561198362450830,"connected_time":2892000000000,"state":"active","ping":95},{"user_id":245,"name":"Hexagon","steam_id":76561198151205758,"connected_time":5669000000000,"state":"active","ping":66},{"user_id":305,"name":"British Rage","steam_id":76561198009585209,"connected_time":1596000000000,"state":"active","ping":55},{"user_id":327,"name":"jona3838","steam_id":76561199097658195,"connected_time":61000000000,"state":"active","ping":99}]},{"server_id":320,"name":"Uncletopia | London | 3 | All Maps","name_short":"lon-3","host":"lon-1.uk.uncletopia.com","port":27035,"enabled":true,"region":"eu","cc":"gb","latitude":51.509865,"longitude":-0.118092,"reserved":0,"last_update":"0001-01-01T00:00:00Z","name_a2s":"Uncletopia | London | 3 | All Maps","protocol":17,"map":"pl_snowycoast","folder":"tf","game":"Team Fortress","app_id":440,"player_count":24,"max_players":24,"Bots":0,"server_type":"Dedicated","server_os":"Linux","password":true,"vac":true,"version":"7757534","steam_id":85568392924510192,"keywords":["nocrits","nodmgspread","payload","uncletopia"],"game_id":440,"stv_port":27036,"stv_name":"Uncletopia | London | 3 | All Maps | STV","players":[{"user_id":337,"name":"JOHN GAMING (based)","steam_id":76561199085822219,"connected_time":3779000000000,"state":"active","ping":94},{"user_id":342,"name":"Mean Green Peen","steam_id":76561198228455736,"connected_time":3634000000000,"state":"active","ping":48},{"user_id":377,"name":"Classic gamer","steam_id":76561198125638711,"connected_time":598000000000,"state":"active","ping":103},{"user_id":355,"name":"Dr. Funkenstein","steam_id":76561197977816210,"connected_time":2013000000000,"state":"active","ping":73},{"user_id":372,"name":"Ma͡xim͜us","steam_id":76561197970986094,"connected_time":836000000000,"state":"active","ping":66},{"user_id":346,"name":"_zipfile","steam_id":76561198066133808,"connected_time":3306000000000,"state":"active","ping":73},{"user_id":347,"name":"Sneaky boi","steam_id":76561199195985387,"connected_time":3257000000000,"state":"active","ping":100},{"user_id":357,"name":"pink \u0026\u0026 fox","steam_id":76561198056152479,"connected_time":2008000000000,"state":"active","ping":45},{"user_id":376,"name":"daanvanliempt05","steam_id":76561198355398948,"connected_time":642000000000,"state":"active","ping":48},{"user_id":338,"name":"K.V. #RemoveRandomCrits","steam_id":76561197994832993,"connected_time":3763000000000,"state":"active","ping":87},{"user_id":300,"name":"fume.","steam_id":76561197960476801,"connected_time":6467000000000,"state":"active","ping":52},{"user_id":353,"name":"moon","steam_id":76561199212557251,"connected_time":2059000000000,"state":"active","ping":118},{"user_id":366,"name":"KFC Enjoyer","steam_id":76561198840259819,"connected_time":1660000000000,"state":"active","ping":60},{"user_id":278,"name":"Miczu555PL","steam_id":76561198058500895,"connected_time":8778000000000,"state":"active","ping":78},{"user_id":365,"name":"Hies","steam_id":76561198246324242,"connected_time":1726000000000,"state":"active","ping":114},{"user_id":371,"name":"murderwow","steam_id":76561198024566944,"connected_time":849000000000,"state":"active","ping":121},{"user_id":373,"name":"dysesthesia","steam_id":76561198027159018,"connected_time":823000000000,"state":"active","ping":152},{"user_id":380,"name":"Superhoovey?","steam_id":76561198272561730,"connected_time":84000000000,"state":"active","ping":63},{"user_id":374,"name":"Kaishakunin","steam_id":76561198028123874,"connected_time":822000000000,"state":"active","ping":100},{"user_id":340,"name":"Professor Peppermint","steam_id":76561198184017082,"connected_time":3693000000000,"state":"active","ping":152},{"user_id":369,"name":"人 ØАААØ人","steam_id":76561198944032480,"connected_time":1450000000000,"state":"active","ping":109},{"user_id":264,"name":"Fortuit","steam_id":76561198065143703,"connected_time":9423000000000,"state":"active","ping":88},{"user_id":375,"name":"Laru","steam_id":76561197998838438,"connected_time":818000000000,"state":"active","ping":77},{"user_id":282,"name":"SexyHotChocolate","steam_id":76561198164087698,"connected_time":8581000000000,"state":"active","ping":131}]},{"server_id":321,"name":"Uncletopia | London | 4 | All Maps","name_short":"lon-4","host":"lon-1.uk.uncletopia.com","port":27045,"enabled":true,"region":"eu","cc":"gb","latitude":51.509865,"longitude":-0.118092,"reserved":0,"last_update":"0001-01-01T00:00:00Z","name_a2s":"Uncletopia | London | 4 | All Maps","protocol":17,"map":"cp_mountainlab","folder":"tf","game":"Team Fortress","app_id":440,"player_count":12,"max_players":24,"Bots":0,"server_type":"Dedicated","server_os":"Linux","password":true,"vac":true,"version":"7757534","steam_id":85568392924510193,"keywords":["cp","nocrits","nodmgspread","uncletopia"],"game_id":440,"stv_port":27046,"stv_name":"Uncletopia | London | 4 | All Maps | STV","players":[{"user_id":19,"name":"Ates164","steam_id":76561199123074978,"connected_time":269000000000,"state":"active","ping":58},{"user_id":17,"name":"waffle toaster","steam_id":76561198799089628,"connected_time":388000000000,"state":"active","ping":44},{"user_id":14,"name":"DivineSponge","steam_id":76561199119775395,"connected_time":795000000000,"state":"active","ping":152},{"user_id":15,"name":"Verculum","steam_id":76561198894912634,"connected_time":704000000000,"state":"active","ping":154},{"user_id":18,"name":"PoseidonBroZeus","steam_id":76561199228500346,"connected_time":371000000000,"state":"active","ping":153},{"user_id":20,"name":"HungriSanta","steam_id":76561198020376441,"connected_time":226000000000,"state":"active","ping":70},{"user_id":21,"name":"Mister Sam","steam_id":76561198791782220,"connected_time":221000000000,"state":"active","ping":160},{"user_id":22,"name":"Dominus.","steam_id":76561199065917088,"connected_time":158000000000,"state":"active","ping":64},{"user_id":23,"name":"generic alias","steam_id":76561198052878585,"connected_time":58000000000,"state":"active","ping":135},{"user_id":25,"name":"mercedes ben","steam_id":76561198000147423,"connected_time":33000000000,"state":"active","ping":43},{"user_id":26,"name":"Skiiology","steam_id":76561198140931522,"connected_time":0,"state":"spawning","ping":11},{"user_id":27,"name":"Connor McFilip","steam_id":76561198107965067,"connected_time":0,"state":"spawning","ping":0}]},{"server_id":21,"name":"Uncletopia | London | 5 | All Maps","name_short":"lon-5","host":"lon-1.uk.uncletopia.com","port":27055,"enabled":true,"region":"eu","cc":"gb","latitude":51.509865,"longitude":-0.118092,"reserved":0,"last_update":"0001-01-01T00:00:00Z","name_a2s":"Uncletopia | London | 5 | All Maps","protocol":17,"map":"koth_lakeside_final","folder":"tf","game":"Team Fortress","app_id":440,"player_count":0,"max_players":24,"Bots":0,"server_type":"Dedicated","server_os":"Linux","password":true,"vac":true,"version":"7757534","steam_id":85568392924742829,"keywords":["cp","nocrits","nodmgspread","uncletopia"],"game_id":440,"stv_port":27056,"stv_name":"Uncletopia | London | 5 | All Maps | STV","players":null},{"server_id":22,"name":"Uncletopia | London | 6 | All Maps","name_short":"lon-6","host":"lon-1.uk.uncletopia.com","port":27065,"enabled":true,"region":"eu","cc":"gb","latitude":51.509865,"longitude":-0.118092,"reserved":0,"last_update":"0001-01-01T00:00:00Z","name_a2s":"Uncletopia | London | 6 | All Maps","protocol":17,"map":"koth_cascade","folder":"tf","game":"Team Fortress","app_id":440,"player_count":0,"max_players":24,"Bots":0,"server_type":"Dedicated","server_os":"Linux","password":true,"vac":true,"version":"7757534","steam_id":85568392924742830,"keywords":["cp","nocrits","nodmgspread","uncletopia"],"game_id":440,"stv_port":27066,"stv_name":"Uncletopia | London | 6 | All Maps | STV","players":null},{"server_id":40,"name":"Uncletopia | London | 7 | No Payload","name_short":"lon-7","host":"lon-1.uk.uncletopia.com","port":27075,"enabled":true,"region":"eu","cc":"gb","latitude":51.509865,"longitude":-0.118092,"reserved":0,"last_update":"0001-01-01T00:00:00Z","name_a2s":"Uncletopia | London | 7 | No Payload","protocol":17,"map":"koth_king","folder":"tf","game":"Team Fortress","app_id":440,"player_count":0,"max_players":24,"Bots":0,"server_type":"Dedicated","server_os":"Linux","password":true,"vac":true,"version":"7757534","steam_id":85568392924964314,"keywords":["cp","nocrits","nodmgspread","uncletopia"],"game_id":440,"stv_port":27076,"stv_name":"Uncletopia | London | 7 | No Payload | STV","players":null},{"server_id":41,"name":"Uncletopia | London | 8 | Community","name_short":"lon-8","host":"lon-1.uk.uncletopia.com","port":27085,"enabled":true,"region":"eu","cc":"gb","latitude":51.509865,"longitude":-0.118092,"reserved":0,"last_update":"0001-01-01T00:00:00Z","name_a2s":"Uncletopia | London | 8 | Community","protocol":17,"map":"workshop/cp_croissant_final.ugc458840209","folder":"tf","game":"Team Fortress","app_id":440,"player_count":24,"max_players":24,"Bots":0,"server_type":"Dedicated","server_os":"Linux","password":true,"vac":true,"version":"7757534","steam_id":85568392924964315,"keywords":["cp","nocrits","nodmgspread","uncletopia"],"game_id":440,"stv_port":27086,"stv_name":"Uncletopia | London | 8 | Community | STV","players":[{"user_id":151,"name":"Obama F. Kennedy","steam_id":76561198282499318,"connected_time":557000000000,"state":"active","ping":121},{"user_id":131,"name":"the joy of recycling","steam_id":76561198415564349,"connected_time":1457000000000,"state":"active","ping":61},{"user_id":129,"name":"★𝖘𝖔𝖟𝖊𝖙𝖘𝖚","steam_id":76561198012883006,"connected_time":1569000000000,"state":"active","ping":112},{"user_id":154,"name":"SausageRoll","steam_id":76561197994072622,"connected_time":212000000000,"state":"active","ping":49},{"user_id":150,"name":"player","steam_id":76561198054474684,"connected_time":807000000000,"state":"active","ping":89},{"user_id":116,"name":"S0LDaTo","steam_id":76561198269413360,"connected_time":2114000000000,"state":"active","ping":69},{"user_id":82,"name":"Jonas Destark","steam_id":76561198030327441,"connected_time":3247000000000,"state":"active","ping":69},{"user_id":83,"name":"snake9544","steam_id":76561198083076205,"connected_time":3243000000000,"state":"active","ping":93},{"user_id":155,"name":"Artur ☻","steam_id":76561198264297604,"connected_time":195000000000,"state":"active","ping":84},{"user_id":133,"name":"SirVitek","steam_id":76561198142961758,"connected_time":1314000000000,"state":"active","ping":69},{"user_id":142,"name":"ikoroshia","steam_id":76561197994492154,"connected_time":1028000000000,"state":"active","ping":87},{"user_id":156,"name":"Dolcelatte","steam_id":76561198038501770,"connected_time":189000000000,"state":"active","ping":64},{"user_id":159,"name":"GlitchyTrashCan","steam_id":76561198309789756,"connected_time":66000000000,"state":"active","ping":71},{"user_id":149,"name":"Dispenser","steam_id":76561199383851079,"connected_time":878000000000,"state":"active","ping":78},{"user_id":138,"name":"pepper","steam_id":76561198059782462,"connected_time":1141000000000,"state":"active","ping":73},{"user_id":125,"name":"quickfast","steam_id":76561199438900919,"connected_time":1750000000000,"state":"active","ping":44},{"user_id":140,"name":"Mathieu.","steam_id":76561198039268163,"connected_time":1109000000000,"state":"active","ping":72},{"user_id":96,"name":"KillerQueen (he/they/she)","steam_id":76561199019399725,"connected_time":2597000000000,"state":"active","ping":49},{"user_id":110,"name":"bliss","steam_id":76561198067459427,"connected_time":2312000000000,"state":"active","ping":66},{"user_id":158,"name":"Infrathill","steam_id":76561198011665486,"connected_time":179000000000,"state":"active","ping":59},{"user_id":102,"name":"Mitrotsky","steam_id":76561199163352812,"connected_time":2483000000000,"state":"active","ping":157},{"user_id":144,"name":"jjjjx25","steam_id":76561198799650556,"connected_time":934000000000,"state":"active","ping":81},{"user_id":104,"name":"mesoni","steam_id":76561199141290973,"connected_time":2456000000000,"state":"active","ping":86},{"user_id":145,"name":"dude m8","steam_id":76561198155649280,"connected_time":934000000000,"state":"active","ping":59}]},{"server_id":300,"name":"Uncletopia | Montréal | 1 | All Maps","name_short":"mtl-1","host":"mtl-1.ca.uncletopia.com","port":27015,"enabled":true,"region":"us-east","cc":"ca","latitude":45.50889,"longitude":-73.56167,"reserved":0,"last_update":"0001-01-01T00:00:00Z","name_a2s":"Uncletopia | Montréal | 1 | All Maps","protocol":17,"map":"pl_snowycoast","folder":"tf","game":"Team Fortress","app_id":440,"player_count":0,"max_players":24,"Bots":0,"server_type":"Dedicated","server_os":"Linux","password":true,"vac":true,"version":"7757534","steam_id":85568392924500087,"keywords":["nocrits","nodmgspread","payload","uncletopia"],"game_id":440,"stv_port":27016,"stv_name":"Uncletopia | Montréal | 1 | All Maps | STV","players":null},{"server_id":301,"name":"Uncletopia | Montréal | 2 | All Maps","name_short":"mtl-2","host":"mtl-1.ca.uncletopia.com","port":27025,"enabled":true,"region":"us-east","cc":"ca","latitude":45.50889,"longitude":-73.56167,"reserved":0,"last_update":"0001-01-01T00:00:00Z","name_a2s":"Uncletopia | Montréal | 2 | All Maps","protocol":17,"map":"pl_snowycoast","folder":"tf","game":"Team Fortress","app_id":440,"player_count":0,"max_players":24,"Bots":0,"server_type":"Dedicated","server_os":"Linux","password":true,"vac":true,"version":"7757534","steam_id":85568392924500088,"keywords":["nocrits","nodmgspread","payload","uncletopia"],"game_id":440,"stv_port":27026,"stv_name":"Uncletopia | Montréal | 2 | All Maps | STV","players":null},{"server_id":302,"name":"Uncletopia | Montréal | 3 | All Maps","name_short":"mtl-3","host":"mtl-1.ca.uncletopia.com","port":27035,"enabled":true,"region":"us-east","cc":"ca","latitude":45.50889,"longitude":-73.56167,"reserved":0,"last_update":"0001-01-01T00:00:00Z","name_a2s":"Uncletopia | Montréal | 3 | All Maps","protocol":17,"map":"cp_dustbowl","folder":"tf","game":"Team Fortress","app_id":440,"player_count":0,"max_players":24,"Bots":0,"server_type":"Dedicated","server_os":"Linux","password":true,"vac":true,"version":"7757534","steam_id":85568392924500089,"keywords":["cp","nocrits","nodmgspread","uncletopia"],"game_id":440,"stv_port":27036,"stv_name":"Uncletopia | Montréal | 3 | All Maps | STV","players":null},{"server_id":303,"name":"Uncletopia | Montréal | 4 | No Payload","name_short":"mtl-4","host":"mtl-1.ca.uncletopia.com","port":27045,"enabled":true,"region":"us-east","cc":"ca","latitude":45.50889,"longitude":-73.56167,"reserved":0,"last_update":"0001-01-01T00:00:00Z","name_a2s":"Uncletopia | Montréal | 4 | No Payload","protocol":17,"map":"pl_borneo","folder":"tf","game":"Team Fortress","app_id":440,"player_count":0,"max_players":24,"Bots":0,"server_type":"Dedicated","server_os":"Linux","password":true,"vac":true,"version":"7757534","steam_id":85568392924500090,"keywords":["nocrits","nodmgspread","payload","uncletopia"],"game_id":440,"stv_port":27046,"stv_name":"Uncletopia | Montréal | 4 | No Payload | STV","players":null},{"server_id":13,"name":"Uncletopia | New York City | 1 | All Maps","name_short":"nyc-1","host":"nyc-1.us.uncletopia.com","port":27015,"enabled":true,"region":"us-east","cc":"us","latitude":40.73061,"longitude":-73.93524,"reserved":0,"last_update":"0001-01-01T00:00:00Z","name_a2s":"Uncletopia | New York City | 1 | All Maps","protocol":17,"map":"pl_swiftwater_final1","folder":"tf","game":"Team Fortress","app_id":440,"player_count":3,"max_players":24,"Bots":0,"server_type":"Dedicated","server_os":"Linux","password":true,"vac":true,"version":"7757534","steam_id":85568392924469993,"keywords":["nocrits","nodmgspread","payload","uncletopia"],"game_id":440,"stv_port":27016,"stv_name":"Uncletopia | New York City | 1 | All Maps | STV","players":[{"user_id":8,"name":"Ginger Jesus","steam_id":76561198052386458,"connected_time":603000000000,"state":"active","ping":44},{"user_id":7,"name":"medic bag enjoyer","steam_id":76561198958115026,"connected_time":816000000000,"state":"active","ping":73},{"user_id":9,"name":"feenman","steam_id":76561199383834799,"connected_time":408000000000,"state":"active","ping":108}]},{"server_id":14,"name":"Uncletopia | New York City | 2 | All Maps","name_short":"nyc-2","host":"nyc-1.us.uncletopia.com","port":27025,"enabled":true,"region":"us-east","cc":"us","latitude":40.73061,"longitude":-73.93524,"reserved":0,"last_update":"0001-01-01T00:00:00Z","name_a2s":"Uncletopia | New York City | 2 | All Maps","protocol":17,"map":"koth_viaduct","folder":"tf","game":"Team Fortress","app_id":440,"player_count":0,"max_players":24,"Bots":0,"server_type":"Dedicated","server_os":"Linux","password":true,"vac":true,"version":"7757534","steam_id":85568392924469994,"keywords":["cp","nocrits","nodmgspread","uncletopia"],"game_id":440,"stv_port":27026,"stv_name":"Uncletopia | New York City | 2 | All Maps | STV","players":null},{"server_id":15,"name":"Uncletopia | New York City | 3 | Stopwatch Beta","name_short":"nyc-3","host":"nyc-1.us.uncletopia.com","port":27035,"enabled":true,"region":"us-east","cc":"us","latitude":40.73061,"longitude":-73.93524,"reserved":0,"last_update":"0001-01-01T00:00:00Z","name_a2s":"Uncletopia | New York City | 3 | Stopwatch Beta","protocol":17,"map":"cp_mountainlab","folder":"tf","game":"Team Fortress","app_id":440,"player_count":0,"max_players":24,"Bots":0,"server_type":"Dedicated","server_os":"Linux","password":true,"vac":true,"version":"7757534","steam_id":85568392924742820,"keywords":["cp","nocrits","nodmgspread","uncletopia"],"game_id":440,"stv_port":27036,"stv_name":"Uncletopia | New York City | 3 | Stopwatch Beta | STV","players":null},{"server_id":16,"name":"Uncletopia | New York City | 4 | Community","name_short":"nyc-4","host":"nyc-1.us.uncletopia.com","port":27045,"enabled":true,"region":"us-east","cc":"us","latitude":40.73061,"longitude":-73.93524,"reserved":0,"last_update":"0001-01-01T00:00:00Z","name_a2s":"Uncletopia | New York City | 4 | Community","protocol":17,"map":"pl_borneo","folder":"tf","game":"Team Fortress","app_id":440,"player_count":0,"max_players":24,"Bots":0,"server_type":"Dedicated","server_os":"Linux","password":true,"vac":true,"version":"7757534","steam_id":85568392924742821,"keywords":["nocrits","nodmgspread","payload","uncletopia"],"game_id":440,"stv_port":27046,"stv_name":"Uncletopia | New York City | 4 | Community | STV","players":null},{"server_id":142,"name":"Uncletopia | São Paulo | 1 | All Maps","name_short":"sao-1","host":"sao-1.br.uncletopia.com","port":27015,"enabled":true,"region":"sa","cc":"br","latitude":-23.533773,"longitude":-46.62529,"reserved":0,"last_update":"0001-01-01T00:00:00Z","name_a2s":"Uncletopia | São Paulo | 1 | All Maps","protocol":17,"map":"pl_badwater","folder":"tf","game":"Team Fortress","app_id":440,"player_count":0,"max_players":24,"Bots":0,"server_type":"Dedicated","server_os":"Linux","password":true,"vac":true,"version":"7757534","steam_id":85568392924469996,"keywords":["nocrits","nodmgspread","payload","uncletopia"],"game_id":440,"stv_port":27016,"stv_name":"Uncletopia | São Paulo | 1 | All Maps | STV","players":null},{"server_id":143,"name":"Uncletopia | São Paulo | 2 | All Maps","name_short":"sao-2","host":"sao-2.br.uncletopia.com","port":27015,"enabled":true,"region":"sa","cc":"br","latitude":-23.533773,"longitude":-46.62529,"reserved":0,"last_update":"0001-01-01T00:00:00Z","name_a2s":"Uncletopia | São Paulo | 2 | All Maps","protocol":17,"map":"pl_borneo","folder":"tf","game":"Team Fortress","app_id":440,"player_count":0,"max_players":24,"Bots":0,"server_type":"Dedicated","server_os":"Linux","password":true,"vac":true,"version":"7757534","steam_id":85568392924485349,"keywords":["nocrits","nodmgspread","payload","uncletopia"],"game_id":440,"stv_port":27016,"stv_name":"Uncletopia | São Paulo | 2 | All Maps | STV","players":null},{"server_id":7,"name":"Uncletopia | Seattle | 1 | All Maps","name_short":"sea-1","host":"sea-1.us.uncletopia.com","port":27015,"enabled":true,"region":"us-west","cc":"us","latitude":47.608013,"longitude":-122.33517,"reserved":0,"last_update":"0001-01-01T00:00:00Z","name_a2s":"Uncletopia | Seattle | 1 | All Maps","protocol":17,"map":"cp_sunshine","folder":"tf","game":"Team Fortress","app_id":440,"player_count":24,"max_players":24,"Bots":0,"server_type":"Dedicated","server_os":"Linux","password":true,"vac":true,"version":"7757534","steam_id":85568392924469997,"keywords":["cp","nocrits","nodmgspread","uncletopia"],"game_id":440,"stv_port":27016,"stv_name":"Uncletopia | Seattle | 1 | All Maps | STV","players":[{"user_id":17,"name":"ender","steam_id":76561198092159728,"connected_time":3464000000000,"state":"active","ping":91},{"user_id":73,"name":"DevBennyturtle","steam_id":76561199076436762,"connected_time":165000000000,"state":"active","ping":100},{"user_id":75,"name":"Velvety","steam_id":76561198081922813,"connected_time":85000000000,"state":"active","ping":82},{"user_id":16,"name":"Marlee","steam_id":76561198828640523,"connected_time":3674000000000,"state":"active","ping":94},{"user_id":21,"name":"vile scott","steam_id":76561198089630547,"connected_time":3171000000000,"state":"active","ping":120},{"user_id":58,"name":"a chicken","steam_id":76561198313121580,"connected_time":1436000000000,"state":"active","ping":75},{"user_id":47,"name":"\u003c3Elise\u003c3","steam_id":76561198146435005,"connected_time":2010000000000,"state":"active","ping":67},{"user_id":81,"name":"Hello, Zuko here","steam_id":76561198365857261,"connected_time":50000000000,"state":"active","ping":89},{"user_id":24,"name":"Corbezy","steam_id":76561197993398349,"connected_time":3075000000000,"state":"active","ping":129},{"user_id":76,"name":"cayorne @ rgb","steam_id":76561198170939290,"connected_time":78000000000,"state":"active","ping":105},{"user_id":26,"name":"Daz","steam_id":76561198041431938,"connected_time":3041000000000,"state":"active","ping":123},{"user_id":65,"name":"fortnern","steam_id":76561197972353370,"connected_time":1076000000000,"state":"active","ping":117},{"user_id":28,"name":"35 years without a footjob...","steam_id":76561198799299193,"connected_time":2945000000000,"state":"active","ping":51},{"user_id":66,"name":"abobobini","steam_id":76561198024307311,"connected_time":1073000000000,"state":"active","ping":74},{"user_id":71,"name":"Rheibe","steam_id":76561198027228795,"connected_time":489000000000,"state":"active","ping":134},{"user_id":77,"name":"Chuck-en-stein","steam_id":76561198175848325,"connected_time":73000000000,"state":"active","ping":172},{"user_id":78,"name":"enolteiii","steam_id":76561198140843225,"connected_time":70000000000,"state":"active","ping":110},{"user_id":72,"name":"DAYTONA","steam_id":76561198061975847,"connected_time":318000000000,"state":"active","ping":76},{"user_id":79,"name":"No Sound","steam_id":76561198011675372,"connected_time":69000000000,"state":"active","ping":66},{"user_id":52,"name":"Klone","steam_id":76561198854485605,"connected_time":1792000000000,"state":"active","ping":116},{"user_id":80,"name":"Purple Pajamas","steam_id":76561199174310124,"connected_time":65000000000,"state":"spawning","ping":452},{"user_id":69,"name":"Sarbanes-Oxley","steam_id":76561197975898479,"connected_time":968000000000,"state":"active","ping":107},{"user_id":59,"name":"Sisyphus","steam_id":76561199229564369,"connected_time":1327000000000,"state":"active","ping":131},{"user_id":60,"name":"epic gkamer 101","steam_id":76561198134636189,"connected_time":1298000000000,"state":"active","ping":157}]},{"server_id":119,"name":"Uncletopia | Seattle | 2 | All Maps","name_short":"sea-2","host":"sea-1.us.uncletopia.com","port":27025,"enabled":true,"region":"us-west","cc":"us","latitude":47.608013,"longitude":-122.33517,"reserved":0,"last_update":"0001-01-01T00:00:00Z","name_a2s":"Uncletopia | Seattle | 2 | All Maps","protocol":17,"map":"koth_cascade","folder":"tf","game":"Team Fortress","app_id":440,"player_count":0,"max_players":24,"Bots":0,"server_type":"Dedicated","server_os":"Linux","password":true,"vac":true,"version":"7757534","steam_id":85568392924469998,"keywords":["cp","nocrits","nodmgspread","uncletopia"],"game_id":440,"stv_port":27026,"stv_name":"Uncletopia | Seattle | 2 | All Maps | STV","players":null},{"server_id":406,"name":"Uncletopia | Seattle | 3 | Stopwatch Beta","name_short":"sea-3","host":"sea-1.us.uncletopia.com","port":27035,"enabled":true,"region":"us-west","cc":"us","latitude":47.608013,"longitude":-122.33517,"reserved":0,"last_update":"0001-01-01T00:00:00Z","name_a2s":"Uncletopia | Seattle | 3 | Stopwatch Beta","protocol":17,"map":"pl_barnblitz","folder":"tf","game":"Team Fortress","app_id":440,"player_count":0,"max_players":24,"Bots":0,"server_type":"Dedicated","server_os":"Linux","password":true,"vac":true,"version":"7757534","steam_id":85568392924515217,"keywords":["nocrits","nodmgspread","payload","uncletopia"],"game_id":440,"stv_port":27036,"stv_name":"Uncletopia | Seattle | 3 | Stopwatch Beta | STV","players":null},{"server_id":17,"name":"Uncletopia | San Francisco | 1 | All Maps","name_short":"sfo-1","host":"sfo-1.us.uncletopia.com","port":27015,"enabled":true,"region":"us-west","cc":"us","latitude":37.77397,"longitude":-122.4313,"reserved":0,"last_update":"0001-01-01T00:00:00Z","name_a2s":"Uncletopia | San Francisco | 1 | All Maps","protocol":17,"map":"cp_process_final","folder":"tf","game":"Team Fortress","app_id":440,"player_count":0,"max_players":24,"Bots":0,"server_type":"Dedicated","server_os":"Linux","password":true,"vac":true,"version":"7757534","steam_id":85568392924469999,"keywords":["cp","nocrits","nodmgspread","uncletopia"],"game_id":440,"stv_port":27016,"stv_name":"Uncletopia | San Francisco | 1 | All Maps | STV","players":null},{"server_id":18,"name":"Uncletopia | San Francisco | 2 | All Maps","name_short":"sfo-2","host":"sfo-1.us.uncletopia.com","port":27025,"enabled":true,"region":"us-west","cc":"us","latitude":37.77397,"longitude":-122.4313,"reserved":0,"last_update":"0001-01-01T00:00:00Z","name_a2s":"Uncletopia | San Francisco | 2 | All Maps","protocol":17,"map":"cp_sunshine","folder":"tf","game":"Team Fortress","app_id":440,"player_count":0,"max_players":24,"Bots":0,"server_type":"Dedicated","server_os":"Linux","password":true,"vac":true,"version":"7757534","steam_id":85568392924470000,"keywords":["cp","nocrits","nodmgspread","uncletopia"],"game_id":440,"stv_port":27026,"stv_name":"Uncletopia | San Francisco | 2 | All Maps | STV","players":null},{"server_id":19,"name":"Uncletopia | San Francisco | 3 | Stopwatch Beta","name_short":"sfo-3","host":"sfo-1.us.uncletopia.com","port":27035,"enabled":true,"region":"us-west","cc":"us","latitude":37.77397,"longitude":-122.4313,"reserved":0,"last_update":"0001-01-01T00:00:00Z","name_a2s":"Uncletopia | San Francisco | 3 | Stopwatch Beta","protocol":17,"map":"pl_borneo","folder":"tf","game":"Team Fortress","app_id":440,"player_count":0,"max_players":24,"Bots":0,"server_type":"Dedicated","server_os":"Linux","password":true,"vac":true,"version":"7757534","steam_id":85568392924742824,"keywords":["nocrits","nodmgspread","payload","uncletopia"],"game_id":440,"stv_port":27036,"stv_name":"Uncletopia | San Francisco | 3 | Stopwatch Beta | STV","players":null},{"server_id":20,"name":"Uncletopia | San Francisco | 4 | Community","name_short":"sfo-4","host":"sfo-1.us.uncletopia.com","port":27045,"enabled":true,"region":"us-west","cc":"us","latitude":37.77397,"longitude":-122.4313,"reserved":0,"last_update":"0001-01-01T00:00:00Z","name_a2s":"Uncletopia | San Francisco | 4 | Community","protocol":17,"map":"koth_highpass","folder":"tf","game":"Team Fortress","app_id":440,"player_count":0,"max_players":24,"Bots":0,"server_type":"Dedicated","server_os":"Linux","password":true,"vac":true,"version":"7757534","steam_id":85568392924742826,"keywords":["cp","nocrits","nodmgspread","uncletopia"],"game_id":440,"stv_port":27046,"stv_name":"Uncletopia | San Francisco | 4 | Community | STV","players":null},{"server_id":141,"name":"Uncletopia | Sydney | 1 | All Maps","name_short":"syd-1","host":"syd-1.au.uncletopia.com","port":27015,"enabled":true,"region":"au","cc":"au","latitude":-33.865143,"longitude":151.2099,"reserved":0,"last_update":"0001-01-01T00:00:00Z","name_a2s":"Uncletopia | Sydney | 1 | All Maps","protocol":17,"map":"pl_barnblitz","folder":"tf","game":"Team Fortress","app_id":440,"player_count":0,"max_players":24,"Bots":0,"server_type":"Dedicated","server_os":"Linux","password":true,"vac":true,"version":"7757534","steam_id":85568392924470001,"keywords":["nocrits","nodmgspread","payload","uncletopia"],"game_id":440,"stv_port":27016,"stv_name":"Uncletopia | Sydney | 1 | All Maps | STV","players":null},{"server_id":123,"name":"Uncletopia | Sydney | 2 | All Maps","name_short":"syd-2","host":"syd-1.au.uncletopia.com","port":27025,"enabled":true,"region":"au","cc":"au","latitude":-33.865143,"longitude":151.2099,"reserved":0,"last_update":"0001-01-01T00:00:00Z","name_a2s":"Uncletopia | Sydney | 2 | All Maps","protocol":17,"map":"pl_borneo","folder":"tf","game":"Team Fortress","app_id":440,"player_count":2,"max_players":24,"Bots":0,"server_type":"Dedicated","server_os":"Linux","password":true,"vac":true,"version":"7757534","steam_id":85568392924470002,"keywords":["nocrits","nodmgspread","payload","uncletopia"],"game_id":440,"stv_port":27026,"stv_name":"Uncletopia | Sydney | 2 | All Maps | STV","players":[{"user_id":455,"name":"Kanga Bangas","steam_id":76561198162187264,"connected_time":76000000000,"state":"active","ping":71},{"user_id":454,"name":"Friedrice(Chris)","steam_id":76561199012496131,"connected_time":722000000000,"state":"active","ping":178}]},{"server_id":395,"name":"Uncletopia | Sydney | 3 | All Maps","name_short":"syd-3","host":"syd-1.au.uncletopia.com","port":27035,"enabled":true,"region":"au","cc":"au","latitude":-33.865143,"longitude":151.2099,"reserved":0,"last_update":"0001-01-01T00:00:00Z","name_a2s":"Uncletopia | Sydney | 3 | All Maps","protocol":17,"map":"koth_cascade","folder":"tf","game":"Team Fortress","app_id":440,"player_count":0,"max_players":24,"Bots":0,"server_type":"Dedicated","server_os":"Linux","password":true,"vac":true,"version":"7757534","steam_id":85568392925194467,"keywords":["cp","nocrits","nodmgspread","uncletopia"],"game_id":440,"stv_port":27036,"stv_name":"Uncletopia | Sydney | 3 | All Maps | STV","players":null},{"server_id":396,"name":"Uncletopia | Sydney | 4 | All Maps","name_short":"syd-4","host":"syd-1.au.uncletopia.com","port":27045,"enabled":true,"region":"au","cc":"au","latitude":-33.865143,"longitude":151.2099,"reserved":0,"last_update":"0001-01-01T00:00:00Z","name_a2s":"Uncletopia | Sydney | 4 | All Maps","protocol":17,"map":"cp_mountainlab","folder":"tf","game":"Team Fortress","app_id":440,"player_count":1,"max_players":24,"Bots":0,"server_type":"Dedicated","server_os":"Linux","password":true,"vac":true,"version":"7757534","steam_id":85568392925397958,"keywords":["cp","nocrits","nodmgspread","uncletopia"],"game_id":440,"stv_port":27046,"stv_name":"Uncletopia | Sydney | 4 | All Maps | STV","players":[{"user_id":343,"name":"kittiwatbutprom","steam_id":76561199472131237,"connected_time":27000000000,"state":"active","ping":172}]},{"server_id":58,"name":"Uncletopia | Sydney | 5 | Stopwatch Beta","name_short":"syd-5","host":"syd-1.au.uncletopia.com","port":27055,"enabled":true,"region":"au","cc":"au","latitude":-33.865143,"longitude":151.2099,"reserved":0,"last_update":"0001-01-01T00:00:00Z","name_a2s":"Uncletopia | Sydney | 5 | Stopwatch Beta","protocol":17,"map":"koth_lakeside_final","folder":"tf","game":"Team Fortress","app_id":440,"player_count":0,"max_players":24,"Bots":0,"server_type":"Dedicated","server_os":"Linux","password":true,"vac":true,"version":"7757534","steam_id":85568392925397959,"keywords":["cp","nocrits","nodmgspread","uncletopia"],"game_id":440,"stv_port":27056,"stv_name":"Uncletopia | Sydney | 5 | Stopwatch Beta | STV","players":null},{"server_id":59,"name":"Uncletopia | Sydney | 6 | Community","name_short":"syd-6","host":"syd-1.au.uncletopia.com","port":27065,"enabled":true,"region":"au","cc":"au","latitude":-33.865143,"longitude":151.2099,"reserved":0,"last_update":"0001-01-01T00:00:00Z","name_a2s":"Uncletopia | Sydney | 6 | Community","protocol":17,"map":"workshop/koth_slaughter_rc1.ugc1712845210","folder":"tf","game":"Team Fortress","app_id":440,"player_count":0,"max_players":24,"Bots":0,"server_type":"Dedicated","server_os":"Linux","password":true,"vac":true,"version":"7757534","steam_id":85568392925397960,"keywords":["cp","nocrits","nodmgspread","uncletopia"],"game_id":440,"stv_port":27066,"stv_name":"Uncletopia | Sydney | 6 | Community | STV","players":null},{"server_id":49,"name":"Uncletopia | Warsaw | 1 | All Maps","name_short":"waw-1","host":"waw-1.pl.uncletopia.com","port":27015,"enabled":true,"region":"eu","cc":"pl","latitude":52.2297,"longitude":21.017532,"reserved":0,"last_update":"0001-01-01T00:00:00Z","name_a2s":"","protocol":0,"map":"","folder":"","game":"","app_id":0,"player_count":0,"max_players":0,"Bots":0,"server_type":"","server_os":"","password":false,"vac":false,"version":"","steam_id":0,"keywords":null,"game_id":0,"stv_port":0,"stv_name":"","players":null},{"server_id":50,"name":"Uncletopia | Warsaw | 2 | All Maps","name_short":"waw-2","host":"waw-1.pl.uncletopia.com","port":27025,"enabled":true,"region":"eu","cc":"pl","latitude":52.2297,"longitude":21.017532,"reserved":0,"last_update":"0001-01-01T00:00:00Z","name_a2s":"Uncletopia | Warsaw | 2 | All Maps","protocol":17,"map":"pl_upward","folder":"tf","game":"Team Fortress","app_id":440,"player_count":23,"max_players":24,"Bots":0,"server_type":"Dedicated","server_os":"Linux","password":true,"vac":true,"version":"7757534","steam_id":85568392925397851,"keywords":["nocrits","nodmgspread","payload","uncletopia"],"game_id":440,"stv_port":27026,"stv_name":"Uncletopia | Warsaw | 2 | All Maps | STV","players":[{"user_id":224,"name":"Speibsackerl","steam_id":76561198058135257,"connected_time":1827000000000,"state":"active","ping":91},{"user_id":256,"name":"Cillian","steam_id":76561199046965320,"connected_time":426000000000,"state":"active","ping":102},{"user_id":258,"name":"Qosmo","steam_id":76561197980806182,"connected_time":235000000000,"state":"active","ping":96},{"user_id":201,"name":"Flex","steam_id":76561197970482191,"connected_time":3176000000000,"state":"active","ping":82},{"user_id":247,"name":"TheGingerGuy","steam_id":76561198068039799,"connected_time":746000000000,"state":"active","ping":87},{"user_id":231,"name":"Tec","steam_id":76561199096762480,"connected_time":1484000000000,"state":"active","ping":85},{"user_id":242,"name":"I-I","steam_id":76561198267969436,"connected_time":873000000000,"state":"active","ping":77},{"user_id":251,"name":"catgirl (real)","steam_id":76561199045736884,"connected_time":573000000000,"state":"active","ping":42},{"user_id":243,"name":"donal rump","steam_id":76561198136239861,"connected_time":868000000000,"state":"active","ping":85},{"user_id":248,"name":"valmartiaux","steam_id":76561198305684520,"connected_time":697000000000,"state":"active","ping":64},{"user_id":120,"name":"Anri Okita's Massive Milkers","steam_id":76561199186352720,"connected_time":8228000000000,"state":"active","ping":104},{"user_id":260,"name":"Bloop","steam_id":76561199443982702,"connected_time":47000000000,"state":"active","ping":58},{"user_id":232,"name":"Lovely dove bombing diarrhea","steam_id":76561198042593027,"connected_time":1396000000000,"state":"active","ping":118},{"user_id":244,"name":"im red","steam_id":76561199087284519,"connected_time":833000000000,"state":"active","ping":76},{"user_id":252,"name":"Sadness","steam_id":76561198982741860,"connected_time":539000000000,"state":"active","ping":107},{"user_id":159,"name":"Bohelor","steam_id":76561198135329948,"connected_time":4791000000000,"state":"active","ping":105},{"user_id":259,"name":"Dirt Road","steam_id":76561198210372012,"connected_time":171000000000,"state":"active","ping":180},{"user_id":239,"name":"streamer","steam_id":76561199216923710,"connected_time":1072000000000,"state":"active","ping":135},{"user_id":246,"name":"Ham Man","steam_id":76561198888755969,"connected_time":793000000000,"state":"active","ping":92},{"user_id":240,"name":"thebananabomb00","steam_id":76561198296409283,"connected_time":1049000000000,"state":"active","ping":96},{"user_id":255,"name":"Father Micheal","steam_id":76561198300086719,"connected_time":447000000000,"state":"active","ping":96},{"user_id":229,"name":"Noodle","steam_id":76561198306486695,"connected_time":1754000000000,"state":"active","ping":84},{"user_id":250,"name":"rizz","steam_id":76561198002701344,"connected_time":632000000000,"state":"active","ping":58}]},{"server_id":51,"name":"Uncletopia | Warsaw | 3 | All Maps","name_short":"waw-3","host":"waw-1.pl.uncletopia.com","port":27035,"enabled":true,"region":"eu","cc":"pl","latitude":52.2297,"longitude":21.017532,"reserved":0,"last_update":"0001-01-01T00:00:00Z","name_a2s":"Uncletopia | Warsaw | 3 | All Maps","protocol":17,"map":"cp_process_final","folder":"tf","game":"Team Fortress","app_id":440,"player_count":0,"max_players":24,"Bots":0,"server_type":"Dedicated","server_os":"Linux","password":true,"vac":true,"version":"7757534","steam_id":85568392925397852,"keywords":["cp","nocrits","nodmgspread","uncletopia"],"game_id":440,"stv_port":27036,"stv_name":"Uncletopia | Warsaw | 3 | All Maps | STV","players":null},{"server_id":52,"name":"Uncletopia | Warsaw | 4 | All Maps","name_short":"waw-4","host":"waw-1.pl.uncletopia.com","port":27045,"enabled":true,"region":"eu","cc":"pl","latitude":52.2297,"longitude":21.017532,"reserved":0,"last_update":"0001-01-01T00:00:00Z","name_a2s":"Uncletopia | Warsaw | 4 | All Maps","protocol":17,"map":"koth_highpass","folder":"tf","game":"Team Fortress","app_id":440,"player_count":3,"max_players":24,"Bots":0,"server_type":"Dedicated","server_os":"Linux","password":true,"vac":true,"version":"7757534","steam_id":85568392925397853,"keywords":["cp","nocrits","nodmgspread","uncletopia"],"game_id":440,"stv_port":27046,"stv_name":"Uncletopia | Warsaw | 4 | All Maps | STV","players":[{"user_id":17,"name":"Toaster","steam_id":76561198959430698,"connected_time":503000000000,"state":"active","ping":112},{"user_id":14,"name":"the feesh lord","steam_id":76561199135673902,"connected_time":1430000000000,"state":"active","ping":108},{"user_id":12,"name":"Janus","steam_id":76561199223737557,"connected_time":2644000000000,"state":"active","ping":126}]},{"server_id":53,"name":"Uncletopia | Warsaw | 5 | Stopwatch Beta","name_short":"waw-5","host":"waw-1.pl.uncletopia.com","port":27055,"enabled":true,"region":"eu","cc":"pl","latitude":52.2297,"longitude":21.017532,"reserved":0,"last_update":"0001-01-01T00:00:00Z","name_a2s":"Uncletopia | Warsaw | 5 | Stopwatch Beta","protocol":17,"map":"pl_barnblitz","folder":"tf","game":"Team Fortress","app_id":440,"player_count":0,"max_players":24,"Bots":0,"server_type":"Dedicated","server_os":"Linux","password":true,"vac":true,"version":"7757534","steam_id":85568392925397854,"keywords":["nocrits","nodmgspread","payload","uncletopia"],"game_id":440,"stv_port":27056,"stv_name":"Uncletopia | Warsaw | 5 | Stopwatch Beta | STV","players":null},{"server_id":54,"name":"Uncletopia | Warsaw | 6 | Community","name_short":"waw-6","host":"waw-1.pl.uncletopia.com","port":27065,"enabled":true,"region":"eu","cc":"pl","latitude":52.2297,"longitude":21.017532,"reserved":0,"last_update":"0001-01-01T00:00:00Z","name_a2s":"Uncletopia | Warsaw | 6 | Community","protocol":17,"map":"pl_swiftwater_final1","folder":"tf","game":"Team Fortress","app_id":440,"player_count":0,"max_players":24,"Bots":0,"server_type":"Dedicated","server_os":"Linux","password":true,"vac":true,"version":"7757534","steam_id":85568392925397856,"keywords":["nocrits","nodmgspread","payload","uncletopia"],"game_id":440,"stv_port":27066,"stv_name":"Uncletopia | Warsaw | 6 | Community | STV","players":null}]}