{"status":true,"message":"","result":[{"server_id":9,"name":"Uncletopia | Atlanta | 1 | All Maps","name_short":"atl-1","host":"atl-1.us.uncletopia.com","port":27015,"enabled":true,"region":"us-east","cc":"us","latitude":33.753746,"longitude":-84.38633,"reserved":0,"last_update":"0001-01-01T00:00:00Z","name_a2s":"Uncletopia | Atlanta | 1 | All Maps","protocol":17,"map":"pl_frontier_final","folder":"tf","game":"Team Fortress","app_id":440,"player_count":24,"max_players":24,"Bots":0,"server_type":"Dedicated","server_os":"Linux","password":true,"vac":true,"version":"7742253","steam_id":85568392924469982,"keywords":["nocrits","nodmgspread","payload","uncletopia"],"game_id":440,"stv_port":27016,"stv_name":"Uncletopia | Atlanta | 1 | All Maps | STV","players":[{"user_id":571,"name":"Winter the Witchie","steam_id":76561198151971178,"connected_time":281000000000,"state":"active","ping":70},{"user_id":572,"name":"Shroast","steam_id":76561199014781978,"connected_time":275000000000,"state":"active","ping":128},{"user_id":573,"name":"kametro4","steam_id":76561198835430429,"connected_time":255000000000,"state":"active","ping":107},{"user_id":574,"name":"fac","steam_id":76561198009818412,"connected_time":237000000000,"state":"active","ping":60},{"user_id":505,"name":"ATL1 | on my hunting trip","steam_id":76561198315341646,"connected_time":6394000000000,"state":"active","ping":69},{"user_id":576,"name":"KnightShock","steam_id":76561199086307667,"connected_time":188000000000,"state":"active","ping":95},{"user_id":564,"name":"moonage72","steam_id":76561199187008629,"connected_time":950000000000,"state":"active","ping":85},{"user_id":549,"name":"Jin","steam_id":76561198119873148,"connected_time":2353000000000,"state":"active","ping":79},{"user_id":580,"name":"peachy","steam_id":76561198026664629,"connected_time":96000000000,"state":"active","ping":60},{"user_id":560,"name":"Ew Dirt","steam_id":76561198085409448,"connected_time":1217000000000,"state":"active","ping":76},{"user_id":578,"name":"FlakkerSaber.","steam_id":76561198103503066,"connected_time":177000000000,"state":"active","ping":65},{"user_id":374,"name":"Limbo_Darkness","steam_id":76561198127411819,"connected_time":15791000000000,"state":"active","ping":66},{"user_id":561,"name":"IPaige","steam_id":76561198271967211,"connected_time":1113000000000,"state":"active","ping":84},{"user_id":541,"name":"Raccoon","steam_id":76561198978422268,"connected_time":3005000000000,"state":"active","ping":90},{"user_id":550,"name":"FluffyPotato","steam_id":76561198157243618,"connected_time":2338000000000,"state":"active","ping":112},{"user_id":565,"name":"Woakes","steam_id":76561198139122301,"connected_time":949000000000,"state":"active","ping":56},{"user_id":581,"name":"Guts","steam_id":76561198244702428,"connected_time":85000000000,"state":"active","ping":76},{"user_id":569,"name":"FemboyNate","steam_id":76561198146636410,"connected_time":795000000000,"state":"active","ping":75},{"user_id":552,"name":"Aniz","steam_id":76561199226665024,"connected_time":1649000000000,"state":"active","ping":169},{"user_id":568,"name":"JimmySquid","steam_id":76561198254242530,"connected_time":917000000000,"state":"active","ping":72},{"user_id":532,"name":"AliCeline","steam_id":76561198207017241,"connected_time":4046000000000,"state":"active","ping":81},{"user_id":570,"name":"VidzCMC","steam_id":76561198848142973,"connected_time":629000000000,"state":"active","ping":87},{"user_id":582,"name":"ATL1 | MarrowMarauder","steam_id":76561198930350337,"connected_time":36000000000,"state":"active","ping":63}]},{"server_id":400,"name":"Uncletopia | Atlanta | 3 | Stopwatch Beta","name_short":"atl-3","host":"atl-1.us.uncletopia.com","port":27035,"enabled":true,"region":"us-east","cc":"us","latitude":33.753746,"longitude":-84.38633,"reserved":0,"last_update":"0001-01-01T00:00:00Z","name_a2s":"Uncletopia | Atlanta | 3 | Stopwatch Beta","protocol":17,"map":"pl_upward","folder":"tf","game":"Team Fortress","app_id":440,"player_count":0,"max_players":24,"Bots":0,"server_type":"Dedicated","server_os":"Linux","password":true,"vac":true,"version":"7742253","steam_id":85568392924515187,"keywords":["nocrits","nodmgspread","payload","uncletopia"],"game_id":440,"stv_port":27036,"stv_name":"Uncletopia | Atlanta | 3 | Stopwatch Beta | STV","players":null},{"server_id":401,"name":"Uncletopia | Atlanta | 4 | No Payload","name_short":"atl-4","host":"atl-1.us.uncletopia.com","port":27045,"enabled":true,"region":"us-east","cc":"us","latitude":33.753746,"longitude":-84.38633,"reserved":0,"last_update":"0001-01-01T00:00:00Z","name_a2s":"Uncletopia | Atlanta | 4 | No Payload","protocol":17,"map":"pl_pier","folder":"tf","game":"Team Fortress","app_id":440,"player_count":0,"max_players":24,"Bots":0,"server_type":"Dedicated","server_os":"Linux","password":true,"vac":true,"version":"7723704","steam_id":85568392924515188,"keywords":["nocrits","nodmgspread","payload","uncletopia"],"game_id":440,"stv_port":27046,"stv_name":"Uncletopia | Atlanta | 4 | No Payload | STV","players":null},{"server_id":2,"name":"Uncletopia | Chicago | 1 | All Maps","name_short":"chi-1","host":"chi-1.us.uncletopia.com","port":27015,"enabled":true,"region":"us-central","cc":"us","latitude":41.881832,"longitude":-87.62318,"reserved":0,"last_update":"0001-01-01T00:00:00Z","name_a2s":"Uncletopia | Chicago | 1 | All Maps","protocol":17,"map":"pl_frontier_final","folder":"tf","game":"Team Fortress","app_id":440,"player_count":24,"max_players":24,"Bots":0,"server_type":"Dedicated","server_os":"Linux","password":true,"vac":true,"version":"7742253","steam_id":85568392924469984,"keywords":["nocrits","nodmgspread","payload","uncletopia"],"game_id":440,"stv_port":27016,"stv_name":"Uncletopia | Chicago | 1 | All Maps | STV","players":[{"user_id":707,"name":"McGangBang","steam_id":76561198862379865,"connected_time":458000000000,"state":"active","ping":41},{"user_id":655,"name":"Snom","steam_id":76561198333827920,"connected_time":2823000000000,"state":"active","ping":114},{"user_id":703,"name":"{FITH}‚Ñ¢ Halcyon","steam_id":76561198049132808,"connected_time":520000000000,"state":"active","ping":69},{"user_id":708,"name":"dw4rf","steam_id":76561198046953937,"connected_time":437000000000,"state":"active","ping":110},{"user_id":611,"name":"Daddy Senpai Chan","steam_id":76561198400204109,"connected_time":6144000000000,"state":"active","ping":68},{"user_id":698,"name":"My Pet Polar Bear","steam_id":76561198052902058,"connected_time":851000000000,"state":"active","ping":96},{"user_id":704,"name":"SorenMaximus","steam_id":76561198962936832,"connected_time":519000000000,"state":"active","ping":92},{"user_id":709,"name":"gonurlight","steam_id":76561198935839416,"connected_time":433000000000,"state":"active","ping":90},{"user_id":705,"name":"droobie","steam_id":76561197991524964,"connected_time":514000000000,"state":"active","ping":60},{"user_id":713,"name":"PlasmaPower","steam_id":76561198136316884,"connected_time":232000000000,"state":"active","ping":72},{"user_id":671,"name":"Terium","steam_id":76561198331234327,"connected_time":1971000000000,"state":"active","ping":56},{"user_id":684,"name":"Michaelpc1","steam_id":76561198088365519,"connected_time":1345000000000,"state":"active","ping":74},{"user_id":710,"name":"Hey","steam_id":76561198447517893,"connected_time":402000000000,"state":"active","ping":69},{"user_id":706,"name":"snus lord","steam_id":76561197996568635,"connected_time":506000000000,"state":"active","ping":46},{"user_id":715,"name":"9. choking on apple","steam_id":76561198984612489,"connected_time":118000000000,"state":"active","ping":91},{"user_id":693,"name":"Trakmer","steam_id":76561198049501416,"connected_time":1017000000000,"state":"active","ping":184},{"user_id":712,"name":"Adanpog","steam_id":76561199082107399,"connected_time":370000000000,"state":"active","ping":80},{"user_id":690,"name":"Tick","steam_id":76561198184161214,"connected_time":1197000000000,"state":"active","ping":44},{"user_id":618,"name":"Alt","steam_id":76561197992591984,"connected_time":5783000000000,"state":"active","ping":59},{"user_id":691,"name":"Bean0914","steam_id":76561198261906023,"connected_time":1197000000000,"state":"active","ping":86},{"user_id":679,"name":"48","steam_id":76561198156422760,"connected_time":1732000000000,"state":"active","ping":59},{"user_id":644,"name":"TheMeatlyShaymin","steam_id":76561199078945620,"connected_time":4494000000000,"state":"active","ping":61},{"user_id":681,"name":"pew pew user","steam_id":76561198307845869,"connected_time":1591000000000,"state":"active","ping":68},{"user_id":675,"name":"darps","steam_id":76561198105227318,"connected_time":1921000000000,"state":"active","ping":57}]},{"server_id":106,"name":"Uncletopia | Chicago | 2 | All Maps","name_short":"chi-2","host":"chi-1.us.uncletopia.com","port":27025,"enabled":true,"region":"us-central","cc":"us","latitude":41.881832,"longitude":-87.62318,"reserved":0,"last_update":"0001-01-01T00:00:00Z","name_a2s":"Uncletopia | Chicago | 2 | All Maps","protocol":17,"map":"pl_borneo","folder":"tf","game":"Team Fortress","app_id":440,"player_count":24,"max_players":24,"Bots":0,"server_type":"Dedicated","server_os":"Linux","password":true,"vac":true,"version":"7742253","steam_id":85568392924469985,"keywords":["nocrits","nodmgspread","payload","uncletopia"],"game_id":440,"stv_port":27026,"stv_name":"Uncletopia | Chicago | 2 | All Maps | STV","players":[{"user_id":572,"name":"Roz257","steam_id":76561198842844532,"connected_time":425000000000,"state":"active","ping":67},{"user_id":575,"name":"AlecTheNefarious","steam_id":76561198035291230,"connected_time":77000000000,"state":"active","ping":64},{"user_id":568,"name":"Asher","steam_id":76561198218499636,"connected_time":755000000000,"state":"active","ping":67},{"user_id":545,"name":"Dill","steam_id":76561197985091914,"connected_time":1622000000000,"state":"active","ping":57},{"user_id":534,"name":"[S]Mr. X [No Monitor]","steam_id":76561197963746035,"connected_time":2860000000000,"state":"active","ping":114},{"user_id":529,"name":"java","steam_id":76561198030276792,"connected_time":3018000000000,"state":"active","ping":60},{"user_id":566,"name":"yesoko","steam_id":76561198072917024,"connected_time":813000000000,"state":"active","ping":62},{"user_id":517,"name":"St4pps","steam_id":76561198449842958,"connected_time":3473000000000,"state":"active","ping":71},{"user_id":501,"name":"sithreis","steam_id":76561198000564263,"connected_time":5145000000000,"state":"active","ping":62},{"user_id":574,"name":"OKB-812","steam_id":76561199172118456,"connected_time":298000000000,"state":"active","ping":57},{"user_id":571,"name":"wife haver","steam_id":76561198248170354,"connected_time":494000000000,"state":"active","ping":75},{"user_id":552,"name":"im sorry","steam_id":76561198070903458,"connected_time":1534000000000,"state":"active","ping":87},{"user_id":560,"name":"ultiii","steam_id":76561198045727840,"connected_time":1165000000000,"state":"active","ping":56},{"user_id":569,"name":"TheAilingSword","steam_id":76561198250350844,"connected_time":711000000000,"state":"active","ping":60},{"user_id":570,"name":"Colin102004","steam_id":76561198202384334,"connected_time":710000000000,"state":"active","ping":59},{"user_id":576,"name":"little man","steam_id":76561198865971290,"connected_time":29000000000,"state":"active","ping":85},{"user_id":563,"name":"AlbinoRhino","steam_id":76561199192140783,"connected_time":912000000000,"state":"active","ping":499},{"user_id":503,"name":"lanoc","steam_id":76561198055415367,"connected_time":5140000000000,"state":"active","ping":60},{"user_id":559,"name":"krornus","steam_id":76561198003890508,"connected_time":1267000000000,"state":"active","ping":63},{"user_id":556,"name":"lawnmowinkitty","steam_id":76561198038997467,"connected_time":1489000000000,"state":"active","ping":99},{"user_id":431,"name":"[slug]","steam_id":76561197989592178,"connected_time":10253000000000,"state":"active","ping":62},{"user_id":541,"name":"Nodspine","steam_id":76561198253579994,"connected_time":2639000000000,"state":"active","ping":120},{"user_id":558,"name":"slep.py","steam_id":76561197988287144,"connected_time":1367000000000,"state":"active","ping":52},{"user_id":565,"name":"glug slug","steam_id":76561197988690273,"connected_time":881000000000,"state":"active","ping":73}]},{"server_id":402,"name":"Uncletopia | Chicago | 3 | All Maps","name_short":"chi-3","host":"chi-1.us.uncletopia.com","port":27035,"enabled":true,"region":"us-central","cc":"us","latitude":41.881832,"longitude":-87.62318,"reserved":0,"last_update":"0001-01-01T00:00:00Z","name_a2s":"Uncletopia | Chicago | 3 | All Maps","protocol":17,"map":"koth_viaduct","folder":"tf","game":"Team Fortress","app_id":440,"player_count":23,"max_players":24,"Bots":0,"server_type":"Dedicated","server_os":"Linux","password":true,"vac":true,"version":"7742253","steam_id":85568392924515191,"keywords":["cp","nocrits","nodmgspread","uncletopia"],"game_id":440,"stv_port":27036,"stv_name":"Uncletopia | Chicago | 3 | All Maps | STV","players":[{"user_id":800,"name":"Snake Handler","steam_id":76561198027198306,"connected_time":7175000000000,"state":"active","ping":60},{"user_id":882,"name":"eryn üó∫","steam_id":76561198004433070,"connected_time":358000000000,"state":"active","ping":75},{"user_id":856,"name":"stuporvillian","steam_id":76561198083796225,"connected_time":2273000000000,"state":"active","ping":81},{"user_id":857,"name":"Christmas Cretin","steam_id":76561198149063013,"connected_time":2231000000000,"state":"active","ping":88},{"user_id":894,"name":"viedoamegs","steam_id":76561198025295263,"connected_time":52000000000,"state":"active","ping":75},{"user_id":881,"name":"OlympicChamp_12 | Trade.tf","steam_id":76561198830574526,"connected_time":439000000000,"state":"active","ping":108},{"user_id":874,"name":"YouCheekyDickWaffle","steam_id":76561198117348760,"connected_time":1767000000000,"state":"active","ping":50},{"user_id":887,"name":"chris","steam_id":76561198056186750,"connected_time":265000000000,"state":"active","ping":50},{"user_id":854,"name":"Myracle","steam_id":76561198070916920,"connected_time":2336000000000,"state":"active","ping":45},{"user_id":884,"name":"SecondCarpet","steam_id":76561199008323078,"connected_time":309000000000,"state":"active","ping":70},{"user_id":886,"name":"darkjustin54","steam_id":76561198060056280,"connected_time":285000000000,"state":"active","ping":65},{"user_id":875,"name":"aeop","steam_id":76561198153671643,"connected_time":1729000000000,"state":"active","ping":60},{"user_id":888,"name":"stungoperation","steam_id":76561199162409918,"connected_time":264000000000,"state":"active","ping":58},{"user_id":891,"name":"mush","steam_id":76561198310089797,"connected_time":188000000000,"state":"active","ping":47},{"user_id":868,"name":"playing w gamecube controller r","steam_id":76561198092172152,"connected_time":1954000000000,"state":"active","ping":64},{"user_id":870,"name":"silver","steam_id":76561198081906712,"connected_time":1900000000000,"state":"active","ping":39},{"user_id":890,"name":"nvm_","steam_id":76561198843128678,"connected_time":234000000000,"state":"active","ping":46},{"user_id":873,"name":"Lord Scrubling","steam_id":76561198263744445,"connected_time":1877000000000,"state":"active","ping":76},{"user_id":876,"name":"Blargian Snagglebeast","steam_id":76561198115831507,"connected_time":1719000000000,"state":"active","ping":53},{"user_id":879,"name":"Big Pharma","steam_id":76561198130165656,"connected_time":1249000000000,"state":"active","ping":51},{"user_id":880,"name":"terrapieseven","steam_id":76561198072062415,"connected_time":1122000000000,"state":"active","ping":74},{"user_id":892,"name":"Cocktimus Slime","steam_id":76561198050582941,"connected_time":169000000000,"state":"active","ping":74},{"user_id":893,"name":"Inevitable","steam_id":76561198210050169,"connected_time":89000000000,"state":"active","ping":60}]},{"server_id":403,"name":"Uncletopia | Chicago | 4 | All Maps","name_short":"chi-4","host":"chi-1.us.uncletopia.com","port":27045,"enabled":true,"region":"us-central","cc":"us","latitude":41.881832,"longitude":-87.62318,"reserved":0,"last_update":"0001-01-01T00:00:00Z","name_a2s":"Uncletopia | Chicago | 4 | All Maps","protocol":17,"map":"cp_dustbowl","folder":"tf","game":"Team Fortress","app_id":440,"player_count":23,"max_players":24,"Bots":0,"server_type":"Dedicated","server_os":"Linux","password":true,"vac":true,"version":"7742253","steam_id":85568392924515193,"keywords":["cp","nocrits","nodmgspread","uncletopia"],"game_id":440,"stv_port":27046,"stv_name":"Uncletopia | Chicago | 4 | All Maps | STV","players":[{"user_id":325,"name":"Garbage","steam_id":76561198286796934,"connected_time":691000000000,"state":"active","ping":65},{"user_id":338,"name":"Withur From My Singing Monsters","steam_id":76561198272471440,"connected_time":184000000000,"state":"active","ping":72},{"user_id":324,"name":"sunnynguyentheone","steam_id":76561199071269553,"connected_time":748000000000,"state":"active","ping":76},{"user_id":337,"name":"Dipshit McGee","steam_id":76561198044381982,"connected_time":276000000000,"state":"active","ping":63},{"user_id":327,"name":"Grape Juice","steam_id":76561198380337568,"connected_time":664000000000,"state":"active","ping":71},{"user_id":265,"name":"The Dumptruck of Notre-Dame","steam_id":76561198004815026,"connected_time":5573000000000,"state":"active","ping":79},{"user_id":267,"name":"the hunchback of gay paris","steam_id":76561197987056308,"connected_time":5514000000000,"state":"active","ping":85},{"user_id":321,"name":"Antreuse","steam_id":76561198219721132,"connected_time":821000000000,"state":"active","ping":107},{"user_id":270,"name":"Waxing Green Gibus","steam_id":76561198269228580,"connected_time":5214000000000,"state":"active","ping":63},{"user_id":343,"name":"starboy","steam_id":76561198072072241,"connected_time":15000000000,"state":"spawning","ping":52},{"user_id":340,"name":"SpottedBoy","steam_id":76561198323910281,"connected_time":133000000000,"state":"active","ping":114},{"user_id":322,"name":"Camtec","steam_id":76561198110562804,"connected_time":768000000000,"state":"active","ping":88},{"user_id":298,"name":"Mario trapped in a piano","steam_id":76561198116765135,"connected_time":4666000000000,"state":"active","ping":88},{"user_id":341,"name":"hashmap","steam_id":76561198043794014,"connected_time":90000000000,"state":"active","ping":48},{"user_id":280,"name":"wordyhook830","steam_id":76561198086538218,"connected_time":4931000000000,"state":"active","ping":91},{"user_id":330,"name":"Dealyo","steam_id":76561198282395338,"connected_time":605000000000,"state":"active","ping":110},{"user_id":331,"name":"Vortigon","steam_id":76561198116361805,"connected_time":509000000000,"state":"active","ping":81},{"user_id":283,"name":"Dr.KombatPhD.ttv","steam_id":76561198263847667,"connected_time":4899000000000,"state":"active","ping":63},{"user_id":332,"name":"turnip","steam_id":76561197999375941,"connected_time":500000000000,"state":"active","ping":77},{"user_id":342,"name":"Buckethead","steam_id":76561198210181296,"connected_time":59000000000,"state":"active","ping":99},{"user_id":292,"name":"Scok","steam_id":76561198079991614,"connected_time":4797000000000,"state":"active","ping":85},{"user_id":311,"name":"Anon","steam_id":76561198109740776,"connected_time":3221000000000,"state":"active","ping":114},{"user_id":306,"name":"tomass","steam_id":76561198135893764,"connected_time":3699000000000,"state":"active","ping":72}]},{"server_id":36,"name":"Uncletopia | Chicago | 5 | All Maps","name_short":"chi-5","host":"chi-2.us.uncletopia.com","port":27015,"enabled":true,"region":"us-central","cc":"us","latitude":41.881832,"longitude":-87.62318,"reserved":0,"last_update":"0001-01-01T00:00:00Z","name_a2s":"Uncletopia | Chicago | 5 | All Maps","protocol":17,"map":"cp_snakewater_final1","folder":"tf","game":"Team Fortress","app_id":440,"player_count":15,"max_players":24,"Bots":0,"server_type":"Dedicated","server_os":"Linux","password":true,"vac":true,"version":"7742253","steam_id":85568392924866362,"keywords":["cp","nocrits","nodmgspread","uncletopia"],"game_id":440,"stv_port":27016,"stv_name":"Uncletopia | Chicago | 5 | All Maps | STV","players":[{"user_id":140,"name":"Ford Truck Gaming","steam_id":76561199042674833,"connected_time":1154000000000,"state":"active","ping":79},{"user_id":105,"name":"RetroDsk | TTV","steam_id":76561198020646524,"connected_time":5659000000000,"state":"active","ping":62},{"user_id":133,"name":"therealpickleman","steam_id":76561198956323793,"connected_time":1943000000000,"state":"active","ping":64},{"user_id":141,"name":"Dino Dude","steam_id":76561198799270016,"connected_time":1043000000000,"state":"active","ping":43},{"user_id":143,"name":"D3AC0N 44","steam_id":76561198115695203,"connected_time":1022000000000,"state":"active","ping":43},{"user_id":160,"name":"segway cop","steam_id":76561198225609936,"connected_time":71000000000,"state":"active","ping":48},{"user_id":92,"name":"Cpt. Bearshark00","steam_id":76561198072528090,"connected_time":6378000000000,"state":"active","ping":52},{"user_id":151,"name":"Ping","steam_id":76561199206514106,"connected_time":752000000000,"state":"active","ping":66},{"user_id":145,"name":"ToastyNuts","steam_id":76561198064465418,"connected_time":946000000000,"state":"active","ping":76},{"user_id":158,"name":"mischevious (no mic)","steam_id":76561198058209703,"connected_time":259000000000,"state":"active","ping":48},{"user_id":148,"name":"charles mingus","steam_id":76561198232617936,"connected_time":899000000000,"state":"active","ping":45},{"user_id":103,"name":"2Pacula","steam_id":76561198066867150,"connected_time":5689000000000,"state":"active","ping":60},{"user_id":154,"name":"Money Collector","steam_id":76561198046249467,"connected_time":666000000000,"state":"active","ping":46},{"user_id":159,"name":"Baphy","steam_id":76561199088719865,"connected_time":154000000000,"state":"active","ping":152},{"user_id":152,"name":"Noshy-Yoshi","steam_id":76561198189521209,"connected_time":712000000000,"state":"active","ping":69}]},{"server_id":37,"name":"Uncletopia | Chicago | 6 | All Maps","name_short":"chi-6","host":"chi-2.us.uncletopia.com","port":27025,"enabled":true,"region":"us-central","cc":"us","latitude":41.881832,"longitude":-87.62318,"reserved":0,"last_update":"0001-01-01T00:00:00Z","name_a2s":"Uncletopia | Chicago | 6 | All Maps","protocol":17,"map":"koth_cascade","folder":"tf","game":"Team Fortress","app_id":440,"player_count":0,"max_players":24,"Bots":0,"server_type":"Dedicated","server_os":"Linux","password":true,"vac":true,"version":"7742253","steam_id":85568392924866363,"keywords":["cp","nocrits","nodmgspread","uncletopia"],"game_id":440,"stv_port":27026,"stv_name":"Uncletopia | Chicago | 6 | All Maps | STV","players":null},{"server_id":38,"name":"Uncletopia | Chicago | 7 | Stopwatch Beta","name_short":"chi-7","host":"chi-2.us.uncletopia.com","port":27035,"enabled":true,"region":"us-central","cc":"us","latitude":41.881832,"longitude":-87.62318,"reserved":0,"last_update":"0001-01-01T00:00:00Z","name_a2s":"Uncletopia | Chicago | 7 | Stopwatch Beta","protocol":17,"map":"cp_altitude","folder":"tf","game":"Team Fortress","app_id":440,"player_count":0,"max_players":24,"Bots":0,"server_type":"Dedicated","server_os":"Linux","password":true,"vac":true,"version":"7742253","steam_id":85568392924866364,"keywords":["cp","nocrits","nodmgspread","uncletopia"],"game_id":440,"stv_port":27036,"stv_name":"Uncletopia | Chicago | 7 | Stopwatch Beta | STV","players":null},{"server_id":39,"name":"Uncletopia | Chicago | 8 | Community","name_short":"chi-8","host":"chi-2.us.uncletopia.com","port":27045,"enabled":true,"region":"us-central","cc":"us","latitude":41.881832,"longitude":-87.62318,"reserved":0,"last_update":"0001-01-01T00:00:00Z","name_a2s":"Uncletopia | Chicago | 8 | Community","protocol":17,"map":"workshop/cp_caldera_rc2.ugc2834196889","folder":"tf","game":"Team Fortress","app_id":440,"player_count":3,"max_players":24,"Bots":0,"server_type":"Dedicated","server_os":"Linux","password":true,"vac":true,"version":"7742253","steam_id":85568392924866365,"keywords":["cp","nocrits","nodmgspread","uncletopia"],"game_id":440,"stv_port":27046,"stv_name":"Uncletopia | Chicago | 8 | Community | STV","players":[{"user_id":4,"name":"Your Local Festive Furry","steam_id":76561199030190462,"connected_time":3230000000000,"state":"active","ping":64},{"user_id":8,"name":"Fred McFrizzle","steam_id":76561198085117424,"connected_time":1545000000000,"state":"active","ping":75},{"user_id":10,"name":"Shadowclaw","steam_id":76561198322511628,"connected_time":985000000000,"state":"active","ping":56}]},{"server_id":8,"name":"Uncletopia | Dallas | 1 | All Maps","name_short":"dal-1","host":"dal-1.us.uncletopia.com","port":27015,"enabled":true,"region":"us-central","cc":"us","latitude":32.779167,"longitude":-96.80889,"reserved":0,"last_update":"0001-01-01T00:00:00Z","name_a2s":"Uncletopia | Dallas | 1 | All Maps","protocol":17,"map":"pl_pier","folder":"tf","game":"Team Fortress","app_id":440,"player_count":0,"max_players":24,"Bots":0,"server_type":"Dedicated","server_os":"Linux","password":true,"vac":true,"version":"7742253","steam_id":85568392924469986,"keywords":["nocrits","nodmgspread","payload","uncletopia"],"game_id":440,"stv_port":27016,"stv_name":"Uncletopia | Dallas | 1 | All Maps | STV","players":null},{"server_id":108,"name":"Uncletopia | Dallas | 2 | All Maps","name_short":"dal-2","host":"dal-1.us.uncletopia.com","port":27025,"enabled":true,"region":"us-central","cc":"us","latitude":32.779167,"longitude":-96.80889,"reserved":0,"last_update":"0001-01-01T00:00:00Z","name_a2s":"Uncletopia | Dallas | 2 | All Maps","protocol":17,"map":"pl_upward","folder":"tf","game":"Team Fortress","app_id":440,"player_count":23,"max_players":24,"Bots":0,"server_type":"Dedicated","server_os":"Linux","password":true,"vac":true,"version":"7742253","steam_id":85568392924469988,"keywords":["nocrits","nodmgspread","payload","uncletopia"],"game_id":440,"stv_port":27026,"stv_name":"Uncletopia | Dallas | 2 | All Maps | STV","players":[{"user_id":572,"name":"Phillip Jeffries","steam_id":76561198064052174,"connected_time":2215000000000,"state":"active","ping":88},{"user_id":548,"name":"bigboimarven","steam_id":76561198844778810,"connected_time":3645000000000,"state":"active","ping":58},{"user_id":577,"name":"Bob the Builder","steam_id":76561199069029812,"connected_time":1797000000000,"state":"active","ping":85},{"user_id":504,"name":"Pie","steam_id":76561198178098071,"connected_time":7043000000000,"state":"active","ping":95},{"user_id":585,"name":"Bottle","steam_id":76561198044031558,"connected_time":974000000000,"state":"active","ping":69},{"user_id":562,"name":"The Sydney Sleeper Itself","steam_id":76561198180251763,"connected_time":2634000000000,"state":"active","ping":49},{"user_id":520,"name":"Branos","steam_id":76561198396414319,"connected_time":5493000000000,"state":"active","ping":76},{"user_id":589,"name":"FG7","steam_id":76561198381197197,"connected_time":47000000000,"state":"active","ping":125},{"user_id":584,"name":"miles","steam_id":76561199029019040,"connected_time":1364000000000,"state":"active","ping":99},{"user_id":587,"name":"WOW","steam_id":76561199134742516,"connected_time":366000000000,"state":"active","ping":48},{"user_id":588,"name":"Etomb","steam_id":76561198210017208,"connected_time":51000000000,"state":"active","ping":75},{"user_id":580,"name":"Sabo","steam_id":76561198244442548,"connected_time":1584000000000,"state":"active","ping":60},{"user_id":590,"name":"sweaterfan","steam_id":76561199389567214,"connected_time":12000000000,"state":"spawning","ping":130},{"user_id":582,"name":"survivalist bubbie","steam_id":76561198860460013,"connected_time":1486000000000,"state":"active","ping":93},{"user_id":591,"name":"squid game","steam_id":76561199248960166,"connected_time":0,"state":"spawning","ping":22},{"user_id":568,"name":"mikey | I'm Burning Bright!","steam_id":76561198985847893,"connected_time":2576000000000,"state":"active","ping":46},{"user_id":543,"name":"Rick Assley","steam_id":76561198365019199,"connected_time":3885000000000,"state":"active","ping":78},{"user_id":570,"name":"Big ol' Willy Gaming","steam_id":76561198048545731,"connected_time":2403000000000,"state":"active","ping":115},{"user_id":574,"name":"‚ô¶‚ô£Quadric‚ô•‚ô†","steam_id":76561198061003853,"connected_time":2152000000000,"state":"active","ping":84},{"user_id":479,"name":"KFC‚ò≠","steam_id":76561199206815320,"connected_time":7962000000000,"state":"active","ping":75},{"user_id":556,"name":"Antis","steam_id":76561198055790522,"connected_time":3041000000000,"state":"active","ping":84},{"user_id":583,"name":"survivalist keeda","steam_id":76561198277979851,"connected_time":1462000000000,"state":"active","ping":104},{"user_id":557,"name":"Sergeant Sear","steam_id":76561197963477221,"connected_time":2941000000000,"state":"active","ping":77}]},{"server_id":5,"name":"Uncletopia | Frankfurt | 1 | All Maps","name_short":"frk-1","host":"frk-1.de.uncletopia.com","port":27015,"enabled":true,"region":"eu","cc":"de","latitude":50.110924,"longitude":8.682127,"reserved":0,"last_update":"0001-01-01T00:00:00Z","name_a2s":"Uncletopia | Frankfurt | 1 | All Maps","protocol":17,"map":"pl_barnblitz","folder":"tf","game":"Team Fortress","app_id":440,"player_count":0,"max_players":24,"Bots":0,"server_type":"Dedicated","server_os":"Linux","password":true,"vac":true,"version":"7742253","steam_id":85568392924469989,"keywords":["nocrits","nodmgspread","payload","uncletopia"],"game_id":440,"stv_port":27016,"stv_name":"Uncletopia | Frankfurt | 1 | All Maps | STV","players":null},{"server_id":110,"name":"Uncletopia | Frankfurt | 2 | All Maps","name_short":"frk-2","host":"frk-1.de.uncletopia.com","port":27025,"enabled":true,"region":"eu","cc":"de","latitude":50.110924,"longitude":8.682127,"reserved":0,"last_update":"0001-01-01T00:00:00Z","name_a2s":"Uncletopia | Frankfurt | 2 | All Maps","protocol":17,"map":"pl_upward","folder":"tf","game":"Team Fortress","app_id":440,"player_count":3,"max_players":24,"Bots":0,"server_type":"Dedicated","server_os":"Linux","password":true,"vac":true,"version":"7742253","steam_id":85568392924469990,"keywords":["nocrits","nodmgspread","payload","uncletopia"],"game_id":440,"stv_port":27026,"stv_name":"Uncletopia | Frankfurt | 2 | All Maps | STV","players":[{"user_id":3,"name":"[CC]Nyafka","steam_id":76561198289878090,"connected_time":785000000000,"state":"active","ping":118},{"user_id":8,"name":"pyro sex","steam_id":76561199225397974,"connected_time":25000000000,"state":"active","ping":110},{"user_id":7,"name":"Doormann","steam_id":76561199219230108,"connected_time":556000000000,"state":"active","ping":307}]},{"server_id":308,"name":"Uncletopia | Frankfurt | 3 | All Maps","name_short":"frk-3","host":"frk-1.de.uncletopia.com","port":27035,"enabled":true,"region":"eu","cc":"de","latitude":50.110924,"longitude":8.682127,"reserved":0,"last_update":"0001-01-01T00:00:00Z","name_a2s":"Uncletopia | Frankfurt | 3 | All Maps","protocol":17,"map":"koth_viaduct","folder":"tf","game":"Team Fortress","app_id":440,"player_count":0,"max_players":24,"Bots":0,"server_type":"Dedicated","server_os":"Linux","password":true,"vac":true,"version":"7742253","steam_id":85568392924504274,"keywords":["cp","nocrits","nodmgspread","uncletopia"],"game_id":440,"stv_port":27036,"stv_name":"Uncletopia | Frankfurt | 3 | All Maps | STV","players":null},{"server_id":309,"name":"Uncletopia | Frankfurt | 4 | All Maps","name_short":"frk-4","host":"frk-1.de.uncletopia.com","port":27045,"enabled":true,"region":"eu","cc":"de","latitude":50.110924,"longitude":8.682127,"reserved":0,"last_update":"0001-01-01T00:00:00Z","name_a2s":"Uncletopia | Frankfurt | 4 | All Maps","protocol":17,"map":"pl_frontier_final","folder":"tf","game":"Team Fortress","app_id":440,"player_count":0,"max_players":24,"Bots":0,"server_type":"Dedicated","server_os":"Linux","password":true,"vac":true,"version":"7742253","steam_id":85568392924504275,"keywords":["nocrits","nodmgspread","payload","uncletopia"],"game_id":440,"stv_port":27046,"stv_name":"Uncletopia | Frankfurt | 4 | All Maps | STV","players":null},{"server_id":310,"name":"Uncletopia | Frankfurt | 5 | All Maps","name_short":"frk-5","host":"frk-1.de.uncletopia.com","port":27055,"enabled":true,"region":"eu","cc":"de","latitude":50.110924,"longitude":8.682127,"reserved":0,"last_update":"0001-01-01T00:00:00Z","name_a2s":"Uncletopia | Frankfurt | 5 | All Maps","protocol":17,"map":"cp_sunshine","folder":"tf","game":"Team Fortress","app_id":440,"player_count":0,"max_players":24,"Bots":0,"server_type":"Dedicated","server_os":"Linux","password":true,"vac":true,"version":"7742253","steam_id":85568392924504277,"keywords":["cp","nocrits","nodmgspread","uncletopia"],"game_id":440,"stv_port":27056,"stv_name":"Uncletopia | Frankfurt | 5 | All Maps | STV","players":null},{"server_id":311,"name":"Uncletopia | Frankfurt | 6 | All Maps","name_short":"frk-6","host":"frk-1.de.uncletopia.com","port":27065,"enabled":true,"region":"eu","cc":"de","latitude":50.110924,"longitude":8.682127,"reserved":0,"last_update":"0001-01-01T00:00:00Z","name_a2s":"Uncletopia | Frankfurt | 6 | All Maps","protocol":17,"map":"pl_frontier_final","folder":"tf","game":"Team Fortress","app_id":440,"player_count":0,"max_players":24,"Bots":0,"server_type":"Dedicated","server_os":"Linux","password":true,"vac":true,"version":"7742253","steam_id":85568392924504278,"keywords":["nocrits","nodmgspread","payload","uncletopia"],"game_id":440,"stv_port":27066,"stv_name":"Uncletopia | Frankfurt | 6 | All Maps | STV","players":null},{"server_id":23,"name":"Uncletopia | Frankfurt | 7 | Stopwatch Beta","name_short":"frk-7","host":"frk-1.de.uncletopia.com","port":27075,"enabled":true,"region":"eu","cc":"de","latitude":50.110924,"longitude":8.682127,"reserved":0,"last_update":"0001-01-01T00:00:00Z","name_a2s":"Uncletopia | Frankfurt | 7 | Stopwatch Beta","protocol":17,"map":"koth_lakeside_final","folder":"tf","game":"Team Fortress","app_id":440,"player_count":0,"max_players":24,"Bots":0,"server_type":"Dedicated","server_os":"Linux","password":true,"vac":true,"version":"7742253","steam_id":85568392924742827,"keywords":["cp","nocrits","nodmgspread","uncletopia"],"game_id":440,"stv_port":27076,"stv_name":"Uncletopia | Frankfurt | 7 | Stopwatch Beta | STV","players":null},{"server_id":24,"name":"Uncletopia | Frankfurt | 8 | Community","name_short":"frk-8","host":"frk-1.de.uncletopia.com","port":27085,"enabled":true,"region":"eu","cc":"de","latitude":50.110924,"longitude":8.682127,"reserved":0,"last_update":"0001-01-01T00:00:00Z","name_a2s":"Uncletopia | Frankfurt | 8 | Community","protocol":17,"map":"pl_pier","folder":"tf","game":"Team Fortress","app_id":440,"player_count":0,"max_players":24,"Bots":0,"server_type":"Dedicated","server_os":"Linux","password":true,"vac":true,"version":"7742253","steam_id":85568392924742828,"keywords":["nocrits","nodmgspread","payload","uncletopia"],"game_id":440,"stv_port":27086,"stv_name":"Uncletopia | Frankfurt | 8 | Community | STV","players":null},{"server_id":202,"name":"Uncletopia | Hong Kong | 1 | All Maps","name_short":"hgk-1","host":"hgk-1.hk.uncletopia.com","port":27015,"enabled":true,"region":"asia","cc":"hk","latitude":22.302711,"longitude":114.177216,"reserved":0,"last_update":"0001-01-01T00:00:00Z","name_a2s":"Uncletopia | Hong Kong | 1 | All Maps","protocol":17,"map":"pl_barnblitz","folder":"tf","game":"Team Fortress","app_id":440,"player_count":25,"max_players":24,"Bots":0,"server_type":"Dedicated","server_os":"Linux","password":true,"vac":true,"version":"7742253","steam_id":85568392924494504,"keywords":["nocrits","nodmgspread","payload","uncletopia"],"game_id":440,"stv_port":27016,"stv_name":"Uncletopia | Hong Kong | 1 | All Maps | STV","players":[{"user_id":180,"name":"bocchi the rock","steam_id":76561198008307645,"connected_time":526000000000,"state":"active","ping":75},{"user_id":72,"name":"Bertengkar","steam_id":76561198213031155,"connected_time":4434000000000,"state":"active","ping":97},{"user_id":146,"name":"furuka","steam_id":76561199036021874,"connected_time":1120000000000,"state":"active","ping":83},{"user_id":33,"name":"Talkk More","steam_id":76561198305424433,"connected_time":7210000000000,"state":"active","ping":142},{"user_id":138,"name":"Mystery cheese üßÄ","steam_id":76561198304002409,"connected_time":1822000000000,"state":"active","ping":74},{"user_id":64,"name":"lillalune","steam_id":76561198230213828,"connected_time":5412000000000,"state":"active","ping":68},{"user_id":68,"name":"ÏòàÎ¶∞","steam_id":76561199075190238,"connected_time":4898000000000,"state":"active","ping":73},{"user_id":136,"name":"god of cum (gold cum arc)","steam_id":76561199161406614,"connected_time":1889000000000,"state":"active","ping":102},{"user_id":144,"name":"lettuce at 58p","steam_id":76561199401283123,"connected_time":1220000000000,"state":"active","ping":98},{"user_id":173,"name":"Milk‚ù§ (most loved guy in ut)","steam_id":76561198163911560,"connected_time":702000000000,"state":"active","ping":79},{"user_id":176,"name":"Puddin","steam_id":76561198140052918,"connected_time":618000000000,"state":"active","ping":89},{"user_id":196,"name":"big poo (training arc)","steam_id":76561199104552936,"connected_time":251000000000,"state":"active","ping":70},{"user_id":203,"name":"Lu","steam_id":76561198320532821,"connected_time":42000000000,"state":"spawning","ping":59},{"user_id":140,"name":"I am BOX","steam_id":76561198845309411,"connected_time":1564000000000,"state":"active","ping":108},{"user_id":151,"name":"MAGNUS","steam_id":76561198208990721,"connected_time":940000000000,"state":"active","ping":85},{"user_id":134,"name":"KHMaster","steam_id":76561199198453345,"connected_time":2164000000000,"state":"active","ping":51},{"user_id":77,"name":"Cheesey","steam_id":76561198975684137,"connected_time":4031000000000,"state":"active","ping":99},{"user_id":78,"name":"[F2P] marcel383","steam_id":76561198860210181,"connected_time":3740000000000,"state":"active","ping":90},{"user_id":49,"name":"I love air conditioning","steam_id":76561198811532659,"connected_time":6473000000000,"state":"active","ping":79},{"user_id":92,"name":"unoriginalname42","steam_id":76561199200897735,"connected_time":3029000000000,"state":"active","ping":60},{"user_id":141,"name":"3wfFbdrjEze5d2G","steam_id":76561198435900451,"connected_time":1511000000000,"state":"active","ping":68},{"user_id":96,"name":"Windmill","steam_id":76561199230997986,"connected_time":3003000000000,"state":"active","ping":83},{"user_id":56,"name":"Chomsuya [F2P]","steam_id":76561199217426369,"connected_time":6105000000000,"state":"active","ping":72},{"user_id":63,"name":"Du57Y","steam_id":76561198120973476,"connected_time":5510000000000,"state":"active","ping":92},{"user_id":165,"name":"u/Me(ow)LEx3D","steam_id":76561199227871384,"connected_time":775000000000,"state":"active","ping":61}]},{"server_id":1,"name":"Uncletopia | Los Angeles | 1 | All Maps","name_short":"lax-1","host":"lax-1.us.uncletopia.com","port":27015,"enabled":true,"region":"us-west","cc":"us","latitude":33.94279,"longitude":-118.41004,"reserved":0,"last_update":"0001-01-01T00:00:00Z","name_a2s":"Uncletopia | Los Angeles | 1 | All Maps","protocol":17,"map":"koth_lakeside_final","folder":"tf","game":"Team Fortress","app_id":440,"player_count":0,"max_players":24,"Bots":0,"server_type":"Dedicated","server_os":"Linux","password":true,"vac":true,"version":"7742253","steam_id":85568392924469991,"keywords":["cp","nocrits","nodmgspread","uncletopia"],"game_id":440,"stv_port":27016,"stv_name":"Uncletopia | Los Angeles | 1 | All Maps | STV","players":null},{"server_id":112,"name":"Uncletopia | Los Angeles | 2 | All Maps","name_short":"lax-2","host":"lax-1.us.uncletopia.com","port":27025,"enabled":true,"region":"us-west","cc":"us","latitude":33.94279,"longitude":-118.41004,"reserved":0,"last_update":"0001-01-01T00:00:00Z","name_a2s":"Uncletopia | Los Angeles | 2 | All Maps","protocol":17,"map":"pl_badwater","folder":"tf","game":"Team Fortress","app_id":440,"player_count":24,"max_players":24,"Bots":0,"server_type":"Dedicated","server_os":"Linux","password":true,"vac":true,"version":"7742253","steam_id":85568392924469992,"keywords":["nocrits","nodmgspread","payload","uncletopia"],"game_id":440,"stv_port":27026,"stv_name":"Uncletopia | Los Angeles | 2 | All Maps | STV","players":[{"user_id":199,"name":"Owl_eyes","steam_id":76561198066199203,"connected_time":3571000000000,"state":"active","ping":56},{"user_id":231,"name":"big fish","steam_id":76561198186479818,"connected_time":806000000000,"state":"active","ping":52},{"user_id":187,"name":"Timewaves","steam_id":76561198000186054,"connected_time":4300000000000,"state":"active","ping":56},{"user_id":198,"name":"floom","steam_id":76561198387571809,"connected_time":3593000000000,"state":"active","ping":102},{"user_id":217,"name":"Mr. Mistah","steam_id":76561199085278564,"connected_time":1917000000000,"state":"active","ping":51},{"user_id":240,"name":"bobtheninjaman","steam_id":76561198066424544,"connected_time":118000000000,"state":"active","ping":95},{"user_id":136,"name":"PachucoWaffle","steam_id":76561198051491032,"connected_time":7793000000000,"state":"active","ping":100},{"user_id":234,"name":"Ricedot","steam_id":76561199053075527,"connected_time":775000000000,"state":"active","ping":60},{"user_id":134,"name":"Yellow Mellow","steam_id":76561198089697360,"connected_time":7876000000000,"state":"active","ping":76},{"user_id":208,"name":"Mom","steam_id":76561198207936000,"connected_time":3081000000000,"state":"active","ping":45},{"user_id":225,"name":"Diegorkus","steam_id":76561198076956980,"connected_time":1400000000000,"state":"active","ping":65},{"user_id":201,"name":"Shhh Whisper","steam_id":76561198046027406,"connected_time":3567000000000,"state":"active","ping":106},{"user_id":213,"name":"Hameas","steam_id":76561198195620918,"connected_time":2066000000000,"state":"active","ping":72},{"user_id":121,"name":"JJP","steam_id":76561198032914094,"connected_time":8181000000000,"state":"active","ping":56},{"user_id":189,"name":"Joe SMS From Progressive","steam_id":76561198336597038,"connected_time":4119000000000,"state":"active","ping":47},{"user_id":214,"name":"Ruby","steam_id":76561198953084101,"connected_time":2008000000000,"state":"active","ping":94},{"user_id":235,"name":"TheMilkMan","steam_id":76561199177221570,"connected_time":678000000000,"state":"active","ping":89},{"user_id":236,"name":"cheated on the pregnancy test","steam_id":76561199107068627,"connected_time":605000000000,"state":"active","ping":98},{"user_id":218,"name":"s4lmon","steam_id":76561198055882807,"connected_time":1894000000000,"state":"active","ping":78},{"user_id":239,"name":"Dim Strike","steam_id":76561199087298816,"connected_time":471000000000,"state":"active","ping":43},{"user_id":207,"name":"G. Howard Dee","steam_id":76561198058382812,"connected_time":3093000000000,"state":"active","ping":49},{"user_id":238,"name":"marisa kirisame","steam_id":76561198201978097,"connected_time":568000000000,"state":"active","ping":148},{"user_id":228,"name":"PunishedCrab","steam_id":76561198079650017,"connected_time":966000000000,"state":"active","ping":65},{"user_id":222,"name":"DodOtter","steam_id":76561199169427178,"connected_time":1842000000000,"state":"active","ping":160}]},{"server_id":324,"name":"Uncletopia | Los Angeles | 3 | All Maps","name_short":"lax-3","host":"lax-1.us.uncletopia.com","port":27035,"enabled":true,"region":"us-west","cc":"us","latitude":33.94279,"longitude":-118.41004,"reserved":0,"last_update":"0001-01-01T00:00:00Z","name_a2s":"Uncletopia | Los Angeles | 3 | All Maps","protocol":17,"map":"pl_barnblitz","folder":"tf","game":"Team Fortress","app_id":440,"player_count":0,"max_players":24,"Bots":0,"server_type":"Dedicated","server_os":"Linux","password":true,"vac":true,"version":"7742253","steam_id":85568392924510198,"keywords":["nocrits","nodmgspread","payload","uncletopia"],"game_id":440,"stv_port":27036,"stv_name":"Uncletopia | Los Angeles | 3 | All Maps | STV","players":null},{"server_id":25,"name":"Uncletopia | Los Angeles | 4 | Stopwatch Beta","name_short":"lax-4","host":"lax-1.us.uncletopia.com","port":27045,"enabled":true,"region":"us-west","cc":"us","latitude":33.94279,"longitude":-118.41004,"reserved":0,"last_update":"0001-01-01T00:00:00Z","name_a2s":"Uncletopia | Los Angeles | 4 | Stopwatch Beta","protocol":17,"map":"cp_process_final","folder":"tf","game":"Team Fortress","app_id":440,"player_count":0,"max_players":24,"Bots":0,"server_type":"Dedicated","server_os":"Linux","password":true,"vac":true,"version":"7742253","steam_id":85568392924510199,"keywords":["cp","nocrits","nodmgspread","uncletopia"],"game_id":440,"stv_port":27046,"stv_name":"Uncletopia | Los Angeles | 4 | Stopwatch Beta | STV","players":null},{"server_id":11,"name":"Uncletopia | London | 1 | All Maps","name_short":"lon-1","host":"lon-1.uk.uncletopia.com","port":27015,"enabled":true,"region":"eu","cc":"gb","latitude":51.509865,"longitude":-0.118092,"reserved":0,"last_update":"0001-01-01T00:00:00Z","name_a2s":"Uncletopia | London | 1 | All Maps","protocol":17,"map":"cp_snakewater_final1","folder":"tf","game":"Team Fortress","app_id":440,"player_count":0,"max_players":24,"Bots":0,"server_type":"Dedicated","server_os":"Linux","password":true,"vac":true,"version":"7742253","steam_id":85568392924367362,"keywords":["cp","nocrits","nodmgspread","uncletopia"],"game_id":440,"stv_port":27016,"stv_name":"Uncletopia | London | 1 | All Maps | STV","players":null},{"server_id":114,"name":"Uncletopia | London | 2 | All Maps","name_short":"lon-2","host":"lon-1.uk.uncletopia.com","port":27025,"enabled":true,"region":"eu","cc":"gb","latitude":51.509865,"longitude":-0.118092,"reserved":0,"last_update":"0001-01-01T00:00:00Z","name_a2s":"Uncletopia | London | 2 | All Maps","protocol":17,"map":"koth_viaduct","folder":"tf","game":"Team Fortress","app_id":440,"player_count":0,"max_players":24,"Bots":0,"server_type":"Dedicated","server_os":"Linux","password":true,"vac":true,"version":"7742253","steam_id":85568392924470941,"keywords":["cp","nocrits","nodmgspread","uncletopia"],"game_id":440,"stv_port":27026,"stv_name":"Uncletopia | London | 2 | All Maps | STV","players":null},{"server_id":320,"name":"Uncletopia | London | 3 | All Maps","name_short":"lon-3","host":"lon-1.uk.uncletopia.com","port":27035,"enabled":true,"region":"eu","cc":"gb","latitude":51.509865,"longitude":-0.118092,"reserved":0,"last_update":"0001-01-01T00:00:00Z","name_a2s":"Uncletopia | London | 3 | All Maps","protocol":17,"map":"pl_frontier_final","folder":"tf","game":"Team Fortress","app_id":440,"player_count":0,"max_players":24,"Bots":0,"server_type":"Dedicated","server_os":"Linux","password":true,"vac":true,"version":"7742253","steam_id":85568392924510192,"keywords":["nocrits","nodmgspread","payload","uncletopia"],"game_id":440,"stv_port":27036,"stv_name":"Uncletopia | London | 3 | All Maps | STV","players":null},{"server_id":321,"name":"Uncletopia | London | 4 | All Maps","name_short":"lon-4","host":"lon-1.uk.uncletopia.com","port":27045,"enabled":true,"region":"eu","cc":"gb","latitude":51.509865,"longitude":-0.118092,"reserved":0,"last_update":"0001-01-01T00:00:00Z","name_a2s":"Uncletopia | London | 4 | All Maps","protocol":17,"map":"cp_dustbowl","folder":"tf","game":"Team Fortress","app_id":440,"player_count":0,"max_players":24,"Bots":0,"server_type":"Dedicated","server_os":"Linux","password":true,"vac":true,"version":"7742253","steam_id":85568392924510193,"keywords":["cp","nocrits","nodmgspread","uncletopia"],"game_id":440,"stv_port":27046,"stv_name":"Uncletopia | London | 4 | All Maps | STV","players":null},{"server_id":21,"name":"Uncletopia | London | 5 | All Maps","name_short":"lon-5","host":"lon-1.uk.uncletopia.com","port":27055,"enabled":true,"region":"eu","cc":"gb","latitude":51.509865,"longitude":-0.118092,"reserved":0,"last_update":"0001-01-01T00:00:00Z","name_a2s":"Uncletopia | London | 5 | All Maps","protocol":17,"map":"pl_borneo","folder":"tf","game":"Team Fortress","app_id":440,"player_count":0,"max_players":24,"Bots":0,"server_type":"Dedicated","server_os":"Linux","password":true,"vac":true,"version":"7742253","steam_id":85568392924742829,"keywords":["nocrits","nodmgspread","payload","uncletopia"],"game_id":440,"stv_port":27056,"stv_name":"Uncletopia | London | 5 | All Maps | STV","players":null},{"server_id":22,"name":"Uncletopia | London | 6 | All Maps","name_short":"lon-6","host":"lon-1.uk.uncletopia.com","port":27065,"enabled":true,"region":"eu","cc":"gb","latitude":51.509865,"longitude":-0.118092,"reserved":0,"last_update":"0001-01-01T00:00:00Z","name_a2s":"Uncletopia | London | 6 | All Maps","protocol":17,"map":"koth_viaduct","folder":"tf","game":"Team Fortress","app_id":440,"player_count":0,"max_players":24,"Bots":0,"server_type":"Dedicated","server_os":"Linux","password":true,"vac":true,"version":"7742253","steam_id":85568392924742830,"keywords":["cp","nocrits","nodmgspread","uncletopia"],"game_id":440,"stv_port":27066,"stv_name":"Uncletopia | London | 6 | All Maps | STV","players":null},{"server_id":40,"name":"Uncletopia | London | 7 | No Payload","name_short":"lon-7","host":"lon-1.uk.uncletopia.com","port":27075,"enabled":true,"region":"eu","cc":"gb","latitude":51.509865,"longitude":-0.118092,"reserved":0,"last_update":"0001-01-01T00:00:00Z","name_a2s":"Uncletopia | London | 7 | No Payload","protocol":17,"map":"cp_mossrock","folder":"tf","game":"Team Fortress","app_id":440,"player_count":0,"max_players":24,"Bots":0,"server_type":"Dedicated","server_os":"Linux","password":true,"vac":true,"version":"7742253","steam_id":85568392924964314,"keywords":["cp","nocrits","nodmgspread","uncletopia"],"game_id":440,"stv_port":27076,"stv_name":"Uncletopia | London | 7 | No Payload | STV","players":null},{"server_id":41,"name":"Uncletopia | London | 8 | Community","name_short":"lon-8","host":"lon-1.uk.uncletopia.com","port":27085,"enabled":true,"region":"eu","cc":"gb","latitude":51.509865,"longitude":-0.118092,"reserved":0,"last_update":"0001-01-01T00:00:00Z","name_a2s":"Uncletopia | London | 8 | Community","protocol":17,"map":"workshop/pl_vigil_rc9.ugc1266210012","folder":"tf","game":"Team Fortress","app_id":440,"player_count":0,"max_players":24,"Bots":0,"server_type":"Dedicated","server_os":"Linux","password":true,"vac":true,"version":"7742253","steam_id":85568392924964315,"keywords":["nocrits","nodmgspread","payload","uncletopia"],"game_id":440,"stv_port":27086,"stv_name":"Uncletopia | London | 8 | Community | STV","players":null},{"server_id":300,"name":"Uncletopia | Montr√©al | 1 | All Maps","name_short":"mtl-1","host":"mtl-1.ca.uncletopia.com","port":27015,"enabled":true,"region":"us-east","cc":"ca","latitude":45.50889,"longitude":-73.56167,"reserved":0,"last_update":"0001-01-01T00:00:00Z","name_a2s":"Uncletopia | Montr√©al | 1 | All Maps","protocol":17,"map":"cp_altitude","folder":"tf","game":"Team Fortress","app_id":440,"player_count":0,"max_players":24,"Bots":0,"server_type":"Dedicated","server_os":"Linux","password":true,"vac":true,"version":"7742253","steam_id":85568392924500087,"keywords":["cp","nocrits","nodmgspread","uncletopia"],"game_id":440,"stv_port":27016,"stv_name":"Uncletopia | Montr√©al | 1 | All Maps | STV","players":null},{"server_id":301,"name":"Uncletopia | Montr√©al | 2 | All Maps","name_short":"mtl-2","host":"mtl-1.ca.uncletopia.com","port":27025,"enabled":true,"region":"us-east","cc":"ca","latitude":45.50889,"longitude":-73.56167,"reserved":0,"last_update":"0001-01-01T00:00:00Z","name_a2s":"Uncletopia | Montr√©al | 2 | All Maps","protocol":17,"map":"koth_lakeside_final","folder":"tf","game":"Team Fortress","app_id":440,"player_count":0,"max_players":24,"Bots":0,"server_type":"Dedicated","server_os":"Linux","password":true,"vac":true,"version":"7742253","steam_id":85568392924500088,"keywords":["cp","nocrits","nodmgspread","uncletopia"],"game_id":440,"stv_port":27026,"stv_name":"Uncletopia | Montr√©al | 2 | All Maps | STV","players":null},{"server_id":302,"name":"Uncletopia | Montr√©al | 3 | All Maps","name_short":"mtl-3","host":"mtl-1.ca.uncletopia.com","port":27035,"enabled":true,"region":"us-east","cc":"ca","latitude":45.50889,"longitude":-73.56167,"reserved":0,"last_update":"0001-01-01T00:00:00Z","name_a2s":"Uncletopia | Montr√©al | 3 | All Maps","protocol":17,"map":"pl_badwater","folder":"tf","game":"Team Fortress","app_id":440,"player_count":0,"max_players":24,"Bots":0,"server_type":"Dedicated","server_os":"Linux","password":true,"vac":true,"version":"7742253","steam_id":85568392924500089,"keywords":["nocrits","nodmgspread","payload","uncletopia"],"game_id":440,"stv_port":27036,"stv_name":"Uncletopia | Montr√©al | 3 | All Maps | STV","players":null},{"server_id":303,"name":"Uncletopia | Montr√©al | 4 | No Payload","name_short":"mtl-4","host":"mtl-1.ca.uncletopia.com","port":27045,"enabled":true,"region":"us-east","cc":"ca","latitude":45.50889,"longitude":-73.56167,"reserved":0,"last_update":"0001-01-01T00:00:00Z","name_a2s":"Uncletopia | Montr√©al | 4 | No Payload","protocol":17,"map":"cp_mercenarypark","folder":"tf","game":"Team Fortress","app_id":440,"player_count":0,"max_players":24,"Bots":0,"server_type":"Dedicated","server_os":"Linux","password":true,"vac":true,"version":"7742253","steam_id":85568392924500090,"keywords":["cp","nocrits","nodmgspread","uncletopia"],"game_id":440,"stv_port":27046,"stv_name":"Uncletopia | Montr√©al | 4 | No Payload | STV","players":null},{"server_id":13,"name":"Uncletopia | New York City | 1 | All Maps","name_short":"nyc-1","host":"nyc-1.us.uncletopia.com","port":27015,"enabled":true,"region":"us-east","cc":"us","latitude":40.73061,"longitude":-73.93524,"reserved":0,"last_update":"0001-01-01T00:00:00Z","name_a2s":"Uncletopia | New York City | 1 | All Maps","protocol":17,"map":"pl_borneo","folder":"tf","game":"Team Fortress","app_id":440,"player_count":24,"max_players":24,"Bots":0,"server_type":"Dedicated","server_os":"Linux","password":true,"vac":true,"version":"7742253","steam_id":85568392924469993,"keywords":["nocrits","nodmgspread","payload","uncletopia"],"game_id":440,"stv_port":27016,"stv_name":"Uncletopia | New York City | 1 | All Maps | STV","players":[{"user_id":667,"name":"crotuslovershanks","steam_id":76561199091300223,"connected_time":3095000000000,"state":"active","ping":78},{"user_id":690,"name":"Hunt_er#SaveTf2","steam_id":76561198325350546,"connected_time":1190000000000,"state":"active","ping":91},{"user_id":665,"name":"ZekeThePlumber","steam_id":76561197995016724,"connected_time":3120000000000,"state":"active","ping":68},{"user_id":681,"name":"Riske","steam_id":76561198115840568,"connected_time":2240000000000,"state":"active","ping":72},{"user_id":661,"name":"Carbon8ed","steam_id":76561198188488341,"connected_time":3164000000000,"state":"active","ping":74},{"user_id":692,"name":"Munk","steam_id":76561198134629193,"connected_time":1056000000000,"state":"active","ping":65},{"user_id":683,"name":"MR.meeseeks","steam_id":76561198294943420,"connected_time":2051000000000,"state":"active","ping":84},{"user_id":609,"name":"ShadBad","steam_id":76561198248287390,"connected_time":5834000000000,"state":"active","ping":131},{"user_id":693,"name":"judesro","steam_id":76561198352244888,"connected_time":1031000000000,"state":"active","ping":64},{"user_id":680,"name":"Arvelyx","steam_id":76561198859427687,"connected_time":2393000000000,"state":"active","ping":74},{"user_id":669,"name":"Dylanxp300","steam_id":76561198271974937,"connected_time":2988000000000,"state":"active","ping":57},{"user_id":687,"name":"zanealcannon","steam_id":76561198409950668,"connected_time":1674000000000,"state":"active","ping":59},{"user_id":659,"name":"Got Hat?","steam_id":76561197998486431,"connected_time":3206000000000,"state":"active","ping":51},{"user_id":676,"name":"kibsta","steam_id":76561198991982630,"connected_time":2548000000000,"state":"active","ping":48},{"user_id":666,"name":"I am the Punishment","steam_id":76561198385646042,"connected_time":3101000000000,"state":"active","ping":63},{"user_id":682,"name":"clio","steam_id":76561198141700569,"connected_time":2106000000000,"state":"active","ping":57},{"user_id":685,"name":"Obama F. Kennedy","steam_id":76561198282499318,"connected_time":1708000000000,"state":"active","ping":54},{"user_id":684,"name":"Komobi","steam_id":76561198066322950,"connected_time":2014000000000,"state":"active","ping":55},{"user_id":674,"name":"rat slappa","steam_id":76561198013983333,"connected_time":2726000000000,"state":"active","ping":74},{"user_id":625,"name":"!krunky!kong!","steam_id":76561198041017977,"connected_time":4712000000000,"state":"active","ping":93},{"user_id":688,"name":"terrible ancient weasel","steam_id":76561198067487745,"connected_time":1665000000000,"state":"active","ping":75},{"user_id":631,"name":"King Kalo","steam_id":76561198387671992,"connected_time":4160000000000,"state":"active","ping":71},{"user_id":655,"name":"Myagic","steam_id":76561198123746755,"connected_time":3345000000000,"state":"active","ping":86},{"user_id":668,"name":"THICCBEEF GRANDPA","steam_id":76561197993550572,"connected_time":3095000000000,"state":"active","ping":86}]},{"server_id":14,"name":"Uncletopia | New York City | 2 | All Maps","name_short":"nyc-2","host":"nyc-1.us.uncletopia.com","port":27025,"enabled":true,"region":"us-east","cc":"us","latitude":40.73061,"longitude":-73.93524,"reserved":0,"last_update":"0001-01-01T00:00:00Z","name_a2s":"Uncletopia | New York City | 2 | All Maps","protocol":17,"map":"pl_borneo","folder":"tf","game":"Team Fortress","app_id":440,"player_count":24,"max_players":24,"Bots":0,"server_type":"Dedicated","server_os":"Linux","password":true,"vac":true,"version":"7742253","steam_id":85568392924469994,"keywords":["nocrits","nodmgspread","payload","uncletopia"],"game_id":440,"stv_port":27026,"stv_name":"Uncletopia | New York City | 2 | All Maps | STV","players":[{"user_id":702,"name":"The Muffin Man","steam_id":76561199088286427,"connected_time":1398000000000,"state":"active","ping":111},{"user_id":697,"name":"i'll have what you're having","steam_id":76561198035337657,"connected_time":1742000000000,"state":"active","ping":48},{"user_id":704,"name":"One Shot and A Miss","steam_id":76561198124269698,"connected_time":1357000000000,"state":"active","ping":49},{"user_id":687,"name":"catgirl","steam_id":76561198020736672,"connected_time":2111000000000,"state":"active","ping":56},{"user_id":709,"name":"Quansen","steam_id":76561198151594550,"connected_time":1085000000000,"state":"active","ping":66},{"user_id":699,"name":"monke","steam_id":76561198035138859,"connected_time":1710000000000,"state":"active","ping":57},{"user_id":714,"name":"Daksuki","steam_id":76561198084127751,"connected_time":484000000000,"state":"active","ping":91},{"user_id":715,"name":"Wesg","steam_id":76561198220436820,"connected_time":376000000000,"state":"active","ping":80},{"user_id":706,"name":"Temper","steam_id":76561198044123690,"connected_time":1264000000000,"state":"active","ping":64},{"user_id":692,"name":"Waffle Wannabe","steam_id":76561198064510650,"connected_time":2058000000000,"state":"active","ping":51},{"user_id":716,"name":"Nyx-Nul","steam_id":76561198026943694,"connected_time":357000000000,"state":"active","ping":78},{"user_id":661,"name":"A Puppy","steam_id":76561198828184456,"connected_time":4415000000000,"state":"active","ping":49},{"user_id":717,"name":"bobdragon27","steam_id":76561198065833387,"connected_time":333000000000,"state":"active","ping":44},{"user_id":707,"name":"B/S/SuperBoof","steam_id":76561197992030936,"connected_time":1175000000000,"state":"active","ping":53},{"user_id":710,"name":"Lichy","steam_id":76561198310682841,"connected_time":879000000000,"state":"active","ping":40},{"user_id":724,"name":"Kdash","steam_id":76561198043829155,"connected_time":109000000000,"state":"active","ping":95},{"user_id":666,"name":"Crabo Stabbo","steam_id":76561198061227228,"connected_time":3697000000000,"state":"active","ping":79},{"user_id":658,"name":"EvilsConscience","steam_id":76561198073451760,"connected_time":5038000000000,"state":"active","ping":74},{"user_id":718,"name":"CheesyPotato","steam_id":76561198098788416,"connected_time":330000000000,"state":"active","ping":50},{"user_id":719,"name":"memelad","steam_id":76561198031374975,"connected_time":314000000000,"state":"active","ping":81},{"user_id":696,"name":"moodi catgirl","steam_id":76561198124028045,"connected_time":1962000000000,"state":"active","ping":47},{"user_id":720,"name":"smirking rat","steam_id":76561198073269122,"connected_time":312000000000,"state":"active","ping":49},{"user_id":721,"name":"madd4punk","steam_id":76561198170196383,"connected_time":286000000000,"state":"active","ping":86},{"user_id":668,"name":"reis","steam_id":76561199232952016,"connected_time":3458000000000,"state":"active","ping":157}]},{"server_id":15,"name":"Uncletopia | New York City | 3 | Stopwatch Beta","name_short":"nyc-3","host":"nyc-1.us.uncletopia.com","port":27035,"enabled":true,"region":"us-east","cc":"us","latitude":40.73061,"longitude":-73.93524,"reserved":0,"last_update":"0001-01-01T00:00:00Z","name_a2s":"Uncletopia | New York City | 3 | Stopwatch Beta","protocol":17,"map":"cp_altitude","folder":"tf","game":"Team Fortress","app_id":440,"player_count":0,"max_players":24,"Bots":0,"server_type":"Dedicated","server_os":"Linux","password":true,"vac":true,"version":"7742253","steam_id":85568392924742820,"keywords":["cp","nocrits","nodmgspread","uncletopia"],"game_id":440,"stv_port":27036,"stv_name":"Uncletopia | New York City | 3 | Stopwatch Beta | STV","players":null},{"server_id":16,"name":"Uncletopia | New York City | 4 | Community","name_short":"nyc-4","host":"nyc-1.us.uncletopia.com","port":27045,"enabled":true,"region":"us-east","cc":"us","latitude":40.73061,"longitude":-73.93524,"reserved":0,"last_update":"0001-01-01T00:00:00Z","name_a2s":"Uncletopia | New York City | 4 | Community","protocol":17,"map":"workshop/cp_reckoner_rc6.ugc674719999","folder":"tf","game":"Team Fortress","app_id":440,"player_count":0,"max_players":24,"Bots":0,"server_type":"Dedicated","server_os":"Linux","password":true,"vac":true,"version":"7742253","steam_id":85568392924742821,"keywords":["cp","nocrits","nodmgspread","uncletopia"],"game_id":440,"stv_port":27046,"stv_name":"Uncletopia | New York City | 4 | Community | STV","players":null},{"server_id":142,"name":"Uncletopia | S√£o Paulo | 1 | All Maps","name_short":"sao-1","host":"sao-1.br.uncletopia.com","port":27015,"enabled":true,"region":"sa","cc":"br","latitude":-23.533773,"longitude":-46.62529,"reserved":0,"last_update":"0001-01-01T00:00:00Z","name_a2s":"Uncletopia | S√£o Paulo | 1 | All Maps","protocol":17,"map":"cp_altitude","folder":"tf","game":"Team Fortress","app_id":440,"player_count":0,"max_players":24,"Bots":0,"server_type":"Dedicated","server_os":"Linux","password":true,"vac":true,"version":"7742253","steam_id":85568392924469996,"keywords":["cp","nocrits","nodmgspread","uncletopia"],"game_id":440,"stv_port":27016,"stv_name":"Uncletopia | S√£o Paulo | 1 | All Maps | STV","players":null},{"server_id":143,"name":"Uncletopia | S√£o Paulo | 2 | All Maps","name_short":"sao-2","host":"sao-2.br.uncletopia.com","port":27015,"enabled":true,"region":"sa","cc":"br","latitude":-23.533773,"longitude":-46.62529,"reserved":0,"last_update":"0001-01-01T00:00:00Z","name_a2s":"Uncletopia | S√£o Paulo | 2 | All Maps","protocol":17,"map":"koth_cascade","folder":"tf","game":"Team Fortress","app_id":440,"player_count":0,"max_players":24,"Bots":0,"server_type":"Dedicated","server_os":"Linux","password":true,"vac":true,"version":"7742253","steam_id":85568392924485349,"keywords":["cp","nocrits","nodmgspread","uncletopia"],"game_id":440,"stv_port":27016,"stv_name":"Uncletopia | S√£o Paulo | 2 | All Maps | STV","players":null},{"server_id":7,"name":"Uncletopia | Seattle | 1 | All Maps","name_short":"sea-1","host":"sea-1.us.uncletopia.com","port":27015,"enabled":true,"region":"us-west","cc":"us","latitude":47.608013,"longitude":-122.33517,"reserved":0,"last_update":"0001-01-01T00:00:00Z","name_a2s":"Uncletopia | Seattle | 1 | All Maps","protocol":17,"map":"koth_nucleus","folder":"tf","game":"Team Fortress","app_id":440,"player_count":19,"max_players":24,"Bots":0,"server_type":"Dedicated","server_os":"Linux","password":true,"vac":true,"version":"7742253","steam_id":85568392924469997,"keywords":["cp","nocrits","nodmgspread","uncletopia"],"game_id":440,"stv_port":27016,"stv_name":"Uncletopia | Seattle | 1 | All Maps | STV","players":[{"user_id":698,"name":"dougrocks421","steam_id":76561198165063918,"connected_time":375000000000,"state":"active","ping":43},{"user_id":677,"name":"jungus","steam_id":76561198129862008,"connected_time":1829000000000,"state":"active","ping":74},{"user_id":683,"name":"Bevan(The Manager)","steam_id":76561198073890273,"connected_time":1024000000000,"state":"active","ping":50},{"user_id":700,"name":"Ahzain","steam_id":76561198035894333,"connected_time":239000000000,"state":"active","ping":83},{"user_id":670,"name":"Wormy Getting Coal","steam_id":76561198054539200,"connected_time":2499000000000,"state":"active","ping":45},{"user_id":684,"name":"VerociousVee","steam_id":76561198289106015,"connected_time":959000000000,"state":"active","ping":46},{"user_id":659,"name":"Idontknow","steam_id":76561199207044048,"connected_time":3998000000000,"state":"active","ping":40},{"user_id":671,"name":"[TrC] Nosy","steam_id":76561197978859310,"connected_time":2497000000000,"state":"active","ping":53},{"user_id":685,"name":"Zomwashroomz","steam_id":76561198131316167,"connected_time":957000000000,"state":"active","ping":33},{"user_id":686,"name":"Excalibrine","steam_id":76561198129312118,"connected_time":946000000000,"state":"active","ping":45},{"user_id":695,"name":"I'm F2P","steam_id":76561198891052396,"connected_time":490000000000,"state":"active","ping":42},{"user_id":672,"name":"[TrC] Dackstrus","steam_id":76561197973518509,"connected_time":2482000000000,"state":"active","ping":57},{"user_id":673,"name":"Yammie","steam_id":76561197987304489,"connected_time":2224000000000,"state":"active","ping":45},{"user_id":688,"name":"Femboi Fox","steam_id":76561198915758702,"connected_time":939000000000,"state":"active","ping":66},{"user_id":655,"name":"Mignyanne :3","steam_id":76561198048754056,"connected_time":4312000000000,"state":"active","ping":66},{"user_id":681,"name":"RC Polygons","steam_id":76561198843074574,"connected_time":1523000000000,"state":"active","ping":86},{"user_id":699,"name":"Wafflemuscle","steam_id":76561198868628982,"connected_time":356000000000,"state":"active","ping":54},{"user_id":664,"name":"Klone","steam_id":76561198854485605,"connected_time":3364000000000,"state":"active","ping":75},{"user_id":697,"name":"brimstone","steam_id":76561198066619792,"connected_time":471000000000,"state":"active","ping":75}]},{"server_id":119,"name":"Uncletopia | Seattle | 2 | All Maps","name_short":"sea-2","host":"sea-1.us.uncletopia.com","port":27025,"enabled":true,"region":"us-west","cc":"us","latitude":47.608013,"longitude":-122.33517,"reserved":0,"last_update":"0001-01-01T00:00:00Z","name_a2s":"Uncletopia | Seattle | 2 | All Maps","protocol":17,"map":"pl_upward","folder":"tf","game":"Team Fortress","app_id":440,"player_count":23,"max_players":24,"Bots":0,"server_type":"Dedicated","server_os":"Linux","password":true,"vac":true,"version":"7742253","steam_id":85568392924469998,"keywords":["nocrits","nodmgspread","payload","uncletopia"],"game_id":440,"stv_port":27026,"stv_name":"Uncletopia | Seattle | 2 | All Maps | STV","players":[{"user_id":319,"name":"2\u002620","steam_id":76561198068672882,"connected_time":3197000000000,"state":"active","ping":63},{"user_id":339,"name":"‚ù§ Ashley ‚ù§","steam_id":76561198056428303,"connected_time":1046000000000,"state":"active","ping":75},{"user_id":295,"name":"Testicular Torsion","steam_id":76561197968179862,"connected_time":4378000000000,"state":"active","ping":76},{"user_id":344,"name":"Alley_YAMBO","steam_id":76561198055651850,"connected_time":886000000000,"state":"active","ping":65},{"user_id":329,"name":"Fire_box41238","steam_id":76561199185673650,"connected_time":2034000000000,"state":"active","ping":41},{"user_id":356,"name":"ThisisSteve","steam_id":76561198420882318,"connected_time":2000000000,"state":"spawning","ping":90},{"user_id":354,"name":"lili.winters","steam_id":76561199391478575,"connected_time":499000000000,"state":"active","ping":56},{"user_id":330,"name":"tconnors1976","steam_id":76561198840033336,"connected_time":1887000000000,"state":"active","ping":52},{"user_id":324,"name":"Goetha","steam_id":76561198803824764,"connected_time":2172000000000,"state":"active","ping":64},{"user_id":288,"name":"Bingus Tarfinius Squanius Bling","steam_id":76561198277312305,"connected_time":4898000000000,"state":"active","ping":126},{"user_id":338,"name":"truck freak (festive)","steam_id":76561198062712676,"connected_time":1112000000000,"state":"active","ping":34},{"user_id":293,"name":"Mike Bean Burritos","steam_id":76561198173430607,"connected_time":4467000000000,"state":"active","ping":49},{"user_id":355,"name":"Retesaurus","steam_id":76561198045189319,"connected_time":377000000000,"state":"active","ping":47},{"user_id":336,"name":"warscout101bro","steam_id":76561198813489938,"connected_time":1128000000000,"state":"active","ping":44},{"user_id":326,"name":"miki","steam_id":76561198331374895,"connected_time":2129000000000,"state":"active","ping":126},{"user_id":284,"name":"Smleh","steam_id":76561198273231747,"connected_time":5074000000000,"state":"active","ping":64},{"user_id":254,"name":"drf","steam_id":76561198063322988,"connected_time":7235000000000,"state":"active","ping":45},{"user_id":353,"name":"Marcel","steam_id":76561199079200901,"connected_time":603000000000,"state":"active","ping":95},{"user_id":334,"name":"Cahz","steam_id":76561198046517134,"connected_time":1272000000000,"state":"active","ping":84},{"user_id":314,"name":"Frongussy","steam_id":76561197979056451,"connected_time":3352000000000,"state":"active","ping":49},{"user_id":347,"name":"banana bomb!","steam_id":76561198319442494,"connected_time":808000000000,"state":"active","ping":82},{"user_id":313,"name":"Lord Pretty Flocko Jordye","steam_id":76561198962880749,"connected_time":3445000000000,"state":"active","ping":77},{"user_id":350,"name":"remu","steam_id":76561198273111735,"connected_time":781000000000,"state":"active","ping":77}]},{"server_id":406,"name":"Uncletopia | Seattle | 3 | Stopwatch Beta","name_short":"sea-3","host":"sea-1.us.uncletopia.com","port":27035,"enabled":true,"region":"us-west","cc":"us","latitude":47.608013,"longitude":-122.33517,"reserved":0,"last_update":"0001-01-01T00:00:00Z","name_a2s":"Uncletopia | Seattle | 3 | Stopwatch Beta","protocol":17,"map":"pl_upward","folder":"tf","game":"Team Fortress","app_id":440,"player_count":2,"max_players":24,"Bots":0,"server_type":"Dedicated","server_os":"Linux","password":true,"vac":false,"version":"7742253","steam_id":0,"keywords":["nocrits","nodmgspread","payload","uncletopia"],"game_id":440,"stv_port":27036,"stv_name":"Uncletopia | Seattle | 3 | Stopwatch Beta | STV","players":[{"user_id":10,"name":"N√©miscau","steam_id":76561198257979613,"connected_time":105000000000,"state":"active","ping":48},{"user_id":11,"name":"foura","steam_id":76561198181972739,"connected_time":101000000000,"state":"active","ping":58}]},{"server_id":17,"name":"Uncletopia | San Francisco | 1 | All Maps","name_short":"sfo-1","host":"sfo-1.us.uncletopia.com","port":27015,"enabled":true,"region":"us-west","cc":"us","latitude":37.77397,"longitude":-122.4313,"reserved":0,"last_update":"0001-01-01T00:00:00Z","name_a2s":"Uncletopia | San Francisco | 1 | All Maps","protocol":17,"map":"pl_badwater","folder":"tf","game":"Team Fortress","app_id":440,"player_count":22,"max_players":24,"Bots":0,"server_type":"Dedicated","server_os":"Linux","password":true,"vac":true,"version":"7742253","steam_id":85568392924469999,"keywords":["nocrits","nodmgspread","payload","uncletopia"],"game_id":440,"stv_port":27016,"stv_name":"Uncletopia | San Francisco | 1 | All Maps | STV","players":[{"user_id":592,"name":"average memelord","steam_id":76561199212133442,"connected_time":349000000000,"state":"active","ping":205},{"user_id":593,"name":"Erntest","steam_id":76561198049499899,"connected_time":339000000000,"state":"active","ping":46},{"user_id":594,"name":"seeping","steam_id":76561198063862967,"connected_time":326000000000,"state":"active","ping":108},{"user_id":596,"name":"TheTerribleGamer","steam_id":76561198980895488,"connected_time":222000000000,"state":"active","ping":56},{"user_id":595,"name":"Ashley H√©lo√Øse","steam_id":76561198103653429,"connected_time":314000000000,"state":"active","ping":58},{"user_id":568,"name":"LazyDoll","steam_id":76561198053186338,"connected_time":3441000000000,"state":"active","ping":58},{"user_id":597,"name":"autumn","steam_id":76561198036901822,"connected_time":185000000000,"state":"active","ping":87},{"user_id":591,"name":"jawnymac","steam_id":76561198179529599,"connected_time":372000000000,"state":"active","ping":54},{"user_id":573,"name":"non_ai","steam_id":76561198270951938,"connected_time":2912000000000,"state":"active","ping":120},{"user_id":569,"name":"Spherical Coordinates","steam_id":76561198062529055,"connected_time":3311000000000,"state":"active","ping":60},{"user_id":598,"name":"B.A.S.E","steam_id":76561198065324447,"connected_time":87000000000,"state":"active","ping":58},{"user_id":580,"name":"Polygunner","steam_id":76561199165741650,"connected_time":1993000000000,"state":"active","ping":122},{"user_id":599,"name":"Sclaz","steam_id":76561198139158246,"connected_time":78000000000,"state":"active","ping":76},{"user_id":600,"name":"hoodclips","steam_id":76561198253706796,"connected_time":66000000000,"state":"active","ping":60},{"user_id":575,"name":"aisu","steam_id":76561198043768507,"connected_time":2512000000000,"state":"active","ping":106},{"user_id":601,"name":"Red Angry Bird","steam_id":76561198204896231,"connected_time":28000000000,"state":"spawning","ping":67},{"user_id":557,"name":"-","steam_id":76561198021308963,"connected_time":4274000000000,"state":"active","ping":75},{"user_id":589,"name":"Western_dragon","steam_id":76561198130456105,"connected_time":928000000000,"state":"active","ping":65},{"user_id":583,"name":"ScarecrowMerc","steam_id":76561198256744887,"connected_time":1784000000000,"state":"active","ping":186},{"user_id":602,"name":"raduski","steam_id":76561198795699119,"connected_time":12000000000,"state":"active","ping":125},{"user_id":590,"name":"Moleculemind","steam_id":76561198077788483,"connected_time":554000000000,"state":"active","ping":79},{"user_id":584,"name":"Painkiller","steam_id":76561198049787400,"connected_time":1719000000000,"state":"active","ping":72}]},{"server_id":18,"name":"Uncletopia | San Francisco | 2 | All Maps","name_short":"sfo-2","host":"sfo-1.us.uncletopia.com","port":27025,"enabled":true,"region":"us-west","cc":"us","latitude":37.77397,"longitude":-122.4313,"reserved":0,"last_update":"0001-01-01T00:00:00Z","name_a2s":"Uncletopia | San Francisco | 2 | All Maps","protocol":17,"map":"pl_pier","folder":"tf","game":"Team Fortress","app_id":440,"player_count":0,"max_players":24,"Bots":0,"server_type":"Dedicated","server_os":"Linux","password":true,"vac":true,"version":"7742253","steam_id":85568392924470000,"keywords":["nocrits","nodmgspread","payload","uncletopia"],"game_id":440,"stv_port":27026,"stv_name":"Uncletopia | San Francisco | 2 | All Maps | STV","players":null},{"server_id":19,"name":"Uncletopia | San Francisco | 3 | Stopwatch Beta","name_short":"sfo-3","host":"sfo-1.us.uncletopia.com","port":27035,"enabled":true,"region":"us-west","cc":"us","latitude":37.77397,"longitude":-122.4313,"reserved":0,"last_update":"0001-01-01T00:00:00Z","name_a2s":"Uncletopia | San Francisco | 3 | Stopwatch Beta","protocol":17,"map":"cp_snakewater_final1","folder":"tf","game":"Team Fortress","app_id":440,"player_count":0,"max_players":24,"Bots":0,"server_type":"Dedicated","server_os":"Linux","password":true,"vac":true,"version":"7742253","steam_id":85568392924742824,"keywords":["cp","nocrits","nodmgspread","uncletopia"],"game_id":440,"stv_port":27036,"stv_name":"Uncletopia | San Francisco | 3 | Stopwatch Beta | STV","players":null},{"server_id":20,"name":"Uncletopia | San Francisco | 4 | Community","name_short":"sfo-4","host":"sfo-1.us.uncletopia.com","port":27045,"enabled":true,"region":"us-west","cc":"us","latitude":37.77397,"longitude":-122.4313,"reserved":0,"last_update":"0001-01-01T00:00:00Z","name_a2s":"Uncletopia | San Francisco | 4 | Community","protocol":17,"map":"workshop/koth_synthetic_rc6a.ugc1549817316","folder":"tf","game":"Team Fortress","app_id":440,"player_count":0,"max_players":24,"Bots":0,"server_type":"Dedicated","server_os":"Linux","password":true,"vac":true,"version":"7742253","steam_id":85568392924742826,"keywords":["cp","nocrits","nodmgspread","uncletopia"],"game_id":440,"stv_port":27046,"stv_name":"Uncletopia | San Francisco | 4 | Community | STV","players":null},{"server_id":141,"name":"Uncletopia | Sydney | 1 | All Maps","name_short":"syd-1","host":"syd-1.au.uncletopia.com","port":27015,"enabled":true,"region":"au","cc":"au","latitude":-33.865143,"longitude":151.2099,"reserved":0,"last_update":"0001-01-01T00:00:00Z","name_a2s":"Uncletopia | Sydney | 1 | All Maps","protocol":17,"map":"pl_frontier_final","folder":"tf","game":"Team Fortress","app_id":440,"player_count":24,"max_players":24,"Bots":0,"server_type":"Dedicated","server_os":"Linux","password":true,"vac":true,"version":"7742253","steam_id":85568392924470001,"keywords":["nocrits","nodmgspread","payload","uncletopia"],"game_id":440,"stv_port":27016,"stv_name":"Uncletopia | Sydney | 1 | All Maps | STV","players":[{"user_id":293,"name":"Keveraa","steam_id":76561198056839414,"connected_time":686000000000,"state":"active","ping":50},{"user_id":267,"name":"Coffee","steam_id":76561198072414195,"connected_time":2278000000000,"state":"active","ping":75},{"user_id":193,"name":"o p t i v e","steam_id":76561198131756192,"connected_time":6365000000000,"state":"active","ping":89},{"user_id":277,"name":"chip stealing cunt","steam_id":76561198045437691,"connected_time":1869000000000,"state":"active","ping":60},{"user_id":286,"name":"MrZalgoo","steam_id":76561198250034874,"connected_time":1204000000000,"state":"active","ping":65},{"user_id":233,"name":"canned tuna","steam_id":76561198420727269,"connected_time":4352000000000,"state":"active","ping":45},{"user_id":258,"name":"SpankyPants","steam_id":76561198095445327,"connected_time":2561000000000,"state":"active","ping":76},{"user_id":263,"name":"Spycrab","steam_id":76561198118928113,"connected_time":2417000000000,"state":"active","ping":50},{"user_id":154,"name":"ZaEpicScout205","steam_id":76561198170693338,"connected_time":9434000000000,"state":"active","ping":85},{"user_id":300,"name":"cimpact","steam_id":76561198452258917,"connected_time":459000000000,"state":"active","ping":121},{"user_id":262,"name":"Bigrichard","steam_id":76561198032092945,"connected_time":2522000000000,"state":"active","ping":74},{"user_id":264,"name":"Azzy","steam_id":76561198096245286,"connected_time":2388000000000,"state":"active","ping":49},{"user_id":287,"name":"The Goodnight Kiwi","steam_id":76561198866433807,"connected_time":1191000000000,"state":"active","ping":62},{"user_id":289,"name":"penis monster","steam_id":76561199389311492,"connected_time":900000000000,"state":"active","ping":62},{"user_id":298,"name":"uncool gamer","steam_id":76561198170716777,"connected_time":575000000000,"state":"active","ping":65},{"user_id":243,"name":"sheytoon","steam_id":76561198060824434,"connected_time":3758000000000,"state":"active","ping":52},{"user_id":294,"name":"silent*","steam_id":76561198134745557,"connected_time":674000000000,"state":"active","ping":53},{"user_id":295,"name":"Majin__buu69","steam_id":76561199268752631,"connected_time":666000000000,"state":"active","ping":89},{"user_id":292,"name":"Ruusu","steam_id":76561198950298621,"connected_time":730000000000,"state":"active","ping":78},{"user_id":285,"name":"Gibbzy","steam_id":76561198118647707,"connected_time":1248000000000,"state":"active","ping":62},{"user_id":301,"name":"LightningBlock","steam_id":76561198289997742,"connected_time":257000000000,"state":"active","ping":42},{"user_id":237,"name":"void","steam_id":76561198241303512,"connected_time":4115000000000,"state":"active","ping":56},{"user_id":296,"name":"Ignis Fates","steam_id":76561198207643535,"connected_time":662000000000,"state":"active","ping":60},{"user_id":299,"name":"NewChris","steam_id":76561198254754182,"connected_time":551000000000,"state":"active","ping":136}]},{"server_id":123,"name":"Uncletopia | Sydney | 2 | All Maps","name_short":"syd-2","host":"syd-1.au.uncletopia.com","port":27025,"enabled":true,"region":"au","cc":"au","latitude":-33.865143,"longitude":151.2099,"reserved":0,"last_update":"0001-01-01T00:00:00Z","name_a2s":"Uncletopia | Sydney | 2 | All Maps","protocol":17,"map":"koth_lakeside_final","folder":"tf","game":"Team Fortress","app_id":440,"player_count":0,"max_players":24,"Bots":0,"server_type":"Dedicated","server_os":"Linux","password":true,"vac":true,"version":"7742253","steam_id":85568392924470002,"keywords":["cp","nocrits","nodmgspread","uncletopia"],"game_id":440,"stv_port":27026,"stv_name":"Uncletopia | Sydney | 2 | All Maps | STV","players":null},{"server_id":395,"name":"Uncletopia | Sydney | 3 | All Maps","name_short":"syd-3","host":"syd-1.au.uncletopia.com","port":27035,"enabled":true,"region":"au","cc":"au","latitude":-33.865143,"longitude":151.2099,"reserved":0,"last_update":"0001-01-01T00:00:00Z","name_a2s":"Uncletopia | Sydney | 3 | All Maps","protocol":17,"map":"cp_dustbowl","folder":"tf","game":"Team Fortress","app_id":440,"player_count":0,"max_players":24,"Bots":0,"server_type":"Dedicated","server_os":"Linux","password":true,"vac":true,"version":"7742253","steam_id":85568392925194467,"keywords":["cp","nocrits","nodmgspread","uncletopia"],"game_id":440,"stv_port":27036,"stv_name":"Uncletopia | Sydney | 3 | All Maps | STV","players":null},{"server_id":396,"name":"Uncletopia | Sydney | 4 | All Maps","name_short":"syd-4","host":"syd-1.au.uncletopia.com","port":27045,"enabled":true,"region":"au","cc":"au","latitude":-33.865143,"longitude":151.2099,"reserved":0,"last_update":"0001-01-01T00:00:00Z","name_a2s":"Uncletopia | Sydney | 4 | All Maps","protocol":17,"map":"pl_borneo","folder":"tf","game":"Team Fortress","app_id":440,"player_count":0,"max_players":24,"Bots":0,"server_type":"Dedicated","server_os":"Linux","password":true,"vac":true,"version":"7742253","steam_id":85568392925397958,"keywords":["nocrits","nodmgspread","payload","uncletopia"],"game_id":440,"stv_port":27046,"stv_name":"Uncletopia | Sydney | 4 | All Maps | STV","players":null},{"server_id":58,"name":"Uncletopia | Sydney | 5 | Stopwatch Beta","name_short":"syd-5","host":"syd-1.au.uncletopia.com","port":27055,"enabled":true,"region":"au","cc":"au","latitude":-33.865143,"longitude":151.2099,"reserved":0,"last_update":"0001-01-01T00:00:00Z","name_a2s":"Uncletopia | Sydney | 5 | Stopwatch Beta","protocol":17,"map":"cp_snakewater_final1","folder":"tf","game":"Team Fortress","app_id":440,"player_count":0,"max_players":24,"Bots":0,"server_type":"Dedicated","server_os":"Linux","password":true,"vac":true,"version":"7742253","steam_id":85568392925397959,"keywords":["cp","nocrits","nodmgspread","uncletopia"],"game_id":440,"stv_port":27056,"stv_name":"Uncletopia | Sydney | 5 | Stopwatch Beta | STV","players":null},{"server_id":59,"name":"Uncletopia | Sydney | 6 | Community","name_short":"syd-6","host":"syd-1.au.uncletopia.com","port":27065,"enabled":true,"region":"au","cc":"au","latitude":-33.865143,"longitude":151.2099,"reserved":0,"last_update":"0001-01-01T00:00:00Z","name_a2s":"Uncletopia | Sydney | 6 | Community","protocol":17,"map":"workshop/koth_product_final.ugc454272353","folder":"tf","game":"Team Fortress","app_id":440,"player_count":0,"max_players":24,"Bots":0,"server_type":"Dedicated","server_os":"Linux","password":true,"vac":true,"version":"7742253","steam_id":85568392925397960,"keywords":["cp","nocrits","nodmgspread","uncletopia"],"game_id":440,"stv_port":27066,"stv_name":"Uncletopia | Sydney | 6 | Community | STV","players":null},{"server_id":49,"name":"Uncletopia | Warsaw | 1 | All Maps","name_short":"waw-1","host":"waw-1.pl.uncletopia.com","port":27015,"enabled":true,"region":"eu","cc":"pl","latitude":52.2297,"longitude":21.017532,"reserved":0,"last_update":"0001-01-01T00:00:00Z","name_a2s":"Uncletopia | Warsaw | 1 | All Maps","protocol":17,"map":"koth_lakeside_final","folder":"tf","game":"Team Fortress","app_id":440,"player_count":0,"max_players":24,"Bots":0,"server_type":"Dedicated","server_os":"Linux","password":true,"vac":true,"version":"7723704","steam_id":85568392925397850,"keywords":["cp","nocrits","nodmgspread","uncletopia"],"game_id":440,"stv_port":27016,"stv_name":"Uncletopia | Warsaw | 1 | All Maps | STV","players":null},{"server_id":50,"name":"Uncletopia | Warsaw | 2 | All Maps","name_short":"waw-2","host":"waw-1.pl.uncletopia.com","port":27025,"enabled":true,"region":"eu","cc":"pl","latitude":52.2297,"longitude":21.017532,"reserved":0,"last_update":"0001-01-01T00:00:00Z","name_a2s":"Uncletopia | Warsaw | 2 | All Maps","protocol":17,"map":"pl_frontier_final","folder":"tf","game":"Team Fortress","app_id":440,"player_count":0,"max_players":24,"Bots":0,"server_type":"Dedicated","server_os":"Linux","password":true,"vac":true,"version":"7742253","steam_id":85568392925397851,"keywords":["nocrits","nodmgspread","payload","uncletopia"],"game_id":440,"stv_port":27026,"stv_name":"Uncletopia | Warsaw | 2 | All Maps | STV","players":null},{"server_id":51,"name":"Uncletopia | Warsaw | 3 | All Maps","name_short":"waw-3","host":"waw-1.pl.uncletopia.com","port":27035,"enabled":true,"region":"eu","cc":"pl","latitude":52.2297,"longitude":21.017532,"reserved":0,"last_update":"0001-01-01T00:00:00Z","name_a2s":"Uncletopia | Warsaw | 3 | All Maps","protocol":17,"map":"pl_frontier_final","folder":"tf","game":"Team Fortress","app_id":440,"player_count":0,"max_players":24,"Bots":0,"server_type":"Dedicated","server_os":"Linux","password":true,"vac":true,"version":"7742253","steam_id":85568392925397852,"keywords":["nocrits","nodmgspread","payload","uncletopia"],"game_id":440,"stv_port":27036,"stv_name":"Uncletopia | Warsaw | 3 | All Maps | STV","players":null},{"server_id":52,"name":"Uncletopia | Warsaw | 4 | All Maps","name_short":"waw-4","host":"waw-1.pl.uncletopia.com","port":27045,"enabled":true,"region":"eu","cc":"pl","latitude":52.2297,"longitude":21.017532,"reserved":0,"last_update":"0001-01-01T00:00:00Z","name_a2s":"Uncletopia | Warsaw | 4 | All Maps","protocol":17,"map":"pl_swiftwater_final1","folder":"tf","game":"Team Fortress","app_id":440,"player_count":0,"max_players":24,"Bots":0,"server_type":"Dedicated","server_os":"Linux","password":true,"vac":true,"version":"7742253","steam_id":85568392925397853,"keywords":["nocrits","nodmgspread","payload","uncletopia"],"game_id":440,"stv_port":27046,"stv_name":"Uncletopia | Warsaw | 4 | All Maps | STV","players":null},{"server_id":53,"name":"Uncletopia | Warsaw | 5 | Stopwatch Beta","name_short":"waw-5","host":"waw-1.pl.uncletopia.com","port":27055,"enabled":true,"region":"eu","cc":"pl","latitude":52.2297,"longitude":21.017532,"reserved":0,"last_update":"0001-01-01T00:00:00Z","name_a2s":"Uncletopia | Warsaw | 5 | Stopwatch Beta","protocol":17,"map":"pl_pier","folder":"tf","game":"Team Fortress","app_id":440,"player_count":0,"max_players":24,"Bots":0,"server_type":"Dedicated","server_os":"Linux","password":true,"vac":true,"version":"7742253","steam_id":85568392925397854,"keywords":["nocrits","nodmgspread","payload","uncletopia"],"game_id":440,"stv_port":27056,"stv_name":"Uncletopia | Warsaw | 5 | Stopwatch Beta | STV","players":null},{"server_id":54,"name":"Uncletopia | Warsaw | 6 | Community","name_short":"waw-6","host":"waw-1.pl.uncletopia.com","port":27065,"enabled":true,"region":"eu","cc":"pl","latitude":52.2297,"longitude":21.017532,"reserved":0,"last_update":"0001-01-01T00:00:00Z","name_a2s":"Uncletopia | Warsaw | 6 | Community","protocol":17,"map":"cp_sunshine","folder":"tf","game":"Team Fortress","app_id":440,"player_count":0,"max_players":24,"Bots":0,"server_type":"Dedicated","server_os":"Linux","password":true,"vac":true,"version":"7742253","steam_id":85568392925397856,"keywords":["cp","nocrits","nodmgspread","uncletopia"],"game_id":440,"stv_port":27066,"stv_name":"Uncletopia | Warsaw | 6 | Community | STV","players":null}]}