{"status":true,"message":"","result":[{"server_id":9,"name":"Uncletopia | Atlanta | 1 | All Maps","name_short":"atl-1","host":"atl-1.us.uncletopia.com","port":27015,"enabled":true,"region":"us-east","cc":"us","latitude":33.753746,"longitude":-84.38633,"reserved":0,"last_update":"0001-01-01T00:00:00Z","name_a2s":"Uncletopia | Atlanta | 1 | All Maps","protocol":17,"map":"cp_sunshine","folder":"tf","game":"Team Fortress","app_id":440,"player_count":0,"max_players":24,"Bots":0,"server_type":"Dedicated","server_os":"Linux","password":true,"vac":true,"version":"7961495","steam_id":85568392924469982,"keywords":["cp","nocrits","nodmgspread","uncletopia"],"game_id":440,"stv_port":27016,"stv_name":"Uncletopia | Atlanta | 1 | All Maps | STV","players":null},{"server_id":104,"name":"Uncletopia | Atlanta | 2 | All Maps","name_short":"atl-2","host":"atl-1.us.uncletopia.com","port":27025,"enabled":true,"region":"us-east","cc":"us","latitude":33.753746,"longitude":-84.38633,"reserved":0,"last_update":"0001-01-01T00:00:00Z","name_a2s":"Uncletopia | Atlanta | 2 | All Maps","protocol":17,"map":"pl_frontier_final","folder":"tf","game":"Team Fortress","app_id":440,"player_count":3,"max_players":24,"Bots":0,"server_type":"Dedicated","server_os":"Linux","password":true,"vac":true,"version":"7961495","steam_id":85568392924469983,"keywords":["nocrits","nodmgspread","payload","uncletopia"],"game_id":440,"stv_port":27026,"stv_name":"Uncletopia | Atlanta | 2 | All Maps | STV","players":null},{"server_id":400,"name":"Uncletopia | Atlanta | 3 | Stopwatch","name_short":"atl-3","host":"atl-1.us.uncletopia.com","port":27035,"enabled":true,"region":"us-east","cc":"us","latitude":33.753746,"longitude":-84.38633,"reserved":0,"last_update":"0001-01-01T00:00:00Z","name_a2s":"Uncletopia | Atlanta | 3 | Stopwatch","protocol":17,"map":"cp_process_final","folder":"tf","game":"Team Fortress","app_id":440,"player_count":0,"max_players":24,"Bots":0,"server_type":"Dedicated","server_os":"Linux","password":true,"vac":true,"version":"7961495","steam_id":85568392924515187,"keywords":["cp","nocrits","nodmgspread","uncletopia"],"game_id":440,"stv_port":27036,"stv_name":"Uncletopia | Atlanta | 3 | Stopwatch | STV","players":null},{"server_id":401,"name":"Uncletopia | Atlanta | 4 | Community","name_short":"atl-4","host":"atl-1.us.uncletopia.com","port":27045,"enabled":true,"region":"us-east","cc":"us","latitude":33.753746,"longitude":-84.38633,"reserved":0,"last_update":"0001-01-01T00:00:00Z","name_a2s":"Uncletopia | Atlanta | 4 | Community","protocol":17,"map":"koth_kemptown_rc1","folder":"tf","game":"Team Fortress","app_id":440,"player_count":0,"max_players":24,"Bots":0,"server_type":"Dedicated","server_os":"Linux","password":true,"vac":true,"version":"7961495","steam_id":85568392924515188,"keywords":["cp","nocrits","nodmgspread","uncletopia"],"game_id":440,"stv_port":27046,"stv_name":"Uncletopia | Atlanta | 4 | Community | STV","players":null},{"server_id":2,"name":"Uncletopia | Chicago | 1 | All Maps","name_short":"chi-1","host":"chi-1.us.uncletopia.com","port":27015,"enabled":true,"region":"us-central","cc":"us","latitude":41.881832,"longitude":-87.62318,"reserved":0,"last_update":"0001-01-01T00:00:00Z","name_a2s":"Uncletopia | Chicago | 1 | All Maps","protocol":17,"map":"cp_sunshine","folder":"tf","game":"Team Fortress","app_id":440,"player_count":0,"max_players":24,"Bots":0,"server_type":"Dedicated","server_os":"Linux","password":true,"vac":true,"version":"7961495","steam_id":85568392924469984,"keywords":["cp","nocrits","nodmgspread","uncletopia"],"game_id":440,"stv_port":27016,"stv_name":"Uncletopia | Chicago | 1 | All Maps | STV","players":null},{"server_id":106,"name":"Uncletopia | Chicago | 2 | All Maps","name_short":"chi-2","host":"chi-1.us.uncletopia.com","port":27025,"enabled":true,"region":"us-central","cc":"us","latitude":41.881832,"longitude":-87.62318,"reserved":0,"last_update":"0001-01-01T00:00:00Z","name_a2s":"Uncletopia | Chicago | 2 | All Maps","protocol":17,"map":"koth_cascade","folder":"tf","game":"Team Fortress","app_id":440,"player_count":21,"max_players":24,"Bots":0,"server_type":"Dedicated","server_os":"Linux","password":true,"vac":true,"version":"7961495","steam_id":85568392924469985,"keywords":["cp","nocrits","nodmgspread","uncletopia"],"game_id":440,"stv_port":27026,"stv_name":"Uncletopia | Chicago | 2 | All Maps | STV","players":[{"user_id":692,"name":"Kamin","steam_id":76561198255299559,"connected_time":5713000000000,"state":"active","ping":86},{"user_id":769,"name":"Breach","steam_id":76561198045060392,"connected_time":1253000000000,"state":"active","ping":44},{"user_id":756,"name":"El Gato Paranoico","steam_id":76561198116567116,"connected_time":1969000000000,"state":"active","ping":97},{"user_id":774,"name":"rmx^-^","steam_id":76561197961779026,"connected_time":512000000000,"state":"active","ping":92},{"user_id":777,"name":"conner","steam_id":76561198052911241,"connected_time":493000000000,"state":"active","ping":74},{"user_id":770,"name":"Mokaaaa","steam_id":76561198043659301,"connected_time":1123000000000,"state":"active","ping":65},{"user_id":766,"name":"1-800-BALLIN","steam_id":76561198141900027,"connected_time":1390000000000,"state":"active","ping":81},{"user_id":778,"name":"Rowlet","steam_id":76561199093985532,"connected_time":483000000000,"state":"active","ping":145},{"user_id":779,"name":"THE FLUMPSTER","steam_id":76561198060911025,"connected_time":471000000000,"state":"active","ping":43},{"user_id":786,"name":"evegioyidechadab","steam_id":76561198075991626,"connected_time":265000000000,"state":"active","ping":173},{"user_id":781,"name":"DatDrep","steam_id":76561198119661623,"connected_time":403000000000,"state":"active","ping":91},{"user_id":776,"name":"Bear","steam_id":76561198058517226,"connected_time":507000000000,"state":"active","ping":83},{"user_id":782,"name":"Jeremyspokeinclaaaaaaastoday","steam_id":76561198055070054,"connected_time":392000000000,"state":"active","ping":71},{"user_id":722,"name":"Benjamin Franklin","steam_id":76561198863803062,"connected_time":3666000000000,"state":"active","ping":106},{"user_id":783,"name":"kiseek","steam_id":76561198075474088,"connected_time":381000000000,"state":"active","ping":85},{"user_id":714,"name":"Draven","steam_id":76561198074776388,"connected_time":3944000000000,"state":"active","ping":75},{"user_id":784,"name":"Iron","steam_id":76561198247918478,"connected_time":312000000000,"state":"active","ping":87},{"user_id":785,"name":"Bryguy","steam_id":76561198092096120,"connected_time":288000000000,"state":"active","ping":43},{"user_id":773,"name":"a dubious little creeeeature","steam_id":76561198162041422,"connected_time":526000000000,"state":"active","ping":72},{"user_id":788,"name":"alN","steam_id":76561198329171346,"connected_time":204000000000,"state":"active","ping":45},{"user_id":759,"name":"Mocha","steam_id":76561198221986284,"connected_time":1874000000000,"state":"active","ping":65}]},{"server_id":402,"name":"Uncletopia | Chicago | 3 | All Maps","name_short":"chi-3","host":"chi-1.us.uncletopia.com","port":27035,"enabled":true,"region":"us-central","cc":"us","latitude":41.881832,"longitude":-87.62318,"reserved":0,"last_update":"0001-01-01T00:00:00Z","name_a2s":"Uncletopia | Chicago | 3 | All Maps","protocol":17,"map":"pl_swiftwater_final1","folder":"tf","game":"Team Fortress","app_id":440,"player_count":22,"max_players":24,"Bots":0,"server_type":"Dedicated","server_os":"Linux","password":true,"vac":true,"version":"7961495","steam_id":85568392924515191,"keywords":["nocrits","nodmgspread","payload","uncletopia"],"game_id":440,"stv_port":27036,"stv_name":"Uncletopia | Chicago | 3 | All Maps | STV","players":[{"user_id":481,"name":"Hamz","steam_id":76561199287459211,"connected_time":1266000000000,"state":"active","ping":68},{"user_id":492,"name":"rudy","steam_id":76561198088712799,"connected_time":499000000000,"state":"active","ping":75},{"user_id":494,"name":"Chucklenuts95","steam_id":76561198804104676,"connected_time":132000000000,"state":"active","ping":71},{"user_id":499,"name":"Cider","steam_id":76561198072344194,"connected_time":0,"state":"connecting","ping":0},{"user_id":364,"name":"my friend can take 5guys anyday","steam_id":76561198144766439,"connected_time":9327000000000,"state":"active","ping":44},{"user_id":493,"name":"Mint Jelly","steam_id":76561197991286751,"connected_time":269000000000,"state":"active","ping":43},{"user_id":477,"name":"Ludcmorais","steam_id":76561198359217809,"connected_time":1647000000000,"state":"active","ping":182},{"user_id":461,"name":"Filtershakes","steam_id":76561197990484413,"connected_time":2167000000000,"state":"active","ping":86},{"user_id":465,"name":"zpalmtree","steam_id":76561198134307620,"connected_time":2010000000000,"state":"active","ping":69},{"user_id":497,"name":"HanakoToast","steam_id":76561198045233131,"connected_time":120000000000,"state":"active","ping":100},{"user_id":489,"name":"Kuddly Kay (She/Her)","steam_id":76561198353432576,"connected_time":658000000000,"state":"active","ping":67},{"user_id":484,"name":"Ace Attorney","steam_id":76561198133011705,"connected_time":1228000000000,"state":"active","ping":63},{"user_id":474,"name":"177013","steam_id":76561198072303290,"connected_time":1765000000000,"state":"active","ping":64},{"user_id":363,"name":"pookie","steam_id":76561198136642793,"connected_time":9351000000000,"state":"active","ping":70},{"user_id":491,"name":"warren","steam_id":76561198136331136,"connected_time":573000000000,"state":"active","ping":75},{"user_id":478,"name":"corntent","steam_id":76561198824847948,"connected_time":1632000000000,"state":"active","ping":60},{"user_id":468,"name":"«Dᵃʳᵏ.,,.Tᵉᵐᵖ»","steam_id":76561198018185884,"connected_time":1907000000000,"state":"active","ping":89},{"user_id":469,"name":"Michaelpc1","steam_id":76561198088365519,"connected_time":1869000000000,"state":"active","ping":75},{"user_id":470,"name":"HEE HOO DUSTBOWL!","steam_id":76561199389985063,"connected_time":1841000000000,"state":"active","ping":103},{"user_id":498,"name":"Lugi","steam_id":76561198142290648,"connected_time":64000000000,"state":"active","ping":73},{"user_id":471,"name":"Hatter","steam_id":76561198010341986,"connected_time":1836000000000,"state":"active","ping":45},{"user_id":488,"name":"Zesty Zucchini Ziti","steam_id":76561198092494136,"connected_time":676000000000,"state":"active","ping":61}]},{"server_id":403,"name":"Uncletopia | Chicago | 4 | All Maps","name_short":"chi-4","host":"chi-1.us.uncletopia.com","port":27045,"enabled":true,"region":"us-central","cc":"us","latitude":41.881832,"longitude":-87.62318,"reserved":0,"last_update":"0001-01-01T00:00:00Z","name_a2s":"Uncletopia | Chicago | 4 | All Maps","protocol":17,"map":"pl_borneo","folder":"tf","game":"Team Fortress","app_id":440,"player_count":24,"max_players":24,"Bots":0,"server_type":"Dedicated","server_os":"Linux","password":true,"vac":true,"version":"7961495","steam_id":85568392924515193,"keywords":["nocrits","nodmgspread","payload","uncletopia"],"game_id":440,"stv_port":27046,"stv_name":"Uncletopia | Chicago | 4 | All Maps | STV","players":[{"user_id":686,"name":"kezia","steam_id":76561198059815894,"connected_time":1410000000000,"state":"active","ping":44},{"user_id":677,"name":"aaron","steam_id":76561198113364714,"connected_time":2281000000000,"state":"active","ping":58},{"user_id":681,"name":"frank","steam_id":76561198137777483,"connected_time":1985000000000,"state":"active","ping":69},{"user_id":689,"name":"irdog","steam_id":76561198242340662,"connected_time":1286000000000,"state":"active","ping":40},{"user_id":678,"name":"Ty;","steam_id":76561198132068284,"connected_time":2276000000000,"state":"active","ping":77},{"user_id":625,"name":"Cosmic sR","steam_id":76561198081738675,"connected_time":5744000000000,"state":"active","ping":77},{"user_id":679,"name":"The Tower of Pizza","steam_id":76561198043256782,"connected_time":2255000000000,"state":"active","ping":75},{"user_id":694,"name":"Harambe","steam_id":76561198057718791,"connected_time":283000000000,"state":"active","ping":46},{"user_id":600,"name":"Jousty","steam_id":76561199162677853,"connected_time":7129000000000,"state":"active","ping":92},{"user_id":684,"name":"Tractor Trevor #farmville","steam_id":76561198138221795,"connected_time":1523000000000,"state":"active","ping":75},{"user_id":687,"name":"I have a small penis","steam_id":76561198213435803,"connected_time":1352000000000,"state":"active","ping":54},{"user_id":697,"name":"♥ mastercoms ♥","steam_id":76561198046110893,"connected_time":6000000000,"state":"spawning","ping":44},{"user_id":662,"name":"skaska4","steam_id":76561198080606141,"connected_time":3370000000000,"state":"active","ping":71},{"user_id":690,"name":"Neophyte","steam_id":76561198027183394,"connected_time":1273000000000,"state":"active","ping":89},{"user_id":643,"name":"airy","steam_id":76561198174632198,"connected_time":4894000000000,"state":"active","ping":78},{"user_id":695,"name":"popfulmail","steam_id":76561198865971290,"connected_time":277000000000,"state":"active","ping":83},{"user_id":693,"name":"L to the OG","steam_id":76561199215811448,"connected_time":958000000000,"state":"active","ping":71},{"user_id":691,"name":"Nukeboy","steam_id":76561198147058560,"connected_time":1262000000000,"state":"active","ping":101},{"user_id":680,"name":"Rotation","steam_id":76561198865324866,"connected_time":2248000000000,"state":"active","ping":75},{"user_id":607,"name":"Voodo133","steam_id":76561198042670351,"connected_time":6995000000000,"state":"active","ping":90},{"user_id":646,"name":"roddy ricch - ballin","steam_id":76561198111290441,"connected_time":4836000000000,"state":"active","ping":52},{"user_id":657,"name":"Colonel Salt","steam_id":76561198207009563,"connected_time":3882000000000,"state":"active","ping":76},{"user_id":692,"name":"moe","steam_id":76561198929586245,"connected_time":1258000000000,"state":"active","ping":105},{"user_id":696,"name":"koko","steam_id":76561198881665250,"connected_time":239000000000,"state":"active","ping":89}]},{"server_id":36,"name":"Uncletopia | Chicago | 5 | All Maps","name_short":"chi-5","host":"chi-2.us.uncletopia.com","port":27015,"enabled":true,"region":"us-central","cc":"us","latitude":41.881832,"longitude":-87.62318,"reserved":0,"last_update":"0001-01-01T00:00:00Z","name_a2s":"Uncletopia | Chicago | 5 | All Maps","protocol":17,"map":"cp_process_final","folder":"tf","game":"Team Fortress","app_id":440,"player_count":0,"max_players":24,"Bots":0,"server_type":"Dedicated","server_os":"Linux","password":true,"vac":true,"version":"7961495","steam_id":85568392924866362,"keywords":["cp","nocrits","nodmgspread","uncletopia"],"game_id":440,"stv_port":27016,"stv_name":"Uncletopia | Chicago | 5 | All Maps | STV","players":null},{"server_id":37,"name":"Uncletopia | Chicago | 6 | All Maps","name_short":"chi-6","host":"chi-2.us.uncletopia.com","port":27025,"enabled":true,"region":"us-central","cc":"us","latitude":41.881832,"longitude":-87.62318,"reserved":0,"last_update":"0001-01-01T00:00:00Z","name_a2s":"Uncletopia | Chicago | 6 | All Maps","protocol":17,"map":"koth_cascade","folder":"tf","game":"Team Fortress","app_id":440,"player_count":0,"max_players":24,"Bots":0,"server_type":"Dedicated","server_os":"Linux","password":true,"vac":true,"version":"7961495","steam_id":85568392924866363,"keywords":["cp","nocrits","nodmgspread","uncletopia"],"game_id":440,"stv_port":27026,"stv_name":"Uncletopia | Chicago | 6 | All Maps | STV","players":null},{"server_id":38,"name":"Uncletopia | Chicago | 7 | Stopwatch","name_short":"chi-7","host":"chi-2.us.uncletopia.com","port":27035,"enabled":true,"region":"us-central","cc":"us","latitude":41.881832,"longitude":-87.62318,"reserved":0,"last_update":"0001-01-01T00:00:00Z","name_a2s":"Uncletopia | Chicago | 7 | Stopwatch","protocol":17,"map":"workshop/pl_badwater_pro_v12.ugc2142942074","folder":"tf","game":"Team Fortress","app_id":440,"player_count":0,"max_players":24,"Bots":0,"server_type":"Dedicated","server_os":"Linux","password":true,"vac":true,"version":"7961495","steam_id":85568392924866364,"keywords":["nocrits","nodmgspread","payload","uncletopia"],"game_id":440,"stv_port":27036,"stv_name":"Uncletopia | Chicago | 7 | Stopwatch | STV","players":null},{"server_id":39,"name":"Uncletopia | Chicago | 8 | Community","name_short":"chi-8","host":"chi-2.us.uncletopia.com","port":27045,"enabled":true,"region":"us-central","cc":"us","latitude":41.881832,"longitude":-87.62318,"reserved":0,"last_update":"0001-01-01T00:00:00Z","name_a2s":"Uncletopia | Chicago | 8 | Community","protocol":17,"map":"workshop/cp_reckoner_rc6.ugc674719999","folder":"tf","game":"Team Fortress","app_id":440,"player_count":0,"max_players":24,"Bots":0,"server_type":"Dedicated","server_os":"Linux","password":true,"vac":true,"version":"7961495","steam_id":85568392924866365,"keywords":["cp","nocrits","nodmgspread","uncletopia"],"game_id":440,"stv_port":27046,"stv_name":"Uncletopia | Chicago | 8 | Community | STV","players":null},{"server_id":8,"name":"Uncletopia | Dallas | 1 | All Maps","name_short":"dal-1","host":"dal-1.us.uncletopia.com","port":27015,"enabled":true,"region":"us-central","cc":"us","latitude":32.779167,"longitude":-96.80889,"reserved":0,"last_update":"0001-01-01T00:00:00Z","name_a2s":"Uncletopia | Dallas | 1 | All Maps","protocol":17,"map":"koth_highpass","folder":"tf","game":"Team Fortress","app_id":440,"player_count":0,"max_players":24,"Bots":0,"server_type":"Dedicated","server_os":"Linux","password":true,"vac":true,"version":"7961495","steam_id":85568392924469986,"keywords":["cp","nocrits","nodmgspread","uncletopia"],"game_id":440,"stv_port":27016,"stv_name":"Uncletopia | Dallas | 1 | All Maps | STV","players":null},{"server_id":108,"name":"Uncletopia | Dallas | 2 | All Maps","name_short":"dal-2","host":"dal-1.us.uncletopia.com","port":27025,"enabled":true,"region":"us-central","cc":"us","latitude":32.779167,"longitude":-96.80889,"reserved":0,"last_update":"0001-01-01T00:00:00Z","name_a2s":"Uncletopia | Dallas | 2 | All Maps","protocol":17,"map":"ctf_2fort","folder":"tf","game":"Team Fortress","app_id":440,"player_count":0,"max_players":24,"Bots":0,"server_type":"Dedicated","server_os":"Linux","password":true,"vac":true,"version":"7961495","steam_id":85568392924469988,"keywords":["ctf","nocrits","nodmgspread","uncletopia"],"game_id":440,"stv_port":27026,"stv_name":"Uncletopia | Dallas | 2 | All Maps | STV","players":null},{"server_id":404,"name":"Uncletopia | Dallas | 3 | All Maps","name_short":"dal-3","host":"dal-1.us.uncletopia.com","port":27035,"enabled":true,"region":"us-central","cc":"us","latitude":32.779167,"longitude":-96.80889,"reserved":0,"last_update":"0001-01-01T00:00:00Z","name_a2s":"Uncletopia | Dallas | 3 | All Maps","protocol":17,"map":"koth_viaduct","folder":"tf","game":"Team Fortress","app_id":440,"player_count":0,"max_players":24,"Bots":0,"server_type":"Dedicated","server_os":"Linux","password":true,"vac":true,"version":"7961495","steam_id":85568392924515219,"keywords":["cp","nocrits","nodmgspread","uncletopia"],"game_id":440,"stv_port":27036,"stv_name":"Uncletopia | Dallas | 3 | All Maps | STV","players":null},{"server_id":405,"name":"Uncletopia | Dallas | 4 | Community","name_short":"dal-4","host":"dal-1.us.uncletopia.com","port":27045,"enabled":true,"region":"us-central","cc":"us","latitude":32.779167,"longitude":-96.80889,"reserved":0,"last_update":"0001-01-01T00:00:00Z","name_a2s":"Uncletopia | Dallas | 4 | Community","protocol":17,"map":"workshop/pl_eruption_b9a.ugc2807898013","folder":"tf","game":"Team Fortress","app_id":440,"player_count":20,"max_players":24,"Bots":0,"server_type":"Dedicated","server_os":"Linux","password":true,"vac":true,"version":"7961495","steam_id":85568392924515220,"keywords":["nocrits","nodmgspread","payload","uncletopia"],"game_id":440,"stv_port":27046,"stv_name":"Uncletopia | Dallas | 4 | Community | STV","players":[{"user_id":269,"name":"GoldtoothFour","steam_id":76561198055529332,"connected_time":1680000000000,"state":"active","ping":73},{"user_id":288,"name":"Zerwee","steam_id":76561198181368101,"connected_time":139000000000,"state":"active","ping":169},{"user_id":277,"name":"Tuna","steam_id":76561198129907971,"connected_time":1419000000000,"state":"active","ping":86},{"user_id":254,"name":"Lavender","steam_id":76561198142770666,"connected_time":3769000000000,"state":"active","ping":103},{"user_id":278,"name":"DustIsHereツ","steam_id":76561199105602325,"connected_time":1316000000000,"state":"active","ping":116},{"user_id":283,"name":"muck","steam_id":76561198120437909,"connected_time":919000000000,"state":"active","ping":37},{"user_id":263,"name":"Caboose","steam_id":76561198119221840,"connected_time":2878000000000,"state":"active","ping":87},{"user_id":289,"name":"Tots","steam_id":76561198027485007,"connected_time":65000000000,"state":"active","ping":66},{"user_id":225,"name":"Hyperion","steam_id":76561198088941339,"connected_time":5488000000000,"state":"active","ping":79},{"user_id":260,"name":"head in the ceiling fan","steam_id":76561198420237035,"connected_time":2999000000000,"state":"active","ping":102},{"user_id":255,"name":".-.. --- ...- . / -.-- --- ..-","steam_id":76561198002483206,"connected_time":3712000000000,"state":"active","ping":42},{"user_id":259,"name":"exploitativity","steam_id":76561198041990177,"connected_time":3254000000000,"state":"active","ping":105},{"user_id":284,"name":"Criptonic","steam_id":76561198840841130,"connected_time":894000000000,"state":"active","ping":86},{"user_id":266,"name":"shitass (Reaping and Sowing)","steam_id":76561198210572481,"connected_time":2675000000000,"state":"active","ping":60},{"user_id":264,"name":"tsz","steam_id":76561199246231090,"connected_time":2871000000000,"state":"active","ping":72},{"user_id":261,"name":"45Amazing","steam_id":76561198303081758,"connected_time":2992000000000,"state":"active","ping":81},{"user_id":285,"name":"brenden","steam_id":76561198120346280,"connected_time":871000000000,"state":"active","ping":60},{"user_id":265,"name":"Katoji","steam_id":76561199024614743,"connected_time":2867000000000,"state":"active","ping":71},{"user_id":274,"name":"Kiss Bank (Deposits Only)","steam_id":76561198306965757,"connected_time":1580000000000,"state":"active","ping":87},{"user_id":275,"name":"Auwren","steam_id":76561198175321693,"connected_time":1570000000000,"state":"active","ping":89}]},{"server_id":5,"name":"Uncletopia | Frankfurt | 1 | All Maps","name_short":"frk-1","host":"frk-1.de.uncletopia.com","port":27015,"enabled":true,"region":"eu","cc":"de","latitude":50.110924,"longitude":8.682127,"reserved":0,"last_update":"0001-01-01T00:00:00Z","name_a2s":"Uncletopia | Frankfurt | 1 | All Maps","protocol":17,"map":"koth_highpass","folder":"tf","game":"Team Fortress","app_id":440,"player_count":0,"max_players":24,"Bots":0,"server_type":"Dedicated","server_os":"Linux","password":true,"vac":true,"version":"7961495","steam_id":85568392924469989,"keywords":["cp","nocrits","nodmgspread","uncletopia"],"game_id":440,"stv_port":27016,"stv_name":"Uncletopia | Frankfurt | 1 | All Maps | STV","players":null},{"server_id":110,"name":"Uncletopia | Frankfurt | 2 | All Maps","name_short":"frk-2","host":"frk-1.de.uncletopia.com","port":27025,"enabled":true,"region":"eu","cc":"de","latitude":50.110924,"longitude":8.682127,"reserved":0,"last_update":"0001-01-01T00:00:00Z","name_a2s":"Uncletopia | Frankfurt | 2 | All Maps","protocol":17,"map":"cp_dustbowl","folder":"tf","game":"Team Fortress","app_id":440,"player_count":0,"max_players":24,"Bots":0,"server_type":"Dedicated","server_os":"Linux","password":true,"vac":true,"version":"7961495","steam_id":85568392924469990,"keywords":["cp","nocrits","nodmgspread","uncletopia"],"game_id":440,"stv_port":27026,"stv_name":"Uncletopia | Frankfurt | 2 | All Maps | STV","players":null},{"server_id":308,"name":"Uncletopia | Frankfurt | 3 | All Maps","name_short":"frk-3","host":"frk-1.de.uncletopia.com","port":27035,"enabled":true,"region":"eu","cc":"de","latitude":50.110924,"longitude":8.682127,"reserved":0,"last_update":"0001-01-01T00:00:00Z","name_a2s":"Uncletopia | Frankfurt | 3 | All Maps","protocol":17,"map":"cp_mountainlab","folder":"tf","game":"Team Fortress","app_id":440,"player_count":0,"max_players":24,"Bots":0,"server_type":"Dedicated","server_os":"Linux","password":true,"vac":true,"version":"7961495","steam_id":85568392924504274,"keywords":["cp","nocrits","nodmgspread","uncletopia"],"game_id":440,"stv_port":27036,"stv_name":"Uncletopia | Frankfurt | 3 | All Maps | STV","players":null},{"server_id":309,"name":"Uncletopia | Frankfurt | 4 | All Maps","name_short":"frk-4","host":"frk-1.de.uncletopia.com","port":27045,"enabled":true,"region":"eu","cc":"de","latitude":50.110924,"longitude":8.682127,"reserved":0,"last_update":"0001-01-01T00:00:00Z","name_a2s":"Uncletopia | Frankfurt | 4 | All Maps","protocol":17,"map":"koth_highpass","folder":"tf","game":"Team Fortress","app_id":440,"player_count":0,"max_players":24,"Bots":0,"server_type":"Dedicated","server_os":"Linux","password":true,"vac":true,"version":"7961495","steam_id":85568392924504275,"keywords":["cp","nocrits","nodmgspread","uncletopia"],"game_id":440,"stv_port":27046,"stv_name":"Uncletopia | Frankfurt | 4 | All Maps | STV","players":null},{"server_id":310,"name":"Uncletopia | Frankfurt | 5 | All Maps","name_short":"frk-5","host":"frk-1.de.uncletopia.com","port":27055,"enabled":true,"region":"eu","cc":"de","latitude":50.110924,"longitude":8.682127,"reserved":0,"last_update":"0001-01-01T00:00:00Z","name_a2s":"Uncletopia | Frankfurt | 5 | All Maps","protocol":17,"map":"cp_mountainlab","folder":"tf","game":"Team Fortress","app_id":440,"player_count":0,"max_players":24,"Bots":0,"server_type":"Dedicated","server_os":"Linux","password":true,"vac":true,"version":"7961495","steam_id":85568392924504277,"keywords":["cp","nocrits","nodmgspread","uncletopia"],"game_id":440,"stv_port":27056,"stv_name":"Uncletopia | Frankfurt | 5 | All Maps | STV","players":null},{"server_id":311,"name":"Uncletopia | Frankfurt | 6 | All Maps","name_short":"frk-6","host":"frk-1.de.uncletopia.com","port":27065,"enabled":true,"region":"eu","cc":"de","latitude":50.110924,"longitude":8.682127,"reserved":0,"last_update":"0001-01-01T00:00:00Z","name_a2s":"Uncletopia | Frankfurt | 6 | All Maps","protocol":17,"map":"cp_altitude","folder":"tf","game":"Team Fortress","app_id":440,"player_count":0,"max_players":24,"Bots":0,"server_type":"Dedicated","server_os":"Linux","password":true,"vac":true,"version":"7961495","steam_id":85568392924504278,"keywords":["cp","nocrits","nodmgspread","uncletopia"],"game_id":440,"stv_port":27066,"stv_name":"Uncletopia | Frankfurt | 6 | All Maps | STV","players":null},{"server_id":23,"name":"Uncletopia | Frankfurt | 7 | Stopwatch","name_short":"frk-7","host":"frk-1.de.uncletopia.com","port":27075,"enabled":true,"region":"eu","cc":"de","latitude":50.110924,"longitude":8.682127,"reserved":0,"last_update":"0001-01-01T00:00:00Z","name_a2s":"Uncletopia | Frankfurt | 7 | Stopwatch","protocol":17,"map":"pl_frontier_final","folder":"tf","game":"Team Fortress","app_id":440,"player_count":0,"max_players":24,"Bots":0,"server_type":"Dedicated","server_os":"Linux","password":true,"vac":true,"version":"7961495","steam_id":85568392924742827,"keywords":["nocrits","nodmgspread","payload","uncletopia"],"game_id":440,"stv_port":27076,"stv_name":"Uncletopia | Frankfurt | 7 | Stopwatch | STV","players":null},{"server_id":24,"name":"Uncletopia | Frankfurt | 8 | Community","name_short":"frk-8","host":"frk-1.de.uncletopia.com","port":27085,"enabled":true,"region":"eu","cc":"de","latitude":50.110924,"longitude":8.682127,"reserved":0,"last_update":"0001-01-01T00:00:00Z","name_a2s":"Uncletopia | Frankfurt | 8 | Community","protocol":17,"map":"cp_mountainlab","folder":"tf","game":"Team Fortress","app_id":440,"player_count":0,"max_players":24,"Bots":0,"server_type":"Dedicated","server_os":"Linux","password":true,"vac":true,"version":"7961495","steam_id":85568392924742828,"keywords":["cp","nocrits","nodmgspread","uncletopia"],"game_id":440,"stv_port":27086,"stv_name":"Uncletopia | Frankfurt | 8 | Community | STV","players":null},{"server_id":202,"name":"Uncletopia | Hong Kong | 1 | All Maps","name_short":"hgk-1","host":"hgk-1.hk.uncletopia.com","port":27015,"enabled":true,"region":"asia","cc":"hk","latitude":22.302711,"longitude":114.177216,"reserved":0,"last_update":"0001-01-01T00:00:00Z","name_a2s":"Uncletopia | Hong Kong | 1 | All Maps","protocol":17,"map":"pl_frontier_final","folder":"tf","game":"Team Fortress","app_id":440,"player_count":0,"max_players":24,"Bots":0,"server_type":"Dedicated","server_os":"Linux","password":true,"vac":true,"version":"7961495","steam_id":85568392924494504,"keywords":["nocrits","nodmgspread","payload","uncletopia"],"game_id":440,"stv_port":27016,"stv_name":"Uncletopia | Hong Kong | 1 | All Maps | STV","players":null},{"server_id":1,"name":"Uncletopia | Los Angeles | 1 | All Maps","name_short":"lax-1","host":"lax-1.us.uncletopia.com","port":27015,"enabled":true,"region":"us-west","cc":"us","latitude":33.94279,"longitude":-118.41004,"reserved":0,"last_update":"0001-01-01T00:00:00Z","name_a2s":"Uncletopia | Los Angeles | 1 | All Maps","protocol":17,"map":"pl_goldrush","folder":"tf","game":"Team Fortress","app_id":440,"player_count":24,"max_players":24,"Bots":0,"server_type":"Dedicated","server_os":"Linux","password":true,"vac":true,"version":"7961495","steam_id":85568392924469991,"keywords":["nocrits","nodmgspread","payload","uncletopia"],"game_id":440,"stv_port":27016,"stv_name":"Uncletopia | Los Angeles | 1 | All Maps | STV","players":[{"user_id":387,"name":"binka bonk","steam_id":76561198174751517,"connected_time":247000000000,"state":"active","ping":92},{"user_id":356,"name":"VoodooPapa","steam_id":76561199160439066,"connected_time":3819000000000,"state":"active","ping":62},{"user_id":381,"name":"Nova Academy of Salmon Action","steam_id":76561198021842526,"connected_time":1535000000000,"state":"active","ping":72},{"user_id":384,"name":"Karg","steam_id":76561198091387866,"connected_time":837000000000,"state":"active","ping":67},{"user_id":388,"name":"GX Compress Dong","steam_id":76561198018950826,"connected_time":140000000000,"state":"active","ping":59},{"user_id":372,"name":"Anstorner","steam_id":76561198274026015,"connected_time":2304000000000,"state":"active","ping":41},{"user_id":389,"name":"BrightOrangeMango","steam_id":76561198023144607,"connected_time":79000000000,"state":"active","ping":75},{"user_id":390,"name":"Cope","steam_id":76561198105929029,"connected_time":71000000000,"state":"active","ping":73},{"user_id":375,"name":"Roosevelt Chadwick","steam_id":76561198278169311,"connected_time":2088000000000,"state":"active","ping":62},{"user_id":326,"name":"podge","steam_id":76561198858474714,"connected_time":6297000000000,"state":"active","ping":74},{"user_id":383,"name":"Blazorazor","steam_id":76561198032392742,"connected_time":1082000000000,"state":"active","ping":58},{"user_id":386,"name":"Admiral Butt Naked","steam_id":76561198179591062,"connected_time":440000000000,"state":"active","ping":64},{"user_id":391,"name":"who longed my dragon","steam_id":76561198087472085,"connected_time":64000000000,"state":"active","ping":49},{"user_id":332,"name":"Do cOck","steam_id":76561198132755619,"connected_time":6248000000000,"state":"active","ping":40},{"user_id":333,"name":"Your Favorite Fearless Hero","steam_id":76561199127590316,"connected_time":6247000000000,"state":"active","ping":59},{"user_id":334,"name":"simcye","steam_id":76561198010991761,"connected_time":6226000000000,"state":"active","ping":75},{"user_id":378,"name":"Thomas Chavira Gaming","steam_id":76561198313671617,"connected_time":1955000000000,"state":"active","ping":68},{"user_id":337,"name":"the pizza","steam_id":76561198221331476,"connected_time":6168000000000,"state":"active","ping":54},{"user_id":393,"name":"top10skater","steam_id":76561199471507997,"connected_time":29000000000,"state":"active","ping":58},{"user_id":392,"name":"Bomb Squirtle™","steam_id":76561197998931145,"connected_time":57000000000,"state":"active","ping":130},{"user_id":379,"name":"FriskyDemon","steam_id":76561198043684646,"connected_time":1885000000000,"state":"active","ping":76},{"user_id":371,"name":"chubbs from happy gilmore","steam_id":76561198143538672,"connected_time":2458000000000,"state":"active","ping":72},{"user_id":394,"name":"Diang0","steam_id":76561198117953095,"connected_time":24000000000,"state":"active","ping":87},{"user_id":395,"name":"Quetzalcoatl","steam_id":76561198094826250,"connected_time":16000000000,"state":"spawning","ping":44}]},{"server_id":112,"name":"Uncletopia | Los Angeles | 2 | All Maps","name_short":"lax-2","host":"lax-1.us.uncletopia.com","port":27025,"enabled":true,"region":"us-west","cc":"us","latitude":33.94279,"longitude":-118.41004,"reserved":0,"last_update":"0001-01-01T00:00:00Z","name_a2s":"Uncletopia | Los Angeles | 2 | All Maps","protocol":17,"map":"koth_cascade","folder":"tf","game":"Team Fortress","app_id":440,"player_count":0,"max_players":24,"Bots":0,"server_type":"Dedicated","server_os":"Linux","password":true,"vac":true,"version":"7961495","steam_id":85568392924469992,"keywords":["cp","nocrits","nodmgspread","uncletopia"],"game_id":440,"stv_port":27026,"stv_name":"Uncletopia | Los Angeles | 2 | All Maps | STV","players":null},{"server_id":324,"name":"Uncletopia | Los Angeles | 3 | All Maps","name_short":"lax-3","host":"lax-1.us.uncletopia.com","port":27035,"enabled":true,"region":"us-west","cc":"us","latitude":33.94279,"longitude":-118.41004,"reserved":0,"last_update":"0001-01-01T00:00:00Z","name_a2s":"Uncletopia | Los Angeles | 3 | All Maps","protocol":17,"map":"pl_barnblitz","folder":"tf","game":"Team Fortress","app_id":440,"player_count":24,"max_players":24,"Bots":0,"server_type":"Dedicated","server_os":"Linux","password":true,"vac":true,"version":"7961495","steam_id":85568392924510198,"keywords":["nocrits","nodmgspread","payload","uncletopia"],"game_id":440,"stv_port":27036,"stv_name":"Uncletopia | Los Angeles | 3 | All Maps | STV","players":[{"user_id":315,"name":"MixelPixel","steam_id":76561198079708701,"connected_time":2243000000000,"state":"active","ping":70},{"user_id":305,"name":"Nez","steam_id":76561197963109059,"connected_time":2866000000000,"state":"active","ping":61},{"user_id":329,"name":"mollusk_obliteration","steam_id":76561198085388962,"connected_time":1043000000000,"state":"active","ping":111},{"user_id":331,"name":"Arrythmia","steam_id":76561198093748123,"connected_time":922000000000,"state":"active","ping":60},{"user_id":333,"name":"Tony Tony Chopper","steam_id":76561198329478764,"connected_time":501000000000,"state":"active","ping":59},{"user_id":324,"name":"armeen","steam_id":76561198168492250,"connected_time":1452000000000,"state":"active","ping":51},{"user_id":341,"name":"s4lmon","steam_id":76561198055882807,"connected_time":145000000000,"state":"active","ping":75},{"user_id":339,"name":"The Grim Heaper","steam_id":76561197987759101,"connected_time":313000000000,"state":"active","ping":87},{"user_id":340,"name":"usmnt==chokers","steam_id":76561198043456370,"connected_time":312000000000,"state":"active","ping":75},{"user_id":342,"name":"Eric4bz","steam_id":76561198054439606,"connected_time":126000000000,"state":"active","ping":96},{"user_id":292,"name":"GreekYogurt","steam_id":76561198037671890,"connected_time":3777000000000,"state":"active","ping":60},{"user_id":311,"name":"CPTforever","steam_id":76561198237767198,"connected_time":2304000000000,"state":"active","ping":60},{"user_id":314,"name":"Matisguy","steam_id":76561199020903681,"connected_time":2250000000000,"state":"active","ping":93},{"user_id":321,"name":"BurritoCat","steam_id":76561198059822805,"connected_time":1790000000000,"state":"active","ping":153},{"user_id":337,"name":"minecraft","steam_id":76561198104345201,"connected_time":377000000000,"state":"active","ping":97},{"user_id":322,"name":"small meth pouch","steam_id":76561198130412963,"connected_time":1746000000000,"state":"active","ping":82},{"user_id":304,"name":"Persona404","steam_id":76561198109635077,"connected_time":3073000000000,"state":"active","ping":121},{"user_id":330,"name":"GreenBlah","steam_id":76561198009178916,"connected_time":1031000000000,"state":"active","ping":79},{"user_id":295,"name":"Silvermace","steam_id":76561198090696843,"connected_time":3561000000000,"state":"active","ping":46},{"user_id":283,"name":"alexthecaptain","steam_id":76561198072632194,"connected_time":4084000000000,"state":"active","ping":160},{"user_id":317,"name":"McDonald","steam_id":76561199028533497,"connected_time":2170000000000,"state":"active","ping":49},{"user_id":318,"name":"Satori Komeiji","steam_id":76561198158211423,"connected_time":2165000000000,"state":"active","ping":51},{"user_id":334,"name":"shreklover69","steam_id":76561198054070811,"connected_time":450000000000,"state":"active","ping":49},{"user_id":338,"name":"VixianUwU","steam_id":76561198948815060,"connected_time":360000000000,"state":"active","ping":78}]},{"server_id":25,"name":"Uncletopia | Los Angeles | 4 | Stopwatch","name_short":"lax-4","host":"lax-1.us.uncletopia.com","port":27045,"enabled":true,"region":"us-west","cc":"us","latitude":33.94279,"longitude":-118.41004,"reserved":0,"last_update":"0001-01-01T00:00:00Z","name_a2s":"Uncletopia | Los Angeles | 4 | Stopwatch","protocol":17,"map":"workshop/koth_product_final.ugc454272353","folder":"tf","game":"Team Fortress","app_id":440,"player_count":0,"max_players":24,"Bots":0,"server_type":"Dedicated","server_os":"Linux","password":true,"vac":true,"version":"7961495","steam_id":85568392924510199,"keywords":["cp","nocrits","nodmgspread","uncletopia"],"game_id":440,"stv_port":27046,"stv_name":"Uncletopia | Los Angeles | 4 | Stopwatch | STV","players":null},{"server_id":11,"name":"Uncletopia | London | 1 | All Maps","name_short":"lon-1","host":"lon-1.uk.uncletopia.com","port":27015,"enabled":true,"region":"eu","cc":"gb","latitude":51.509865,"longitude":-0.118092,"reserved":0,"last_update":"0001-01-01T00:00:00Z","name_a2s":"Uncletopia | London | 1 | All Maps","protocol":17,"map":"koth_highpass","folder":"tf","game":"Team Fortress","app_id":440,"player_count":0,"max_players":24,"Bots":0,"server_type":"Dedicated","server_os":"Linux","password":true,"vac":true,"version":"7961495","steam_id":85568392924367362,"keywords":["cp","nocrits","nodmgspread","uncletopia"],"game_id":440,"stv_port":27016,"stv_name":"Uncletopia | London | 1 | All Maps | STV","players":null},{"server_id":114,"name":"Uncletopia | London | 2 | All Maps","name_short":"lon-2","host":"lon-1.uk.uncletopia.com","port":27025,"enabled":true,"region":"eu","cc":"gb","latitude":51.509865,"longitude":-0.118092,"reserved":0,"last_update":"0001-01-01T00:00:00Z","name_a2s":"Uncletopia | London | 2 | All Maps","protocol":17,"map":"koth_lakeside_final","folder":"tf","game":"Team Fortress","app_id":440,"player_count":0,"max_players":24,"Bots":0,"server_type":"Dedicated","server_os":"Linux","password":true,"vac":true,"version":"7961495","steam_id":85568392924470941,"keywords":["cp","nocrits","nodmgspread","uncletopia"],"game_id":440,"stv_port":27026,"stv_name":"Uncletopia | London | 2 | All Maps | STV","players":null},{"server_id":320,"name":"Uncletopia | London | 3 | All Maps","name_short":"lon-3","host":"lon-1.uk.uncletopia.com","port":27035,"enabled":true,"region":"eu","cc":"gb","latitude":51.509865,"longitude":-0.118092,"reserved":0,"last_update":"0001-01-01T00:00:00Z","name_a2s":"Uncletopia | London | 3 | All Maps","protocol":17,"map":"cp_process_final","folder":"tf","game":"Team Fortress","app_id":440,"player_count":0,"max_players":24,"Bots":0,"server_type":"Dedicated","server_os":"Linux","password":true,"vac":true,"version":"7961495","steam_id":85568392924510192,"keywords":["cp","nocrits","nodmgspread","uncletopia"],"game_id":440,"stv_port":27036,"stv_name":"Uncletopia | London | 3 | All Maps | STV","players":null},{"server_id":321,"name":"Uncletopia | London | 4 | All Maps","name_short":"lon-4","host":"lon-1.uk.uncletopia.com","port":27045,"enabled":true,"region":"eu","cc":"gb","latitude":51.509865,"longitude":-0.118092,"reserved":0,"last_update":"0001-01-01T00:00:00Z","name_a2s":"Uncletopia | London | 4 | All Maps","protocol":17,"map":"koth_cascade","folder":"tf","game":"Team Fortress","app_id":440,"player_count":0,"max_players":24,"Bots":0,"server_type":"Dedicated","server_os":"Linux","password":true,"vac":true,"version":"7961495","steam_id":85568392924510193,"keywords":["cp","nocrits","nodmgspread","uncletopia"],"game_id":440,"stv_port":27046,"stv_name":"Uncletopia | London | 4 | All Maps | STV","players":null},{"server_id":21,"name":"Uncletopia | London | 5 | All Maps","name_short":"lon-5","host":"lon-1.uk.uncletopia.com","port":27055,"enabled":true,"region":"eu","cc":"gb","latitude":51.509865,"longitude":-0.118092,"reserved":0,"last_update":"0001-01-01T00:00:00Z","name_a2s":"Uncletopia | London | 5 | All Maps","protocol":17,"map":"koth_lakeside_final","folder":"tf","game":"Team Fortress","app_id":440,"player_count":0,"max_players":24,"Bots":0,"server_type":"Dedicated","server_os":"Linux","password":true,"vac":true,"version":"7961495","steam_id":85568392924742829,"keywords":["cp","nocrits","nodmgspread","uncletopia"],"game_id":440,"stv_port":27056,"stv_name":"Uncletopia | London | 5 | All Maps | STV","players":null},{"server_id":22,"name":"Uncletopia | London | 6 | All Maps","name_short":"lon-6","host":"lon-1.uk.uncletopia.com","port":27065,"enabled":true,"region":"eu","cc":"gb","latitude":51.509865,"longitude":-0.118092,"reserved":0,"last_update":"0001-01-01T00:00:00Z","name_a2s":"Uncletopia | London | 6 | All Maps","protocol":17,"map":"cp_dustbowl","folder":"tf","game":"Team Fortress","app_id":440,"player_count":0,"max_players":24,"Bots":0,"server_type":"Dedicated","server_os":"Linux","password":true,"vac":true,"version":"7961495","steam_id":85568392924742830,"keywords":["cp","nocrits","nodmgspread","uncletopia"],"game_id":440,"stv_port":27066,"stv_name":"Uncletopia | London | 6 | All Maps | STV","players":null},{"server_id":40,"name":"Uncletopia | London | 7 | Stopwatch","name_short":"lon-7","host":"lon-1.uk.uncletopia.com","port":27075,"enabled":true,"region":"eu","cc":"gb","latitude":51.509865,"longitude":-0.118092,"reserved":0,"last_update":"0001-01-01T00:00:00Z","name_a2s":"Uncletopia | London | 7 | Stopwatch","protocol":17,"map":"koth_lakeside_final","folder":"tf","game":"Team Fortress","app_id":440,"player_count":0,"max_players":24,"Bots":0,"server_type":"Dedicated","server_os":"Linux","password":true,"vac":true,"version":"7961495","steam_id":85568392924964314,"keywords":["cp","nocrits","nodmgspread","uncletopia"],"game_id":440,"stv_port":27076,"stv_name":"Uncletopia | London | 7 | Stopwatch | STV","players":null},{"server_id":41,"name":"Uncletopia | London | 8 | Community","name_short":"lon-8","host":"lon-1.uk.uncletopia.com","port":27085,"enabled":true,"region":"eu","cc":"gb","latitude":51.509865,"longitude":-0.118092,"reserved":0,"last_update":"0001-01-01T00:00:00Z","name_a2s":"Uncletopia | London | 8 | Community","protocol":17,"map":"cp_snakewater_final1","folder":"tf","game":"Team Fortress","app_id":440,"player_count":0,"max_players":24,"Bots":0,"server_type":"Dedicated","server_os":"Linux","password":true,"vac":true,"version":"7961495","steam_id":85568392924964315,"keywords":["cp","nocrits","nodmgspread","uncletopia"],"game_id":440,"stv_port":27086,"stv_name":"Uncletopia | London | 8 | Community | STV","players":null},{"server_id":300,"name":"Uncletopia | Montréal | 1 | All Maps","name_short":"mtl-1","host":"mtl-1.ca.uncletopia.com","port":27015,"enabled":true,"region":"us-east","cc":"ca","latitude":45.50889,"longitude":-73.56167,"reserved":0,"last_update":"0001-01-01T00:00:00Z","name_a2s":"","protocol":0,"map":"","folder":"","game":"","app_id":0,"player_count":0,"max_players":0,"Bots":0,"server_type":"","server_os":"","password":false,"vac":false,"version":"","steam_id":0,"keywords":null,"game_id":0,"stv_port":0,"stv_name":"","players":null},{"server_id":301,"name":"Uncletopia | Montréal | 2 | One Thousand Uncles","name_short":"mtl-2","host":"mtl-1.ca.uncletopia.com","port":27025,"enabled":true,"region":"us-east","cc":"ca","latitude":45.50889,"longitude":-73.56167,"reserved":0,"last_update":"0001-01-01T00:00:00Z","name_a2s":"","protocol":0,"map":"","folder":"","game":"","app_id":0,"player_count":7,"max_players":0,"Bots":0,"server_type":"","server_os":"","password":false,"vac":false,"version":"","steam_id":0,"keywords":null,"game_id":0,"stv_port":0,"stv_name":"","players":[{"user_id":113,"name":"sq","steam_id":76561197961279983,"connected_time":3033000000000,"state":"active","ping":123},{"user_id":130,"name":"ุ","steam_id":76561198084134025,"connected_time":3019000000000,"state":"active","ping":84},{"user_id":131,"name":"camp3r","steam_id":76561197992870439,"connected_time":2917000000000,"state":"active","ping":105},{"user_id":132,"name":"Lore","steam_id":76561198098407538,"connected_time":2912000000000,"state":"active","ping":71},{"user_id":133,"name":"mohamad","steam_id":76561199422781797,"connected_time":2465000000000,"state":"active","ping":180},{"user_id":150,"name":"Cool-Aids Man","steam_id":76561198280184641,"connected_time":1672000000000,"state":"active","ping":45},{"user_id":151,"name":"Van StabHolme","steam_id":76561198303009712,"connected_time":20000000000,"state":"spawning","ping":196}]},{"server_id":13,"name":"Uncletopia | New York City | 1 | All Maps","name_short":"nyc-1","host":"nyc-1.us.uncletopia.com","port":27015,"enabled":true,"region":"us-east","cc":"us","latitude":40.73061,"longitude":-73.93524,"reserved":0,"last_update":"0001-01-01T00:00:00Z","name_a2s":"Uncletopia | New York City | 1 | All Maps","protocol":17,"map":"pl_snowycoast","folder":"tf","game":"Team Fortress","app_id":440,"player_count":20,"max_players":24,"Bots":0,"server_type":"Dedicated","server_os":"Linux","password":true,"vac":true,"version":"7961495","steam_id":85568392924469993,"keywords":["nocrits","nodmgspread","payload","uncletopia"],"game_id":440,"stv_port":27016,"stv_name":"Uncletopia | New York City | 1 | All Maps | STV","players":[{"user_id":812,"name":"mothsprings","steam_id":76561198928604937,"connected_time":2788000000000,"state":"active","ping":60},{"user_id":761,"name":"SouerLuigi","steam_id":76561198261896480,"connected_time":6581000000000,"state":"active","ping":82},{"user_id":854,"name":"Heat My Justice","steam_id":76561197995252750,"connected_time":29000000000,"state":"active","ping":106},{"user_id":815,"name":"Tony hawks pro skater 2 dlc","steam_id":76561198243387974,"connected_time":2488000000000,"state":"active","ping":53},{"user_id":843,"name":"qool guy","steam_id":76561198064758306,"connected_time":723000000000,"state":"active","ping":68},{"user_id":764,"name":"LambyLuigi","steam_id":76561198170456345,"connected_time":6473000000000,"state":"active","ping":77},{"user_id":855,"name":"adidas spokesperson","steam_id":76561198413125750,"connected_time":8000000000,"state":"spawning","ping":47},{"user_id":853,"name":"Engie's best friend","steam_id":76561197961707932,"connected_time":177000000000,"state":"active","ping":141},{"user_id":823,"name":"Feces","steam_id":76561198380219187,"connected_time":1820000000000,"state":"active","ping":64},{"user_id":820,"name":"Hydroxianchaos","steam_id":76561198043786828,"connected_time":2066000000000,"state":"active","ping":47},{"user_id":793,"name":"Athercon","steam_id":76561198071621615,"connected_time":5379000000000,"state":"active","ping":81},{"user_id":833,"name":"Rock Kickass","steam_id":76561198450510841,"connected_time":1505000000000,"state":"active","ping":130},{"user_id":821,"name":"Alyx","steam_id":76561198064654326,"connected_time":2047000000000,"state":"active","ping":130},{"user_id":850,"name":"Person","steam_id":76561198093244204,"connected_time":441000000000,"state":"active","ping":61},{"user_id":840,"name":"CowardicePrevails","steam_id":76561198145199545,"connected_time":771000000000,"state":"active","ping":66},{"user_id":841,"name":"Geronimo!","steam_id":76561198044906367,"connected_time":768000000000,"state":"active","ping":62},{"user_id":851,"name":"Anthid","steam_id":76561198074493797,"connected_time":208000000000,"state":"active","ping":79},{"user_id":842,"name":"Bippums","steam_id":76561198366406729,"connected_time":752000000000,"state":"active","ping":86},{"user_id":844,"name":"GuyGoom","steam_id":76561198254522178,"connected_time":702000000000,"state":"active","ping":73},{"user_id":848,"name":"keffers","steam_id":76561198202338796,"connected_time":653000000000,"state":"active","ping":99}]},{"server_id":14,"name":"Uncletopia | New York City | 2 | All Maps","name_short":"nyc-2","host":"nyc-1.us.uncletopia.com","port":27025,"enabled":true,"region":"us-east","cc":"us","latitude":40.73061,"longitude":-73.93524,"reserved":0,"last_update":"0001-01-01T00:00:00Z","name_a2s":"Uncletopia | New York City | 2 | All Maps","protocol":17,"map":"koth_lakeside_final","folder":"tf","game":"Team Fortress","app_id":440,"player_count":0,"max_players":24,"Bots":0,"server_type":"Dedicated","server_os":"Linux","password":true,"vac":true,"version":"7961495","steam_id":85568392924469994,"keywords":["cp","nocrits","nodmgspread","uncletopia"],"game_id":440,"stv_port":27026,"stv_name":"Uncletopia | New York City | 2 | All Maps | STV","players":null},{"server_id":15,"name":"Uncletopia | New York City | 3 | Stopwatch","name_short":"nyc-3","host":"nyc-1.us.uncletopia.com","port":27035,"enabled":true,"region":"us-east","cc":"us","latitude":40.73061,"longitude":-73.93524,"reserved":0,"last_update":"0001-01-01T00:00:00Z","name_a2s":"Uncletopia | New York City | 3 | Stopwatch","protocol":17,"map":"pl_upward","folder":"tf","game":"Team Fortress","app_id":440,"player_count":0,"max_players":24,"Bots":0,"server_type":"Dedicated","server_os":"Linux","password":true,"vac":true,"version":"7961495","steam_id":85568392924742820,"keywords":["nocrits","nodmgspread","payload","uncletopia"],"game_id":440,"stv_port":27036,"stv_name":"Uncletopia | New York City | 3 | Stopwatch | STV","players":null},{"server_id":16,"name":"Uncletopia | New York City | 4 | Community","name_short":"nyc-4","host":"nyc-1.us.uncletopia.com","port":27045,"enabled":true,"region":"us-east","cc":"us","latitude":40.73061,"longitude":-73.93524,"reserved":0,"last_update":"0001-01-01T00:00:00Z","name_a2s":"Uncletopia | New York City | 4 | Community","protocol":17,"map":"workshop/koth_product_final.ugc454272353","folder":"tf","game":"Team Fortress","app_id":440,"player_count":0,"max_players":24,"Bots":0,"server_type":"Dedicated","server_os":"Linux","password":true,"vac":true,"version":"7961495","steam_id":85568392924742821,"keywords":["cp","nocrits","nodmgspread","uncletopia"],"game_id":440,"stv_port":27046,"stv_name":"Uncletopia | New York City | 4 | Community | STV","players":null},{"server_id":142,"name":"Uncletopia | São Paulo | 1 | All Maps","name_short":"sao-1","host":"sao-1.br.uncletopia.com","port":27015,"enabled":true,"region":"sa","cc":"br","latitude":-23.533773,"longitude":-46.62529,"reserved":0,"last_update":"0001-01-01T00:00:00Z","name_a2s":"Uncletopia | São Paulo | 1 | All Maps","protocol":17,"map":"koth_lakeside_final","folder":"tf","game":"Team Fortress","app_id":440,"player_count":0,"max_players":24,"Bots":0,"server_type":"Dedicated","server_os":"Linux","password":true,"vac":true,"version":"7961495","steam_id":85568392924469996,"keywords":["cp","nocrits","nodmgspread","uncletopia"],"game_id":440,"stv_port":27016,"stv_name":"Uncletopia | São Paulo | 1 | All Maps | STV","players":null},{"server_id":143,"name":"Uncletopia | São Paulo | 2 | Community","name_short":"sao-2","host":"sao-2.br.uncletopia.com","port":27015,"enabled":true,"region":"sa","cc":"br","latitude":-23.533773,"longitude":-46.62529,"reserved":0,"last_update":"0001-01-01T00:00:00Z","name_a2s":"Uncletopia | São Paulo | 2 | Community","protocol":17,"map":"workshop/cp_reckoner_rc6.ugc674719999","folder":"tf","game":"Team Fortress","app_id":440,"player_count":0,"max_players":24,"Bots":0,"server_type":"Dedicated","server_os":"Linux","password":true,"vac":true,"version":"7961495","steam_id":85568392924485349,"keywords":["cp","nocrits","nodmgspread","uncletopia"],"game_id":440,"stv_port":27016,"stv_name":"Uncletopia | São Paulo | 2 | Community | STV","players":null},{"server_id":7,"name":"Uncletopia | Seattle | 1 | All Maps","name_short":"sea-1","host":"sea-1.us.uncletopia.com","port":27015,"enabled":true,"region":"us-west","cc":"us","latitude":47.608013,"longitude":-122.33517,"reserved":0,"last_update":"0001-01-01T00:00:00Z","name_a2s":"Uncletopia | Seattle | 1 | All Maps","protocol":17,"map":"pl_badwater","folder":"tf","game":"Team Fortress","app_id":440,"player_count":26,"max_players":24,"Bots":0,"server_type":"Dedicated","server_os":"Linux","password":true,"vac":true,"version":"7961495","steam_id":85568392924469997,"keywords":["nocrits","nodmgspread","payload","uncletopia"],"game_id":440,"stv_port":27016,"stv_name":"Uncletopia | Seattle | 1 | All Maps | STV","players":[{"user_id":338,"name":"mega","steam_id":76561198089520959,"connected_time":2279000000000,"state":"active","ping":86},{"user_id":168,"name":"Ayayayayayahuasca","steam_id":76561199002906056,"connected_time":14472000000000,"state":"active","ping":45},{"user_id":295,"name":"sillyjack","steam_id":76561198844273999,"connected_time":6013000000000,"state":"active","ping":42},{"user_id":288,"name":"I LOVE SHOEBILLS","steam_id":76561198169755734,"connected_time":7914000000000,"state":"active","ping":66},{"user_id":335,"name":"pepe warlord","steam_id":76561198080819197,"connected_time":2733000000000,"state":"active","ping":70},{"user_id":334,"name":"slushy :))","steam_id":76561198135281802,"connected_time":2733000000000,"state":"active","ping":34},{"user_id":331,"name":"rat who can kickflip","steam_id":76561198073620027,"connected_time":2785000000000,"state":"active","ping":42},{"user_id":343,"name":"jole","steam_id":76561198037292232,"connected_time":1903000000000,"state":"active","ping":121},{"user_id":322,"name":"Translucent૮₍ • ᴥ •","steam_id":76561199212057076,"connected_time":3369000000000,"state":"active","ping":77},{"user_id":348,"name":"Choom","steam_id":76561197972654816,"connected_time":491000000000,"state":"active","ping":49},{"user_id":349,"name":"Scoops M'Gooch","steam_id":76561198048423812,"connected_time":472000000000,"state":"active","ping":77},{"user_id":351,"name":"็็","steam_id":76561199246007186,"connected_time":446000000000,"state":"active","ping":78},{"user_id":347,"name":"Lily Thorn","steam_id":76561198305488625,"connected_time":545000000000,"state":"active","ping":54},{"user_id":306,"name":"Cheezbeargur","steam_id":76561198164702899,"connected_time":4610000000000,"state":"active","ping":62},{"user_id":201,"name":"NEBULA","steam_id":76561198086878595,"connected_time":11364000000000,"state":"active","ping":73},{"user_id":293,"name":"lavender","steam_id":76561199069518286,"connected_time":6228000000000,"state":"active","ping":70},{"user_id":228,"name":"aisu","steam_id":76561198043768507,"connected_time":8998000000000,"state":"active","ping":90},{"user_id":336,"name":"Kaiga","steam_id":76561198044052046,"connected_time":2613000000000,"state":"active","ping":126},{"user_id":329,"name":"Zee✞","steam_id":76561198274550638,"connected_time":2848000000000,"state":"active","ping":103},{"user_id":325,"name":"rat gets the cheese","steam_id":76561198031234032,"connected_time":3300000000000,"state":"active","ping":100},{"user_id":312,"name":"card carrying member","steam_id":76561198043558709,"connected_time":4525000000000,"state":"active","ping":57},{"user_id":352,"name":"Rev","steam_id":76561199060355036,"connected_time":444000000000,"state":"active","ping":47},{"user_id":339,"name":"jayeskae","steam_id":76561198144220801,"connected_time":2265000000000,"state":"active","ping":51},{"user_id":353,"name":"jorts","steam_id":76561199041179985,"connected_time":408000000000,"state":"active","ping":54},{"user_id":354,"name":"rushy :))","steam_id":76561198065825165,"connected_time":396000000000,"state":"active","ping":88},{"user_id":319,"name":"goku super saiyan blue","steam_id":76561198271939793,"connected_time":3703000000000,"state":"active","ping":46}]},{"server_id":119,"name":"Uncletopia | Seattle | 2 | All Maps","name_short":"sea-2","host":"sea-1.us.uncletopia.com","port":27025,"enabled":true,"region":"us-west","cc":"us","latitude":47.608013,"longitude":-122.33517,"reserved":0,"last_update":"0001-01-01T00:00:00Z","name_a2s":"Uncletopia | Seattle | 2 | All Maps","protocol":17,"map":"koth_viaduct","folder":"tf","game":"Team Fortress","app_id":440,"player_count":23,"max_players":24,"Bots":0,"server_type":"Dedicated","server_os":"Linux","password":true,"vac":true,"version":"7961495","steam_id":85568392924469998,"keywords":["cp","nocrits","nodmgspread","uncletopia"],"game_id":440,"stv_port":27026,"stv_name":"Uncletopia | Seattle | 2 | All Maps | STV","players":[{"user_id":322,"name":"H2OBourne","steam_id":76561198396293109,"connected_time":805000000000,"state":"active","ping":98},{"user_id":325,"name":"allahsdroptop","steam_id":76561198133195238,"connected_time":542000000000,"state":"active","ping":61},{"user_id":328,"name":"Japanese Pizza Girlfriend","steam_id":76561198044855147,"connected_time":124000000000,"state":"active","ping":44},{"user_id":305,"name":"AAAAAAAAAAAAAAAAAAAAAAAAAAAAAAA","steam_id":76561198125467937,"connected_time":2068000000000,"state":"active","ping":68},{"user_id":300,"name":"amagicowl","steam_id":76561199060487814,"connected_time":2472000000000,"state":"active","ping":58},{"user_id":315,"name":"Beef Wellington","steam_id":76561197995635241,"connected_time":1409000000000,"state":"active","ping":177},{"user_id":320,"name":"bad spy player","steam_id":76561198873699671,"connected_time":928000000000,"state":"active","ping":43},{"user_id":329,"name":"TheArachnidGamer","steam_id":76561198304986752,"connected_time":114000000000,"state":"active","ping":72},{"user_id":301,"name":"2 Point Tom","steam_id":76561198087617008,"connected_time":2352000000000,"state":"active","ping":49},{"user_id":316,"name":"Feelin' M'self","steam_id":76561198016673367,"connected_time":1329000000000,"state":"active","ping":50},{"user_id":314,"name":"OzzyAkiro47","steam_id":76561199076449499,"connected_time":1491000000000,"state":"active","ping":70},{"user_id":330,"name":"fountain Mann","steam_id":76561198834350355,"connected_time":84000000000,"state":"active","ping":68},{"user_id":331,"name":"John Smith","steam_id":76561198185776555,"connected_time":61000000000,"state":"active","ping":42},{"user_id":327,"name":"exephur","steam_id":76561198135763234,"connected_time":130000000000,"state":"active","ping":61},{"user_id":317,"name":"Trouser Snivy","steam_id":76561198073788829,"connected_time":1279000000000,"state":"active","ping":62},{"user_id":326,"name":"fragadelphia","steam_id":76561198066116363,"connected_time":342000000000,"state":"active","ping":48},{"user_id":332,"name":"Floor Ninja","steam_id":76561198215538528,"connected_time":33000000000,"state":"active","ping":72},{"user_id":298,"name":"Adawnby","steam_id":76561198103057295,"connected_time":3032000000000,"state":"active","ping":106},{"user_id":333,"name":"Rabblerouser","steam_id":76561198127930963,"connected_time":4000000000,"state":"spawning","ping":54},{"user_id":319,"name":"Novus","steam_id":76561198056547335,"connected_time":1269000000000,"state":"active","ping":74},{"user_id":306,"name":"SadFapping","steam_id":76561198076651049,"connected_time":1916000000000,"state":"active","ping":48},{"user_id":324,"name":"1000 Ping","steam_id":76561198098330939,"connected_time":573000000000,"state":"active","ping":91},{"user_id":279,"name":"Optimore","steam_id":76561198047662990,"connected_time":4487000000000,"state":"active","ping":74}]},{"server_id":406,"name":"Uncletopia | Seattle | 3 | Stopwatch","name_short":"sea-3","host":"sea-1.us.uncletopia.com","port":27035,"enabled":true,"region":"us-west","cc":"us","latitude":47.608013,"longitude":-122.33517,"reserved":0,"last_update":"0001-01-01T00:00:00Z","name_a2s":"Uncletopia | Seattle | 3 | Stopwatch","protocol":17,"map":"pl_swiftwater_final1","folder":"tf","game":"Team Fortress","app_id":440,"player_count":0,"max_players":24,"Bots":0,"server_type":"Dedicated","server_os":"Linux","password":true,"vac":true,"version":"7961495","steam_id":85568392924515217,"keywords":["nocrits","nodmgspread","payload","uncletopia"],"game_id":440,"stv_port":27036,"stv_name":"Uncletopia | Seattle | 3 | Stopwatch | STV","players":null},{"server_id":17,"name":"Uncletopia | San Francisco | 1 | All Maps","name_short":"sfo-1","host":"sfo-1.us.uncletopia.com","port":27015,"enabled":true,"region":"us-west","cc":"us","latitude":37.77397,"longitude":-122.4313,"reserved":0,"last_update":"0001-01-01T00:00:00Z","name_a2s":"Uncletopia | San Francisco | 1 | All Maps","protocol":17,"map":"cp_sunshine","folder":"tf","game":"Team Fortress","app_id":440,"player_count":24,"max_players":24,"Bots":0,"server_type":"Dedicated","server_os":"Linux","password":true,"vac":true,"version":"7961495","steam_id":85568392924469999,"keywords":["cp","nocrits","nodmgspread","uncletopia"],"game_id":440,"stv_port":27016,"stv_name":"Uncletopia | San Francisco | 1 | All Maps | STV","players":[{"user_id":205,"name":"Cypress [ +/- ] ✔","steam_id":76561198067164431,"connected_time":1452000000000,"state":"active","ping":49},{"user_id":202,"name":"Archie","steam_id":76561198137112917,"connected_time":1585000000000,"state":"active","ping":46},{"user_id":204,"name":"Wendall555","steam_id":76561198985637603,"connected_time":1508000000000,"state":"active","ping":57},{"user_id":221,"name":"NotAWeeb","steam_id":76561198165530739,"connected_time":344000000000,"state":"active","ping":45},{"user_id":227,"name":"captainclass","steam_id":76561198073307396,"connected_time":98000000000,"state":"active","ping":70},{"user_id":201,"name":"Burnsasaurous","steam_id":76561198003315964,"connected_time":1641000000000,"state":"active","ping":67},{"user_id":207,"name":"run fast fall dopwn","steam_id":76561198048925904,"connected_time":1004000000000,"state":"active","ping":68},{"user_id":220,"name":"moomin","steam_id":76561198336244269,"connected_time":425000000000,"state":"active","ping":70},{"user_id":208,"name":"Farseer Ulwithy","steam_id":76561197965179245,"connected_time":991000000000,"state":"active","ping":85},{"user_id":209,"name":"ydanay","steam_id":76561198088375486,"connected_time":957000000000,"state":"active","ping":40},{"user_id":192,"name":"shoobs","steam_id":76561198042507255,"connected_time":2990000000000,"state":"active","ping":91},{"user_id":210,"name":"kira","steam_id":76561198277979851,"connected_time":794000000000,"state":"active","ping":119},{"user_id":211,"name":"GlizzLord","steam_id":76561198321010427,"connected_time":784000000000,"state":"active","ping":75},{"user_id":212,"name":"MasterGeek.MX","steam_id":76561198063355220,"connected_time":762000000000,"state":"active","ping":126},{"user_id":195,"name":"whitr","steam_id":76561198043981478,"connected_time":2089000000000,"state":"active","ping":91},{"user_id":213,"name":"toerpe","steam_id":76561198055678550,"connected_time":672000000000,"state":"active","ping":56},{"user_id":225,"name":"bootyzillaᴸᴮᴴ","steam_id":76561198322206140,"connected_time":179000000000,"state":"active","ping":99},{"user_id":135,"name":"Marzbee115","steam_id":76561198095821025,"connected_time":7758000000000,"state":"active","ping":47},{"user_id":194,"name":"Hardcore Girlfail","steam_id":76561198140531755,"connected_time":2962000000000,"state":"active","ping":84},{"user_id":215,"name":"Sterling Nano","steam_id":76561198048580088,"connected_time":641000000000,"state":"active","ping":66},{"user_id":224,"name":"oil","steam_id":76561198099980149,"connected_time":266000000000,"state":"active","ping":64},{"user_id":217,"name":"Siev","steam_id":76561198000518937,"connected_time":625000000000,"state":"active","ping":86},{"user_id":218,"name":"ceres fauna free use","steam_id":76561198097330521,"connected_time":602000000000,"state":"active","ping":111},{"user_id":226,"name":"Ancient Ayys","steam_id":76561198098941655,"connected_time":171000000000,"state":"active","ping":57}]},{"server_id":18,"name":"Uncletopia | San Francisco | 2 | All Maps","name_short":"sfo-2","host":"sfo-1.us.uncletopia.com","port":27025,"enabled":true,"region":"us-west","cc":"us","latitude":37.77397,"longitude":-122.4313,"reserved":0,"last_update":"0001-01-01T00:00:00Z","name_a2s":"Uncletopia | San Francisco | 2 | All Maps","protocol":17,"map":"cp_altitude","folder":"tf","game":"Team Fortress","app_id":440,"player_count":0,"max_players":24,"Bots":0,"server_type":"Dedicated","server_os":"Linux","password":true,"vac":true,"version":"7961495","steam_id":85568392924470000,"keywords":["cp","nocrits","nodmgspread","uncletopia"],"game_id":440,"stv_port":27026,"stv_name":"Uncletopia | San Francisco | 2 | All Maps | STV","players":null},{"server_id":19,"name":"Uncletopia | San Francisco | 3 | Stopwatch","name_short":"sfo-3","host":"sfo-1.us.uncletopia.com","port":27035,"enabled":true,"region":"us-west","cc":"us","latitude":37.77397,"longitude":-122.4313,"reserved":0,"last_update":"0001-01-01T00:00:00Z","name_a2s":"Uncletopia | San Francisco | 3 | Stopwatch","protocol":17,"map":"workshop/koth_product_final.ugc454272353","folder":"tf","game":"Team Fortress","app_id":440,"player_count":0,"max_players":24,"Bots":0,"server_type":"Dedicated","server_os":"Linux","password":true,"vac":true,"version":"7961495","steam_id":85568392924742824,"keywords":["cp","nocrits","nodmgspread","uncletopia"],"game_id":440,"stv_port":27036,"stv_name":"Uncletopia | San Francisco | 3 | Stopwatch | STV","players":null},{"server_id":20,"name":"Uncletopia | San Francisco | 4 | Community","name_short":"sfo-4","host":"sfo-1.us.uncletopia.com","port":27045,"enabled":true,"region":"us-west","cc":"us","latitude":37.77397,"longitude":-122.4313,"reserved":0,"last_update":"0001-01-01T00:00:00Z","name_a2s":"Uncletopia | San Francisco | 4 | Community","protocol":17,"map":"workshop/cp_hazyfort_rc6.ugc1365963729","folder":"tf","game":"Team Fortress","app_id":440,"player_count":0,"max_players":24,"Bots":0,"server_type":"Dedicated","server_os":"Linux","password":true,"vac":true,"version":"7961495","steam_id":85568392924742826,"keywords":["cp","nocrits","nodmgspread","uncletopia"],"game_id":440,"stv_port":27046,"stv_name":"Uncletopia | San Francisco | 4 | Community | STV","players":null},{"server_id":141,"name":"Uncletopia | Sydney | 1 | All Maps","name_short":"syd-1","host":"syd-1.au.uncletopia.com","port":27015,"enabled":true,"region":"au","cc":"au","latitude":-33.865143,"longitude":151.2099,"reserved":0,"last_update":"0001-01-01T00:00:00Z","name_a2s":"Uncletopia | Sydney | 1 | All Maps","protocol":17,"map":"cp_mercenarypark","folder":"tf","game":"Team Fortress","app_id":440,"player_count":24,"max_players":24,"Bots":0,"server_type":"Dedicated","server_os":"Linux","password":true,"vac":true,"version":"7961495","steam_id":85568392924470001,"keywords":["cp","nocrits","nodmgspread","uncletopia"],"game_id":440,"stv_port":27016,"stv_name":"Uncletopia | Sydney | 1 | All Maps | STV","players":[{"user_id":13,"name":"LeoJoeD","steam_id":76561198161848749,"connected_time":6171000000000,"state":"active","ping":33},{"user_id":30,"name":"Rodan","steam_id":76561198038401873,"connected_time":4550000000000,"state":"active","ping":85},{"user_id":58,"name":"using a laptop","steam_id":76561199445302425,"connected_time":2700000000000,"state":"active","ping":156},{"user_id":81,"name":"42","steam_id":76561198184593855,"connected_time":1355000000000,"state":"active","ping":45},{"user_id":64,"name":"Owl","steam_id":76561198107786190,"connected_time":2480000000000,"state":"active","ping":85},{"user_id":90,"name":"Driveknight","steam_id":76561199071169654,"connected_time":686000000000,"state":"active","ping":62},{"user_id":53,"name":"cakey","steam_id":76561198173746761,"connected_time":2976000000000,"state":"active","ping":50},{"user_id":65,"name":"[ѵƇity] it has been ages","steam_id":76561198016686295,"connected_time":2395000000000,"state":"active","ping":75},{"user_id":89,"name":"King Stan II","steam_id":76561198890742309,"connected_time":741000000000,"state":"active","ping":63},{"user_id":33,"name":"frog","steam_id":76561198300661780,"connected_time":4339000000000,"state":"active","ping":40},{"user_id":92,"name":"Trotter","steam_id":76561198343965263,"connected_time":460000000000,"state":"active","ping":46},{"user_id":69,"name":"Skree'kaw","steam_id":76561199415758131,"connected_time":2317000000000,"state":"active","ping":66},{"user_id":93,"name":"Plastic_Wrapp","steam_id":76561198817560659,"connected_time":455000000000,"state":"active","ping":76},{"user_id":75,"name":"Nyda","steam_id":76561198152311904,"connected_time":2002000000000,"state":"active","ping":66},{"user_id":95,"name":"michael","steam_id":76561198052848358,"connected_time":216000000000,"state":"active","ping":66},{"user_id":94,"name":"Yeboioli420","steam_id":76561198096035727,"connected_time":441000000000,"state":"active","ping":59},{"user_id":68,"name":"Max","steam_id":76561198088406066,"connected_time":2332000000000,"state":"active","ping":109},{"user_id":84,"name":"Calsaintski","steam_id":76561199081848498,"connected_time":975000000000,"state":"active","ping":65},{"user_id":78,"name":"laptop","steam_id":76561198104810002,"connected_time":1504000000000,"state":"active","ping":30},{"user_id":45,"name":"Barry Wonderman","steam_id":76561198092291231,"connected_time":3605000000000,"state":"active","ping":55},{"user_id":76,"name":"WierdDude54","steam_id":76561199113588747,"connected_time":1995000000000,"state":"active","ping":70},{"user_id":74,"name":"P","steam_id":76561198304514505,"connected_time":2148000000000,"state":"active","ping":166},{"user_id":49,"name":"burfdae boi","steam_id":76561199000827969,"connected_time":3433000000000,"state":"active","ping":37},{"user_id":80,"name":"cat food xxl","steam_id":76561198042188786,"connected_time":1453000000000,"state":"active","ping":58}]},{"server_id":123,"name":"Uncletopia | Sydney | 2 | All Maps","name_short":"syd-2","host":"syd-1.au.uncletopia.com","port":27025,"enabled":true,"region":"au","cc":"au","latitude":-33.865143,"longitude":151.2099,"reserved":0,"last_update":"0001-01-01T00:00:00Z","name_a2s":"Uncletopia | Sydney | 2 | All Maps","protocol":17,"map":"koth_lakeside_final","folder":"tf","game":"Team Fortress","app_id":440,"player_count":0,"max_players":24,"Bots":0,"server_type":"Dedicated","server_os":"Linux","password":true,"vac":true,"version":"7961495","steam_id":85568392924470002,"keywords":["cp","nocrits","nodmgspread","uncletopia"],"game_id":440,"stv_port":27026,"stv_name":"Uncletopia | Sydney | 2 | All Maps | STV","players":null},{"server_id":395,"name":"Uncletopia | Sydney | 3 | All Maps","name_short":"syd-3","host":"syd-1.au.uncletopia.com","port":27035,"enabled":true,"region":"au","cc":"au","latitude":-33.865143,"longitude":151.2099,"reserved":0,"last_update":"0001-01-01T00:00:00Z","name_a2s":"Uncletopia | Sydney | 3 | All Maps","protocol":17,"map":"koth_highpass","folder":"tf","game":"Team Fortress","app_id":440,"player_count":0,"max_players":24,"Bots":0,"server_type":"Dedicated","server_os":"Linux","password":true,"vac":true,"version":"7961495","steam_id":85568392925194467,"keywords":["cp","nocrits","nodmgspread","uncletopia"],"game_id":440,"stv_port":27036,"stv_name":"Uncletopia | Sydney | 3 | All Maps | STV","players":null},{"server_id":396,"name":"Uncletopia | Sydney | 4 | All Maps","name_short":"syd-4","host":"syd-1.au.uncletopia.com","port":27045,"enabled":true,"region":"au","cc":"au","latitude":-33.865143,"longitude":151.2099,"reserved":0,"last_update":"0001-01-01T00:00:00Z","name_a2s":"Uncletopia | Sydney | 4 | All Maps","protocol":17,"map":"koth_cascade","folder":"tf","game":"Team Fortress","app_id":440,"player_count":2,"max_players":24,"Bots":0,"server_type":"Dedicated","server_os":"Linux","password":true,"vac":true,"version":"7961495","steam_id":85568392925397958,"keywords":["cp","nocrits","nodmgspread","uncletopia"],"game_id":440,"stv_port":27046,"stv_name":"Uncletopia | Sydney | 4 | All Maps | STV","players":[{"user_id":14,"name":"friend of fry fondler's friend","steam_id":76561198085124297,"connected_time":294000000000,"state":"active","ping":49},{"user_id":16,"name":"wom","steam_id":76561199375834537,"connected_time":220000000000,"state":"active","ping":128}]},{"server_id":58,"name":"Uncletopia | Sydney | 5 | Stopwatch","name_short":"syd-5","host":"syd-1.au.uncletopia.com","port":27055,"enabled":true,"region":"au","cc":"au","latitude":-33.865143,"longitude":151.2099,"reserved":0,"last_update":"0001-01-01T00:00:00Z","name_a2s":"Uncletopia | Sydney | 5 | Stopwatch","protocol":17,"map":"workshop/koth_clearcut_b15.ugc2107050255","folder":"tf","game":"Team Fortress","app_id":440,"player_count":0,"max_players":24,"Bots":0,"server_type":"Dedicated","server_os":"Linux","password":true,"vac":true,"version":"7961495","steam_id":85568392925397959,"keywords":["cp","nocrits","nodmgspread","uncletopia"],"game_id":440,"stv_port":27056,"stv_name":"Uncletopia | Sydney | 5 | Stopwatch | STV","players":null},{"server_id":59,"name":"Uncletopia | Sydney | 6 | Community","name_short":"syd-6","host":"syd-1.au.uncletopia.com","port":27065,"enabled":true,"region":"au","cc":"au","latitude":-33.865143,"longitude":151.2099,"reserved":0,"last_update":"0001-01-01T00:00:00Z","name_a2s":"Uncletopia | Sydney | 6 | Community","protocol":17,"map":"cp_sunshine","folder":"tf","game":"Team Fortress","app_id":440,"player_count":0,"max_players":24,"Bots":0,"server_type":"Dedicated","server_os":"Linux","password":true,"vac":true,"version":"7961495","steam_id":85568392925397960,"keywords":["cp","nocrits","nodmgspread","uncletopia"],"game_id":440,"stv_port":27066,"stv_name":"Uncletopia | Sydney | 6 | Community | STV","players":null},{"server_id":49,"name":"Uncletopia | Warsaw | 1 | All Maps","name_short":"waw-1","host":"waw-1.pl.uncletopia.com","port":27015,"enabled":true,"region":"eu","cc":"pl","latitude":52.2297,"longitude":21.017532,"reserved":0,"last_update":"0001-01-01T00:00:00Z","name_a2s":"Uncletopia | Warsaw | 1 | All Maps","protocol":17,"map":"koth_lakeside_final","folder":"tf","game":"Team Fortress","app_id":440,"player_count":0,"max_players":24,"Bots":0,"server_type":"Dedicated","server_os":"Linux","password":true,"vac":true,"version":"7961495","steam_id":85568392925397850,"keywords":["cp","nocrits","nodmgspread","uncletopia"],"game_id":440,"stv_port":27016,"stv_name":"Uncletopia | Warsaw | 1 | All Maps | STV","players":null},{"server_id":50,"name":"Uncletopia | Warsaw | 2 | All Maps","name_short":"waw-2","host":"waw-1.pl.uncletopia.com","port":27025,"enabled":true,"region":"eu","cc":"pl","latitude":52.2297,"longitude":21.017532,"reserved":0,"last_update":"0001-01-01T00:00:00Z","name_a2s":"Uncletopia | Warsaw | 2 | All Maps","protocol":17,"map":"pl_borneo","folder":"tf","game":"Team Fortress","app_id":440,"player_count":0,"max_players":24,"Bots":0,"server_type":"Dedicated","server_os":"Linux","password":true,"vac":true,"version":"7961495","steam_id":85568392925397851,"keywords":["nocrits","nodmgspread","payload","uncletopia"],"game_id":440,"stv_port":27026,"stv_name":"Uncletopia | Warsaw | 2 | All Maps | STV","players":null},{"server_id":51,"name":"Uncletopia | Warsaw | 3 | All Maps","name_short":"waw-3","host":"waw-1.pl.uncletopia.com","port":27035,"enabled":true,"region":"eu","cc":"pl","latitude":52.2297,"longitude":21.017532,"reserved":0,"last_update":"0001-01-01T00:00:00Z","name_a2s":"Uncletopia | Warsaw | 3 | All Maps","protocol":17,"map":"pl_barnblitz","folder":"tf","game":"Team Fortress","app_id":440,"player_count":0,"max_players":24,"Bots":0,"server_type":"Dedicated","server_os":"Linux","password":true,"vac":true,"version":"7961495","steam_id":85568392925397852,"keywords":["nocrits","nodmgspread","payload","uncletopia"],"game_id":440,"stv_port":27036,"stv_name":"Uncletopia | Warsaw | 3 | All Maps | STV","players":null},{"server_id":52,"name":"Uncletopia | Warsaw | 4 | All Maps","name_short":"waw-4","host":"waw-1.pl.uncletopia.com","port":27045,"enabled":true,"region":"eu","cc":"pl","latitude":52.2297,"longitude":21.017532,"reserved":0,"last_update":"0001-01-01T00:00:00Z","name_a2s":"Uncletopia | Warsaw | 4 | All Maps","protocol":17,"map":"pl_borneo","folder":"tf","game":"Team Fortress","app_id":440,"player_count":0,"max_players":24,"Bots":0,"server_type":"Dedicated","server_os":"Linux","password":true,"vac":true,"version":"7961495","steam_id":85568392925397853,"keywords":["nocrits","nodmgspread","payload","uncletopia"],"game_id":440,"stv_port":27046,"stv_name":"Uncletopia | Warsaw | 4 | All Maps | STV","players":null},{"server_id":53,"name":"Uncletopia | Warsaw | 5 | Stopwatch","name_short":"waw-5","host":"waw-1.pl.uncletopia.com","port":27055,"enabled":true,"region":"eu","cc":"pl","latitude":52.2297,"longitude":21.017532,"reserved":0,"last_update":"0001-01-01T00:00:00Z","name_a2s":"Uncletopia | Warsaw | 5 | Stopwatch","protocol":17,"map":"pl_barnblitz","folder":"tf","game":"Team Fortress","app_id":440,"player_count":0,"max_players":24,"Bots":0,"server_type":"Dedicated","server_os":"Linux","password":true,"vac":true,"version":"7961495","steam_id":85568392925397854,"keywords":["nocrits","nodmgspread","payload","uncletopia"],"game_id":440,"stv_port":27056,"stv_name":"Uncletopia | Warsaw | 5 | Stopwatch | STV","players":null},{"server_id":54,"name":"Uncletopia | Warsaw | 6 | Community","name_short":"waw-6","host":"waw-1.pl.uncletopia.com","port":27065,"enabled":true,"region":"eu","cc":"pl","latitude":52.2297,"longitude":21.017532,"reserved":0,"last_update":"0001-01-01T00:00:00Z","name_a2s":"Uncletopia | Warsaw | 6 | Community","protocol":17,"map":"cp_altitude","folder":"tf","game":"Team Fortress","app_id":440,"player_count":0,"max_players":24,"Bots":0,"server_type":"Dedicated","server_os":"Linux","password":true,"vac":true,"version":"7961495","steam_id":85568392925397856,"keywords":["cp","nocrits","nodmgspread","uncletopia"],"game_id":440,"stv_port":27066,"stv_name":"Uncletopia | Warsaw | 6 | Community | STV","players":null}]}