{"status":true,"message":"","result":[{"server_id":9,"name":"Uncletopia | Atlanta | 1 | All Maps","name_short":"atl-1","host":"atl-1.us.uncletopia.com","port":27015,"enabled":true,"region":"us-east","cc":"us","latitude":33.753746,"longitude":-84.38633,"reserved":0,"last_update":"0001-01-01T00:00:00Z","name_a2s":"Uncletopia | Atlanta | 1 | All Maps","protocol":17,"map":"pl_badwater","folder":"tf","game":"Team Fortress","app_id":440,"player_count":24,"max_players":24,"Bots":0,"server_type":"Dedicated","server_os":"Linux","password":true,"vac":true,"version":"7882260","steam_id":85568392924469982,"keywords":["nocrits","nodmgspread","payload","uncletopia"],"game_id":440,"stv_port":27016,"stv_name":"Uncletopia | Atlanta | 1 | All Maps | STV","players":[{"user_id":714,"name":"Crystal Mongoose","steam_id":76561198001585325,"connected_time":584000000000,"state":"active","ping":45},{"user_id":719,"name":"ƐՌѴƳ","steam_id":76561198099470277,"connected_time":549000000000,"state":"active","ping":71},{"user_id":717,"name":"Wheat Box","steam_id":76561198203443358,"connected_time":571000000000,"state":"active","ping":81},{"user_id":705,"name":"jizzreis","steam_id":76561198010019214,"connected_time":1846000000000,"state":"active","ping":42},{"user_id":702,"name":"troll","steam_id":76561198040890252,"connected_time":1950000000000,"state":"active","ping":53},{"user_id":710,"name":"Bunt","steam_id":76561198124477567,"connected_time":1354000000000,"state":"active","ping":48},{"user_id":708,"name":"Sho' Nuff, the Shogun of Harlem","steam_id":76561198010708247,"connected_time":1609000000000,"state":"active","ping":86},{"user_id":723,"name":"Jabawakai","steam_id":76561198088881254,"connected_time":240000000000,"state":"active","ping":75},{"user_id":677,"name":"Ferguson","steam_id":76561198121349387,"connected_time":3983000000000,"state":"active","ping":71},{"user_id":724,"name":"AlexLovesYou","steam_id":76561199163263543,"connected_time":110000000000,"state":"active","ping":76},{"user_id":701,"name":"jizzawitz","steam_id":76561198042444734,"connected_time":1986000000000,"state":"active","ping":46},{"user_id":713,"name":"Argi","steam_id":76561198061535721,"connected_time":647000000000,"state":"active","ping":61},{"user_id":720,"name":"blockchain culture","steam_id":76561198040996386,"connected_time":549000000000,"state":"active","ping":115},{"user_id":699,"name":"Bong Rips 4 Jesus","steam_id":76561198062678615,"connected_time":2469000000000,"state":"active","ping":74},{"user_id":712,"name":"lanoc","steam_id":76561198055415367,"connected_time":1147000000000,"state":"active","ping":44},{"user_id":709,"name":"Tue","steam_id":76561198181668501,"connected_time":1588000000000,"state":"active","ping":62},{"user_id":700,"name":"bobbymcbobington","steam_id":76561199089411172,"connected_time":2412000000000,"state":"active","ping":89},{"user_id":697,"name":"David De Bergerac","steam_id":76561198010306294,"connected_time":2658000000000,"state":"active","ping":85},{"user_id":711,"name":"lightswitch engage","steam_id":76561198000564263,"connected_time":1302000000000,"state":"active","ping":56},{"user_id":722,"name":"Sarbanes-Oxley","steam_id":76561197975898479,"connected_time":261000000000,"state":"active","ping":84},{"user_id":721,"name":"G_Bob","steam_id":76561198098133233,"connected_time":293000000000,"state":"active","ping":60},{"user_id":643,"name":"Onyx","steam_id":76561198275349640,"connected_time":6796000000000,"state":"active","ping":81},{"user_id":695,"name":"Yoru","steam_id":76561198119698950,"connected_time":2848000000000,"state":"active","ping":108},{"user_id":715,"name":"java","steam_id":76561198030276792,"connected_time":583000000000,"state":"active","ping":54}]},{"server_id":104,"name":"Uncletopia | Atlanta | 2 | All Maps","name_short":"atl-2","host":"atl-1.us.uncletopia.com","port":27025,"enabled":true,"region":"us-east","cc":"us","latitude":33.753746,"longitude":-84.38633,"reserved":0,"last_update":"0001-01-01T00:00:00Z","name_a2s":"Uncletopia | Atlanta | 2 | All Maps","protocol":17,"map":"pl_barnblitz","folder":"tf","game":"Team Fortress","app_id":440,"player_count":24,"max_players":24,"Bots":0,"server_type":"Dedicated","server_os":"Linux","password":true,"vac":true,"version":"7882260","steam_id":85568392924469983,"keywords":["nocrits","nodmgspread","payload","uncletopia"],"game_id":440,"stv_port":27026,"stv_name":"Uncletopia | Atlanta | 2 | All Maps | STV","players":[{"user_id":396,"name":"Drapph","steam_id":76561199384213314,"connected_time":1304000000000,"state":"active","ping":84},{"user_id":347,"name":"goose","steam_id":76561198367551668,"connected_time":4288000000000,"state":"active","ping":62},{"user_id":395,"name":"Gaming","steam_id":76561198107080532,"connected_time":1352000000000,"state":"active","ping":70},{"user_id":385,"name":"architect","steam_id":76561198142394470,"connected_time":2633000000000,"state":"active","ping":49},{"user_id":398,"name":"Leus Moose","steam_id":76561198024152565,"connected_time":871000000000,"state":"active","ping":79},{"user_id":382,"name":"Freyja","steam_id":76561198207412177,"connected_time":2923000000000,"state":"active","ping":82},{"user_id":388,"name":"BOTBOT","steam_id":76561198271928618,"connected_time":2188000000000,"state":"active","ping":83},{"user_id":404,"name":"Sixty Minuteman","steam_id":76561198201417733,"connected_time":633000000000,"state":"active","ping":94},{"user_id":378,"name":"Charlie","steam_id":76561199098209171,"connected_time":3010000000000,"state":"active","ping":59},{"user_id":405,"name":"cactus eater","steam_id":76561199107499844,"connected_time":629000000000,"state":"active","ping":108},{"user_id":309,"name":"Not Guztaf","steam_id":76561198334924763,"connected_time":6756000000000,"state":"active","ping":71},{"user_id":372,"name":"Buckshot","steam_id":76561198312838299,"connected_time":3370000000000,"state":"active","ping":83},{"user_id":394,"name":"knatspray","steam_id":76561198832507482,"connected_time":1414000000000,"state":"active","ping":129},{"user_id":370,"name":"drooskie","steam_id":76561198036083886,"connected_time":3413000000000,"state":"active","ping":64},{"user_id":400,"name":"Da̵ksuki","steam_id":76561198084127751,"connected_time":660000000000,"state":"active","ping":84},{"user_id":374,"name":"Cursed Dog","steam_id":76561198090785078,"connected_time":3261000000000,"state":"active","ping":101},{"user_id":381,"name":"Isilawuli","steam_id":76561198084150503,"connected_time":2970000000000,"state":"active","ping":56},{"user_id":225,"name":"Chhaam","steam_id":76561198058508132,"connected_time":12349000000000,"state":"active","ping":47},{"user_id":401,"name":"Grand Wizard Autismo","steam_id":76561198069834979,"connected_time":659000000000,"state":"active","ping":46},{"user_id":320,"name":"Sprinklze","steam_id":76561198163562681,"connected_time":5843000000000,"state":"active","ping":57},{"user_id":403,"name":"TheGFG","steam_id":76561198166150556,"connected_time":648000000000,"state":"active","ping":92},{"user_id":402,"name":"sqerkbo","steam_id":76561198080012700,"connected_time":654000000000,"state":"active","ping":50},{"user_id":340,"name":"Mathatguy","steam_id":76561198225432188,"connected_time":4982000000000,"state":"active","ping":72},{"user_id":392,"name":"Quietsharp","steam_id":76561198277968438,"connected_time":1839000000000,"state":"active","ping":99}]},{"server_id":400,"name":"Uncletopia | Atlanta | 3 | Community","name_short":"atl-3","host":"atl-1.us.uncletopia.com","port":27035,"enabled":true,"region":"us-east","cc":"us","latitude":33.753746,"longitude":-84.38633,"reserved":0,"last_update":"0001-01-01T00:00:00Z","name_a2s":"Uncletopia | Atlanta | 3 | Community","protocol":17,"map":"workshop/cp_croissant_final.ugc458840209","folder":"tf","game":"Team Fortress","app_id":440,"player_count":24,"max_players":24,"Bots":0,"server_type":"Dedicated","server_os":"Linux","password":true,"vac":true,"version":"7882260","steam_id":85568392924515187,"keywords":["cp","nocrits","nodmgspread","uncletopia"],"game_id":440,"stv_port":27036,"stv_name":"Uncletopia | Atlanta | 3 | Community | STV","players":[{"user_id":43,"name":"legowizdude","steam_id":76561198086688058,"connected_time":7208000000000,"state":"active","ping":78},{"user_id":113,"name":"babymaker","steam_id":76561198078992548,"connected_time":1006000000000,"state":"active","ping":60},{"user_id":128,"name":"heks","steam_id":76561198041335138,"connected_time":609000000000,"state":"active","ping":64},{"user_id":94,"name":"23™","steam_id":76561198314951185,"connected_time":2908000000000,"state":"active","ping":106},{"user_id":114,"name":"Sixrow","steam_id":76561198269289716,"connected_time":960000000000,"state":"active","ping":51},{"user_id":111,"name":"Zoro01","steam_id":76561198407989540,"connected_time":1136000000000,"state":"active","ping":113},{"user_id":108,"name":"NoExit","steam_id":76561198065725996,"connected_time":1931000000000,"state":"active","ping":84},{"user_id":115,"name":"obesity epidemic combatant","steam_id":76561198058469527,"connected_time":954000000000,"state":"active","ping":79},{"user_id":133,"name":"shrub","steam_id":76561198108020681,"connected_time":123000000000,"state":"active","ping":45},{"user_id":56,"name":"Punished Shitster","steam_id":76561198150452857,"connected_time":6057000000000,"state":"active","ping":77},{"user_id":91,"name":"Missing Minus","steam_id":76561198120822928,"connected_time":3207000000000,"state":"active","ping":46},{"user_id":104,"name":"FRANKY!!!","steam_id":76561199211305343,"connected_time":2296000000000,"state":"active","ping":106},{"user_id":103,"name":"Crack Wizard","steam_id":76561198055463619,"connected_time":2339000000000,"state":"active","ping":82},{"user_id":130,"name":"Rocket Mann","steam_id":76561198985583419,"connected_time":554000000000,"state":"active","ping":73},{"user_id":132,"name":"Sychke","steam_id":76561198067144055,"connected_time":189000000000,"state":"active","ping":75},{"user_id":121,"name":"thorn648","steam_id":76561198012565777,"connected_time":771000000000,"state":"active","ping":100},{"user_id":126,"name":"Pimastr","steam_id":76561198230996464,"connected_time":653000000000,"state":"active","ping":75},{"user_id":68,"name":"Comfy Monkey","steam_id":76561197998434936,"connected_time":5741000000000,"state":"active","ping":78},{"user_id":93,"name":"Dr.Holiday","steam_id":76561198353465692,"connected_time":3006000000000,"state":"active","ping":72},{"user_id":112,"name":"Modeus","steam_id":76561199228751836,"connected_time":1080000000000,"state":"active","ping":61},{"user_id":123,"name":"Stardustry","steam_id":76561198090010107,"connected_time":763000000000,"state":"active","ping":72},{"user_id":110,"name":"austinsmith","steam_id":76561198167838540,"connected_time":1777000000000,"state":"active","ping":95},{"user_id":106,"name":"ֆɨƈӄօʍօɖɛ","steam_id":76561198064668286,"connected_time":2235000000000,"state":"active","ping":94},{"user_id":74,"name":"C O M F Y","steam_id":76561198072101210,"connected_time":5549000000000,"state":"active","ping":76}]},{"server_id":401,"name":"Uncletopia | Atlanta | 4 | No Payload","name_short":"atl-4","host":"atl-1.us.uncletopia.com","port":27045,"enabled":true,"region":"us-east","cc":"us","latitude":33.753746,"longitude":-84.38633,"reserved":0,"last_update":"0001-01-01T00:00:00Z","name_a2s":"","protocol":0,"map":"","folder":"","game":"","app_id":0,"player_count":0,"max_players":0,"Bots":0,"server_type":"","server_os":"","password":false,"vac":false,"version":"","steam_id":0,"keywords":null,"game_id":0,"stv_port":0,"stv_name":"","players":null},{"server_id":2,"name":"Uncletopia | Chicago | 1 | All Maps","name_short":"chi-1","host":"chi-1.us.uncletopia.com","port":27015,"enabled":true,"region":"us-central","cc":"us","latitude":41.881832,"longitude":-87.62318,"reserved":0,"last_update":"0001-01-01T00:00:00Z","name_a2s":"Uncletopia | Chicago | 1 | All Maps","protocol":17,"map":"cp_mercenarypark","folder":"tf","game":"Team Fortress","app_id":440,"player_count":23,"max_players":24,"Bots":0,"server_type":"Dedicated","server_os":"Linux","password":true,"vac":true,"version":"7882260","steam_id":85568392924469984,"keywords":["cp","nocrits","nodmgspread","uncletopia"],"game_id":440,"stv_port":27016,"stv_name":"Uncletopia | Chicago | 1 | All Maps | STV","players":[{"user_id":801,"name":"Infinitytacos","steam_id":76561198884260211,"connected_time":1293000000000,"state":"active","ping":45},{"user_id":771,"name":"Coach McFish","steam_id":76561198210456405,"connected_time":3031000000000,"state":"active","ping":73},{"user_id":791,"name":"Rya☺","steam_id":76561198370128860,"connected_time":1898000000000,"state":"active","ping":74},{"user_id":798,"name":"shalashashka","steam_id":76561198113661388,"connected_time":1353000000000,"state":"active","ping":60},{"user_id":800,"name":"Zhenaj","steam_id":76561199209016136,"connected_time":1331000000000,"state":"active","ping":61},{"user_id":795,"name":"nongs","steam_id":76561198182994463,"connected_time":1401000000000,"state":"active","ping":54},{"user_id":797,"name":"123","steam_id":76561198106308056,"connected_time":1375000000000,"state":"active","ping":104},{"user_id":809,"name":"Stamatic","steam_id":76561198138356705,"connected_time":720000000000,"state":"active","ping":54},{"user_id":787,"name":"StonedGiant","steam_id":76561197984386932,"connected_time":2189000000000,"state":"active","ping":56},{"user_id":789,"name":"Toddovan","steam_id":76561198143104883,"connected_time":2168000000000,"state":"active","ping":113},{"user_id":784,"name":"Minerva Amadon","steam_id":76561198138543341,"connected_time":2515000000000,"state":"active","ping":48},{"user_id":778,"name":"c00kie","steam_id":76561198418178297,"connected_time":2896000000000,"state":"active","ping":44},{"user_id":757,"name":"Your Local Queer Librarian","steam_id":76561198013077080,"connected_time":5613000000000,"state":"active","ping":56},{"user_id":808,"name":"femboy foxgirl","steam_id":76561198056432756,"connected_time":961000000000,"state":"active","ping":51},{"user_id":763,"name":"Loaf of rabbit","steam_id":76561198248715052,"connected_time":4559000000000,"state":"active","ping":104},{"user_id":764,"name":"Juanseparra564","steam_id":76561198176662903,"connected_time":4549000000000,"state":"active","ping":121},{"user_id":785,"name":"Oli B\u003eQS/BP/Bulk w/ 500+ keys","steam_id":76561198140316312,"connected_time":2511000000000,"state":"active","ping":52},{"user_id":792,"name":"i'm washed","steam_id":76561198940368888,"connected_time":1856000000000,"state":"active","ping":39},{"user_id":803,"name":"Luke","steam_id":76561198090671431,"connected_time":1283000000000,"state":"active","ping":81},{"user_id":804,"name":"totally not a pile of beans","steam_id":76561198119851931,"connected_time":1241000000000,"state":"active","ping":82},{"user_id":738,"name":"Captain S. Forrest","steam_id":76561198062463029,"connected_time":6467000000000,"state":"active","ping":74},{"user_id":739,"name":"Astoriae!","steam_id":76561199090168858,"connected_time":6467000000000,"state":"active","ping":69},{"user_id":806,"name":"Majozoe","steam_id":76561198007563292,"connected_time":1060000000000,"state":"active","ping":82}]},{"server_id":106,"name":"Uncletopia | Chicago | 2 | All Maps","name_short":"chi-2","host":"chi-1.us.uncletopia.com","port":27025,"enabled":true,"region":"us-central","cc":"us","latitude":41.881832,"longitude":-87.62318,"reserved":0,"last_update":"0001-01-01T00:00:00Z","name_a2s":"Uncletopia | Chicago | 2 | All Maps","protocol":17,"map":"cp_dustbowl","folder":"tf","game":"Team Fortress","app_id":440,"player_count":23,"max_players":24,"Bots":0,"server_type":"Dedicated","server_os":"Linux","password":true,"vac":true,"version":"7882260","steam_id":85568392924469985,"keywords":["cp","nocrits","nodmgspread","uncletopia"],"game_id":440,"stv_port":27026,"stv_name":"Uncletopia | Chicago | 2 | All Maps | STV","players":[{"user_id":640,"name":"Big Cheddar","steam_id":76561198332150669,"connected_time":2186000000000,"state":"active","ping":57},{"user_id":637,"name":"beeble!","steam_id":76561198219538525,"connected_time":2410000000000,"state":"active","ping":76},{"user_id":667,"name":"lpk","steam_id":76561198025478698,"connected_time":157000000000,"state":"active","ping":40},{"user_id":661,"name":"Jester","steam_id":76561199203898660,"connected_time":658000000000,"state":"active","ping":88},{"user_id":642,"name":"Heinz-Harald Hopeless","steam_id":76561199002203593,"connected_time":1681000000000,"state":"active","ping":115},{"user_id":412,"name":"Famelegion","steam_id":76561198958341424,"connected_time":10778000000000,"state":"active","ping":87},{"user_id":636,"name":"perc 10","steam_id":76561198116471653,"connected_time":2439000000000,"state":"active","ping":94},{"user_id":671,"name":"Dunkin' Ponuts","steam_id":76561198082382465,"connected_time":8000000000,"state":"spawning","ping":75},{"user_id":663,"name":"Rafl","steam_id":76561198055222756,"connected_time":548000000000,"state":"active","ping":64},{"user_id":652,"name":"Cornelius","steam_id":76561198123447388,"connected_time":987000000000,"state":"active","ping":55},{"user_id":648,"name":"SyNing","steam_id":76561198213435803,"connected_time":1172000000000,"state":"active","ping":48},{"user_id":665,"name":"LG_Fridge_User","steam_id":76561198977815014,"connected_time":322000000000,"state":"active","ping":77},{"user_id":672,"name":"Tom Crúaich","steam_id":76561197999439911,"connected_time":6000000000,"state":"spawning","ping":67},{"user_id":620,"name":"GavinGaming","steam_id":76561198251462934,"connected_time":3430000000000,"state":"active","ping":57},{"user_id":658,"name":"Mr.Silver","steam_id":76561198156382508,"connected_time":848000000000,"state":"active","ping":51},{"user_id":601,"name":"Xanadu","steam_id":76561198069642258,"connected_time":3841000000000,"state":"active","ping":75},{"user_id":657,"name":"dairy delinquent","steam_id":76561198971552734,"connected_time":876000000000,"state":"active","ping":144},{"user_id":659,"name":"K.O. Stradivarius","steam_id":76561198974913245,"connected_time":842000000000,"state":"active","ping":66},{"user_id":627,"name":"||BassMan||","steam_id":76561198279865229,"connected_time":3047000000000,"state":"active","ping":116},{"user_id":616,"name":"cakgamin","steam_id":76561199088909749,"connected_time":3574000000000,"state":"active","ping":64},{"user_id":629,"name":"Trevorisntdead","steam_id":76561199001421095,"connected_time":3032000000000,"state":"active","ping":75},{"user_id":660,"name":"Dante","steam_id":76561198798234838,"connected_time":829000000000,"state":"active","ping":142},{"user_id":630,"name":"Tuba","steam_id":76561198209166329,"connected_time":2913000000000,"state":"active","ping":113}]},{"server_id":402,"name":"Uncletopia | Chicago | 3 | All Maps","name_short":"chi-3","host":"chi-1.us.uncletopia.com","port":27035,"enabled":true,"region":"us-central","cc":"us","latitude":41.881832,"longitude":-87.62318,"reserved":0,"last_update":"0001-01-01T00:00:00Z","name_a2s":"Uncletopia | Chicago | 3 | All Maps","protocol":17,"map":"cp_powerhouse","folder":"tf","game":"Team Fortress","app_id":440,"player_count":24,"max_players":24,"Bots":0,"server_type":"Dedicated","server_os":"Linux","password":true,"vac":true,"version":"7882260","steam_id":85568392924515191,"keywords":["cp","nocrits","nodmgspread","uncletopia"],"game_id":440,"stv_port":27036,"stv_name":"Uncletopia | Chicago | 3 | All Maps | STV","players":[{"user_id":633,"name":"picklejuice dealer","steam_id":76561198031675881,"connected_time":4865000000000,"state":"active","ping":36},{"user_id":687,"name":"WatchWill","steam_id":76561198157237945,"connected_time":65000000000,"state":"active","ping":70},{"user_id":681,"name":"Piyono","steam_id":76561197962188504,"connected_time":593000000000,"state":"active","ping":66},{"user_id":684,"name":"Ms.Pauling","steam_id":76561199177395010,"connected_time":280000000000,"state":"active","ping":133},{"user_id":665,"name":"where poop sock go?","steam_id":76561199123118241,"connected_time":2326000000000,"state":"active","ping":102},{"user_id":679,"name":"gorey","steam_id":76561198021349931,"connected_time":746000000000,"state":"active","ping":92},{"user_id":658,"name":"slaanesh worshiper","steam_id":76561198017283523,"connected_time":2749000000000,"state":"active","ping":91},{"user_id":686,"name":"FoxyTheFish","steam_id":76561199074190919,"connected_time":209000000000,"state":"active","ping":146},{"user_id":662,"name":"DO THE DEVIL CHALLENGE","steam_id":76561198045437723,"connected_time":2658000000000,"state":"active","ping":81},{"user_id":645,"name":"Dr Oshawott","steam_id":76561198042021629,"connected_time":3661000000000,"state":"active","ping":61},{"user_id":668,"name":"SkoranShogun","steam_id":76561198091811218,"connected_time":1807000000000,"state":"active","ping":78},{"user_id":683,"name":"Legit_Jaxer","steam_id":76561198172234053,"connected_time":343000000000,"state":"active","ping":127},{"user_id":595,"name":"_Lusty_","steam_id":76561198876948142,"connected_time":7244000000000,"state":"active","ping":63},{"user_id":622,"name":"AmBoxReally","steam_id":76561198200640118,"connected_time":5265000000000,"state":"active","ping":62},{"user_id":623,"name":"yaoi 2.0","steam_id":76561198123527383,"connected_time":5262000000000,"state":"active","ping":50},{"user_id":682,"name":"danielarmvt","steam_id":76561198799723201,"connected_time":406000000000,"state":"active","ping":90},{"user_id":677,"name":"stinker","steam_id":76561198295640486,"connected_time":1171000000000,"state":"active","ping":105},{"user_id":661,"name":"Hi","steam_id":76561198038247668,"connected_time":2710000000000,"state":"active","ping":57},{"user_id":685,"name":"rivera","steam_id":76561198051058706,"connected_time":255000000000,"state":"active","ping":63},{"user_id":678,"name":"fuckwit","steam_id":76561198342160837,"connected_time":953000000000,"state":"active","ping":59},{"user_id":643,"name":"2JZ_","steam_id":76561198064027289,"connected_time":3694000000000,"state":"active","ping":89},{"user_id":627,"name":"guac","steam_id":76561198070305720,"connected_time":5211000000000,"state":"active","ping":81},{"user_id":680,"name":"Chode Mode","steam_id":76561198353840477,"connected_time":746000000000,"state":"active","ping":57},{"user_id":675,"name":"Argon","steam_id":76561199254804349,"connected_time":1578000000000,"state":"active","ping":115}]},{"server_id":403,"name":"Uncletopia | Chicago | 4 | All Maps","name_short":"chi-4","host":"chi-1.us.uncletopia.com","port":27045,"enabled":true,"region":"us-central","cc":"us","latitude":41.881832,"longitude":-87.62318,"reserved":0,"last_update":"0001-01-01T00:00:00Z","name_a2s":"Uncletopia | Chicago | 4 | All Maps","protocol":17,"map":"cp_process_final","folder":"tf","game":"Team Fortress","app_id":440,"player_count":24,"max_players":24,"Bots":0,"server_type":"Dedicated","server_os":"Linux","password":true,"vac":true,"version":"7882260","steam_id":85568392924515193,"keywords":["cp","nocrits","nodmgspread","uncletopia"],"game_id":440,"stv_port":27046,"stv_name":"Uncletopia | Chicago | 4 | All Maps | STV","players":[{"user_id":767,"name":"haxxorman","steam_id":76561199155156400,"connected_time":1751000000000,"state":"active","ping":57},{"user_id":725,"name":"MankTKO","steam_id":76561198189421005,"connected_time":5454000000000,"state":"active","ping":53},{"user_id":781,"name":"Do Moose go Moo?","steam_id":76561198073550620,"connected_time":689000000000,"state":"active","ping":45},{"user_id":764,"name":"nox","steam_id":76561198054390505,"connected_time":1911000000000,"state":"active","ping":46},{"user_id":753,"name":"Breach","steam_id":76561198045060392,"connected_time":3134000000000,"state":"active","ping":45},{"user_id":754,"name":"Theus117 [ チルノ⑨]","steam_id":76561198108902928,"connected_time":3112000000000,"state":"active","ping":61},{"user_id":782,"name":"The local hobo","steam_id":76561198289650060,"connected_time":674000000000,"state":"active","ping":78},{"user_id":736,"name":"Tenna","steam_id":76561198052020077,"connected_time":4362000000000,"state":"active","ping":90},{"user_id":780,"name":"oh my goodness","steam_id":76561198275373151,"connected_time":828000000000,"state":"active","ping":74},{"user_id":756,"name":"hashmap","steam_id":76561198043794014,"connected_time":3059000000000,"state":"active","ping":54},{"user_id":785,"name":"TF3.Moodyx","steam_id":76561198041849544,"connected_time":415000000000,"state":"active","ping":50},{"user_id":771,"name":"Ukes","steam_id":76561198055508999,"connected_time":1465000000000,"state":"active","ping":86},{"user_id":773,"name":"gome","steam_id":76561198080784921,"connected_time":1438000000000,"state":"active","ping":45},{"user_id":766,"name":"St. Michael","steam_id":76561198037611052,"connected_time":1811000000000,"state":"active","ping":72},{"user_id":786,"name":"Darth Phrogg","steam_id":76561198150844229,"connected_time":373000000000,"state":"active","ping":65},{"user_id":772,"name":"nocham","steam_id":76561198097674181,"connected_time":1456000000000,"state":"active","ping":78},{"user_id":776,"name":"Warbler","steam_id":76561198132094572,"connected_time":1259000000000,"state":"active","ping":64},{"user_id":726,"name":"Castroy","steam_id":76561198108160099,"connected_time":5138000000000,"state":"active","ping":65},{"user_id":779,"name":"ugly bread_2829","steam_id":76561198271971736,"connected_time":988000000000,"state":"active","ping":66},{"user_id":783,"name":"fat","steam_id":76561198101352327,"connected_time":673000000000,"state":"active","ping":63},{"user_id":750,"name":"conner","steam_id":76561198052911241,"connected_time":3947000000000,"state":"active","ping":72},{"user_id":751,"name":"gyozaking","steam_id":76561197972312696,"connected_time":3688000000000,"state":"active","ping":37},{"user_id":763,"name":"shay.wilson","steam_id":76561198005776463,"connected_time":2066000000000,"state":"active","ping":136},{"user_id":788,"name":"Sour Grapes Radio Hour","steam_id":76561198121372198,"connected_time":55000000000,"state":"active","ping":77}]},{"server_id":36,"name":"Uncletopia | Chicago | 5 | All Maps","name_short":"chi-5","host":"chi-2.us.uncletopia.com","port":27015,"enabled":true,"region":"us-central","cc":"us","latitude":41.881832,"longitude":-87.62318,"reserved":0,"last_update":"0001-01-01T00:00:00Z","name_a2s":"Uncletopia | Chicago | 5 | All Maps","protocol":17,"map":"cp_dustbowl","folder":"tf","game":"Team Fortress","app_id":440,"player_count":23,"max_players":24,"Bots":0,"server_type":"Dedicated","server_os":"Linux","password":true,"vac":true,"version":"7882260","steam_id":85568392924866362,"keywords":["cp","nocrits","nodmgspread","uncletopia"],"game_id":440,"stv_port":27016,"stv_name":"Uncletopia | Chicago | 5 | All Maps | STV","players":[{"user_id":514,"name":"chem⭑","steam_id":76561198972045654,"connected_time":721000000000,"state":"active","ping":81},{"user_id":498,"name":"EvenNine","steam_id":76561198207745293,"connected_time":2010000000000,"state":"active","ping":58},{"user_id":508,"name":"LIL BEAN","steam_id":76561198115403223,"connected_time":1176000000000,"state":"active","ping":64},{"user_id":499,"name":"Kunata","steam_id":76561198050998975,"connected_time":1992000000000,"state":"active","ping":63},{"user_id":513,"name":"Epicmullen","steam_id":76561198259850795,"connected_time":809000000000,"state":"active","ping":57},{"user_id":521,"name":"Julius Seizure","steam_id":76561198286838443,"connected_time":67000000000,"state":"active","ping":53},{"user_id":507,"name":"AlmondMilk","steam_id":76561198151229725,"connected_time":1322000000000,"state":"active","ping":73},{"user_id":518,"name":"Gr4yyッ","steam_id":76561198126936736,"connected_time":124000000000,"state":"active","ping":68},{"user_id":522,"name":"Ironboy","steam_id":76561198421623862,"connected_time":65000000000,"state":"active","ping":97},{"user_id":501,"name":"I pocket eboys *♥‧₊˚","steam_id":76561198048925904,"connected_time":1961000000000,"state":"active","ping":105},{"user_id":476,"name":"Jar Jar Kinks","steam_id":76561199087748803,"connected_time":3203000000000,"state":"active","ping":85},{"user_id":515,"name":"SirJameston","steam_id":76561198035674306,"connected_time":661000000000,"state":"active","ping":98},{"user_id":477,"name":"Player Zero","steam_id":76561198208312849,"connected_time":3156000000000,"state":"active","ping":100},{"user_id":523,"name":"Camero","steam_id":76561198119070238,"connected_time":21000000000,"state":"active","ping":50},{"user_id":472,"name":"Ceej","steam_id":76561198416822503,"connected_time":3411000000000,"state":"active","ping":89},{"user_id":451,"name":"pigfarmer.gov","steam_id":76561199071167548,"connected_time":4152000000000,"state":"active","ping":68},{"user_id":495,"name":"[SOTR]DEV1ATE","steam_id":76561198004960097,"connected_time":2161000000000,"state":"active","ping":66},{"user_id":490,"name":"hatsune miku♡","steam_id":76561199445009981,"connected_time":2217000000000,"state":"active","ping":101},{"user_id":491,"name":"Bocchi the Cock","steam_id":76561198152455316,"connected_time":2212000000000,"state":"active","ping":107},{"user_id":524,"name":"Jamie","steam_id":76561198917309036,"connected_time":15000000000,"state":"active","ping":64},{"user_id":485,"name":"Lincs","steam_id":76561198049851872,"connected_time":2387000000000,"state":"active","ping":84},{"user_id":494,"name":"SPYChicken427","steam_id":76561198072308602,"connected_time":2168000000000,"state":"active","ping":60},{"user_id":504,"name":"Goofball","steam_id":76561198061211537,"connected_time":1579000000000,"state":"active","ping":60}]},{"server_id":37,"name":"Uncletopia | Chicago | 6 | All Maps","name_short":"chi-6","host":"chi-2.us.uncletopia.com","port":27025,"enabled":true,"region":"us-central","cc":"us","latitude":41.881832,"longitude":-87.62318,"reserved":0,"last_update":"0001-01-01T00:00:00Z","name_a2s":"Uncletopia | Chicago | 6 | All Maps","protocol":17,"map":"pl_barnblitz","folder":"tf","game":"Team Fortress","app_id":440,"player_count":24,"max_players":24,"Bots":0,"server_type":"Dedicated","server_os":"Linux","password":true,"vac":true,"version":"7882260","steam_id":85568392924866363,"keywords":["nocrits","nodmgspread","payload","uncletopia"],"game_id":440,"stv_port":27026,"stv_name":"Uncletopia | Chicago | 6 | All Maps | STV","players":[{"user_id":366,"name":"OneLess","steam_id":76561198150870338,"connected_time":585000000000,"state":"active","ping":83},{"user_id":320,"name":"BigDeac","steam_id":76561198091237274,"connected_time":2586000000000,"state":"active","ping":57},{"user_id":347,"name":"nottedmosby","steam_id":76561198128282513,"connected_time":1334000000000,"state":"active","ping":65},{"user_id":322,"name":"schrödinger","steam_id":76561198123475433,"connected_time":2470000000000,"state":"active","ping":126},{"user_id":370,"name":"Herdez Hot Salsa","steam_id":76561197991740906,"connected_time":495000000000,"state":"active","ping":66},{"user_id":361,"name":"The Cool Man","steam_id":76561198096420556,"connected_time":879000000000,"state":"active","ping":102},{"user_id":371,"name":"Asanez3","steam_id":76561198037381436,"connected_time":493000000000,"state":"active","ping":74},{"user_id":307,"name":"Doubting Dave","steam_id":76561198066410749,"connected_time":3332000000000,"state":"active","ping":58},{"user_id":372,"name":"Sunflower Solace","steam_id":76561198041077536,"connected_time":486000000000,"state":"active","ping":122},{"user_id":350,"name":"Viokik","steam_id":76561198408846602,"connected_time":1253000000000,"state":"active","ping":63},{"user_id":344,"name":"Poopy Butthead","steam_id":76561198201862415,"connected_time":1569000000000,"state":"active","ping":59},{"user_id":339,"name":"Trusty","steam_id":76561198123441319,"connected_time":1937000000000,"state":"active","ping":49},{"user_id":374,"name":"wandisimo + his sexy biceps","steam_id":76561198040174523,"connected_time":450000000000,"state":"active","ping":54},{"user_id":342,"name":"Big Dick Swinging","steam_id":76561198053819929,"connected_time":1704000000000,"state":"active","ping":79},{"user_id":313,"name":"Yoshi_86","steam_id":76561198942328734,"connected_time":3092000000000,"state":"active","ping":50},{"user_id":343,"name":"AceRepublicRT","steam_id":76561198362676166,"connected_time":1674000000000,"state":"active","ping":114},{"user_id":314,"name":"(TTV) The_Astrum_Guardian","steam_id":76561198130134103,"connected_time":2977000000000,"state":"active","ping":58},{"user_id":351,"name":"VOICES IN MY HEAD","steam_id":76561198357238486,"connected_time":1251000000000,"state":"active","ping":60},{"user_id":376,"name":"Classic","steam_id":76561198215293509,"connected_time":416000000000,"state":"active","ping":69},{"user_id":315,"name":"noah","steam_id":76561198173310157,"connected_time":2961000000000,"state":"active","ping":50},{"user_id":378,"name":"SubZeroDestruction","steam_id":76561198145082209,"connected_time":408000000000,"state":"active","ping":65},{"user_id":379,"name":"MrMineHeads","steam_id":76561198129344936,"connected_time":405000000000,"state":"active","ping":60},{"user_id":364,"name":"pooblygonzooly2012","steam_id":76561198982054880,"connected_time":861000000000,"state":"active","ping":108},{"user_id":332,"name":"PapaRicka","steam_id":76561198156474931,"connected_time":2120000000000,"state":"active","ping":67}]},{"server_id":38,"name":"Uncletopia | Chicago | 7 | Stopwatch Beta","name_short":"chi-7","host":"chi-2.us.uncletopia.com","port":27035,"enabled":true,"region":"us-central","cc":"us","latitude":41.881832,"longitude":-87.62318,"reserved":0,"last_update":"0001-01-01T00:00:00Z","name_a2s":"Uncletopia | Chicago | 7 | Stopwatch Beta","protocol":17,"map":"pl_borneo","folder":"tf","game":"Team Fortress","app_id":440,"player_count":0,"max_players":24,"Bots":0,"server_type":"Dedicated","server_os":"Linux","password":true,"vac":true,"version":"7882260","steam_id":85568392924866364,"keywords":["nocrits","nodmgspread","payload","uncletopia"],"game_id":440,"stv_port":27036,"stv_name":"Uncletopia | Chicago | 7 | Stopwatch Beta | STV","players":null},{"server_id":39,"name":"Uncletopia | Chicago | 8 | Community","name_short":"chi-8","host":"chi-2.us.uncletopia.com","port":27045,"enabled":true,"region":"us-central","cc":"us","latitude":41.881832,"longitude":-87.62318,"reserved":0,"last_update":"0001-01-01T00:00:00Z","name_a2s":"Uncletopia | Chicago | 8 | Community","protocol":17,"map":"workshop/koth_synthetic_rc6a.ugc1549817316","folder":"tf","game":"Team Fortress","app_id":440,"player_count":0,"max_players":24,"Bots":0,"server_type":"Dedicated","server_os":"Linux","password":true,"vac":true,"version":"7882260","steam_id":85568392924866365,"keywords":["cp","nocrits","nodmgspread","uncletopia"],"game_id":440,"stv_port":27046,"stv_name":"Uncletopia | Chicago | 8 | Community | STV","players":null},{"server_id":8,"name":"Uncletopia | Dallas | 1 | All Maps","name_short":"dal-1","host":"dal-1.us.uncletopia.com","port":27015,"enabled":true,"region":"us-central","cc":"us","latitude":32.779167,"longitude":-96.80889,"reserved":0,"last_update":"0001-01-01T00:00:00Z","name_a2s":"Uncletopia | Dallas | 1 | All Maps","protocol":17,"map":"pl_badwater","folder":"tf","game":"Team Fortress","app_id":440,"player_count":24,"max_players":24,"Bots":0,"server_type":"Dedicated","server_os":"Linux","password":true,"vac":true,"version":"7882260","steam_id":85568392924469986,"keywords":["nocrits","nodmgspread","payload","uncletopia"],"game_id":440,"stv_port":27016,"stv_name":"Uncletopia | Dallas | 1 | All Maps | STV","players":[{"user_id":723,"name":"ElTioHitMalo","steam_id":76561198284789657,"connected_time":197000000000,"state":"active","ping":61},{"user_id":697,"name":"Bogey","steam_id":76561198096227944,"connected_time":1815000000000,"state":"active","ping":43},{"user_id":715,"name":"TurkeyBaconEggz","steam_id":76561198881942791,"connected_time":1175000000000,"state":"active","ping":114},{"user_id":654,"name":"A Drunken Fedora Salesman","steam_id":76561198056238723,"connected_time":3629000000000,"state":"active","ping":97},{"user_id":719,"name":"Medic Girlfriend","steam_id":76561199160807914,"connected_time":899000000000,"state":"active","ping":88},{"user_id":535,"name":"Xeno808","steam_id":76561198103758081,"connected_time":7923000000000,"state":"active","ping":39},{"user_id":717,"name":"C.A.S.S.I.E (real)","steam_id":76561199040892651,"connected_time":1060000000000,"state":"active","ping":57},{"user_id":701,"name":"spot","steam_id":76561198151135298,"connected_time":1762000000000,"state":"active","ping":68},{"user_id":721,"name":"ShadowDragon0125","steam_id":76561198343849022,"connected_time":579000000000,"state":"active","ping":78},{"user_id":696,"name":"Mulsanne","steam_id":76561198439612132,"connected_time":1933000000000,"state":"active","ping":48},{"user_id":566,"name":"shoxidizer","steam_id":76561198981983698,"connected_time":6703000000000,"state":"active","ping":95},{"user_id":724,"name":"Saulen","steam_id":76561198150726407,"connected_time":197000000000,"state":"active","ping":63},{"user_id":725,"name":"Blazing Hyena","steam_id":76561199121852680,"connected_time":183000000000,"state":"active","ping":88},{"user_id":714,"name":"faka","steam_id":76561199093280815,"connected_time":1206000000000,"state":"active","ping":111},{"user_id":726,"name":"GuyGoom","steam_id":76561198254522178,"connected_time":161000000000,"state":"active","ping":72},{"user_id":703,"name":"Marc Antony","steam_id":76561198011366517,"connected_time":1755000000000,"state":"active","ping":71},{"user_id":718,"name":"Master John Thursday","steam_id":76561197987593154,"connected_time":1036000000000,"state":"active","ping":45},{"user_id":705,"name":"Doggo_Overlord","steam_id":76561198265468015,"connected_time":1725000000000,"state":"active","ping":77},{"user_id":685,"name":"Last Friday","steam_id":76561198002309769,"connected_time":2805000000000,"state":"active","ping":59},{"user_id":727,"name":"Morbius","steam_id":76561198387984694,"connected_time":131000000000,"state":"active","ping":78},{"user_id":706,"name":"Balerion the Black Dread","steam_id":76561198003728369,"connected_time":1695000000000,"state":"active","ping":82},{"user_id":713,"name":"mr.edderkopper","steam_id":76561198152614478,"connected_time":1364000000000,"state":"active","ping":106},{"user_id":728,"name":"That One Guy","steam_id":76561198945646560,"connected_time":129000000000,"state":"active","ping":112},{"user_id":695,"name":"BronzeLeagueHero","steam_id":76561198088309711,"connected_time":2579000000000,"state":"active","ping":56}]},{"server_id":108,"name":"Uncletopia | Dallas | 2 | All Maps","name_short":"dal-2","host":"dal-1.us.uncletopia.com","port":27025,"enabled":true,"region":"us-central","cc":"us","latitude":32.779167,"longitude":-96.80889,"reserved":0,"last_update":"0001-01-01T00:00:00Z","name_a2s":"Uncletopia | Dallas | 2 | All Maps","protocol":17,"map":"cp_dustbowl","folder":"tf","game":"Team Fortress","app_id":440,"player_count":24,"max_players":24,"Bots":0,"server_type":"Dedicated","server_os":"Linux","password":true,"vac":true,"version":"7882260","steam_id":85568392924469988,"keywords":["cp","nocrits","nodmgspread","uncletopia"],"game_id":440,"stv_port":27026,"stv_name":"Uncletopia | Dallas | 2 | All Maps | STV","players":[{"user_id":474,"name":"Tommy Provolone","steam_id":76561198170062377,"connected_time":1427000000000,"state":"active","ping":61},{"user_id":450,"name":"jacix3 [gay wolfgirl]{she/it}","steam_id":76561198205004165,"connected_time":3582000000000,"state":"active","ping":110},{"user_id":451,"name":"skeletobro","steam_id":76561198311258358,"connected_time":3572000000000,"state":"active","ping":110},{"user_id":493,"name":"Neophyte","steam_id":76561198027183394,"connected_time":623000000000,"state":"active","ping":89},{"user_id":473,"name":"Edder","steam_id":76561198011088393,"connected_time":1449000000000,"state":"active","ping":94},{"user_id":489,"name":"La Rana","steam_id":76561198358974675,"connected_time":1101000000000,"state":"active","ping":100},{"user_id":498,"name":"Certified Hood Classic","steam_id":76561199086159354,"connected_time":324000000000,"state":"active","ping":53},{"user_id":499,"name":"trash beast","steam_id":76561198015792736,"connected_time":220000000000,"state":"active","ping":79},{"user_id":494,"name":"счизяѳ","steam_id":76561199182960322,"connected_time":497000000000,"state":"active","ping":51},{"user_id":455,"name":"acidicorn","steam_id":76561199484618071,"connected_time":3488000000000,"state":"active","ping":102},{"user_id":500,"name":"how do i girl???","steam_id":76561198050290565,"connected_time":127000000000,"state":"active","ping":76},{"user_id":479,"name":"monsterkill4567","steam_id":76561198272986367,"connected_time":1369000000000,"state":"active","ping":83},{"user_id":480,"name":"belt sander toothbrush","steam_id":76561198078238722,"connected_time":1368000000000,"state":"active","ping":110},{"user_id":497,"name":"Frank Fortain","steam_id":76561198953613972,"connected_time":354000000000,"state":"active","ping":44},{"user_id":456,"name":"PerliousFalcon","steam_id":76561198124801907,"connected_time":3455000000000,"state":"active","ping":103},{"user_id":486,"name":"FullMetalHanson","steam_id":76561198149565623,"connected_time":1245000000000,"state":"active","ping":75},{"user_id":495,"name":"PlugFromBehind","steam_id":76561198143283800,"connected_time":453000000000,"state":"active","ping":60},{"user_id":471,"name":"Superman123389","steam_id":76561198267472539,"connected_time":2290000000000,"state":"active","ping":90},{"user_id":483,"name":"plink","steam_id":76561198057829889,"connected_time":1348000000000,"state":"active","ping":61},{"user_id":421,"name":"King Cotton","steam_id":76561198292444376,"connected_time":5733000000000,"state":"active","ping":63},{"user_id":469,"name":"trinqette (she/her)","steam_id":76561198119543621,"connected_time":2499000000000,"state":"active","ping":69},{"user_id":484,"name":"Burny Sanders","steam_id":76561197961879048,"connected_time":1312000000000,"state":"active","ping":45},{"user_id":467,"name":"chucknut","steam_id":76561199329553584,"connected_time":2695000000000,"state":"active","ping":120}]},{"server_id":5,"name":"Uncletopia | Frankfurt | 1 | All Maps","name_short":"frk-1","host":"frk-1.de.uncletopia.com","port":27015,"enabled":true,"region":"eu","cc":"de","latitude":50.110924,"longitude":8.682127,"reserved":0,"last_update":"0001-01-01T00:00:00Z","name_a2s":"Uncletopia | Frankfurt | 1 | All Maps","protocol":17,"map":"koth_cascade","folder":"tf","game":"Team Fortress","app_id":440,"player_count":0,"max_players":24,"Bots":0,"server_type":"Dedicated","server_os":"Linux","password":true,"vac":true,"version":"7882260","steam_id":85568392924469989,"keywords":["cp","nocrits","nodmgspread","uncletopia"],"game_id":440,"stv_port":27016,"stv_name":"Uncletopia | Frankfurt | 1 | All Maps | STV","players":null},{"server_id":110,"name":"Uncletopia | Frankfurt | 2 | All Maps","name_short":"frk-2","host":"frk-1.de.uncletopia.com","port":27025,"enabled":true,"region":"eu","cc":"de","latitude":50.110924,"longitude":8.682127,"reserved":0,"last_update":"0001-01-01T00:00:00Z","name_a2s":"Uncletopia | Frankfurt | 2 | All Maps","protocol":17,"map":"pl_frontier_final","folder":"tf","game":"Team Fortress","app_id":440,"player_count":0,"max_players":24,"Bots":0,"server_type":"Dedicated","server_os":"Linux","password":true,"vac":true,"version":"7882260","steam_id":85568392924469990,"keywords":["nocrits","nodmgspread","payload","uncletopia"],"game_id":440,"stv_port":27026,"stv_name":"Uncletopia | Frankfurt | 2 | All Maps | STV","players":null},{"server_id":308,"name":"Uncletopia | Frankfurt | 3 | All Maps","name_short":"frk-3","host":"frk-1.de.uncletopia.com","port":27035,"enabled":true,"region":"eu","cc":"de","latitude":50.110924,"longitude":8.682127,"reserved":0,"last_update":"0001-01-01T00:00:00Z","name_a2s":"Uncletopia | Frankfurt | 3 | All Maps","protocol":17,"map":"koth_viaduct","folder":"tf","game":"Team Fortress","app_id":440,"player_count":0,"max_players":24,"Bots":0,"server_type":"Dedicated","server_os":"Linux","password":true,"vac":true,"version":"7882260","steam_id":85568392924504274,"keywords":["cp","nocrits","nodmgspread","uncletopia"],"game_id":440,"stv_port":27036,"stv_name":"Uncletopia | Frankfurt | 3 | All Maps | STV","players":null},{"server_id":309,"name":"Uncletopia | Frankfurt | 4 | All Maps","name_short":"frk-4","host":"frk-1.de.uncletopia.com","port":27045,"enabled":true,"region":"eu","cc":"de","latitude":50.110924,"longitude":8.682127,"reserved":0,"last_update":"0001-01-01T00:00:00Z","name_a2s":"Uncletopia | Frankfurt | 4 | All Maps","protocol":17,"map":"pl_upward","folder":"tf","game":"Team Fortress","app_id":440,"player_count":0,"max_players":24,"Bots":0,"server_type":"Dedicated","server_os":"Linux","password":true,"vac":true,"version":"7882260","steam_id":85568392924504275,"keywords":["nocrits","nodmgspread","payload","uncletopia"],"game_id":440,"stv_port":27046,"stv_name":"Uncletopia | Frankfurt | 4 | All Maps | STV","players":null},{"server_id":310,"name":"Uncletopia | Frankfurt | 5 | All Maps","name_short":"frk-5","host":"frk-1.de.uncletopia.com","port":27055,"enabled":true,"region":"eu","cc":"de","latitude":50.110924,"longitude":8.682127,"reserved":0,"last_update":"0001-01-01T00:00:00Z","name_a2s":"Uncletopia | Frankfurt | 5 | All Maps","protocol":17,"map":"pl_frontier_final","folder":"tf","game":"Team Fortress","app_id":440,"player_count":0,"max_players":24,"Bots":0,"server_type":"Dedicated","server_os":"Linux","password":true,"vac":true,"version":"7882260","steam_id":85568392924504277,"keywords":["nocrits","nodmgspread","payload","uncletopia"],"game_id":440,"stv_port":27056,"stv_name":"Uncletopia | Frankfurt | 5 | All Maps | STV","players":null},{"server_id":311,"name":"Uncletopia | Frankfurt | 6 | All Maps","name_short":"frk-6","host":"frk-1.de.uncletopia.com","port":27065,"enabled":true,"region":"eu","cc":"de","latitude":50.110924,"longitude":8.682127,"reserved":0,"last_update":"0001-01-01T00:00:00Z","name_a2s":"Uncletopia | Frankfurt | 6 | All Maps","protocol":17,"map":"pl_barnblitz","folder":"tf","game":"Team Fortress","app_id":440,"player_count":0,"max_players":24,"Bots":0,"server_type":"Dedicated","server_os":"Linux","password":true,"vac":true,"version":"7882260","steam_id":85568392924504278,"keywords":["nocrits","nodmgspread","payload","uncletopia"],"game_id":440,"stv_port":27066,"stv_name":"Uncletopia | Frankfurt | 6 | All Maps | STV","players":null},{"server_id":23,"name":"Uncletopia | Frankfurt | 7 | Stopwatch Beta","name_short":"frk-7","host":"frk-1.de.uncletopia.com","port":27075,"enabled":true,"region":"eu","cc":"de","latitude":50.110924,"longitude":8.682127,"reserved":0,"last_update":"0001-01-01T00:00:00Z","name_a2s":"Uncletopia | Frankfurt | 7 | Stopwatch Beta","protocol":17,"map":"workshop/pl_badwater_pro_v12.ugc2142942074","folder":"tf","game":"Team Fortress","app_id":440,"player_count":0,"max_players":24,"Bots":0,"server_type":"Dedicated","server_os":"Linux","password":true,"vac":true,"version":"7882260","steam_id":85568392924742827,"keywords":["nocrits","nodmgspread","payload","uncletopia"],"game_id":440,"stv_port":27076,"stv_name":"Uncletopia | Frankfurt | 7 | Stopwatch Beta | STV","players":null},{"server_id":24,"name":"Uncletopia | Frankfurt | 8 | Community","name_short":"frk-8","host":"frk-1.de.uncletopia.com","port":27085,"enabled":true,"region":"eu","cc":"de","latitude":50.110924,"longitude":8.682127,"reserved":0,"last_update":"0001-01-01T00:00:00Z","name_a2s":"Uncletopia | Frankfurt | 8 | Community","protocol":17,"map":"workshop/koth_trenchfoot_b1a.ugc731436616","folder":"tf","game":"Team Fortress","app_id":440,"player_count":0,"max_players":24,"Bots":0,"server_type":"Dedicated","server_os":"Linux","password":true,"vac":true,"version":"7882260","steam_id":85568392924742828,"keywords":["cp","nocrits","nodmgspread","uncletopia"],"game_id":440,"stv_port":27086,"stv_name":"Uncletopia | Frankfurt | 8 | Community | STV","players":null},{"server_id":202,"name":"Uncletopia | Hong Kong | 1 | All Maps","name_short":"hgk-1","host":"hgk-1.hk.uncletopia.com","port":27015,"enabled":true,"region":"asia","cc":"hk","latitude":22.302711,"longitude":114.177216,"reserved":0,"last_update":"0001-01-01T00:00:00Z","name_a2s":"Uncletopia | Hong Kong | 1 | All Maps","protocol":17,"map":"pl_barnblitz","folder":"tf","game":"Team Fortress","app_id":440,"player_count":0,"max_players":24,"Bots":0,"server_type":"Dedicated","server_os":"Linux","password":true,"vac":true,"version":"7882260","steam_id":85568392924494504,"keywords":["nocrits","nodmgspread","payload","uncletopia"],"game_id":440,"stv_port":27016,"stv_name":"Uncletopia | Hong Kong | 1 | All Maps | STV","players":null},{"server_id":1,"name":"Uncletopia | Los Angeles | 1 | All Maps","name_short":"lax-1","host":"lax-1.us.uncletopia.com","port":27015,"enabled":true,"region":"us-west","cc":"us","latitude":33.94279,"longitude":-118.41004,"reserved":0,"last_update":"0001-01-01T00:00:00Z","name_a2s":"Uncletopia | Los Angeles | 1 | All Maps","protocol":17,"map":"pl_badwater","folder":"tf","game":"Team Fortress","app_id":440,"player_count":24,"max_players":24,"Bots":0,"server_type":"Dedicated","server_os":"Linux","password":true,"vac":true,"version":"7882260","steam_id":85568392924469991,"keywords":["nocrits","nodmgspread","payload","uncletopia"],"game_id":440,"stv_port":27016,"stv_name":"Uncletopia | Los Angeles | 1 | All Maps | STV","players":[{"user_id":588,"name":"The_Pacific_gamer","steam_id":76561198089491446,"connected_time":1640000000000,"state":"active","ping":75},{"user_id":520,"name":"Mom","steam_id":76561198207936000,"connected_time":6620000000000,"state":"active","ping":46},{"user_id":604,"name":"Peachy","steam_id":76561198355191810,"connected_time":552000000000,"state":"active","ping":54},{"user_id":581,"name":"The Dinkle","steam_id":76561198098155041,"connected_time":2388000000000,"state":"active","ping":73},{"user_id":521,"name":"LeNoobe","steam_id":76561199092079229,"connected_time":6599000000000,"state":"active","ping":69},{"user_id":587,"name":"bonkers","steam_id":76561199206080182,"connected_time":1742000000000,"state":"active","ping":114},{"user_id":609,"name":"Serene Salamander","steam_id":76561198001094770,"connected_time":503000000000,"state":"active","ping":54},{"user_id":573,"name":"Stocking Anarchy","steam_id":76561199013422135,"connected_time":3050000000000,"state":"active","ping":114},{"user_id":589,"name":"Shamrock Shake Oct.10.2020 @8pm","steam_id":76561198833313201,"connected_time":1639000000000,"state":"active","ping":61},{"user_id":590,"name":"Blows","steam_id":76561198065349185,"connected_time":1634000000000,"state":"active","ping":45},{"user_id":601,"name":"Jax","steam_id":76561198251160282,"connected_time":602000000000,"state":"active","ping":58},{"user_id":600,"name":"ExplosiveGamer21","steam_id":76561198132370955,"connected_time":613000000000,"state":"active","ping":69},{"user_id":566,"name":"Laxoloni","steam_id":76561199197045700,"connected_time":3764000000000,"state":"active","ping":79},{"user_id":605,"name":"Elagabalus","steam_id":76561198041775211,"connected_time":545000000000,"state":"active","ping":103},{"user_id":596,"name":"❤ Ashley ❤","steam_id":76561198056428303,"connected_time":1185000000000,"state":"active","ping":45},{"user_id":615,"name":"momb","steam_id":76561198142234038,"connected_time":110000000000,"state":"active","ping":102},{"user_id":585,"name":"Schnitz","steam_id":76561198265484253,"connected_time":1810000000000,"state":"active","ping":61},{"user_id":599,"name":"Slim Charles","steam_id":76561197981687895,"connected_time":685000000000,"state":"active","ping":60},{"user_id":525,"name":"2 for $3.50 McChickens","steam_id":76561198089908660,"connected_time":6554000000000,"state":"active","ping":54},{"user_id":597,"name":"self sufficient kitten","steam_id":76561197960592612,"connected_time":1185000000000,"state":"active","ping":76},{"user_id":614,"name":"riSygneD","steam_id":76561198331618687,"connected_time":212000000000,"state":"active","ping":42},{"user_id":607,"name":"WillieMakit","steam_id":76561197985391684,"connected_time":533000000000,"state":"active","ping":65},{"user_id":602,"name":"Takyon","steam_id":76561198240014196,"connected_time":591000000000,"state":"active","ping":47},{"user_id":579,"name":"reverie","steam_id":76561198168158637,"connected_time":2614000000000,"state":"active","ping":75}]},{"server_id":112,"name":"Uncletopia | Los Angeles | 2 | All Maps","name_short":"lax-2","host":"lax-1.us.uncletopia.com","port":27025,"enabled":true,"region":"us-west","cc":"us","latitude":33.94279,"longitude":-118.41004,"reserved":0,"last_update":"0001-01-01T00:00:00Z","name_a2s":"Uncletopia | Los Angeles | 2 | All Maps","protocol":17,"map":"pl_snowycoast","folder":"tf","game":"Team Fortress","app_id":440,"player_count":24,"max_players":24,"Bots":0,"server_type":"Dedicated","server_os":"Linux","password":true,"vac":true,"version":"7882260","steam_id":85568392924469992,"keywords":["nocrits","nodmgspread","payload","uncletopia"],"game_id":440,"stv_port":27026,"stv_name":"Uncletopia | Los Angeles | 2 | All Maps | STV","players":[{"user_id":227,"name":"Skarp129","steam_id":76561198108679057,"connected_time":5454000000000,"state":"active","ping":47},{"user_id":279,"name":"Nez","steam_id":76561197963109059,"connected_time":887000000000,"state":"active","ping":66},{"user_id":260,"name":"El Super Monkey Ball","steam_id":76561198135634819,"connected_time":3083000000000,"state":"active","ping":53},{"user_id":270,"name":"BigBubble42","steam_id":76561198136286123,"connected_time":2384000000000,"state":"active","ping":60},{"user_id":247,"name":"Star","steam_id":76561198187728043,"connected_time":4572000000000,"state":"active","ping":47},{"user_id":252,"name":"John Wick's puppy","steam_id":76561198064662875,"connected_time":3674000000000,"state":"active","ping":55},{"user_id":253,"name":"onisock","steam_id":76561198166589402,"connected_time":3410000000000,"state":"active","ping":55},{"user_id":276,"name":"***** beheader","steam_id":76561199395351700,"connected_time":1616000000000,"state":"active","ping":57},{"user_id":271,"name":"Bagoool","steam_id":76561198065368286,"connected_time":2354000000000,"state":"active","ping":103},{"user_id":262,"name":"2","steam_id":76561198037332418,"connected_time":3061000000000,"state":"active","ping":71},{"user_id":280,"name":"Better Call Salt","steam_id":76561198165597435,"connected_time":881000000000,"state":"active","ping":60},{"user_id":245,"name":"Manchurian Bandit","steam_id":76561198072410042,"connected_time":4707000000000,"state":"active","ping":46},{"user_id":284,"name":"ghostglitch","steam_id":76561197991608573,"connected_time":690000000000,"state":"active","ping":56},{"user_id":278,"name":"NobodyMonkey","steam_id":76561198318360972,"connected_time":1109000000000,"state":"active","ping":58},{"user_id":272,"name":"lite","steam_id":76561198041535914,"connected_time":2342000000000,"state":"active","ping":110},{"user_id":275,"name":"Universe Man","steam_id":76561197997710655,"connected_time":1678000000000,"state":"active","ping":117},{"user_id":207,"name":"KonJac","steam_id":76561198027812652,"connected_time":6544000000000,"state":"active","ping":55},{"user_id":268,"name":"[ G R * T T Y ]","steam_id":76561198048986218,"connected_time":2749000000000,"state":"active","ping":64},{"user_id":281,"name":"Ken-Sama","steam_id":76561198040465331,"connected_time":826000000000,"state":"active","ping":55},{"user_id":277,"name":"An00bis","steam_id":76561198044084508,"connected_time":1400000000000,"state":"active","ping":59},{"user_id":274,"name":"Hector Salamanca","steam_id":76561199103213955,"connected_time":2050000000000,"state":"active","ping":74},{"user_id":250,"name":"DaToasterKing","steam_id":76561199074553021,"connected_time":4205000000000,"state":"active","ping":57},{"user_id":273,"name":"Taco+Taco=Burrito","steam_id":76561198063128663,"connected_time":2288000000000,"state":"active","ping":38},{"user_id":282,"name":"Khaast","steam_id":76561198170253694,"connected_time":806000000000,"state":"active","ping":90}]},{"server_id":324,"name":"Uncletopia | Los Angeles | 3 | All Maps","name_short":"lax-3","host":"lax-1.us.uncletopia.com","port":27035,"enabled":true,"region":"us-west","cc":"us","latitude":33.94279,"longitude":-118.41004,"reserved":0,"last_update":"0001-01-01T00:00:00Z","name_a2s":"Uncletopia | Los Angeles | 3 | All Maps","protocol":17,"map":"pl_pier","folder":"tf","game":"Team Fortress","app_id":440,"player_count":24,"max_players":24,"Bots":0,"server_type":"Dedicated","server_os":"Linux","password":true,"vac":true,"version":"7882260","steam_id":85568392924510198,"keywords":["nocrits","nodmgspread","payload","uncletopia"],"game_id":440,"stv_port":27036,"stv_name":"Uncletopia | Los Angeles | 3 | All Maps | STV","players":[{"user_id":261,"name":"Truffles","steam_id":76561198095868800,"connected_time":1668000000000,"state":"active","ping":97},{"user_id":229,"name":"MegaBron James","steam_id":76561198066091050,"connected_time":3689000000000,"state":"active","ping":69},{"user_id":206,"name":"Cortana's Package","steam_id":76561198011398519,"connected_time":5057000000000,"state":"active","ping":113},{"user_id":255,"name":"carpet","steam_id":76561198207881077,"connected_time":1953000000000,"state":"active","ping":102},{"user_id":262,"name":"Grand","steam_id":76561198290143399,"connected_time":1619000000000,"state":"active","ping":83},{"user_id":271,"name":"slim goodbody","steam_id":76561197997100185,"connected_time":172000000000,"state":"active","ping":55},{"user_id":272,"name":"Sleempreem","steam_id":76561198131987251,"connected_time":159000000000,"state":"active","ping":42},{"user_id":250,"name":"ento▲","steam_id":76561199189903405,"connected_time":2416000000000,"state":"active","ping":97},{"user_id":245,"name":"Balls™","steam_id":76561198057538549,"connected_time":2742000000000,"state":"active","ping":106},{"user_id":267,"name":"otpyt","steam_id":76561198066623259,"connected_time":965000000000,"state":"active","ping":76},{"user_id":268,"name":"Thunder","steam_id":76561198097721532,"connected_time":927000000000,"state":"active","ping":52},{"user_id":264,"name":"[ibb™]Shadow20X6-ENGI","steam_id":76561198019292755,"connected_time":1265000000000,"state":"active","ping":63},{"user_id":273,"name":"PizzaDog","steam_id":76561198045262808,"connected_time":135000000000,"state":"active","ping":139},{"user_id":238,"name":"bigman1","steam_id":76561198050225055,"connected_time":3145000000000,"state":"active","ping":45},{"user_id":274,"name":"Veridian","steam_id":76561198096334078,"connected_time":127000000000,"state":"active","ping":104},{"user_id":263,"name":"spacetoven","steam_id":76561198115821131,"connected_time":1407000000000,"state":"active","ping":58},{"user_id":230,"name":"lol","steam_id":76561198026491738,"connected_time":3683000000000,"state":"active","ping":62},{"user_id":225,"name":"Dragoninventor (He/Him)","steam_id":76561198956224948,"connected_time":3703000000000,"state":"active","ping":79},{"user_id":205,"name":"Big boned","steam_id":76561198046056717,"connected_time":5088000000000,"state":"active","ping":49},{"user_id":266,"name":"ArumiKaze","steam_id":76561198026814729,"connected_time":1065000000000,"state":"active","ping":59},{"user_id":275,"name":"An Unhinged Meat Bicycle","steam_id":76561198358757709,"connected_time":93000000000,"state":"active","ping":120},{"user_id":241,"name":"b0urbaki7","steam_id":76561198141342345,"connected_time":2979000000000,"state":"active","ping":92},{"user_id":232,"name":"poopfart messiah","steam_id":76561198082551861,"connected_time":3624000000000,"state":"active","ping":82},{"user_id":233,"name":"Grungus","steam_id":76561198047700230,"connected_time":3588000000000,"state":"active","ping":57}]},{"server_id":25,"name":"Uncletopia | Los Angeles | 4 | Stopwatch Beta","name_short":"lax-4","host":"lax-1.us.uncletopia.com","port":27045,"enabled":true,"region":"us-west","cc":"us","latitude":33.94279,"longitude":-118.41004,"reserved":0,"last_update":"0001-01-01T00:00:00Z","name_a2s":"Uncletopia | Los Angeles | 4 | Stopwatch Beta","protocol":17,"map":"workshop/koth_bagel_rc6.ugc2514036946","folder":"tf","game":"Team Fortress","app_id":440,"player_count":24,"max_players":24,"Bots":0,"server_type":"Dedicated","server_os":"Linux","password":true,"vac":true,"version":"7882260","steam_id":85568392924510199,"keywords":["cp","nocrits","nodmgspread","uncletopia"],"game_id":440,"stv_port":27046,"stv_name":"Uncletopia | Los Angeles | 4 | Stopwatch Beta | STV","players":[{"user_id":219,"name":"Giselle","steam_id":76561198162593640,"connected_time":1870000000000,"state":"active","ping":104},{"user_id":229,"name":"Zoarork25","steam_id":76561198373589711,"connected_time":1547000000000,"state":"active","ping":117},{"user_id":235,"name":"xjlm","steam_id":76561198043497260,"connected_time":771000000000,"state":"active","ping":69},{"user_id":145,"name":"Nekro Kitty","steam_id":76561198025054596,"connected_time":6519000000000,"state":"active","ping":91},{"user_id":182,"name":"Overmeme","steam_id":76561199455124144,"connected_time":3930000000000,"state":"active","ping":91},{"user_id":242,"name":"SlippyPunk","steam_id":76561198048551455,"connected_time":511000000000,"state":"active","ping":118},{"user_id":237,"name":"Power Jake","steam_id":76561198051510260,"connected_time":737000000000,"state":"active","ping":75},{"user_id":246,"name":"big fish","steam_id":76561198186479818,"connected_time":319000000000,"state":"active","ping":56},{"user_id":243,"name":"{ᴛʀ_ᴄᴇʀᴘ} shullers","steam_id":76561198889997809,"connected_time":483000000000,"state":"active","ping":46},{"user_id":244,"name":"Ryan","steam_id":76561198051195920,"connected_time":388000000000,"state":"active","ping":133},{"user_id":239,"name":"bballbhuddababyboy","steam_id":76561198079516052,"connected_time":716000000000,"state":"active","ping":47},{"user_id":209,"name":"BallBreaker","steam_id":76561198237263498,"connected_time":2648000000000,"state":"active","ping":109},{"user_id":143,"name":"Billy McWilly","steam_id":76561198002882318,"connected_time":6606000000000,"state":"active","ping":77},{"user_id":245,"name":"awry","steam_id":76561198810023814,"connected_time":383000000000,"state":"active","ping":79},{"user_id":247,"name":"suicide in fragments","steam_id":76561198071430182,"connected_time":308000000000,"state":"active","ping":114},{"user_id":240,"name":"krib0","steam_id":76561198093353303,"connected_time":702000000000,"state":"active","ping":38},{"user_id":223,"name":"Homura Simp","steam_id":76561198246080762,"connected_time":1791000000000,"state":"active","ping":60},{"user_id":231,"name":"Master17Gaming","steam_id":76561198145986516,"connected_time":1275000000000,"state":"active","ping":119},{"user_id":248,"name":"Dongus","steam_id":76561197979056451,"connected_time":289000000000,"state":"active","ping":75},{"user_id":249,"name":"Peter, what are you doing?","steam_id":76561198066452726,"connected_time":273000000000,"state":"active","ping":51},{"user_id":250,"name":"Vlone","steam_id":76561199119064542,"connected_time":262000000000,"state":"active","ping":64},{"user_id":251,"name":"REGHAM","steam_id":76561198147815408,"connected_time":155000000000,"state":"active","ping":62},{"user_id":252,"name":"westward (was/were)","steam_id":76561198805512350,"connected_time":150000000000,"state":"active","ping":76},{"user_id":254,"name":"Western_spy","steam_id":76561198968587046,"connected_time":57000000000,"state":"active","ping":50}]},{"server_id":11,"name":"Uncletopia | London | 1 | All Maps","name_short":"lon-1","host":"lon-1.uk.uncletopia.com","port":27015,"enabled":true,"region":"eu","cc":"gb","latitude":51.509865,"longitude":-0.118092,"reserved":0,"last_update":"0001-01-01T00:00:00Z","name_a2s":"Uncletopia | London | 1 | All Maps","protocol":17,"map":"koth_nucleus","folder":"tf","game":"Team Fortress","app_id":440,"player_count":0,"max_players":24,"Bots":0,"server_type":"Dedicated","server_os":"Linux","password":true,"vac":true,"version":"7882260","steam_id":85568392924367362,"keywords":["cp","nocrits","nodmgspread","uncletopia"],"game_id":440,"stv_port":27016,"stv_name":"Uncletopia | London | 1 | All Maps | STV","players":null},{"server_id":114,"name":"Uncletopia | London | 2 | All Maps","name_short":"lon-2","host":"lon-1.uk.uncletopia.com","port":27025,"enabled":true,"region":"eu","cc":"gb","latitude":51.509865,"longitude":-0.118092,"reserved":0,"last_update":"0001-01-01T00:00:00Z","name_a2s":"Uncletopia | London | 2 | All Maps","protocol":17,"map":"koth_cascade","folder":"tf","game":"Team Fortress","app_id":440,"player_count":0,"max_players":24,"Bots":0,"server_type":"Dedicated","server_os":"Linux","password":true,"vac":true,"version":"7882260","steam_id":85568392924470941,"keywords":["cp","nocrits","nodmgspread","uncletopia"],"game_id":440,"stv_port":27026,"stv_name":"Uncletopia | London | 2 | All Maps | STV","players":null},{"server_id":320,"name":"Uncletopia | London | 3 | All Maps","name_short":"lon-3","host":"lon-1.uk.uncletopia.com","port":27035,"enabled":true,"region":"eu","cc":"gb","latitude":51.509865,"longitude":-0.118092,"reserved":0,"last_update":"0001-01-01T00:00:00Z","name_a2s":"Uncletopia | London | 3 | All Maps","protocol":17,"map":"cp_mountainlab","folder":"tf","game":"Team Fortress","app_id":440,"player_count":0,"max_players":24,"Bots":0,"server_type":"Dedicated","server_os":"Linux","password":true,"vac":true,"version":"7882260","steam_id":85568392924510192,"keywords":["cp","nocrits","nodmgspread","uncletopia"],"game_id":440,"stv_port":27036,"stv_name":"Uncletopia | London | 3 | All Maps | STV","players":null},{"server_id":321,"name":"Uncletopia | London | 4 | All Maps","name_short":"lon-4","host":"lon-1.uk.uncletopia.com","port":27045,"enabled":true,"region":"eu","cc":"gb","latitude":51.509865,"longitude":-0.118092,"reserved":0,"last_update":"0001-01-01T00:00:00Z","name_a2s":"Uncletopia | London | 4 | All Maps","protocol":17,"map":"pl_goldrush","folder":"tf","game":"Team Fortress","app_id":440,"player_count":19,"max_players":24,"Bots":0,"server_type":"Dedicated","server_os":"Linux","password":true,"vac":true,"version":"7882260","steam_id":85568392924510193,"keywords":["nocrits","nodmgspread","payload","uncletopia"],"game_id":440,"stv_port":27046,"stv_name":"Uncletopia | London | 4 | All Maps | STV","players":[{"user_id":526,"name":"Corpus Christi","steam_id":76561198417999443,"connected_time":1399000000000,"state":"active","ping":106},{"user_id":522,"name":"✧ Ghosty ✧","steam_id":76561198312022168,"connected_time":2859000000000,"state":"active","ping":51},{"user_id":494,"name":"Controller Gaming","steam_id":76561198134805479,"connected_time":6093000000000,"state":"active","ping":46},{"user_id":512,"name":"wide appreciator","steam_id":76561198083286511,"connected_time":3875000000000,"state":"active","ping":35},{"user_id":527,"name":"C/LABA POCCNN","steam_id":76561198024346540,"connected_time":1377000000000,"state":"active","ping":132},{"user_id":542,"name":"FCT crash enjoyer","steam_id":76561198397898616,"connected_time":148000000000,"state":"active","ping":60},{"user_id":462,"name":"shits in urinals","steam_id":76561199480942903,"connected_time":8413000000000,"state":"active","ping":73},{"user_id":528,"name":"Бустер малышек","steam_id":76561198062334525,"connected_time":1237000000000,"state":"active","ping":89},{"user_id":529,"name":"Alice can't hit pipes","steam_id":76561198052410860,"connected_time":1207000000000,"state":"active","ping":148},{"user_id":534,"name":"Potato","steam_id":76561198115604238,"connected_time":1072000000000,"state":"active","ping":42},{"user_id":541,"name":"full power heart attack","steam_id":76561199196568965,"connected_time":509000000000,"state":"active","ping":82},{"user_id":477,"name":"♛perry the platypus♛","steam_id":76561199379159771,"connected_time":7592000000000,"state":"active","ping":136},{"user_id":504,"name":"zoinks!","steam_id":76561198068645362,"connected_time":4553000000000,"state":"active","ping":37},{"user_id":469,"name":"Melford","steam_id":76561198319650677,"connected_time":8087000000000,"state":"active","ping":145},{"user_id":520,"name":"pootis sentry","steam_id":76561199225363633,"connected_time":3071000000000,"state":"active","ping":60},{"user_id":537,"name":"Acbh","steam_id":76561198158271672,"connected_time":747000000000,"state":"active","ping":74},{"user_id":540,"name":"Salesman Doren","steam_id":76561198076098142,"connected_time":607000000000,"state":"active","ping":53},{"user_id":476,"name":"i n n o","steam_id":76561199230689289,"connected_time":7807000000000,"state":"active","ping":87},{"user_id":538,"name":"FrostB1TE","steam_id":76561199174775685,"connected_time":638000000000,"state":"active","ping":147}]},{"server_id":21,"name":"Uncletopia | London | 5 | All Maps","name_short":"lon-5","host":"lon-1.uk.uncletopia.com","port":27055,"enabled":true,"region":"eu","cc":"gb","latitude":51.509865,"longitude":-0.118092,"reserved":0,"last_update":"0001-01-01T00:00:00Z","name_a2s":"Uncletopia | London | 5 | All Maps","protocol":17,"map":"koth_lakeside_final","folder":"tf","game":"Team Fortress","app_id":440,"player_count":0,"max_players":24,"Bots":0,"server_type":"Dedicated","server_os":"Linux","password":true,"vac":true,"version":"7882260","steam_id":85568392924742829,"keywords":["cp","nocrits","nodmgspread","uncletopia"],"game_id":440,"stv_port":27056,"stv_name":"Uncletopia | London | 5 | All Maps | STV","players":null},{"server_id":22,"name":"Uncletopia | London | 6 | All Maps","name_short":"lon-6","host":"lon-1.uk.uncletopia.com","port":27065,"enabled":true,"region":"eu","cc":"gb","latitude":51.509865,"longitude":-0.118092,"reserved":0,"last_update":"0001-01-01T00:00:00Z","name_a2s":"Uncletopia | London | 6 | All Maps","protocol":17,"map":"koth_harvest_final","folder":"tf","game":"Team Fortress","app_id":440,"player_count":0,"max_players":24,"Bots":0,"server_type":"Dedicated","server_os":"Linux","password":true,"vac":true,"version":"7882260","steam_id":85568392924742830,"keywords":["cp","nocrits","nodmgspread","uncletopia"],"game_id":440,"stv_port":27066,"stv_name":"Uncletopia | London | 6 | All Maps | STV","players":null},{"server_id":40,"name":"Uncletopia | London | 7 | No Payload","name_short":"lon-7","host":"lon-1.uk.uncletopia.com","port":27075,"enabled":true,"region":"eu","cc":"gb","latitude":51.509865,"longitude":-0.118092,"reserved":0,"last_update":"0001-01-01T00:00:00Z","name_a2s":"Uncletopia | London | 7 | No Payload","protocol":17,"map":"koth_viaduct","folder":"tf","game":"Team Fortress","app_id":440,"player_count":0,"max_players":24,"Bots":0,"server_type":"Dedicated","server_os":"Linux","password":true,"vac":true,"version":"7882260","steam_id":85568392924964314,"keywords":["cp","nocrits","nodmgspread","uncletopia"],"game_id":440,"stv_port":27076,"stv_name":"Uncletopia | London | 7 | No Payload | STV","players":null},{"server_id":41,"name":"Uncletopia | London | 8 | Community","name_short":"lon-8","host":"lon-1.uk.uncletopia.com","port":27085,"enabled":true,"region":"eu","cc":"gb","latitude":51.509865,"longitude":-0.118092,"reserved":0,"last_update":"0001-01-01T00:00:00Z","name_a2s":"Uncletopia | London | 8 | Community","protocol":17,"map":"workshop/koth_kemptown_rc1.ugc767410655","folder":"tf","game":"Team Fortress","app_id":440,"player_count":0,"max_players":24,"Bots":0,"server_type":"Dedicated","server_os":"Linux","password":true,"vac":true,"version":"7882260","steam_id":85568392924964315,"keywords":["cp","nocrits","nodmgspread","uncletopia"],"game_id":440,"stv_port":27086,"stv_name":"Uncletopia | London | 8 | Community | STV","players":null},{"server_id":300,"name":"Uncletopia | Montréal | 1 | All Maps","name_short":"mtl-1","host":"mtl-1.ca.uncletopia.com","port":27015,"enabled":true,"region":"us-east","cc":"ca","latitude":45.50889,"longitude":-73.56167,"reserved":0,"last_update":"0001-01-01T00:00:00Z","name_a2s":"Uncletopia | Montréal | 1 | All Maps","protocol":17,"map":"cp_snakewater_final1","folder":"tf","game":"Team Fortress","app_id":440,"player_count":0,"max_players":24,"Bots":0,"server_type":"Dedicated","server_os":"Linux","password":true,"vac":true,"version":"7882260","steam_id":85568392924500087,"keywords":["cp","nocrits","nodmgspread","uncletopia"],"game_id":440,"stv_port":27016,"stv_name":"Uncletopia | Montréal | 1 | All Maps | STV","players":null},{"server_id":301,"name":"Uncletopia | Montréal | 2 | All Maps","name_short":"mtl-2","host":"mtl-1.ca.uncletopia.com","port":27025,"enabled":true,"region":"us-east","cc":"ca","latitude":45.50889,"longitude":-73.56167,"reserved":0,"last_update":"0001-01-01T00:00:00Z","name_a2s":"Uncletopia | Montréal | 2 | All Maps","protocol":17,"map":"ctf_2fort","folder":"tf","game":"Team Fortress","app_id":440,"player_count":1,"max_players":24,"Bots":0,"server_type":"Dedicated","server_os":"Linux","password":true,"vac":true,"version":"7882260","steam_id":85568392924500088,"keywords":["ctf","nocrits","nodmgspread","uncletopia"],"game_id":440,"stv_port":27026,"stv_name":"Uncletopia | Montréal | 2 | All Maps | STV","players":[{"user_id":262,"name":"odacovA","steam_id":76561199383345208,"connected_time":3000000000,"state":"spawning","ping":71}]},{"server_id":302,"name":"Uncletopia | Montréal | 3 | All Maps","name_short":"mtl-3","host":"mtl-1.ca.uncletopia.com","port":27035,"enabled":true,"region":"us-east","cc":"ca","latitude":45.50889,"longitude":-73.56167,"reserved":0,"last_update":"0001-01-01T00:00:00Z","name_a2s":"Uncletopia | Montréal | 3 | All Maps","protocol":17,"map":"pl_borneo","folder":"tf","game":"Team Fortress","app_id":440,"player_count":24,"max_players":24,"Bots":0,"server_type":"Dedicated","server_os":"Linux","password":true,"vac":true,"version":"7882260","steam_id":85568392924500089,"keywords":["nocrits","nodmgspread","payload","uncletopia"],"game_id":440,"stv_port":27036,"stv_name":"Uncletopia | Montréal | 3 | All Maps | STV","players":[{"user_id":80,"name":"cycoone","steam_id":76561198059745285,"connected_time":492000000000,"state":"active","ping":81},{"user_id":81,"name":"bench","steam_id":76561198055339968,"connected_time":465000000000,"state":"active","ping":55},{"user_id":82,"name":"Assitins","steam_id":76561198041572892,"connected_time":437000000000,"state":"active","ping":60},{"user_id":83,"name":"arrgh!","steam_id":76561197979531915,"connected_time":417000000000,"state":"active","ping":141},{"user_id":47,"name":"Heavy Main","steam_id":76561198333746778,"connected_time":3084000000000,"state":"active","ping":116},{"user_id":60,"name":"vorboyvo zoo","steam_id":76561198152690088,"connected_time":2009000000000,"state":"active","ping":52},{"user_id":75,"name":"Phillip Jeffries","steam_id":76561198064052174,"connected_time":593000000000,"state":"active","ping":62},{"user_id":21,"name":"RokkitFrog","steam_id":76561198046465850,"connected_time":5568000000000,"state":"active","ping":94},{"user_id":51,"name":"ARGON Soulidity","steam_id":76561198429603550,"connected_time":2313000000000,"state":"active","ping":70},{"user_id":71,"name":"Challenger Charles","steam_id":76561198005576553,"connected_time":943000000000,"state":"active","ping":57},{"user_id":27,"name":"beefmachine","steam_id":76561198001196512,"connected_time":4773000000000,"state":"active","ping":93},{"user_id":78,"name":"[S]Mr. X [No Monitor]","steam_id":76561197963746035,"connected_time":519000000000,"state":"active","ping":187},{"user_id":67,"name":"Pizza","steam_id":76561198118748364,"connected_time":1703000000000,"state":"active","ping":86},{"user_id":41,"name":"Dorothy Haze","steam_id":76561198113750223,"connected_time":3383000000000,"state":"active","ping":71},{"user_id":66,"name":"kree","steam_id":76561197979960008,"connected_time":1802000000000,"state":"active","ping":42},{"user_id":43,"name":"Mr_Stevie16","steam_id":76561198414959954,"connected_time":3358000000000,"state":"active","ping":142},{"user_id":91,"name":"griff928","steam_id":76561198149614679,"connected_time":230000000000,"state":"active","ping":76},{"user_id":92,"name":"quantumexistenc3","steam_id":76561199379634118,"connected_time":204000000000,"state":"active","ping":141},{"user_id":89,"name":"Wang of Wall St","steam_id":76561198047460598,"connected_time":314000000000,"state":"active","ping":69},{"user_id":88,"name":"Miner2495","steam_id":76561198445904523,"connected_time":331000000000,"state":"active","ping":62},{"user_id":90,"name":"Za Zombie","steam_id":76561198055545262,"connected_time":303000000000,"state":"active","ping":101},{"user_id":64,"name":"Winston","steam_id":76561198050204475,"connected_time":1909000000000,"state":"active","ping":76},{"user_id":65,"name":"Marshall","steam_id":76561198042570322,"connected_time":1904000000000,"state":"active","ping":88}]},{"server_id":303,"name":"Uncletopia | Montréal | 4 | No Payload","name_short":"mtl-4","host":"mtl-1.ca.uncletopia.com","port":27045,"enabled":true,"region":"us-east","cc":"ca","latitude":45.50889,"longitude":-73.56167,"reserved":0,"last_update":"0001-01-01T00:00:00Z","name_a2s":"Uncletopia | Montréal | 4 | No Payload","protocol":17,"map":"cp_altitude","folder":"tf","game":"Team Fortress","app_id":440,"player_count":0,"max_players":24,"Bots":0,"server_type":"Dedicated","server_os":"Linux","password":true,"vac":true,"version":"7882260","steam_id":85568392924500090,"keywords":["cp","nocrits","nodmgspread","uncletopia"],"game_id":440,"stv_port":27046,"stv_name":"Uncletopia | Montréal | 4 | No Payload | STV","players":null},{"server_id":13,"name":"Uncletopia | New York City | 1 | All Maps","name_short":"nyc-1","host":"nyc-1.us.uncletopia.com","port":27015,"enabled":true,"region":"us-east","cc":"us","latitude":40.73061,"longitude":-73.93524,"reserved":0,"last_update":"0001-01-01T00:00:00Z","name_a2s":"Uncletopia | New York City | 1 | All Maps","protocol":17,"map":"pl_borneo","folder":"tf","game":"Team Fortress","app_id":440,"player_count":23,"max_players":24,"Bots":0,"server_type":"Dedicated","server_os":"Linux","password":true,"vac":true,"version":"7882260","steam_id":85568392924469993,"keywords":["nocrits","nodmgspread","payload","uncletopia"],"game_id":440,"stv_port":27016,"stv_name":"Uncletopia | New York City | 1 | All Maps | STV","players":[{"user_id":391,"name":"agentdaffy007","steam_id":76561198000283251,"connected_time":3227000000000,"state":"active","ping":57},{"user_id":415,"name":"HeavenHearst","steam_id":76561198066083947,"connected_time":730000000000,"state":"active","ping":51},{"user_id":353,"name":"♡Alyx♡","steam_id":76561198024303978,"connected_time":6818000000000,"state":"active","ping":46},{"user_id":389,"name":"Glass Joe","steam_id":76561198317365741,"connected_time":3969000000000,"state":"active","ping":75},{"user_id":308,"name":"Wique","steam_id":76561198071217597,"connected_time":9358000000000,"state":"active","ping":72},{"user_id":416,"name":"crashymicsplody","steam_id":76561198213916765,"connected_time":704000000000,"state":"active","ping":88},{"user_id":421,"name":"healthy boundaries","steam_id":76561198025760608,"connected_time":56000000000,"state":"active","ping":47},{"user_id":420,"name":"Pango","steam_id":76561198069811545,"connected_time":82000000000,"state":"active","ping":61},{"user_id":380,"name":"Goat","steam_id":76561198068447650,"connected_time":4480000000000,"state":"active","ping":93},{"user_id":417,"name":"googy doogy","steam_id":76561199025852100,"connected_time":662000000000,"state":"active","ping":65},{"user_id":405,"name":"notpaul","steam_id":76561199122494395,"connected_time":1865000000000,"state":"active","ping":68},{"user_id":413,"name":"James","steam_id":76561198055687973,"connected_time":784000000000,"state":"active","ping":62},{"user_id":364,"name":"Battery Acid Slurper","steam_id":76561198439793697,"connected_time":5514000000000,"state":"active","ping":82},{"user_id":400,"name":"Centipede on a Game Boy","steam_id":76561199016285746,"connected_time":2678000000000,"state":"active","ping":94},{"user_id":422,"name":"Person","steam_id":76561198093244204,"connected_time":49000000000,"state":"active","ping":70},{"user_id":414,"name":"Model CHP-3Y","steam_id":76561198107806145,"connected_time":780000000000,"state":"active","ping":58},{"user_id":411,"name":"DoubleTee","steam_id":76561198018980347,"connected_time":1307000000000,"state":"active","ping":86},{"user_id":355,"name":"Crystron","steam_id":76561198880437428,"connected_time":6491000000000,"state":"active","ping":89},{"user_id":412,"name":"RA","steam_id":76561198066700048,"connected_time":1047000000000,"state":"active","ping":70},{"user_id":408,"name":"2L84U","steam_id":76561198079176017,"connected_time":1766000000000,"state":"active","ping":94},{"user_id":409,"name":"NewerCoke","steam_id":76561198042911847,"connected_time":1751000000000,"state":"active","ping":70},{"user_id":410,"name":"｡◕‿◕｡","steam_id":76561198294013916,"connected_time":1386000000000,"state":"active","ping":45},{"user_id":386,"name":"Mage","steam_id":76561198285026879,"connected_time":4396000000000,"state":"active","ping":61}]},{"server_id":14,"name":"Uncletopia | New York City | 2 | All Maps","name_short":"nyc-2","host":"nyc-1.us.uncletopia.com","port":27025,"enabled":true,"region":"us-east","cc":"us","latitude":40.73061,"longitude":-73.93524,"reserved":0,"last_update":"0001-01-01T00:00:00Z","name_a2s":"Uncletopia | New York City | 2 | All Maps","protocol":17,"map":"cp_dustbowl","folder":"tf","game":"Team Fortress","app_id":440,"player_count":21,"max_players":24,"Bots":0,"server_type":"Dedicated","server_os":"Linux","password":true,"vac":true,"version":"7882260","steam_id":85568392924469994,"keywords":["cp","nocrits","nodmgspread","uncletopia"],"game_id":440,"stv_port":27026,"stv_name":"Uncletopia | New York City | 2 | All Maps | STV","players":[{"user_id":262,"name":"The Poop Dealer","steam_id":76561198141198352,"connected_time":2550000000000,"state":"active","ping":60},{"user_id":296,"name":"Fallen_Scholar","steam_id":76561198055468709,"connected_time":198000000000,"state":"active","ping":146},{"user_id":297,"name":"Questking1","steam_id":76561198328107634,"connected_time":184000000000,"state":"active","ping":80},{"user_id":266,"name":"VexT","steam_id":76561199471734115,"connected_time":2310000000000,"state":"active","ping":98},{"user_id":280,"name":"Peepster","steam_id":76561198297854733,"connected_time":1739000000000,"state":"active","ping":83},{"user_id":294,"name":"Pocket Medic Girlfriend","steam_id":76561198378587138,"connected_time":247000000000,"state":"active","ping":108},{"user_id":281,"name":"veryscaryreaper","steam_id":76561198380018244,"connected_time":1731000000000,"state":"active","ping":91},{"user_id":292,"name":"Periculosum PhD in Funny","steam_id":76561198123370914,"connected_time":968000000000,"state":"active","ping":87},{"user_id":298,"name":"coms","steam_id":76561198359456881,"connected_time":182000000000,"state":"active","ping":62},{"user_id":283,"name":"Fuzion of Flames","steam_id":76561198954533678,"connected_time":1686000000000,"state":"active","ping":126},{"user_id":284,"name":"king dedede","steam_id":76561198965562679,"connected_time":1633000000000,"state":"active","ping":71},{"user_id":278,"name":"Chechens Spotted","steam_id":76561199028910893,"connected_time":1914000000000,"state":"active","ping":68},{"user_id":299,"name":"Dunce","steam_id":76561198421107500,"connected_time":174000000000,"state":"active","ping":61},{"user_id":261,"name":"Rivi","steam_id":76561198086635699,"connected_time":2671000000000,"state":"active","ping":80},{"user_id":300,"name":"Mrs.Frizzle","steam_id":76561198117157085,"connected_time":173000000000,"state":"active","ping":58},{"user_id":291,"name":"Polly Geist","steam_id":76561198271964253,"connected_time":1271000000000,"state":"active","ping":97},{"user_id":256,"name":"Smooth - Santana ft. Rob Thomas","steam_id":76561198145283389,"connected_time":2978000000000,"state":"active","ping":55},{"user_id":290,"name":"LWebb","steam_id":76561199162936929,"connected_time":1283000000000,"state":"active","ping":123},{"user_id":301,"name":"n99k","steam_id":76561198203732449,"connected_time":162000000000,"state":"active","ping":75},{"user_id":273,"name":"BakerTheDavid","steam_id":76561198801177078,"connected_time":2172000000000,"state":"active","ping":100},{"user_id":302,"name":"Chaos_Sorcery","steam_id":76561198146777194,"connected_time":159000000000,"state":"active","ping":66}]},{"server_id":15,"name":"Uncletopia | New York City | 3 | Stopwatch Beta","name_short":"nyc-3","host":"nyc-1.us.uncletopia.com","port":27035,"enabled":true,"region":"us-east","cc":"us","latitude":40.73061,"longitude":-73.93524,"reserved":0,"last_update":"0001-01-01T00:00:00Z","name_a2s":"Uncletopia | New York City | 3 | Stopwatch Beta","protocol":17,"map":"workshop/cp_reckoner_rc6.ugc674719999","folder":"tf","game":"Team Fortress","app_id":440,"player_count":0,"max_players":24,"Bots":0,"server_type":"Dedicated","server_os":"Linux","password":true,"vac":true,"version":"7882260","steam_id":85568392924742820,"keywords":["cp","nocrits","nodmgspread","uncletopia"],"game_id":440,"stv_port":27036,"stv_name":"Uncletopia | New York City | 3 | Stopwatch Beta | STV","players":null},{"server_id":16,"name":"Uncletopia | New York City | 4 | Community","name_short":"nyc-4","host":"nyc-1.us.uncletopia.com","port":27045,"enabled":true,"region":"us-east","cc":"us","latitude":40.73061,"longitude":-73.93524,"reserved":0,"last_update":"0001-01-01T00:00:00Z","name_a2s":"Uncletopia | New York City | 4 | Community","protocol":17,"map":"workshop/koth_slaughter_rc1.ugc1712845210","folder":"tf","game":"Team Fortress","app_id":440,"player_count":0,"max_players":24,"Bots":0,"server_type":"Dedicated","server_os":"Linux","password":true,"vac":true,"version":"7882260","steam_id":85568392924742821,"keywords":["cp","nocrits","nodmgspread","uncletopia"],"game_id":440,"stv_port":27046,"stv_name":"Uncletopia | New York City | 4 | Community | STV","players":null},{"server_id":142,"name":"Uncletopia | São Paulo | 1 | All Maps","name_short":"sao-1","host":"sao-1.br.uncletopia.com","port":27015,"enabled":true,"region":"sa","cc":"br","latitude":-23.533773,"longitude":-46.62529,"reserved":0,"last_update":"0001-01-01T00:00:00Z","name_a2s":"Uncletopia | São Paulo | 1 | All Maps","protocol":17,"map":"koth_viaduct","folder":"tf","game":"Team Fortress","app_id":440,"player_count":0,"max_players":24,"Bots":0,"server_type":"Dedicated","server_os":"Linux","password":true,"vac":true,"version":"7882260","steam_id":85568392924469996,"keywords":["cp","nocrits","nodmgspread","uncletopia"],"game_id":440,"stv_port":27016,"stv_name":"Uncletopia | São Paulo | 1 | All Maps | STV","players":null},{"server_id":143,"name":"Uncletopia | São Paulo | 2 | All Maps","name_short":"sao-2","host":"sao-2.br.uncletopia.com","port":27015,"enabled":true,"region":"sa","cc":"br","latitude":-23.533773,"longitude":-46.62529,"reserved":0,"last_update":"0001-01-01T00:00:00Z","name_a2s":"Uncletopia | São Paulo | 2 | All Maps","protocol":17,"map":"koth_highpass","folder":"tf","game":"Team Fortress","app_id":440,"player_count":0,"max_players":24,"Bots":0,"server_type":"Dedicated","server_os":"Linux","password":true,"vac":true,"version":"7882260","steam_id":85568392924485349,"keywords":["cp","nocrits","nodmgspread","uncletopia"],"game_id":440,"stv_port":27016,"stv_name":"Uncletopia | São Paulo | 2 | All Maps | STV","players":null},{"server_id":7,"name":"Uncletopia | Seattle | 1 | All Maps","name_short":"sea-1","host":"sea-1.us.uncletopia.com","port":27015,"enabled":true,"region":"us-west","cc":"us","latitude":47.608013,"longitude":-122.33517,"reserved":0,"last_update":"0001-01-01T00:00:00Z","name_a2s":"Uncletopia | Seattle | 1 | All Maps","protocol":17,"map":"pl_swiftwater_final1","folder":"tf","game":"Team Fortress","app_id":440,"player_count":23,"max_players":24,"Bots":0,"server_type":"Dedicated","server_os":"Linux","password":true,"vac":true,"version":"7882260","steam_id":85568392924469997,"keywords":["nocrits","nodmgspread","payload","uncletopia"],"game_id":440,"stv_port":27016,"stv_name":"Uncletopia | Seattle | 1 | All Maps | STV","players":[{"user_id":587,"name":"SvicidalBug","steam_id":76561198221390504,"connected_time":2559000000000,"state":"active","ping":65},{"user_id":611,"name":"lokm","steam_id":76561198030374238,"connected_time":365000000000,"state":"active","ping":83},{"user_id":586,"name":"toes","steam_id":76561198221151676,"connected_time":2673000000000,"state":"active","ping":58},{"user_id":615,"name":"Gaming","steam_id":76561198327632113,"connected_time":255000000000,"state":"active","ping":45},{"user_id":581,"name":"Yack Skag","steam_id":76561198068251493,"connected_time":3088000000000,"state":"active","ping":64},{"user_id":618,"name":"roryisonamobilehotspot","steam_id":76561198065825165,"connected_time":165000000000,"state":"active","ping":106},{"user_id":578,"name":"tweakseason","steam_id":76561198169755734,"connected_time":3163000000000,"state":"active","ping":71},{"user_id":577,"name":"Ducks","steam_id":76561198130038345,"connected_time":3442000000000,"state":"active","ping":65},{"user_id":585,"name":"Tungsten","steam_id":76561198312854342,"connected_time":3020000000000,"state":"active","ping":61},{"user_id":497,"name":"Strikerbolt","steam_id":76561199095622897,"connected_time":11817000000000,"state":"active","ping":80},{"user_id":593,"name":"Bendidy","steam_id":76561198041964300,"connected_time":1385000000000,"state":"active","ping":75},{"user_id":529,"name":"HiFivr","steam_id":76561198285190162,"connected_time":8169000000000,"state":"active","ping":72},{"user_id":601,"name":"WACKY JIM","steam_id":76561198961641122,"connected_time":729000000000,"state":"active","ping":60},{"user_id":514,"name":"PopcornBucketGames","steam_id":76561199089562026,"connected_time":9864000000000,"state":"active","ping":60},{"user_id":571,"name":"gorlab","steam_id":76561198025089694,"connected_time":4500000000000,"state":"active","ping":61},{"user_id":620,"name":"Putin","steam_id":76561198973925241,"connected_time":25000000000,"state":"active","ping":61},{"user_id":579,"name":"Hassium","steam_id":76561198162541373,"connected_time":3111000000000,"state":"active","ping":57},{"user_id":595,"name":"Florist","steam_id":76561198009121060,"connected_time":1364000000000,"state":"active","ping":45},{"user_id":617,"name":"oil","steam_id":76561198099980149,"connected_time":197000000000,"state":"active","ping":83},{"user_id":589,"name":"Haydob13","steam_id":76561198110378191,"connected_time":2436000000000,"state":"active","ping":53},{"user_id":580,"name":"Peppy","steam_id":76561198866629645,"connected_time":3111000000000,"state":"active","ping":59},{"user_id":597,"name":"NEBULA","steam_id":76561198086878595,"connected_time":1363000000000,"state":"active","ping":75},{"user_id":608,"name":"5392vin","steam_id":76561198880493511,"connected_time":453000000000,"state":"active","ping":63}]},{"server_id":119,"name":"Uncletopia | Seattle | 2 | All Maps","name_short":"sea-2","host":"sea-1.us.uncletopia.com","port":27025,"enabled":true,"region":"us-west","cc":"us","latitude":47.608013,"longitude":-122.33517,"reserved":0,"last_update":"0001-01-01T00:00:00Z","name_a2s":"Uncletopia | Seattle | 2 | All Maps","protocol":17,"map":"pl_frontier_final","folder":"tf","game":"Team Fortress","app_id":440,"player_count":23,"max_players":24,"Bots":0,"server_type":"Dedicated","server_os":"Linux","password":true,"vac":true,"version":"7882260","steam_id":85568392924469998,"keywords":["nocrits","nodmgspread","payload","uncletopia"],"game_id":440,"stv_port":27026,"stv_name":"Uncletopia | Seattle | 2 | All Maps | STV","players":[{"user_id":523,"name":"wmjledger","steam_id":76561198443046861,"connected_time":2803000000000,"state":"active","ping":58},{"user_id":525,"name":"Blitzy","steam_id":76561198149472890,"connected_time":2582000000000,"state":"active","ping":59},{"user_id":569,"name":"ROGUE-PLANET","steam_id":76561198116023052,"connected_time":315000000000,"state":"active","ping":75},{"user_id":524,"name":"posting fail","steam_id":76561198066619792,"connected_time":2607000000000,"state":"active","ping":75},{"user_id":498,"name":"Jacobzeba01","steam_id":76561198131808718,"connected_time":4718000000000,"state":"active","ping":62},{"user_id":563,"name":"Thanks Ants","steam_id":76561197966221018,"connected_time":908000000000,"state":"active","ping":53},{"user_id":558,"name":"gloobern","steam_id":76561198341190679,"connected_time":1309000000000,"state":"active","ping":61},{"user_id":578,"name":"Fuzzy Joe","steam_id":76561198427333656,"connected_time":107000000000,"state":"active","ping":105},{"user_id":546,"name":"Tibetan Pop Star","steam_id":76561198844903984,"connected_time":1901000000000,"state":"active","ping":82},{"user_id":564,"name":"Lentil Soup","steam_id":76561198051834684,"connected_time":613000000000,"state":"active","ping":61},{"user_id":565,"name":"The King of Piss World","steam_id":76561198082806956,"connected_time":339000000000,"state":"active","ping":109},{"user_id":560,"name":"'round midnight ✿","steam_id":76561198113241020,"connected_time":1169000000000,"state":"active","ping":123},{"user_id":547,"name":"BlazedBunny","steam_id":76561198243610560,"connected_time":1791000000000,"state":"active","ping":72},{"user_id":573,"name":"Zenire","steam_id":76561199087298510,"connected_time":289000000000,"state":"active","ping":59},{"user_id":570,"name":"Keamy","steam_id":76561199471434875,"connected_time":315000000000,"state":"active","ping":43},{"user_id":574,"name":"kat","steam_id":76561198121070295,"connected_time":287000000000,"state":"active","ping":182},{"user_id":567,"name":"General Fisticuffs","steam_id":76561198255721392,"connected_time":326000000000,"state":"active","ping":116},{"user_id":530,"name":"level 7 firemancer","steam_id":76561198209571677,"connected_time":2495000000000,"state":"active","ping":120},{"user_id":577,"name":"ryghehn","steam_id":76561198195359229,"connected_time":182000000000,"state":"active","ping":38},{"user_id":576,"name":"autumnal.messenger","steam_id":76561199345816635,"connected_time":204000000000,"state":"active","ping":55},{"user_id":554,"name":"Worst Scenario","steam_id":76561199052130229,"connected_time":1616000000000,"state":"active","ping":116},{"user_id":571,"name":"Nahvee","steam_id":76561198119759695,"connected_time":314000000000,"state":"active","ping":75},{"user_id":493,"name":"dougrocks421","steam_id":76561198165063918,"connected_time":5726000000000,"state":"active","ping":40}]},{"server_id":406,"name":"Uncletopia | Seattle | 3 | Stopwatch Beta","name_short":"sea-3","host":"sea-1.us.uncletopia.com","port":27035,"enabled":true,"region":"us-west","cc":"us","latitude":47.608013,"longitude":-122.33517,"reserved":0,"last_update":"0001-01-01T00:00:00Z","name_a2s":"Uncletopia | Seattle | 3 | Stopwatch Beta","protocol":17,"map":"koth_lakeside_final","folder":"tf","game":"Team Fortress","app_id":440,"player_count":7,"max_players":24,"Bots":0,"server_type":"Dedicated","server_os":"Linux","password":true,"vac":true,"version":"7882260","steam_id":85568392924515217,"keywords":["cp","nocrits","nodmgspread","uncletopia"],"game_id":440,"stv_port":27036,"stv_name":"Uncletopia | Seattle | 3 | Stopwatch Beta | STV","players":[{"user_id":47,"name":"EforEstrogen","steam_id":76561198086787295,"connected_time":1237000000000,"state":"active","ping":54},{"user_id":54,"name":"HawkBlaze","steam_id":76561199000152914,"connected_time":106000000000,"state":"active","ping":69},{"user_id":50,"name":"Pie Eater 9000","steam_id":76561198003791564,"connected_time":551000000000,"state":"active","ping":88},{"user_id":42,"name":"johnman gooberguy","steam_id":76561199014859764,"connected_time":1976000000000,"state":"active","ping":85},{"user_id":55,"name":"Campynuts","steam_id":76561198211851251,"connected_time":78000000000,"state":"active","ping":55},{"user_id":56,"name":"The Captain","steam_id":76561198875799250,"connected_time":25000000000,"state":"active","ping":44},{"user_id":53,"name":"Stinkus","steam_id":76561198058103211,"connected_time":127000000000,"state":"active","ping":57}]},{"server_id":17,"name":"Uncletopia | San Francisco | 1 | All Maps","name_short":"sfo-1","host":"sfo-1.us.uncletopia.com","port":27015,"enabled":true,"region":"us-west","cc":"us","latitude":37.77397,"longitude":-122.4313,"reserved":0,"last_update":"0001-01-01T00:00:00Z","name_a2s":"Uncletopia | San Francisco | 1 | All Maps","protocol":17,"map":"cp_process_final","folder":"tf","game":"Team Fortress","app_id":440,"player_count":0,"max_players":24,"Bots":0,"server_type":"Dedicated","server_os":"Linux","password":true,"vac":true,"version":"7757534","steam_id":85568392924469999,"keywords":["cp","nocrits","nodmgspread","uncletopia"],"game_id":440,"stv_port":27016,"stv_name":"Uncletopia | San Francisco | 1 | All Maps | STV","players":null},{"server_id":18,"name":"Uncletopia | San Francisco | 2 | All Maps","name_short":"sfo-2","host":"sfo-1.us.uncletopia.com","port":27025,"enabled":true,"region":"us-west","cc":"us","latitude":37.77397,"longitude":-122.4313,"reserved":0,"last_update":"0001-01-01T00:00:00Z","name_a2s":"Uncletopia | San Francisco | 2 | All Maps","protocol":17,"map":"koth_highpass","folder":"tf","game":"Team Fortress","app_id":440,"player_count":0,"max_players":24,"Bots":0,"server_type":"Dedicated","server_os":"Linux","password":true,"vac":true,"version":"7757534","steam_id":85568392924470000,"keywords":["cp","nocrits","nodmgspread","uncletopia"],"game_id":440,"stv_port":27026,"stv_name":"Uncletopia | San Francisco | 2 | All Maps | STV","players":null},{"server_id":19,"name":"Uncletopia | San Francisco | 3 | Stopwatch Beta","name_short":"sfo-3","host":"sfo-1.us.uncletopia.com","port":27035,"enabled":true,"region":"us-west","cc":"us","latitude":37.77397,"longitude":-122.4313,"reserved":0,"last_update":"0001-01-01T00:00:00Z","name_a2s":"Uncletopia | San Francisco | 3 | Stopwatch Beta","protocol":17,"map":"koth_lakeside_final","folder":"tf","game":"Team Fortress","app_id":440,"player_count":0,"max_players":24,"Bots":0,"server_type":"Dedicated","server_os":"Linux","password":true,"vac":true,"version":"7757534","steam_id":85568392924742824,"keywords":["cp","nocrits","nodmgspread","uncletopia"],"game_id":440,"stv_port":27036,"stv_name":"Uncletopia | San Francisco | 3 | Stopwatch Beta | STV","players":null},{"server_id":20,"name":"Uncletopia | San Francisco | 4 | Community","name_short":"sfo-4","host":"sfo-1.us.uncletopia.com","port":27045,"enabled":true,"region":"us-west","cc":"us","latitude":37.77397,"longitude":-122.4313,"reserved":0,"last_update":"0001-01-01T00:00:00Z","name_a2s":"Uncletopia | San Francisco | 4 | Community","protocol":17,"map":"cp_altitude","folder":"tf","game":"Team Fortress","app_id":440,"player_count":0,"max_players":24,"Bots":0,"server_type":"Dedicated","server_os":"Linux","password":true,"vac":true,"version":"7757534","steam_id":85568392924742826,"keywords":["cp","nocrits","nodmgspread","uncletopia"],"game_id":440,"stv_port":27046,"stv_name":"Uncletopia | San Francisco | 4 | Community | STV","players":null},{"server_id":141,"name":"Uncletopia | Sydney | 1 | All Maps","name_short":"syd-1","host":"syd-1.au.uncletopia.com","port":27015,"enabled":true,"region":"au","cc":"au","latitude":-33.865143,"longitude":151.2099,"reserved":0,"last_update":"0001-01-01T00:00:00Z","name_a2s":"Uncletopia | Sydney | 1 | All Maps","protocol":17,"map":"koth_lakeside_final","folder":"tf","game":"Team Fortress","app_id":440,"player_count":21,"max_players":24,"Bots":0,"server_type":"Dedicated","server_os":"Linux","password":true,"vac":true,"version":"7882260","steam_id":85568392924470001,"keywords":["cp","nocrits","nodmgspread","uncletopia"],"game_id":440,"stv_port":27016,"stv_name":"Uncletopia | Sydney | 1 | All Maps | STV","players":[{"user_id":62,"name":"the presence","steam_id":76561198025099660,"connected_time":5217000000000,"state":"active","ping":60},{"user_id":110,"name":"AmethystDragon10","steam_id":76561198412979983,"connected_time":930000000000,"state":"active","ping":73},{"user_id":113,"name":"alqwnq","steam_id":76561198133867907,"connected_time":901000000000,"state":"active","ping":69},{"user_id":120,"name":"miyamoto is daddy","steam_id":76561199483818230,"connected_time":39000000000,"state":"spawning","ping":67},{"user_id":114,"name":"worlds best gamer","steam_id":76561197995164363,"connected_time":897000000000,"state":"active","ping":76},{"user_id":106,"name":"yabby hunter","steam_id":76561198838208913,"connected_time":1341000000000,"state":"active","ping":69},{"user_id":119,"name":"send me ur Gerrards","steam_id":76561198301282416,"connected_time":199000000000,"state":"spawning","ping":58},{"user_id":82,"name":"Yeat","steam_id":76561198202555552,"connected_time":3101000000000,"state":"active","ping":28},{"user_id":101,"name":"TheNeutrality","steam_id":76561199017954062,"connected_time":1777000000000,"state":"spawning","ping":151},{"user_id":92,"name":"Rashid Of The Dank Memes","steam_id":76561198281398078,"connected_time":2415000000000,"state":"spawning","ping":64},{"user_id":86,"name":"sav","steam_id":76561198058760041,"connected_time":2795000000000,"state":"active","ping":86},{"user_id":115,"name":"TKGX","steam_id":76561198019428850,"connected_time":816000000000,"state":"active","ping":37},{"user_id":87,"name":"Pann","steam_id":76561198242391410,"connected_time":2762000000000,"state":"active","ping":71},{"user_id":111,"name":"Dupiter","steam_id":76561198108820767,"connected_time":928000000000,"state":"active","ping":151},{"user_id":99,"name":"RAINY BIG BRAINY","steam_id":76561198009848533,"connected_time":1960000000000,"state":"active","ping":67},{"user_id":102,"name":"Zort","steam_id":76561198056414289,"connected_time":1652000000000,"state":"active","ping":66},{"user_id":118,"name":"Mooty","steam_id":76561198301293435,"connected_time":537000000000,"state":"active","ping":60},{"user_id":84,"name":"Shadow Puppeteer","steam_id":76561198151121997,"connected_time":3090000000000,"state":"active","ping":424},{"user_id":95,"name":"jim :)","steam_id":76561198127508905,"connected_time":2250000000000,"state":"active","ping":46},{"user_id":103,"name":"Motormouth","steam_id":76561197980851839,"connected_time":1632000000000,"state":"spawning","ping":77},{"user_id":97,"name":"tism","steam_id":76561197993246009,"connected_time":2221000000000,"state":"active","ping":70}]},{"server_id":123,"name":"Uncletopia | Sydney | 2 | All Maps","name_short":"syd-2","host":"syd-1.au.uncletopia.com","port":27025,"enabled":true,"region":"au","cc":"au","latitude":-33.865143,"longitude":151.2099,"reserved":0,"last_update":"0001-01-01T00:00:00Z","name_a2s":"Uncletopia | Sydney | 2 | All Maps","protocol":17,"map":"koth_viaduct","folder":"tf","game":"Team Fortress","app_id":440,"player_count":1,"max_players":24,"Bots":0,"server_type":"Dedicated","server_os":"Linux","password":true,"vac":true,"version":"7882260","steam_id":85568392924470002,"keywords":["cp","nocrits","nodmgspread","uncletopia"],"game_id":440,"stv_port":27026,"stv_name":"Uncletopia | Sydney | 2 | All Maps | STV","players":[{"user_id":9,"name":"CEO of Sex","steam_id":76561199083971136,"connected_time":100000000000,"state":"active","ping":73}]},{"server_id":395,"name":"Uncletopia | Sydney | 3 | All Maps","name_short":"syd-3","host":"syd-1.au.uncletopia.com","port":27035,"enabled":true,"region":"au","cc":"au","latitude":-33.865143,"longitude":151.2099,"reserved":0,"last_update":"0001-01-01T00:00:00Z","name_a2s":"Uncletopia | Sydney | 3 | All Maps","protocol":17,"map":"pl_badwater","folder":"tf","game":"Team Fortress","app_id":440,"player_count":0,"max_players":24,"Bots":0,"server_type":"Dedicated","server_os":"Linux","password":true,"vac":true,"version":"7882260","steam_id":85568392925194467,"keywords":["nocrits","nodmgspread","payload","uncletopia"],"game_id":440,"stv_port":27036,"stv_name":"Uncletopia | Sydney | 3 | All Maps | STV","players":null},{"server_id":396,"name":"Uncletopia | Sydney | 4 | All Maps","name_short":"syd-4","host":"syd-1.au.uncletopia.com","port":27045,"enabled":true,"region":"au","cc":"au","latitude":-33.865143,"longitude":151.2099,"reserved":0,"last_update":"0001-01-01T00:00:00Z","name_a2s":"Uncletopia | Sydney | 4 | All Maps","protocol":17,"map":"koth_cascade","folder":"tf","game":"Team Fortress","app_id":440,"player_count":0,"max_players":24,"Bots":0,"server_type":"Dedicated","server_os":"Linux","password":true,"vac":true,"version":"7882260","steam_id":85568392925397958,"keywords":["cp","nocrits","nodmgspread","uncletopia"],"game_id":440,"stv_port":27046,"stv_name":"Uncletopia | Sydney | 4 | All Maps | STV","players":null},{"server_id":58,"name":"Uncletopia | Sydney | 5 | Stopwatch Beta","name_short":"syd-5","host":"syd-1.au.uncletopia.com","port":27055,"enabled":true,"region":"au","cc":"au","latitude":-33.865143,"longitude":151.2099,"reserved":0,"last_update":"0001-01-01T00:00:00Z","name_a2s":"Uncletopia | Sydney | 5 | Stopwatch Beta","protocol":17,"map":"cp_snakewater_final1","folder":"tf","game":"Team Fortress","app_id":440,"player_count":0,"max_players":24,"Bots":0,"server_type":"Dedicated","server_os":"Linux","password":true,"vac":true,"version":"7882260","steam_id":85568392925397959,"keywords":["cp","nocrits","nodmgspread","uncletopia"],"game_id":440,"stv_port":27056,"stv_name":"Uncletopia | Sydney | 5 | Stopwatch Beta | STV","players":null},{"server_id":59,"name":"Uncletopia | Sydney | 6 | Community","name_short":"syd-6","host":"syd-1.au.uncletopia.com","port":27065,"enabled":true,"region":"au","cc":"au","latitude":-33.865143,"longitude":151.2099,"reserved":0,"last_update":"0001-01-01T00:00:00Z","name_a2s":"Uncletopia | Sydney | 6 | Community","protocol":17,"map":"workshop/koth_ramjam_rc1.ugc459778887","folder":"tf","game":"Team Fortress","app_id":440,"player_count":0,"max_players":24,"Bots":0,"server_type":"Dedicated","server_os":"Linux","password":true,"vac":true,"version":"7882260","steam_id":85568392925397960,"keywords":["cp","nocrits","nodmgspread","uncletopia"],"game_id":440,"stv_port":27066,"stv_name":"Uncletopia | Sydney | 6 | Community | STV","players":null},{"server_id":49,"name":"Uncletopia | Warsaw | 1 | All Maps","name_short":"waw-1","host":"waw-1.pl.uncletopia.com","port":27015,"enabled":true,"region":"eu","cc":"pl","latitude":52.2297,"longitude":21.017532,"reserved":0,"last_update":"0001-01-01T00:00:00Z","name_a2s":"","protocol":0,"map":"","folder":"","game":"","app_id":0,"player_count":0,"max_players":0,"Bots":0,"server_type":"","server_os":"","password":false,"vac":false,"version":"","steam_id":0,"keywords":null,"game_id":0,"stv_port":0,"stv_name":"","players":null},{"server_id":50,"name":"Uncletopia | Warsaw | 2 | All Maps","name_short":"waw-2","host":"waw-1.pl.uncletopia.com","port":27025,"enabled":true,"region":"eu","cc":"pl","latitude":52.2297,"longitude":21.017532,"reserved":0,"last_update":"0001-01-01T00:00:00Z","name_a2s":"Uncletopia | Warsaw | 2 | All Maps","protocol":17,"map":"cp_snakewater_final1","folder":"tf","game":"Team Fortress","app_id":440,"player_count":0,"max_players":24,"Bots":0,"server_type":"Dedicated","server_os":"Linux","password":true,"vac":true,"version":"7882260","steam_id":85568392925397851,"keywords":["cp","nocrits","nodmgspread","uncletopia"],"game_id":440,"stv_port":27026,"stv_name":"Uncletopia | Warsaw | 2 | All Maps | STV","players":null},{"server_id":51,"name":"Uncletopia | Warsaw | 3 | All Maps","name_short":"waw-3","host":"waw-1.pl.uncletopia.com","port":27035,"enabled":true,"region":"eu","cc":"pl","latitude":52.2297,"longitude":21.017532,"reserved":0,"last_update":"0001-01-01T00:00:00Z","name_a2s":"Uncletopia | Warsaw | 3 | All Maps","protocol":17,"map":"koth_lakeside_final","folder":"tf","game":"Team Fortress","app_id":440,"player_count":0,"max_players":24,"Bots":0,"server_type":"Dedicated","server_os":"Linux","password":true,"vac":true,"version":"7882260","steam_id":85568392925397852,"keywords":["cp","nocrits","nodmgspread","uncletopia"],"game_id":440,"stv_port":27036,"stv_name":"Uncletopia | Warsaw | 3 | All Maps | STV","players":null},{"server_id":52,"name":"Uncletopia | Warsaw | 4 | All Maps","name_short":"waw-4","host":"waw-1.pl.uncletopia.com","port":27045,"enabled":true,"region":"eu","cc":"pl","latitude":52.2297,"longitude":21.017532,"reserved":0,"last_update":"0001-01-01T00:00:00Z","name_a2s":"Uncletopia | Warsaw | 4 | All Maps","protocol":17,"map":"koth_highpass","folder":"tf","game":"Team Fortress","app_id":440,"player_count":0,"max_players":24,"Bots":0,"server_type":"Dedicated","server_os":"Linux","password":true,"vac":true,"version":"7882260","steam_id":85568392925397853,"keywords":["cp","nocrits","nodmgspread","uncletopia"],"game_id":440,"stv_port":27046,"stv_name":"Uncletopia | Warsaw | 4 | All Maps | STV","players":null},{"server_id":53,"name":"Uncletopia | Warsaw | 5 | Stopwatch Beta","name_short":"waw-5","host":"waw-1.pl.uncletopia.com","port":27055,"enabled":true,"region":"eu","cc":"pl","latitude":52.2297,"longitude":21.017532,"reserved":0,"last_update":"0001-01-01T00:00:00Z","name_a2s":"Uncletopia | Warsaw | 5 | Stopwatch Beta","protocol":17,"map":"cp_mountainlab","folder":"tf","game":"Team Fortress","app_id":440,"player_count":0,"max_players":24,"Bots":0,"server_type":"Dedicated","server_os":"Linux","password":true,"vac":true,"version":"7882260","steam_id":85568392925397854,"keywords":["cp","nocrits","nodmgspread","uncletopia"],"game_id":440,"stv_port":27056,"stv_name":"Uncletopia | Warsaw | 5 | Stopwatch Beta | STV","players":null},{"server_id":54,"name":"Uncletopia | Warsaw | 6 | Community","name_short":"waw-6","host":"waw-1.pl.uncletopia.com","port":27065,"enabled":true,"region":"eu","cc":"pl","latitude":52.2297,"longitude":21.017532,"reserved":0,"last_update":"0001-01-01T00:00:00Z","name_a2s":"Uncletopia | Warsaw | 6 | Community","protocol":17,"map":"workshop/cp_villa_b19.ugc2113052569","folder":"tf","game":"Team Fortress","app_id":440,"player_count":0,"max_players":24,"Bots":0,"server_type":"Dedicated","server_os":"Linux","password":true,"vac":true,"version":"7882260","steam_id":85568392925397856,"keywords":["cp","nocrits","nodmgspread","uncletopia"],"game_id":440,"stv_port":27066,"stv_name":"Uncletopia | Warsaw | 6 | Community | STV","players":null}]}