{"status":true,"message":"","result":[{"server_id":9,"name":"Uncletopia | Atlanta | 1 | All Maps","name_short":"atl-1","host":"atl-1.us.uncletopia.com","port":27015,"enabled":true,"region":"us-east","cc":"us","latitude":33.753746,"longitude":-84.38633,"reserved":0,"last_update":"0001-01-01T00:00:00Z","name_a2s":"Uncletopia | Atlanta | 1 | All Maps","protocol":17,"map":"koth_viaduct","folder":"tf","game":"Team Fortress","app_id":440,"player_count":24,"max_players":24,"Bots":0,"server_type":"Dedicated","server_os":"Linux","password":true,"vac":true,"version":"7757534","steam_id":85568392924469982,"keywords":["cp","nocrits","nodmgspread","uncletopia"],"game_id":440,"stv_port":27016,"stv_name":"Uncletopia | Atlanta | 1 | All Maps | STV","players":[{"user_id":153,"name":"Eden","steam_id":76561198075587475,"connected_time":5135000000000,"state":"active","ping":57},{"user_id":103,"name":"cow farmer","steam_id":76561198249206656,"connected_time":8978000000000,"state":"active","ping":82},{"user_id":6,"name":"800000 rabid Chihuahuas in Ohio","steam_id":76561198130772096,"connected_time":15187000000000,"state":"active","ping":45},{"user_id":206,"name":"Ash_Follow3","steam_id":76561199150479264,"connected_time":885000000000,"state":"active","ping":106},{"user_id":210,"name":"Hey","steam_id":76561198447517893,"connected_time":753000000000,"state":"active","ping":60},{"user_id":205,"name":"Some Dumb Werewolf","steam_id":76561198114146739,"connected_time":963000000000,"state":"active","ping":73},{"user_id":214,"name":"knotsofunny","steam_id":76561198071336304,"connected_time":291000000000,"state":"active","ping":61},{"user_id":185,"name":"Scab Collector","steam_id":76561198346425545,"connected_time":2206000000000,"state":"active","ping":65},{"user_id":178,"name":"LemonxSqueezy","steam_id":76561198000319152,"connected_time":2909000000000,"state":"active","ping":45},{"user_id":212,"name":"Chicken Joe","steam_id":76561198278185182,"connected_time":611000000000,"state":"active","ping":74},{"user_id":208,"name":"Fox","steam_id":76561198063507627,"connected_time":778000000000,"state":"active","ping":59},{"user_id":87,"name":"Scorch","steam_id":76561198167024005,"connected_time":9851000000000,"state":"active","ping":57},{"user_id":177,"name":"creeeeeee","steam_id":76561198392539722,"connected_time":3066000000000,"state":"active","ping":79},{"user_id":192,"name":"ATL1 | Pango","steam_id":76561198069811545,"connected_time":1922000000000,"state":"active","ping":45},{"user_id":215,"name":"Professional Zoo Tycoon Player","steam_id":76561198013026044,"connected_time":271000000000,"state":"active","ping":248},{"user_id":199,"name":"canid","steam_id":76561198103496593,"connected_time":1033000000000,"state":"active","ping":46},{"user_id":207,"name":"BNTF","steam_id":76561198062740087,"connected_time":805000000000,"state":"active","ping":56},{"user_id":213,"name":"Sprucelass","steam_id":76561197998391724,"connected_time":511000000000,"state":"active","ping":61},{"user_id":216,"name":"Wingm4n","steam_id":76561198064127012,"connected_time":76000000000,"state":"active","ping":52},{"user_id":186,"name":"Decolour","steam_id":76561199045608372,"connected_time":2197000000000,"state":"active","ping":80},{"user_id":194,"name":"worlds richest man","steam_id":76561198028272797,"connected_time":1258000000000,"state":"active","ping":76},{"user_id":211,"name":"tsaide","steam_id":76561198384120999,"connected_time":739000000000,"state":"active","ping":63},{"user_id":145,"name":"Leandro","steam_id":76561198041358925,"connected_time":5932000000000,"state":"active","ping":56},{"user_id":169,"name":"teaf","steam_id":76561198406252824,"connected_time":3964000000000,"state":"active","ping":119}]},{"server_id":400,"name":"Uncletopia | Atlanta | 3 | Community","name_short":"atl-3","host":"atl-1.us.uncletopia.com","port":27035,"enabled":true,"region":"us-east","cc":"us","latitude":33.753746,"longitude":-84.38633,"reserved":0,"last_update":"0001-01-01T00:00:00Z","name_a2s":"Uncletopia | Atlanta | 3 | Community","protocol":17,"map":"workshop/koth_ashville_final.ugc2130459942","folder":"tf","game":"Team Fortress","app_id":440,"player_count":0,"max_players":32,"Bots":0,"server_type":"Dedicated","server_os":"Linux","password":true,"vac":true,"version":"7757534","steam_id":85568392924515187,"keywords":["cp","increased_maxplayers","nocrits","nodmgspread","uncletopia"],"game_id":440,"stv_port":27036,"stv_name":"Uncletopia | Atlanta | 3 | Community | STV","players":null},{"server_id":401,"name":"Uncletopia | Atlanta | 4 | No Payload","name_short":"atl-4","host":"atl-1.us.uncletopia.com","port":27045,"enabled":true,"region":"us-east","cc":"us","latitude":33.753746,"longitude":-84.38633,"reserved":0,"last_update":"0001-01-01T00:00:00Z","name_a2s":"","protocol":0,"map":"","folder":"","game":"","app_id":0,"player_count":0,"max_players":0,"Bots":0,"server_type":"","server_os":"","password":false,"vac":false,"version":"","steam_id":0,"keywords":null,"game_id":0,"stv_port":0,"stv_name":"","players":null},{"server_id":2,"name":"Uncletopia | Chicago | 1 | All Maps","name_short":"chi-1","host":"chi-1.us.uncletopia.com","port":27015,"enabled":true,"region":"us-central","cc":"us","latitude":41.881832,"longitude":-87.62318,"reserved":0,"last_update":"0001-01-01T00:00:00Z","name_a2s":"Uncletopia | Chicago | 1 | All Maps","protocol":17,"map":"pl_swiftwater_final1","folder":"tf","game":"Team Fortress","app_id":440,"player_count":18,"max_players":24,"Bots":0,"server_type":"Dedicated","server_os":"Linux","password":true,"vac":true,"version":"7757534","steam_id":85568392924469984,"keywords":["nocrits","nodmgspread","payload","uncletopia"],"game_id":440,"stv_port":27016,"stv_name":"Uncletopia | Chicago | 1 | All Maps | STV","players":[{"user_id":78,"name":"Mattron1","steam_id":76561198012270524,"connected_time":4542000000000,"state":"spawning","ping":98},{"user_id":92,"name":"Droop","steam_id":76561198856700517,"connected_time":3115000000000,"state":"spawning","ping":91},{"user_id":113,"name":"Aiko","steam_id":76561198262395873,"connected_time":1683000000000,"state":"spawning","ping":191},{"user_id":71,"name":"Speedy","steam_id":76561198080761661,"connected_time":4983000000000,"state":"active","ping":211},{"user_id":123,"name":"Bastee1021","steam_id":76561199456141163,"connected_time":683000000000,"state":"spawning","ping":315},{"user_id":132,"name":"squaggles!","steam_id":76561197994995011,"connected_time":398000000000,"state":"active","ping":51},{"user_id":122,"name":"Big Phony","steam_id":76561199092395311,"connected_time":856000000000,"state":"active","ping":103},{"user_id":111,"name":"Argo","steam_id":76561198353725622,"connected_time":1804000000000,"state":"spawning","ping":230},{"user_id":101,"name":"CoconutRice","steam_id":76561198114909164,"connected_time":2189000000000,"state":"spawning","ping":41},{"user_id":126,"name":"dumpster fire","steam_id":76561199180461090,"connected_time":607000000000,"state":"spawning","ping":46},{"user_id":118,"name":"Would You Make Me A Sandwich?","steam_id":76561198152332211,"connected_time":1465000000000,"state":"active","ping":112},{"user_id":133,"name":"dP | I'm in a Wookie Suit","steam_id":76561198083307644,"connected_time":367000000000,"state":"active","ping":85},{"user_id":135,"name":"Huell Howser","steam_id":76561198006387337,"connected_time":288000000000,"state":"active","ping":61},{"user_id":44,"name":"Barthurs","steam_id":76561197993776122,"connected_time":5985000000000,"state":"spawning","ping":50},{"user_id":128,"name":"Macko","steam_id":76561198452005461,"connected_time":591000000000,"state":"spawning","ping":78},{"user_id":120,"name":"Javi","steam_id":76561198081407483,"connected_time":1458000000000,"state":"active","ping":155},{"user_id":63,"name":"Cheshire Cat","steam_id":76561198026034304,"connected_time":5554000000000,"state":"spawning","ping":55},{"user_id":125,"name":"Godfinger","steam_id":76561198426346549,"connected_time":620000000000,"state":"spawning","ping":54}]},{"server_id":106,"name":"Uncletopia | Chicago | 2 | All Maps","name_short":"chi-2","host":"chi-1.us.uncletopia.com","port":27025,"enabled":true,"region":"us-central","cc":"us","latitude":41.881832,"longitude":-87.62318,"reserved":0,"last_update":"0001-01-01T00:00:00Z","name_a2s":"Uncletopia | Chicago | 2 | All Maps","protocol":17,"map":"pl_snowycoast","folder":"tf","game":"Team Fortress","app_id":440,"player_count":24,"max_players":24,"Bots":0,"server_type":"Dedicated","server_os":"Linux","password":true,"vac":true,"version":"7757534","steam_id":85568392924469985,"keywords":["nocrits","nodmgspread","payload","uncletopia"],"game_id":440,"stv_port":27026,"stv_name":"Uncletopia | Chicago | 2 | All Maps | STV","players":[{"user_id":367,"name":"jrdoran","steam_id":76561197984753094,"connected_time":282000000000,"state":"active","ping":53},{"user_id":354,"name":"[DEEP] Fitts1099","steam_id":76561198044986906,"connected_time":830000000000,"state":"active","ping":45},{"user_id":357,"name":"spinglebarp","steam_id":76561198091472345,"connected_time":386000000000,"state":"active","ping":75},{"user_id":311,"name":"Firebug","steam_id":76561198081832157,"connected_time":4765000000000,"state":"active","ping":77},{"user_id":366,"name":"NastyGumbo","steam_id":76561198211943176,"connected_time":293000000000,"state":"active","ping":58},{"user_id":353,"name":"Pockets","steam_id":76561198001742296,"connected_time":935000000000,"state":"active","ping":63},{"user_id":268,"name":"twitch.tv/frimpimy","steam_id":76561198142605675,"connected_time":8451000000000,"state":"active","ping":60},{"user_id":349,"name":"Puke Skyfucker","steam_id":76561198012846213,"connected_time":1115000000000,"state":"active","ping":69},{"user_id":360,"name":"Geloman","steam_id":76561198005501322,"connected_time":378000000000,"state":"active","ping":88},{"user_id":361,"name":"estamos gaming","steam_id":76561198081681647,"connected_time":373000000000,"state":"active","ping":74},{"user_id":344,"name":"dwnkins","steam_id":76561198856016840,"connected_time":1903000000000,"state":"active","ping":69},{"user_id":352,"name":"raspy","steam_id":76561198027298961,"connected_time":1081000000000,"state":"active","ping":53},{"user_id":320,"name":"ToasterWater","steam_id":76561198260121940,"connected_time":4189000000000,"state":"active","ping":62},{"user_id":369,"name":"floppy muppet","steam_id":76561198003076261,"connected_time":17000000000,"state":"active","ping":99},{"user_id":355,"name":"The NotCath accident from 2021","steam_id":76561199242876811,"connected_time":777000000000,"state":"active","ping":150},{"user_id":362,"name":"Fraggerman222.02","steam_id":76561198091855057,"connected_time":357000000000,"state":"active","ping":70},{"user_id":343,"name":"king dedede","steam_id":76561198965562679,"connected_time":1916000000000,"state":"active","ping":86},{"user_id":368,"name":"Money D Luffy","steam_id":76561198886386362,"connected_time":135000000000,"state":"active","ping":184},{"user_id":316,"name":"choopo","steam_id":76561199202466365,"connected_time":4447000000000,"state":"active","ping":57},{"user_id":346,"name":"kitchen crusader","steam_id":76561199217620385,"connected_time":1891000000000,"state":"active","ping":72},{"user_id":364,"name":"yeyoi","steam_id":76561198069821885,"connected_time":336000000000,"state":"active","ping":66},{"user_id":351,"name":"４０ ＦＰＳ","steam_id":76561198272394965,"connected_time":1103000000000,"state":"active","ping":132},{"user_id":347,"name":"Sartupial","steam_id":76561198443169940,"connected_time":1848000000000,"state":"active","ping":74},{"user_id":365,"name":"malarkeyman","steam_id":76561198844473584,"connected_time":312000000000,"state":"active","ping":56}]},{"server_id":402,"name":"Uncletopia | Chicago | 3 | All Maps","name_short":"chi-3","host":"chi-1.us.uncletopia.com","port":27035,"enabled":true,"region":"us-central","cc":"us","latitude":41.881832,"longitude":-87.62318,"reserved":0,"last_update":"0001-01-01T00:00:00Z","name_a2s":"Uncletopia | Chicago | 3 | All Maps","protocol":17,"map":"koth_lakeside_final","folder":"tf","game":"Team Fortress","app_id":440,"player_count":0,"max_players":24,"Bots":0,"server_type":"Dedicated","server_os":"Linux","password":true,"vac":true,"version":"7757534","steam_id":85568392924515191,"keywords":["cp","nocrits","nodmgspread","uncletopia"],"game_id":440,"stv_port":27036,"stv_name":"Uncletopia | Chicago | 3 | All Maps | STV","players":null},{"server_id":403,"name":"Uncletopia | Chicago | 4 | All Maps","name_short":"chi-4","host":"chi-1.us.uncletopia.com","port":27045,"enabled":true,"region":"us-central","cc":"us","latitude":41.881832,"longitude":-87.62318,"reserved":0,"last_update":"0001-01-01T00:00:00Z","name_a2s":"Uncletopia | Chicago | 4 | All Maps","protocol":17,"map":"pl_upward","folder":"tf","game":"Team Fortress","app_id":440,"player_count":24,"max_players":24,"Bots":0,"server_type":"Dedicated","server_os":"Linux","password":true,"vac":true,"version":"7757534","steam_id":85568392924515193,"keywords":["nocrits","nodmgspread","payload","uncletopia"],"game_id":440,"stv_port":27046,"stv_name":"Uncletopia | Chicago | 4 | All Maps | STV","players":[{"user_id":170,"name":"xXBigWingmanFanXx","steam_id":76561198067904392,"connected_time":4483000000000,"state":"active","ping":64},{"user_id":238,"name":"pigeoncup","steam_id":76561198964926838,"connected_time":169000000000,"state":"active","ping":59},{"user_id":236,"name":"Literally a Trans Woman","steam_id":76561198054639925,"connected_time":279000000000,"state":"active","ping":101},{"user_id":230,"name":"peep! qki","steam_id":76561198056198168,"connected_time":402000000000,"state":"active","ping":59},{"user_id":175,"name":"Ashaman007","steam_id":76561198093354557,"connected_time":3752000000000,"state":"active","ping":71},{"user_id":239,"name":"DrD","steam_id":76561198067266383,"connected_time":159000000000,"state":"active","ping":84},{"user_id":224,"name":"Flat Eric","steam_id":76561198114922735,"connected_time":986000000000,"state":"active","ping":75},{"user_id":209,"name":"Rec","steam_id":76561198022813906,"connected_time":2167000000000,"state":"active","ping":49},{"user_id":231,"name":"nao","steam_id":76561199067925855,"connected_time":397000000000,"state":"active","ping":55},{"user_id":192,"name":"koompa_stomp","steam_id":76561198073081735,"connected_time":3009000000000,"state":"active","ping":100},{"user_id":240,"name":"AjProductions","steam_id":76561198217950125,"connected_time":25000000000,"state":"active","ping":139},{"user_id":157,"name":"FrumpyGoldsmith","steam_id":76561199036534127,"connected_time":5266000000000,"state":"active","ping":74},{"user_id":225,"name":"I am a mooshroom","steam_id":76561198104198295,"connected_time":983000000000,"state":"active","ping":84},{"user_id":226,"name":"stop","steam_id":76561198268686419,"connected_time":973000000000,"state":"active","ping":64},{"user_id":174,"name":"he_who_grills","steam_id":76561198039626676,"connected_time":3980000000000,"state":"active","ping":58},{"user_id":229,"name":"zoki","steam_id":76561198087600524,"connected_time":437000000000,"state":"active","ping":55},{"user_id":227,"name":"Shroodle","steam_id":76561198132364510,"connected_time":956000000000,"state":"active","ping":105},{"user_id":228,"name":"deech","steam_id":76561198066429444,"connected_time":956000000000,"state":"active","ping":65},{"user_id":210,"name":"OpenDown","steam_id":76561198064132688,"connected_time":1905000000000,"state":"active","ping":69},{"user_id":169,"name":"ArcanianArcher","steam_id":76561198088445076,"connected_time":4576000000000,"state":"active","ping":70},{"user_id":181,"name":"Nickolai9","steam_id":76561198035759401,"connected_time":3547000000000,"state":"active","ping":65},{"user_id":213,"name":"Sloggy","steam_id":76561198836372993,"connected_time":1615000000000,"state":"active","ping":75},{"user_id":207,"name":"Jak(i)","steam_id":76561198076823144,"connected_time":2509000000000,"state":"active","ping":69},{"user_id":218,"name":"Skashur","steam_id":76561198364924060,"connected_time":1103000000000,"state":"active","ping":70}]},{"server_id":36,"name":"Uncletopia | Chicago | 5 | All Maps","name_short":"chi-5","host":"chi-2.us.uncletopia.com","port":27015,"enabled":true,"region":"us-central","cc":"us","latitude":41.881832,"longitude":-87.62318,"reserved":0,"last_update":"0001-01-01T00:00:00Z","name_a2s":"Uncletopia | Chicago | 5 | All Maps","protocol":17,"map":"cp_mountainlab","folder":"tf","game":"Team Fortress","app_id":440,"player_count":0,"max_players":24,"Bots":0,"server_type":"Dedicated","server_os":"Linux","password":true,"vac":true,"version":"7757534","steam_id":85568392924866362,"keywords":["cp","nocrits","nodmgspread","uncletopia"],"game_id":440,"stv_port":27016,"stv_name":"Uncletopia | Chicago | 5 | All Maps | STV","players":null},{"server_id":37,"name":"Uncletopia | Chicago | 6 | All Maps","name_short":"chi-6","host":"chi-2.us.uncletopia.com","port":27025,"enabled":true,"region":"us-central","cc":"us","latitude":41.881832,"longitude":-87.62318,"reserved":0,"last_update":"0001-01-01T00:00:00Z","name_a2s":"Uncletopia | Chicago | 6 | All Maps","protocol":17,"map":"pl_badwater","folder":"tf","game":"Team Fortress","app_id":440,"player_count":24,"max_players":24,"Bots":0,"server_type":"Dedicated","server_os":"Linux","password":true,"vac":true,"version":"7757534","steam_id":85568392924866363,"keywords":["nocrits","nodmgspread","payload","uncletopia"],"game_id":440,"stv_port":27026,"stv_name":"Uncletopia | Chicago | 6 | All Maps | STV","players":[{"user_id":52,"name":"BoioftheNile","steam_id":76561198834204114,"connected_time":1489000000000,"state":"active","ping":86},{"user_id":58,"name":"acceleяator","steam_id":76561198046842513,"connected_time":569000000000,"state":"active","ping":105},{"user_id":64,"name":"Wan Shi Tong","steam_id":76561198076441225,"connected_time":156000000000,"state":"active","ping":60},{"user_id":65,"name":"Jumpin over your head","steam_id":76561198140517330,"connected_time":146000000000,"state":"active","ping":77},{"user_id":63,"name":"Kalhoun","steam_id":76561197999648122,"connected_time":191000000000,"state":"active","ping":57},{"user_id":66,"name":"TwoBit","steam_id":76561198062437559,"connected_time":86000000000,"state":"active","ping":76},{"user_id":18,"name":"Fresh Lychee","steam_id":76561198045399559,"connected_time":3038000000000,"state":"active","ping":56},{"user_id":14,"name":"Justario","steam_id":76561198016095410,"connected_time":3143000000000,"state":"active","ping":60},{"user_id":15,"name":"Witch!","steam_id":76561198062763756,"connected_time":3119000000000,"state":"active","ping":46},{"user_id":16,"name":"BudTuggly","steam_id":76561198026873580,"connected_time":3107000000000,"state":"active","ping":54},{"user_id":53,"name":"Bluedot","steam_id":76561198019909639,"connected_time":1225000000000,"state":"active","ping":60},{"user_id":19,"name":"The World's Softest Sandwich","steam_id":76561198015577707,"connected_time":3012000000000,"state":"active","ping":78},{"user_id":67,"name":"Inigo Montoya","steam_id":76561198010603881,"connected_time":70000000000,"state":"active","ping":50},{"user_id":36,"name":"Jill the Owl","steam_id":76561197999210583,"connected_time":2605000000000,"state":"active","ping":74},{"user_id":39,"name":"treemonkey","steam_id":76561198088171353,"connected_time":2419000000000,"state":"active","ping":61},{"user_id":51,"name":"nnobi","steam_id":76561198878729277,"connected_time":1508000000000,"state":"active","ping":75},{"user_id":25,"name":"jumpscare","steam_id":76561198148059714,"connected_time":2853000000000,"state":"active","ping":60},{"user_id":68,"name":"Taco","steam_id":76561198158621392,"connected_time":67000000000,"state":"active","ping":74},{"user_id":54,"name":"fleants","steam_id":76561198085416641,"connected_time":1216000000000,"state":"active","ping":70},{"user_id":28,"name":"Olive","steam_id":76561198003474783,"connected_time":2841000000000,"state":"active","ping":75},{"user_id":30,"name":"Atlas","steam_id":76561198127975050,"connected_time":2799000000000,"state":"active","ping":70},{"user_id":57,"name":"Lawrence Pemberton","steam_id":76561198180863090,"connected_time":606000000000,"state":"active","ping":74},{"user_id":38,"name":"FoodzAreGoodz","steam_id":76561198309262052,"connected_time":2546000000000,"state":"active","ping":113},{"user_id":61,"name":"NOTWALTER","steam_id":76561198125464744,"connected_time":464000000000,"state":"active","ping":89}]},{"server_id":38,"name":"Uncletopia | Chicago | 7 | Stopwatch Beta","name_short":"chi-7","host":"chi-2.us.uncletopia.com","port":27035,"enabled":true,"region":"us-central","cc":"us","latitude":41.881832,"longitude":-87.62318,"reserved":0,"last_update":"0001-01-01T00:00:00Z","name_a2s":"Uncletopia | Chicago | 7 | Stopwatch Beta","protocol":17,"map":"workshop/koth_clearcut_b15.ugc2107050255","folder":"tf","game":"Team Fortress","app_id":440,"player_count":5,"max_players":24,"Bots":0,"server_type":"Dedicated","server_os":"Linux","password":true,"vac":true,"version":"7757534","steam_id":85568392924866364,"keywords":["cp","nocrits","nodmgspread","uncletopia"],"game_id":440,"stv_port":27036,"stv_name":"Uncletopia | Chicago | 7 | Stopwatch Beta | STV","players":[{"user_id":18,"name":"RoboticPyroRobo","steam_id":76561198355732200,"connected_time":581000000000,"state":"active","ping":71},{"user_id":5,"name":"spiderfat","steam_id":76561198957917221,"connected_time":5452000000000,"state":"active","ping":84},{"user_id":22,"name":"Effie","steam_id":76561198261842068,"connected_time":199000000000,"state":"active","ping":75},{"user_id":21,"name":"Gipple","steam_id":76561198388661565,"connected_time":370000000000,"state":"active","ping":55},{"user_id":9,"name":"I like pasta","steam_id":76561199140303246,"connected_time":2340000000000,"state":"active","ping":90}]},{"server_id":39,"name":"Uncletopia | Chicago | 8 | Community","name_short":"chi-8","host":"chi-2.us.uncletopia.com","port":27045,"enabled":true,"region":"us-central","cc":"us","latitude":41.881832,"longitude":-87.62318,"reserved":0,"last_update":"0001-01-01T00:00:00Z","name_a2s":"Uncletopia | Chicago | 8 | Community","protocol":17,"map":"pl_barnblitz","folder":"tf","game":"Team Fortress","app_id":440,"player_count":0,"max_players":24,"Bots":0,"server_type":"Dedicated","server_os":"Linux","password":true,"vac":true,"version":"7757534","steam_id":85568392924866365,"keywords":["nocrits","nodmgspread","payload","uncletopia"],"game_id":440,"stv_port":27046,"stv_name":"Uncletopia | Chicago | 8 | Community | STV","players":null},{"server_id":8,"name":"Uncletopia | Dallas | 1 | All Maps","name_short":"dal-1","host":"dal-1.us.uncletopia.com","port":27015,"enabled":true,"region":"us-central","cc":"us","latitude":32.779167,"longitude":-96.80889,"reserved":0,"last_update":"0001-01-01T00:00:00Z","name_a2s":"Uncletopia | Dallas | 1 | All Maps","protocol":17,"map":"pl_borneo","folder":"tf","game":"Team Fortress","app_id":440,"player_count":24,"max_players":24,"Bots":0,"server_type":"Dedicated","server_os":"Linux","password":true,"vac":true,"version":"7757534","steam_id":85568392924469986,"keywords":["nocrits","nodmgspread","payload","uncletopia"],"game_id":440,"stv_port":27016,"stv_name":"Uncletopia | Dallas | 1 | All Maps | STV","players":[{"user_id":254,"name":"rico suave","steam_id":76561198093252989,"connected_time":4161000000000,"state":"active","ping":46},{"user_id":293,"name":"JJDrowsy","steam_id":76561198274501963,"connected_time":898000000000,"state":"active","ping":63},{"user_id":294,"name":"SPREAD CHRISTMAS CHEER AND JOY","steam_id":76561198800386026,"connected_time":895000000000,"state":"active","ping":102},{"user_id":215,"name":"Sal Vulcano","steam_id":76561198016677665,"connected_time":6096000000000,"state":"active","ping":89},{"user_id":295,"name":"LittleHams","steam_id":76561198065361279,"connected_time":892000000000,"state":"active","ping":111},{"user_id":291,"name":"Flicky","steam_id":76561198012811546,"connected_time":968000000000,"state":"active","ping":91},{"user_id":260,"name":"RAGNAROK_VICTIM","steam_id":76561198841082777,"connected_time":3803000000000,"state":"active","ping":89},{"user_id":305,"name":"Detective Pikachu","steam_id":76561198078998422,"connected_time":402000000000,"state":"active","ping":90},{"user_id":277,"name":"Voids","steam_id":76561198128386726,"connected_time":2814000000000,"state":"active","ping":78},{"user_id":281,"name":"TonesMcGroans","steam_id":76561197996691606,"connected_time":2483000000000,"state":"active","ping":40},{"user_id":240,"name":"pleasehelpidonthavefingers","steam_id":76561199367935846,"connected_time":4927000000000,"state":"active","ping":70},{"user_id":297,"name":"Pineapple Pancakes","steam_id":76561198860470713,"connected_time":872000000000,"state":"active","ping":64},{"user_id":312,"name":"lite","steam_id":76561198300633951,"connected_time":16000000000,"state":"active","ping":129},{"user_id":292,"name":"BigBubble42","steam_id":76561198136286123,"connected_time":965000000000,"state":"active","ping":29},{"user_id":266,"name":"Wahter","steam_id":76561198068654532,"connected_time":3760000000000,"state":"active","ping":90},{"user_id":300,"name":"Blood Goblin","steam_id":76561199079401815,"connected_time":830000000000,"state":"active","ping":86},{"user_id":299,"name":"Malevo","steam_id":76561198148606522,"connected_time":850000000000,"state":"active","ping":57},{"user_id":303,"name":"Bigfoot ate my ass","steam_id":76561198071605190,"connected_time":444000000000,"state":"active","ping":74},{"user_id":255,"name":"iluvtoust","steam_id":76561198869269207,"connected_time":4031000000000,"state":"active","ping":55},{"user_id":309,"name":"Dread","steam_id":76561198144992877,"connected_time":109000000000,"state":"active","ping":49},{"user_id":302,"name":"Large Charles","steam_id":76561197999663001,"connected_time":825000000000,"state":"active","ping":61},{"user_id":311,"name":"Fish Daddy","steam_id":76561198028057871,"connected_time":94000000000,"state":"active","ping":95},{"user_id":275,"name":"Pipe Pope","steam_id":76561199059257565,"connected_time":3136000000000,"state":"active","ping":86},{"user_id":308,"name":"myspace girl","steam_id":76561198054925421,"connected_time":156000000000,"state":"active","ping":76}]},{"server_id":108,"name":"Uncletopia | Dallas | 2 | All Maps","name_short":"dal-2","host":"dal-1.us.uncletopia.com","port":27025,"enabled":true,"region":"us-central","cc":"us","latitude":32.779167,"longitude":-96.80889,"reserved":0,"last_update":"0001-01-01T00:00:00Z","name_a2s":"Uncletopia | Dallas | 2 | All Maps","protocol":17,"map":"koth_lakeside_final","folder":"tf","game":"Team Fortress","app_id":440,"player_count":0,"max_players":24,"Bots":0,"server_type":"Dedicated","server_os":"Linux","password":true,"vac":true,"version":"7757534","steam_id":85568392924469988,"keywords":["cp","nocrits","nodmgspread","uncletopia"],"game_id":440,"stv_port":27026,"stv_name":"Uncletopia | Dallas | 2 | All Maps | STV","players":null},{"server_id":5,"name":"Uncletopia | Frankfurt | 1 | All Maps","name_short":"frk-1","host":"frk-1.de.uncletopia.com","port":27015,"enabled":true,"region":"eu","cc":"de","latitude":50.110924,"longitude":8.682127,"reserved":0,"last_update":"0001-01-01T00:00:00Z","name_a2s":"Uncletopia | Frankfurt | 1 | All Maps","protocol":17,"map":"koth_lakeside_final","folder":"tf","game":"Team Fortress","app_id":440,"player_count":1,"max_players":24,"Bots":0,"server_type":"Dedicated","server_os":"Linux","password":true,"vac":true,"version":"7757534","steam_id":85568392924469989,"keywords":["cp","nocrits","nodmgspread","uncletopia"],"game_id":440,"stv_port":27016,"stv_name":"Uncletopia | Frankfurt | 1 | All Maps | STV","players":[{"user_id":41,"name":"Truegr","steam_id":76561198811912339,"connected_time":124000000000,"state":"active","ping":76}]},{"server_id":110,"name":"Uncletopia | Frankfurt | 2 | All Maps","name_short":"frk-2","host":"frk-1.de.uncletopia.com","port":27025,"enabled":true,"region":"eu","cc":"de","latitude":50.110924,"longitude":8.682127,"reserved":0,"last_update":"0001-01-01T00:00:00Z","name_a2s":"Uncletopia | Frankfurt | 2 | All Maps","protocol":17,"map":"pl_barnblitz","folder":"tf","game":"Team Fortress","app_id":440,"player_count":24,"max_players":24,"Bots":0,"server_type":"Dedicated","server_os":"Linux","password":true,"vac":true,"version":"7757534","steam_id":85568392924469990,"keywords":["nocrits","nodmgspread","payload","uncletopia"],"game_id":440,"stv_port":27026,"stv_name":"Uncletopia | Frankfurt | 2 | All Maps | STV","players":[{"user_id":260,"name":"Stone Tim","steam_id":76561198037237664,"connected_time":168000000000,"state":"active","ping":69},{"user_id":258,"name":"Hamtastic","steam_id":76561198879769410,"connected_time":180000000000,"state":"active","ping":76},{"user_id":240,"name":"Anttech","steam_id":76561198065184022,"connected_time":1350000000000,"state":"active","ping":56},{"user_id":237,"name":"baijro","steam_id":76561198061001376,"connected_time":1660000000000,"state":"active","ping":62},{"user_id":207,"name":"skYle | joe +.+ꜝ","steam_id":76561197981047264,"connected_time":3895000000000,"state":"active","ping":45},{"user_id":263,"name":"iki","steam_id":76561198119607160,"connected_time":134000000000,"state":"active","ping":73},{"user_id":243,"name":"Topia","steam_id":76561198163571788,"connected_time":1194000000000,"state":"active","ping":91},{"user_id":248,"name":"Bat in a thousand","steam_id":76561198320506848,"connected_time":1002000000000,"state":"active","ping":50},{"user_id":262,"name":"happeanes","steam_id":76561198044293799,"connected_time":160000000000,"state":"active","ping":68},{"user_id":208,"name":"quickfast","steam_id":76561199438900919,"connected_time":3885000000000,"state":"active","ping":59},{"user_id":143,"name":"✪ qua ✪","steam_id":76561198066408333,"connected_time":7504000000000,"state":"active","ping":74},{"user_id":247,"name":"Gio'sMonkey","steam_id":76561198892432223,"connected_time":1012000000000,"state":"active","ping":85},{"user_id":264,"name":"r06u3","steam_id":76561198254099253,"connected_time":122000000000,"state":"active","ping":165},{"user_id":229,"name":"LOBZIK","steam_id":76561198114830120,"connected_time":2700000000000,"state":"active","ping":76},{"user_id":191,"name":"Sgreff","steam_id":76561198036304365,"connected_time":4497000000000,"state":"active","ping":60},{"user_id":265,"name":"テイルス","steam_id":76561198022403271,"connected_time":113000000000,"state":"active","ping":50},{"user_id":242,"name":"Kotlet schabowy","steam_id":76561198048983509,"connected_time":1266000000000,"state":"active","ping":81},{"user_id":256,"name":"AWJ ˆ-ˆ","steam_id":76561198053628243,"connected_time":515000000000,"state":"active","ping":58},{"user_id":238,"name":"Huan MEDIC","steam_id":76561198012922308,"connected_time":1406000000000,"state":"active","ping":71},{"user_id":194,"name":"Pepperonipizza","steam_id":76561198044471610,"connected_time":4438000000000,"state":"active","ping":71},{"user_id":211,"name":"LordTrap.exe","steam_id":76561198318089716,"connected_time":3876000000000,"state":"active","ping":65},{"user_id":249,"name":"Burpman","steam_id":76561198022897937,"connected_time":990000000000,"state":"active","ping":64},{"user_id":234,"name":"G6 sherlock","steam_id":76561198802967796,"connected_time":2198000000000,"state":"active","ping":125},{"user_id":250,"name":"EGirl | Klarra","steam_id":76561198077745407,"connected_time":987000000000,"state":"active","ping":63}]},{"server_id":308,"name":"Uncletopia | Frankfurt | 3 | All Maps","name_short":"frk-3","host":"frk-1.de.uncletopia.com","port":27035,"enabled":true,"region":"eu","cc":"de","latitude":50.110924,"longitude":8.682127,"reserved":0,"last_update":"0001-01-01T00:00:00Z","name_a2s":"Uncletopia | Frankfurt | 3 | All Maps","protocol":17,"map":"pl_borneo","folder":"tf","game":"Team Fortress","app_id":440,"player_count":24,"max_players":24,"Bots":0,"server_type":"Dedicated","server_os":"Linux","password":true,"vac":true,"version":"7757534","steam_id":85568392924504274,"keywords":["nocrits","nodmgspread","payload","uncletopia"],"game_id":440,"stv_port":27036,"stv_name":"Uncletopia | Frankfurt | 3 | All Maps | STV","players":[{"user_id":555,"name":"You're doin good lad","steam_id":76561198350707031,"connected_time":609000000000,"state":"active","ping":84},{"user_id":456,"name":"Hexagon","steam_id":76561198151205758,"connected_time":9173000000000,"state":"active","ping":45},{"user_id":548,"name":"kravun","steam_id":76561198280995954,"connected_time":1240000000000,"state":"active","ping":71},{"user_id":489,"name":"Francis Crabb","steam_id":76561198259082154,"connected_time":7064000000000,"state":"active","ping":102},{"user_id":521,"name":"sareena","steam_id":76561198810194062,"connected_time":3845000000000,"state":"active","ping":75},{"user_id":551,"name":"Dr.Sees [F2P]","steam_id":76561199219233587,"connected_time":1115000000000,"state":"active","ping":78},{"user_id":526,"name":"night.s","steam_id":76561198326287823,"connected_time":3458000000000,"state":"active","ping":71},{"user_id":565,"name":"Udinese Dion","steam_id":76561198067931573,"connected_time":324000000000,"state":"active","ping":43},{"user_id":568,"name":"Klinmir","steam_id":76561198352339376,"connected_time":122000000000,"state":"active","ping":96},{"user_id":534,"name":"Dr. Uberschwein","steam_id":76561198111367431,"connected_time":2319000000000,"state":"active","ping":110},{"user_id":557,"name":"Trash","steam_id":76561198274105878,"connected_time":549000000000,"state":"active","ping":84},{"user_id":488,"name":"dopamine enjoyer","steam_id":76561198140591983,"connected_time":7101000000000,"state":"active","ping":98},{"user_id":562,"name":"Mad Cat Kivima","steam_id":76561198028959678,"connected_time":396000000000,"state":"active","ping":92},{"user_id":527,"name":"Yony","steam_id":76561199070569941,"connected_time":3454000000000,"state":"active","ping":54},{"user_id":543,"name":"gfjhsdf","steam_id":76561198136736426,"connected_time":1728000000000,"state":"active","ping":50},{"user_id":470,"name":"hourglass","steam_id":76561198166613799,"connected_time":8136000000000,"state":"active","ping":92},{"user_id":561,"name":"M.Bou","steam_id":76561199097750260,"connected_time":439000000000,"state":"active","ping":144},{"user_id":479,"name":"REN","steam_id":76561198000596385,"connected_time":7736000000000,"state":"active","ping":73},{"user_id":559,"name":"CapnFang","steam_id":76561198042687780,"connected_time":487000000000,"state":"active","ping":66},{"user_id":567,"name":"KLAMA  ❤","steam_id":76561198351549661,"connected_time":224000000000,"state":"active","ping":62},{"user_id":564,"name":"GamingCarp","steam_id":76561198285235511,"connected_time":368000000000,"state":"active","ping":62},{"user_id":520,"name":"bigwish | bmod.tf","steam_id":76561197997859723,"connected_time":3953000000000,"state":"active","ping":78},{"user_id":478,"name":"Mr. Mundy","steam_id":76561198132008918,"connected_time":7872000000000,"state":"active","ping":68},{"user_id":554,"name":"MR DADDY","steam_id":76561198350794663,"connected_time":633000000000,"state":"active","ping":133}]},{"server_id":309,"name":"Uncletopia | Frankfurt | 4 | All Maps","name_short":"frk-4","host":"frk-1.de.uncletopia.com","port":27045,"enabled":true,"region":"eu","cc":"de","latitude":50.110924,"longitude":8.682127,"reserved":0,"last_update":"0001-01-01T00:00:00Z","name_a2s":"Uncletopia | Frankfurt | 4 | All Maps","protocol":17,"map":"cp_steel","folder":"tf","game":"Team Fortress","app_id":440,"player_count":24,"max_players":24,"Bots":0,"server_type":"Dedicated","server_os":"Linux","password":true,"vac":true,"version":"7757534","steam_id":85568392924504275,"keywords":["cp","nocrits","nodmgspread","uncletopia"],"game_id":440,"stv_port":27046,"stv_name":"Uncletopia | Frankfurt | 4 | All Maps | STV","players":[{"user_id":228,"name":"Churaq Cyril","steam_id":76561198125381319,"connected_time":2636000000000,"state":"active","ping":85},{"user_id":253,"name":"Der_Milchmann","steam_id":76561198001417748,"connected_time":930000000000,"state":"active","ping":48},{"user_id":262,"name":"Pablo Gonzales 2009","steam_id":76561199248572372,"connected_time":496000000000,"state":"active","ping":69},{"user_id":263,"name":"Jimmy","steam_id":76561198133680783,"connected_time":362000000000,"state":"active","ping":57},{"user_id":254,"name":"MeBandae","steam_id":76561198910770432,"connected_time":921000000000,"state":"active","ping":99},{"user_id":243,"name":"Rin-Nakaret","steam_id":76561197971051188,"connected_time":1981000000000,"state":"active","ping":72},{"user_id":231,"name":"Fran","steam_id":76561199070516960,"connected_time":2362000000000,"state":"active","ping":65},{"user_id":248,"name":"Staffy","steam_id":76561198859722036,"connected_time":1512000000000,"state":"active","ping":100},{"user_id":219,"name":"biggest dark souls 2 hater","steam_id":76561198055389492,"connected_time":3414000000000,"state":"active","ping":59},{"user_id":223,"name":"tweakios","steam_id":76561198125010818,"connected_time":2937000000000,"state":"active","ping":91},{"user_id":255,"name":"X-tis","steam_id":76561198043837480,"connected_time":881000000000,"state":"active","ping":77},{"user_id":259,"name":"Hetmanych","steam_id":76561198870926865,"connected_time":626000000000,"state":"active","ping":49},{"user_id":244,"name":"Vitamin Weee","steam_id":76561199183937747,"connected_time":1968000000000,"state":"active","ping":83},{"user_id":146,"name":"cancer mouse","steam_id":76561198075068529,"connected_time":8703000000000,"state":"active","ping":50},{"user_id":260,"name":"Yakko","steam_id":76561198044170177,"connected_time":544000000000,"state":"active","ping":49},{"user_id":264,"name":"Dolcelatte","steam_id":76561198038501770,"connected_time":11000000000,"state":"active","ping":58},{"user_id":236,"name":"ziv0104","steam_id":76561198089642287,"connected_time":2237000000000,"state":"active","ping":102},{"user_id":193,"name":"Almaynax","steam_id":76561198039757994,"connected_time":5040000000000,"state":"active","ping":90},{"user_id":257,"name":"Tom Fish","steam_id":76561199060805463,"connected_time":738000000000,"state":"active","ping":80},{"user_id":261,"name":"Cyberpsycho","steam_id":76561198013528365,"connected_time":544000000000,"state":"active","ping":53},{"user_id":75,"name":"Welder","steam_id":76561198355300561,"connected_time":14962000000000,"state":"active","ping":73},{"user_id":247,"name":"DocTwoEight","steam_id":76561198153488940,"connected_time":1725000000000,"state":"active","ping":79},{"user_id":249,"name":"Fjellape","steam_id":76561198094819884,"connected_time":1506000000000,"state":"active","ping":95},{"user_id":252,"name":"[fll.fi] Kaarlo","steam_id":76561198015176252,"connected_time":1356000000000,"state":"active","ping":84}]},{"server_id":310,"name":"Uncletopia | Frankfurt | 5 | All Maps","name_short":"frk-5","host":"frk-1.de.uncletopia.com","port":27055,"enabled":true,"region":"eu","cc":"de","latitude":50.110924,"longitude":8.682127,"reserved":0,"last_update":"0001-01-01T00:00:00Z","name_a2s":"Uncletopia | Frankfurt | 5 | All Maps","protocol":17,"map":"pl_upward","folder":"tf","game":"Team Fortress","app_id":440,"player_count":24,"max_players":24,"Bots":0,"server_type":"Dedicated","server_os":"Linux","password":true,"vac":true,"version":"7757534","steam_id":85568392924504277,"keywords":["nocrits","nodmgspread","payload","uncletopia"],"game_id":440,"stv_port":27056,"stv_name":"Uncletopia | Frankfurt | 5 | All Maps | STV","players":[{"user_id":400,"name":"Tlad2","steam_id":76561198854897667,"connected_time":1293000000000,"state":"active","ping":75},{"user_id":415,"name":"Adrenaline","steam_id":76561197970852048,"connected_time":189000000000,"state":"active","ping":60},{"user_id":413,"name":"John Pea Rambo","steam_id":76561198416582919,"connected_time":551000000000,"state":"active","ping":105},{"user_id":378,"name":"(wm) Das Fleisch","steam_id":76561198001250715,"connected_time":2081000000000,"state":"active","ping":55},{"user_id":383,"name":"Alekk","steam_id":76561198093533143,"connected_time":1954000000000,"state":"active","ping":69},{"user_id":372,"name":"estrogen deliver","steam_id":76561198190259726,"connected_time":2560000000000,"state":"active","ping":81},{"user_id":368,"name":"Melon","steam_id":76561198150893860,"connected_time":3205000000000,"state":"active","ping":66},{"user_id":407,"name":"Better Call Medic","steam_id":76561199068171186,"connected_time":934000000000,"state":"active","ping":96},{"user_id":416,"name":"med.******.1939","steam_id":76561198875472890,"connected_time":155000000000,"state":"active","ping":73},{"user_id":388,"name":"i always miss","steam_id":76561199379233899,"connected_time":1931000000000,"state":"active","ping":92},{"user_id":403,"name":"why rum gone","steam_id":76561198158484784,"connected_time":1058000000000,"state":"active","ping":60},{"user_id":371,"name":"Doriian","steam_id":76561198071438810,"connected_time":2694000000000,"state":"active","ping":75},{"user_id":306,"name":"player","steam_id":76561198054474684,"connected_time":6377000000000,"state":"active","ping":75},{"user_id":384,"name":"lettuce at 58p","steam_id":76561199401283123,"connected_time":1953000000000,"state":"active","ping":66},{"user_id":418,"name":"ICEBORN GAUNTLET","steam_id":76561198051283300,"connected_time":119000000000,"state":"active","ping":70},{"user_id":404,"name":"Egor Pomidor","steam_id":76561199175688390,"connected_time":988000000000,"state":"active","ping":75},{"user_id":393,"name":"Onyx Odin - Alcoholic Alchemist","steam_id":76561198044560148,"connected_time":1675000000000,"state":"active","ping":70},{"user_id":375,"name":"doctor amongus","steam_id":76561199096919345,"connected_time":2243000000000,"state":"active","ping":75},{"user_id":395,"name":"d u k k i","steam_id":76561198071807437,"connected_time":1601000000000,"state":"active","ping":326},{"user_id":341,"name":"Speedyjoestar","steam_id":76561198907130963,"connected_time":4300000000000,"state":"active","ping":90},{"user_id":402,"name":"BlinkedUp","steam_id":76561198249985618,"connected_time":1201000000000,"state":"active","ping":65},{"user_id":389,"name":"spearfishNL","steam_id":76561199077022985,"connected_time":1929000000000,"state":"active","ping":62},{"user_id":401,"name":"cinny","steam_id":76561198832112629,"connected_time":1251000000000,"state":"active","ping":82},{"user_id":409,"name":"$nØw","steam_id":76561198238781028,"connected_time":853000000000,"state":"active","ping":100}]},{"server_id":311,"name":"Uncletopia | Frankfurt | 6 | All Maps","name_short":"frk-6","host":"frk-1.de.uncletopia.com","port":27065,"enabled":true,"region":"eu","cc":"de","latitude":50.110924,"longitude":8.682127,"reserved":0,"last_update":"0001-01-01T00:00:00Z","name_a2s":"Uncletopia | Frankfurt | 6 | All Maps","protocol":17,"map":"pl_frontier_final","folder":"tf","game":"Team Fortress","app_id":440,"player_count":21,"max_players":24,"Bots":0,"server_type":"Dedicated","server_os":"Linux","password":true,"vac":true,"version":"7757534","steam_id":85568392924504278,"keywords":["nocrits","nodmgspread","payload","uncletopia"],"game_id":440,"stv_port":27066,"stv_name":"Uncletopia | Frankfurt | 6 | All Maps | STV","players":[{"user_id":61,"name":"citronous","steam_id":76561198093290934,"connected_time":8171000000000,"state":"active","ping":55},{"user_id":182,"name":"rigel_","steam_id":76561198148640847,"connected_time":715000000000,"state":"active","ping":75},{"user_id":165,"name":"Optimist 50","steam_id":76561198039631442,"connected_time":1772000000000,"state":"active","ping":84},{"user_id":188,"name":"Cazulas","steam_id":76561198027460283,"connected_time":340000000000,"state":"active","ping":70},{"user_id":191,"name":"I Don't Know","steam_id":76561198841011430,"connected_time":227000000000,"state":"active","ping":70},{"user_id":193,"name":"Yessirskiii","steam_id":76561198179324075,"connected_time":198000000000,"state":"active","ping":74},{"user_id":168,"name":"...","steam_id":76561198969234594,"connected_time":1687000000000,"state":"active","ping":75},{"user_id":169,"name":"LivEssense","steam_id":76561198052476979,"connected_time":1617000000000,"state":"active","ping":76},{"user_id":189,"name":"Sylbar","steam_id":76561198065379590,"connected_time":282000000000,"state":"active","ping":69},{"user_id":135,"name":"Ragles","steam_id":76561198132454783,"connected_time":4275000000000,"state":"active","ping":66},{"user_id":179,"name":"Medicine Melancholy","steam_id":76561198043601838,"connected_time":1310000000000,"state":"active","ping":60},{"user_id":184,"name":"sHIFTINGvORTEX","steam_id":76561198231648332,"connected_time":549000000000,"state":"active","ping":76},{"user_id":185,"name":"Gui","steam_id":76561198072054467,"connected_time":543000000000,"state":"active","ping":88},{"user_id":180,"name":"a fresh pan of lemon squares","steam_id":76561197984071376,"connected_time":1016000000000,"state":"active","ping":70},{"user_id":194,"name":"Kit","steam_id":76561198009971556,"connected_time":190000000000,"state":"active","ping":73},{"user_id":176,"name":"Monsteh","steam_id":76561198325898181,"connected_time":1494000000000,"state":"active","ping":73},{"user_id":186,"name":"Mikeal (Overhealed)","steam_id":76561198241759034,"connected_time":505000000000,"state":"active","ping":107},{"user_id":134,"name":"rizook","steam_id":76561198055010039,"connected_time":4317000000000,"state":"active","ping":73},{"user_id":143,"name":"Dinges360","steam_id":76561198042032834,"connected_time":3280000000000,"state":"active","ping":63},{"user_id":196,"name":"latin lover","steam_id":76561198153742397,"connected_time":173000000000,"state":"active","ping":76},{"user_id":197,"name":"MGE NLY","steam_id":76561198815271970,"connected_time":163000000000,"state":"active","ping":60}]},{"server_id":23,"name":"Uncletopia | Frankfurt | 7 | Stopwatch Beta","name_short":"frk-7","host":"frk-1.de.uncletopia.com","port":27075,"enabled":true,"region":"eu","cc":"de","latitude":50.110924,"longitude":8.682127,"reserved":0,"last_update":"0001-01-01T00:00:00Z","name_a2s":"Uncletopia | Frankfurt | 7 | Stopwatch Beta","protocol":17,"map":"workshop/koth_ashville_final.ugc2130459942","folder":"tf","game":"Team Fortress","app_id":440,"player_count":16,"max_players":24,"Bots":0,"server_type":"Dedicated","server_os":"Linux","password":true,"vac":true,"version":"7757534","steam_id":85568392924742827,"keywords":["cp","nocrits","nodmgspread","uncletopia"],"game_id":440,"stv_port":27076,"stv_name":"Uncletopia | Frankfurt | 7 | Stopwatch Beta | STV","players":[{"user_id":36,"name":"fried","steam_id":76561198307522022,"connected_time":4377000000000,"state":"active","ping":52},{"user_id":63,"name":"Goodmouth","steam_id":76561198097645042,"connected_time":353000000000,"state":"active","ping":81},{"user_id":66,"name":"\u003c blank \u003e","steam_id":76561199149307190,"connected_time":129000000000,"state":"active","ping":68},{"user_id":64,"name":"multiflex","steam_id":76561198049639319,"connected_time":342000000000,"state":"active","ping":70},{"user_id":61,"name":"SONIC THE GOD","steam_id":76561199185147093,"connected_time":417000000000,"state":"active","ping":71},{"user_id":65,"name":"Tea","steam_id":76561198090490071,"connected_time":298000000000,"state":"active","ping":150},{"user_id":68,"name":"Noxu","steam_id":76561198156299821,"connected_time":58000000000,"state":"spawning","ping":105},{"user_id":45,"name":"goblin","steam_id":76561199010825303,"connected_time":1447000000000,"state":"active","ping":68},{"user_id":46,"name":"rosepinkyfuzz","steam_id":76561198018546334,"connected_time":1438000000000,"state":"active","ping":74},{"user_id":51,"name":"kornetov.vitalya","steam_id":76561199286034833,"connected_time":1174000000000,"state":"active","ping":88},{"user_id":69,"name":"AwZooom","steam_id":76561198154061149,"connected_time":48000000000,"state":"active","ping":37},{"user_id":50,"name":"Lukero","steam_id":76561198301594341,"connected_time":1230000000000,"state":"active","ping":61},{"user_id":53,"name":"Black Sheep","steam_id":76561198042244701,"connected_time":1124000000000,"state":"active","ping":64},{"user_id":54,"name":"Kati","steam_id":76561198007231088,"connected_time":973000000000,"state":"active","ping":55},{"user_id":55,"name":"Emails","steam_id":76561198836919458,"connected_time":846000000000,"state":"active","ping":174},{"user_id":70,"name":"akakez","steam_id":76561198095432821,"connected_time":29000000000,"state":"spawning","ping":251}]},{"server_id":24,"name":"Uncletopia | Frankfurt | 8 | Community","name_short":"frk-8","host":"frk-1.de.uncletopia.com","port":27085,"enabled":true,"region":"eu","cc":"de","latitude":50.110924,"longitude":8.682127,"reserved":0,"last_update":"0001-01-01T00:00:00Z","name_a2s":"Uncletopia | Frankfurt | 8 | Community","protocol":17,"map":"workshop/cp_hazyfort_rc6.ugc1365963729","folder":"tf","game":"Team Fortress","app_id":440,"player_count":0,"max_players":24,"Bots":0,"server_type":"Dedicated","server_os":"Linux","password":true,"vac":true,"version":"7757534","steam_id":85568392924742828,"keywords":["cp","nocrits","nodmgspread","uncletopia"],"game_id":440,"stv_port":27086,"stv_name":"Uncletopia | Frankfurt | 8 | Community | STV","players":null},{"server_id":202,"name":"Uncletopia | Hong Kong | 1 | All Maps","name_short":"hgk-1","host":"hgk-1.hk.uncletopia.com","port":27015,"enabled":true,"region":"asia","cc":"hk","latitude":22.302711,"longitude":114.177216,"reserved":0,"last_update":"0001-01-01T00:00:00Z","name_a2s":"Uncletopia | Hong Kong | 1 | All Maps","protocol":17,"map":"koth_highpass","folder":"tf","game":"Team Fortress","app_id":440,"player_count":2,"max_players":24,"Bots":0,"server_type":"Dedicated","server_os":"Linux","password":true,"vac":true,"version":"7757534","steam_id":85568392924494504,"keywords":["cp","nocrits","nodmgspread","uncletopia"],"game_id":440,"stv_port":27016,"stv_name":"Uncletopia | Hong Kong | 1 | All Maps | STV","players":[{"user_id":1552,"name":"the green gibus","steam_id":76561199080275248,"connected_time":117000000000,"state":"active","ping":372},{"user_id":1553,"name":"Homer Simpson","steam_id":76561199470344786,"connected_time":47000000000,"state":"active","ping":295}]},{"server_id":1,"name":"Uncletopia | Los Angeles | 1 | All Maps","name_short":"lax-1","host":"lax-1.us.uncletopia.com","port":27015,"enabled":true,"region":"us-west","cc":"us","latitude":33.94279,"longitude":-118.41004,"reserved":0,"last_update":"0001-01-01T00:00:00Z","name_a2s":"Uncletopia | Los Angeles | 1 | All Maps","protocol":17,"map":"pl_thundermountain","folder":"tf","game":"Team Fortress","app_id":440,"player_count":23,"max_players":24,"Bots":0,"server_type":"Dedicated","server_os":"Linux","password":true,"vac":true,"version":"7757534","steam_id":85568392924469991,"keywords":["nocrits","nodmgspread","payload","uncletopia"],"game_id":440,"stv_port":27016,"stv_name":"Uncletopia | Los Angeles | 1 | All Maps | STV","players":[{"user_id":23,"name":"benhameen","steam_id":76561198446837615,"connected_time":3873000000000,"state":"active","ping":55},{"user_id":57,"name":"Babyface","steam_id":76561199240579044,"connected_time":1744000000000,"state":"active","ping":83},{"user_id":40,"name":"Serene Salamander","steam_id":76561198001094770,"connected_time":2506000000000,"state":"active","ping":63},{"user_id":34,"name":"CrackedSanity","steam_id":76561198279841251,"connected_time":2746000000000,"state":"active","ping":46},{"user_id":73,"name":"Gooner Witch","steam_id":76561198305488625,"connected_time":246000000000,"state":"active","ping":87},{"user_id":41,"name":"berserker_tf2 ttv","steam_id":76561198303464488,"connected_time":2299000000000,"state":"active","ping":63},{"user_id":70,"name":"Fierian","steam_id":76561198132771619,"connected_time":770000000000,"state":"active","ping":113},{"user_id":42,"name":"DAMM BRO","steam_id":76561198984762462,"connected_time":2050000000000,"state":"active","ping":60},{"user_id":69,"name":"Too Dense","steam_id":76561199015721075,"connected_time":802000000000,"state":"active","ping":69},{"user_id":74,"name":"reverendericd","steam_id":76561198086173783,"connected_time":229000000000,"state":"active","ping":133},{"user_id":44,"name":"Marauding Morty","steam_id":76561198013159528,"connected_time":2034000000000,"state":"active","ping":106},{"user_id":66,"name":"Sheep","steam_id":76561198122705864,"connected_time":1125000000000,"state":"active","ping":94},{"user_id":46,"name":"MORE BOUNCE TO THE OUNCE","steam_id":76561198243399336,"connected_time":2026000000000,"state":"active","ping":67},{"user_id":80,"name":"mews","steam_id":76561198118644686,"connected_time":24000000000,"state":"spawning","ping":55},{"user_id":48,"name":"ඞ","steam_id":76561199187895660,"connected_time":1988000000000,"state":"active","ping":54},{"user_id":78,"name":"SkeechBox 1.1.3","steam_id":76561198119215388,"connected_time":158000000000,"state":"active","ping":97},{"user_id":52,"name":"Search Engine","steam_id":76561199092845314,"connected_time":1920000000000,"state":"active","ping":121},{"user_id":59,"name":"Karazu","steam_id":76561198026674301,"connected_time":1645000000000,"state":"active","ping":79},{"user_id":71,"name":"Maid 'n' China","steam_id":76561198423392976,"connected_time":555000000000,"state":"active","ping":60},{"user_id":61,"name":"Pudsla","steam_id":76561198258974036,"connected_time":1609000000000,"state":"active","ping":58},{"user_id":79,"name":"zareski29","steam_id":76561199239730098,"connected_time":42000000000,"state":"active","ping":142},{"user_id":77,"name":"muun","steam_id":76561198111147624,"connected_time":174000000000,"state":"active","ping":59},{"user_id":72,"name":"Buswolley","steam_id":76561197995205571,"connected_time":550000000000,"state":"active","ping":56}]},{"server_id":112,"name":"Uncletopia | Los Angeles | 2 | All Maps","name_short":"lax-2","host":"lax-1.us.uncletopia.com","port":27025,"enabled":true,"region":"us-west","cc":"us","latitude":33.94279,"longitude":-118.41004,"reserved":0,"last_update":"0001-01-01T00:00:00Z","name_a2s":"Uncletopia | Los Angeles | 2 | All Maps","protocol":17,"map":"koth_cascade","folder":"tf","game":"Team Fortress","app_id":440,"player_count":0,"max_players":24,"Bots":0,"server_type":"Dedicated","server_os":"Linux","password":true,"vac":true,"version":"7757534","steam_id":85568392924469992,"keywords":["cp","nocrits","nodmgspread","uncletopia"],"game_id":440,"stv_port":27026,"stv_name":"Uncletopia | Los Angeles | 2 | All Maps | STV","players":null},{"server_id":324,"name":"Uncletopia | Los Angeles | 3 | All Maps","name_short":"lax-3","host":"lax-1.us.uncletopia.com","port":27035,"enabled":true,"region":"us-west","cc":"us","latitude":33.94279,"longitude":-118.41004,"reserved":0,"last_update":"0001-01-01T00:00:00Z","name_a2s":"Uncletopia | Los Angeles | 3 | All Maps","protocol":17,"map":"pl_pier","folder":"tf","game":"Team Fortress","app_id":440,"player_count":0,"max_players":24,"Bots":0,"server_type":"Dedicated","server_os":"Linux","password":true,"vac":true,"version":"7757534","steam_id":85568392924510198,"keywords":["nocrits","nodmgspread","payload","uncletopia"],"game_id":440,"stv_port":27036,"stv_name":"Uncletopia | Los Angeles | 3 | All Maps | STV","players":null},{"server_id":25,"name":"Uncletopia | Los Angeles | 4 | Stopwatch Beta","name_short":"lax-4","host":"lax-1.us.uncletopia.com","port":27045,"enabled":true,"region":"us-west","cc":"us","latitude":33.94279,"longitude":-118.41004,"reserved":0,"last_update":"0001-01-01T00:00:00Z","name_a2s":"Uncletopia | Los Angeles | 4 | Stopwatch Beta","protocol":17,"map":"pl_frontier_final","folder":"tf","game":"Team Fortress","app_id":440,"player_count":0,"max_players":24,"Bots":0,"server_type":"Dedicated","server_os":"Linux","password":true,"vac":true,"version":"7757534","steam_id":85568392924510199,"keywords":["nocrits","nodmgspread","payload","uncletopia"],"game_id":440,"stv_port":27046,"stv_name":"Uncletopia | Los Angeles | 4 | Stopwatch Beta | STV","players":null},{"server_id":11,"name":"Uncletopia | London | 1 | All Maps","name_short":"lon-1","host":"lon-1.uk.uncletopia.com","port":27015,"enabled":true,"region":"eu","cc":"gb","latitude":51.509865,"longitude":-0.118092,"reserved":0,"last_update":"0001-01-01T00:00:00Z","name_a2s":"Uncletopia | London | 1 | All Maps","protocol":17,"map":"pl_swiftwater_final1","folder":"tf","game":"Team Fortress","app_id":440,"player_count":24,"max_players":24,"Bots":0,"server_type":"Dedicated","server_os":"Linux","password":true,"vac":true,"version":"7757534","steam_id":85568392924367362,"keywords":["nocrits","nodmgspread","payload","uncletopia"],"game_id":440,"stv_port":27016,"stv_name":"Uncletopia | London | 1 | All Maps | STV","players":[{"user_id":399,"name":"Son Goku","steam_id":76561199383437138,"connected_time":1175000000000,"state":"active","ping":116},{"user_id":412,"name":"SuperBob103","steam_id":76561199175360012,"connected_time":298000000000,"state":"active","ping":46},{"user_id":403,"name":"Weakest Cowmagler User","steam_id":76561198848650365,"connected_time":936000000000,"state":"active","ping":135},{"user_id":402,"name":"bum","steam_id":76561198060105180,"connected_time":1149000000000,"state":"active","ping":60},{"user_id":396,"name":"Soph","steam_id":76561198131688853,"connected_time":1432000000000,"state":"active","ping":46},{"user_id":387,"name":"isqueiro","steam_id":76561198019690040,"connected_time":1917000000000,"state":"active","ping":56},{"user_id":401,"name":"mei","steam_id":76561198028078806,"connected_time":1157000000000,"state":"active","ping":44},{"user_id":286,"name":"Flash","steam_id":76561198067379855,"connected_time":5444000000000,"state":"active","ping":51},{"user_id":314,"name":"TheFlames","steam_id":76561198179314694,"connected_time":3781000000000,"state":"active","ping":61},{"user_id":351,"name":"ThrobbingFerret","steam_id":76561199075576606,"connected_time":2628000000000,"state":"active","ping":67},{"user_id":389,"name":"Skuld","steam_id":76561198064734905,"connected_time":1802000000000,"state":"active","ping":96},{"user_id":391,"name":"After8","steam_id":76561198090750865,"connected_time":1774000000000,"state":"active","ping":67},{"user_id":419,"name":"epic gamer moment","steam_id":76561198299515070,"connected_time":50000000000,"state":"active","ping":101},{"user_id":308,"name":"poshtoo @_@","steam_id":76561198106182078,"connected_time":4295000000000,"state":"active","ping":105},{"user_id":409,"name":"Croy","steam_id":76561197972552579,"connected_time":669000000000,"state":"active","ping":44},{"user_id":392,"name":"pizza time","steam_id":76561199015899793,"connected_time":1764000000000,"state":"active","ping":51},{"user_id":310,"name":"Daniel Day-Lewis","steam_id":76561198147249160,"connected_time":4287000000000,"state":"active","ping":114},{"user_id":272,"name":"dec","steam_id":76561198009660168,"connected_time":7774000000000,"state":"active","ping":47},{"user_id":415,"name":"Xx_えななんxX69","steam_id":76561199427679148,"connected_time":263000000000,"state":"active","ping":74},{"user_id":296,"name":"VEH-DEH-VEH","steam_id":76561198010978989,"connected_time":5005000000000,"state":"active","ping":67},{"user_id":360,"name":"Durham.","steam_id":76561199013125141,"connected_time":2567000000000,"state":"active","ping":62},{"user_id":313,"name":"setsunaamagüçisteyen","steam_id":76561198118407436,"connected_time":3858000000000,"state":"active","ping":46},{"user_id":356,"name":"KAYDAN","steam_id":76561198817674900,"connected_time":2607000000000,"state":"active","ping":84},{"user_id":418,"name":"dominus.","steam_id":76561199065917088,"connected_time":127000000000,"state":"active","ping":58}]},{"server_id":114,"name":"Uncletopia | London | 2 | All Maps","name_short":"lon-2","host":"lon-1.uk.uncletopia.com","port":27025,"enabled":true,"region":"eu","cc":"gb","latitude":51.509865,"longitude":-0.118092,"reserved":0,"last_update":"0001-01-01T00:00:00Z","name_a2s":"Uncletopia | London | 2 | All Maps","protocol":17,"map":"koth_highpass","folder":"tf","game":"Team Fortress","app_id":440,"player_count":0,"max_players":24,"Bots":0,"server_type":"Dedicated","server_os":"Linux","password":true,"vac":true,"version":"7757534","steam_id":85568392924470941,"keywords":["cp","nocrits","nodmgspread","uncletopia"],"game_id":440,"stv_port":27026,"stv_name":"Uncletopia | London | 2 | All Maps | STV","players":null},{"server_id":320,"name":"Uncletopia | London | 3 | All Maps","name_short":"lon-3","host":"lon-1.uk.uncletopia.com","port":27035,"enabled":true,"region":"eu","cc":"gb","latitude":51.509865,"longitude":-0.118092,"reserved":0,"last_update":"0001-01-01T00:00:00Z","name_a2s":"Uncletopia | London | 3 | All Maps","protocol":17,"map":"pl_barnblitz","folder":"tf","game":"Team Fortress","app_id":440,"player_count":24,"max_players":24,"Bots":0,"server_type":"Dedicated","server_os":"Linux","password":true,"vac":true,"version":"7757534","steam_id":85568392924510192,"keywords":["nocrits","nodmgspread","payload","uncletopia"],"game_id":440,"stv_port":27036,"stv_name":"Uncletopia | London | 3 | All Maps | STV","players":[{"user_id":403,"name":"Españaa","steam_id":76561198879587832,"connected_time":5442000000000,"state":"active","ping":81},{"user_id":448,"name":"MattyCzek","steam_id":76561198881990395,"connected_time":2896000000000,"state":"active","ping":78},{"user_id":470,"name":"6CO2 + 6H2O → C6H12O6 + 6O2","steam_id":76561198981516715,"connected_time":1648000000000,"state":"active","ping":55},{"user_id":480,"name":"Camo Leaf","steam_id":76561197999456575,"connected_time":468000000000,"state":"active","ping":48},{"user_id":449,"name":"goktwoxd","steam_id":76561198065114415,"connected_time":2874000000000,"state":"active","ping":75},{"user_id":461,"name":"noobaboon !","steam_id":76561197978350882,"connected_time":2438000000000,"state":"active","ping":44},{"user_id":444,"name":"Raulca25","steam_id":76561199068256964,"connected_time":3187000000000,"state":"active","ping":77},{"user_id":452,"name":"Gman","steam_id":76561199135387666,"connected_time":2720000000000,"state":"active","ping":214},{"user_id":472,"name":"many thanks","steam_id":76561198089003514,"connected_time":1179000000000,"state":"active","ping":59},{"user_id":473,"name":"rat performance","steam_id":76561198065854668,"connected_time":1160000000000,"state":"active","ping":42},{"user_id":453,"name":"Gardvord","steam_id":76561198120715753,"connected_time":2577000000000,"state":"active","ping":74},{"user_id":468,"name":"subway vergil","steam_id":76561199110064166,"connected_time":1795000000000,"state":"active","ping":66},{"user_id":477,"name":"wadiyatalkinabeet","steam_id":76561198045505082,"connected_time":993000000000,"state":"active","ping":90},{"user_id":474,"name":"Comedy = Tragedy + Time","steam_id":76561199095819413,"connected_time":1160000000000,"state":"active","ping":651},{"user_id":479,"name":"Christmas Ham","steam_id":76561198119601623,"connected_time":697000000000,"state":"active","ping":57},{"user_id":464,"name":"MǿşŦεŗ_ßłλçě","steam_id":76561197980124891,"connected_time":2331000000000,"state":"active","ping":60},{"user_id":455,"name":"fénix","steam_id":76561198083199151,"connected_time":2540000000000,"state":"active","ping":58},{"user_id":456,"name":"Thibob","steam_id":76561198000541852,"connected_time":2502000000000,"state":"active","ping":58},{"user_id":460,"name":"Abigor","steam_id":76561197969316578,"connected_time":2454000000000,"state":"active","ping":53},{"user_id":458,"name":"Ryz","steam_id":76561198050802856,"connected_time":2488000000000,"state":"active","ping":53},{"user_id":478,"name":"Pink Cheese","steam_id":76561198972186436,"connected_time":763000000000,"state":"active","ping":81},{"user_id":476,"name":"Flyingmeadow","steam_id":76561198144687723,"connected_time":1135000000000,"state":"active","ping":137},{"user_id":393,"name":"WiiSportKing","steam_id":76561198114139081,"connected_time":5925000000000,"state":"active","ping":59},{"user_id":465,"name":"Slowbro","steam_id":76561198010779146,"connected_time":2169000000000,"state":"active","ping":83}]},{"server_id":321,"name":"Uncletopia | London | 4 | All Maps","name_short":"lon-4","host":"lon-1.uk.uncletopia.com","port":27045,"enabled":true,"region":"eu","cc":"gb","latitude":51.509865,"longitude":-0.118092,"reserved":0,"last_update":"0001-01-01T00:00:00Z","name_a2s":"Uncletopia | London | 4 | All Maps","protocol":17,"map":"cp_process_final","folder":"tf","game":"Team Fortress","app_id":440,"player_count":2,"max_players":24,"Bots":0,"server_type":"Dedicated","server_os":"Linux","password":true,"vac":true,"version":"7757534","steam_id":85568392924510193,"keywords":["cp","nocrits","nodmgspread","uncletopia"],"game_id":440,"stv_port":27046,"stv_name":"Uncletopia | London | 4 | All Maps | STV","players":[{"user_id":18,"name":"i AM the medic gf","steam_id":76561198247284680,"connected_time":337000000000,"state":"active","ping":72},{"user_id":19,"name":"isocuk","steam_id":76561198150391339,"connected_time":308000000000,"state":"active","ping":56}]},{"server_id":21,"name":"Uncletopia | London | 5 | All Maps","name_short":"lon-5","host":"lon-1.uk.uncletopia.com","port":27055,"enabled":true,"region":"eu","cc":"gb","latitude":51.509865,"longitude":-0.118092,"reserved":0,"last_update":"0001-01-01T00:00:00Z","name_a2s":"Uncletopia | London | 5 | All Maps","protocol":17,"map":"pl_frontier_final","folder":"tf","game":"Team Fortress","app_id":440,"player_count":2,"max_players":24,"Bots":0,"server_type":"Dedicated","server_os":"Linux","password":true,"vac":true,"version":"7757534","steam_id":85568392924742829,"keywords":["nocrits","nodmgspread","payload","uncletopia"],"game_id":440,"stv_port":27056,"stv_name":"Uncletopia | London | 5 | All Maps | STV","players":[{"user_id":30,"name":"Rocadinis","steam_id":76561198095910616,"connected_time":78000000000,"state":"active","ping":106},{"user_id":31,"name":"sex havin'","steam_id":76561198169857427,"connected_time":38000000000,"state":"active","ping":77}]},{"server_id":22,"name":"Uncletopia | London | 6 | All Maps","name_short":"lon-6","host":"lon-1.uk.uncletopia.com","port":27065,"enabled":true,"region":"eu","cc":"gb","latitude":51.509865,"longitude":-0.118092,"reserved":0,"last_update":"0001-01-01T00:00:00Z","name_a2s":"Uncletopia | London | 6 | All Maps","protocol":17,"map":"koth_cascade","folder":"tf","game":"Team Fortress","app_id":440,"player_count":2,"max_players":24,"Bots":0,"server_type":"Dedicated","server_os":"Linux","password":true,"vac":true,"version":"7757534","steam_id":85568392924742830,"keywords":["cp","nocrits","nodmgspread","uncletopia"],"game_id":440,"stv_port":27066,"stv_name":"Uncletopia | London | 6 | All Maps | STV","players":[{"user_id":14,"name":"blank","steam_id":76561199074838148,"connected_time":349000000000,"state":"active","ping":53},{"user_id":10,"name":"Raivo","steam_id":76561198388750592,"connected_time":439000000000,"state":"active","ping":71}]},{"server_id":40,"name":"Uncletopia | London | 7 | No Payload","name_short":"lon-7","host":"lon-1.uk.uncletopia.com","port":27075,"enabled":true,"region":"eu","cc":"gb","latitude":51.509865,"longitude":-0.118092,"reserved":0,"last_update":"0001-01-01T00:00:00Z","name_a2s":"Uncletopia | London | 7 | No Payload","protocol":17,"map":"cp_process_final","folder":"tf","game":"Team Fortress","app_id":440,"player_count":24,"max_players":24,"Bots":0,"server_type":"Dedicated","server_os":"Linux","password":true,"vac":true,"version":"7757534","steam_id":85568392924964314,"keywords":["cp","nocrits","nodmgspread","uncletopia"],"game_id":440,"stv_port":27076,"stv_name":"Uncletopia | London | 7 | No Payload | STV","players":[{"user_id":190,"name":"arty","steam_id":76561198007971021,"connected_time":565000000000,"state":"active","ping":55},{"user_id":208,"name":"Craig Crusade","steam_id":76561199225918086,"connected_time":273000000000,"state":"active","ping":54},{"user_id":157,"name":"Cerabond","steam_id":76561199230915333,"connected_time":2394000000000,"state":"active","ping":137},{"user_id":170,"name":"i am bread","steam_id":76561199180277321,"connected_time":1745000000000,"state":"active","ping":57},{"user_id":181,"name":"P I S S","steam_id":76561199197497757,"connected_time":1244000000000,"state":"active","ping":115},{"user_id":187,"name":"Ecton","steam_id":76561198025103720,"connected_time":971000000000,"state":"active","ping":55},{"user_id":199,"name":"dOni","steam_id":76561198257223353,"connected_time":397000000000,"state":"active","ping":74},{"user_id":136,"name":"Pix","steam_id":76561199058973272,"connected_time":3461000000000,"state":"active","ping":74},{"user_id":209,"name":"vadim_kotler","steam_id":76561199016634369,"connected_time":265000000000,"state":"active","ping":116},{"user_id":164,"name":"Zepta","steam_id":76561199001659666,"connected_time":2081000000000,"state":"active","ping":118},{"user_id":189,"name":"Hermitcrack","steam_id":76561198149216441,"connected_time":611000000000,"state":"active","ping":76},{"user_id":149,"name":"Aregularhuman","steam_id":76561198343319848,"connected_time":2762000000000,"state":"active","ping":46},{"user_id":161,"name":"godzillaturkmen","steam_id":76561198399184483,"connected_time":2247000000000,"state":"active","ping":94},{"user_id":215,"name":"holykyckling","steam_id":76561198040661615,"connected_time":61000000000,"state":"active","ping":76},{"user_id":134,"name":"Corrupted","steam_id":76561198066165991,"connected_time":3600000000000,"state":"active","ping":69},{"user_id":138,"name":"japanese TF2EASY.COM | blw.tf","steam_id":76561198382064472,"connected_time":3372000000000,"state":"active","ping":70},{"user_id":211,"name":"BROOMSTER","steam_id":76561198344833818,"connected_time":222000000000,"state":"active","ping":64},{"user_id":213,"name":"Cranjis McBasketball","steam_id":76561198051290193,"connected_time":192000000000,"state":"active","ping":57},{"user_id":165,"name":"Noodle","steam_id":76561198306486695,"connected_time":2046000000000,"state":"active","ping":70},{"user_id":212,"name":"JohkupohkuXD","steam_id":76561198391108762,"connected_time":212000000000,"state":"active","ping":92},{"user_id":184,"name":"WHAALLEE","steam_id":76561199452819866,"connected_time":1175000000000,"state":"active","ping":52},{"user_id":175,"name":"Cosmetic brain","steam_id":76561198055936410,"connected_time":1625000000000,"state":"active","ping":84},{"user_id":178,"name":"duster cat","steam_id":76561198832231975,"connected_time":1413000000000,"state":"active","ping":91},{"user_id":198,"name":"Trolldier 76","steam_id":76561198036504161,"connected_time":442000000000,"state":"active","ping":194}]},{"server_id":41,"name":"Uncletopia | London | 8 | Community","name_short":"lon-8","host":"lon-1.uk.uncletopia.com","port":27085,"enabled":true,"region":"eu","cc":"gb","latitude":51.509865,"longitude":-0.118092,"reserved":0,"last_update":"0001-01-01T00:00:00Z","name_a2s":"Uncletopia | London | 8 | Community","protocol":17,"map":"workshop/cp_kalinka_rc6a.ugc1272700588","folder":"tf","game":"Team Fortress","app_id":440,"player_count":24,"max_players":24,"Bots":0,"server_type":"Dedicated","server_os":"Linux","password":true,"vac":true,"version":"7757534","steam_id":85568392924964315,"keywords":["cp","nocrits","nodmgspread","uncletopia"],"game_id":440,"stv_port":27086,"stv_name":"Uncletopia | London | 8 | Community | STV","players":[{"user_id":530,"name":"KFC Enjoyer","steam_id":76561198840259819,"connected_time":264000000000,"state":"active","ping":53},{"user_id":526,"name":"Chris","steam_id":76561198018626828,"connected_time":459000000000,"state":"active","ping":55},{"user_id":516,"name":"cool guy (me)","steam_id":76561199125982967,"connected_time":956000000000,"state":"active","ping":132},{"user_id":517,"name":"dairy","steam_id":76561198117033273,"connected_time":921000000000,"state":"active","ping":50},{"user_id":495,"name":"zaleek69","steam_id":76561198058877595,"connected_time":1724000000000,"state":"active","ping":75},{"user_id":482,"name":"TylowStar","steam_id":76561198357107806,"connected_time":2073000000000,"state":"active","ping":68},{"user_id":527,"name":"FatalRyhme","steam_id":76561198018713483,"connected_time":444000000000,"state":"active","ping":93},{"user_id":441,"name":"AYE","steam_id":76561198181368101,"connected_time":3941000000000,"state":"active","ping":61},{"user_id":518,"name":"Chikapu_Xek","steam_id":76561198428023493,"connected_time":829000000000,"state":"active","ping":80},{"user_id":519,"name":"Sh3ba Spaniel","steam_id":76561198047412394,"connected_time":826000000000,"state":"active","ping":161},{"user_id":509,"name":"FANTANO MELON HEAD","steam_id":76561198146194820,"connected_time":1336000000000,"state":"active","ping":45},{"user_id":454,"name":"poliakov.noam","steam_id":76561199259322961,"connected_time":3289000000000,"state":"active","ping":103},{"user_id":450,"name":"nalezinik","steam_id":76561198030026119,"connected_time":3579000000000,"state":"active","ping":137},{"user_id":503,"name":"Арочник","steam_id":76561199350705813,"connected_time":1521000000000,"state":"active","ping":100},{"user_id":523,"name":"Lukey","steam_id":76561198074642724,"connected_time":704000000000,"state":"active","ping":75},{"user_id":504,"name":"gGABEsz","steam_id":76561198117199068,"connected_time":1459000000000,"state":"active","ping":72},{"user_id":529,"name":"Femboy with the wrong pronouns","steam_id":76561198072320671,"connected_time":359000000000,"state":"active","ping":32},{"user_id":502,"name":"Iarej-Uchurok","steam_id":76561198209185612,"connected_time":1563000000000,"state":"active","ping":89},{"user_id":513,"name":"nightmare","steam_id":76561198386928726,"connected_time":1238000000000,"state":"active","ping":101},{"user_id":481,"name":"Penis Contortionist","steam_id":76561198073663784,"connected_time":2121000000000,"state":"active","ping":42},{"user_id":524,"name":"akela","steam_id":76561198122010232,"connected_time":578000000000,"state":"active","ping":79},{"user_id":491,"name":"Rodia","steam_id":76561197968293161,"connected_time":1966000000000,"state":"active","ping":75},{"user_id":494,"name":"Пес Патрон","steam_id":76561198273199378,"connected_time":1899000000000,"state":"active","ping":78},{"user_id":525,"name":"the boil","steam_id":76561199236080782,"connected_time":544000000000,"state":"active","ping":106}]},{"server_id":300,"name":"Uncletopia | Montréal | 1 | All Maps","name_short":"mtl-1","host":"mtl-1.ca.uncletopia.com","port":27015,"enabled":true,"region":"us-east","cc":"ca","latitude":45.50889,"longitude":-73.56167,"reserved":0,"last_update":"0001-01-01T00:00:00Z","name_a2s":"Uncletopia | Montréal | 1 | All Maps","protocol":17,"map":"cp_dustbowl","folder":"tf","game":"Team Fortress","app_id":440,"player_count":0,"max_players":24,"Bots":0,"server_type":"Dedicated","server_os":"Linux","password":true,"vac":true,"version":"7757534","steam_id":85568392924500087,"keywords":["cp","nocrits","nodmgspread","uncletopia"],"game_id":440,"stv_port":27016,"stv_name":"Uncletopia | Montréal | 1 | All Maps | STV","players":null},{"server_id":301,"name":"Uncletopia | Montréal | 2 | All Maps","name_short":"mtl-2","host":"mtl-1.ca.uncletopia.com","port":27025,"enabled":true,"region":"us-east","cc":"ca","latitude":45.50889,"longitude":-73.56167,"reserved":0,"last_update":"0001-01-01T00:00:00Z","name_a2s":"Uncletopia | Montréal | 2 | All Maps","protocol":17,"map":"pl_snowycoast","folder":"tf","game":"Team Fortress","app_id":440,"player_count":0,"max_players":24,"Bots":0,"server_type":"Dedicated","server_os":"Linux","password":true,"vac":true,"version":"7757534","steam_id":85568392924500088,"keywords":["nocrits","nodmgspread","payload","uncletopia"],"game_id":440,"stv_port":27026,"stv_name":"Uncletopia | Montréal | 2 | All Maps | STV","players":null},{"server_id":302,"name":"Uncletopia | Montréal | 3 | All Maps","name_short":"mtl-3","host":"mtl-1.ca.uncletopia.com","port":27035,"enabled":true,"region":"us-east","cc":"ca","latitude":45.50889,"longitude":-73.56167,"reserved":0,"last_update":"0001-01-01T00:00:00Z","name_a2s":"Uncletopia | Montréal | 3 | All Maps","protocol":17,"map":"cp_dustbowl","folder":"tf","game":"Team Fortress","app_id":440,"player_count":1,"max_players":24,"Bots":0,"server_type":"Dedicated","server_os":"Linux","password":true,"vac":true,"version":"7757534","steam_id":85568392924500089,"keywords":["cp","nocrits","nodmgspread","uncletopia"],"game_id":440,"stv_port":27036,"stv_name":"Uncletopia | Montréal | 3 | All Maps | STV","players":[{"user_id":3,"name":"captaincaptain","steam_id":76561198135644587,"connected_time":99000000000,"state":"active","ping":70}]},{"server_id":303,"name":"Uncletopia | Montréal | 4 | No Payload","name_short":"mtl-4","host":"mtl-1.ca.uncletopia.com","port":27045,"enabled":true,"region":"us-east","cc":"ca","latitude":45.50889,"longitude":-73.56167,"reserved":0,"last_update":"0001-01-01T00:00:00Z","name_a2s":"Uncletopia | Montréal | 4 | No Payload","protocol":17,"map":"pl_borneo","folder":"tf","game":"Team Fortress","app_id":440,"player_count":0,"max_players":24,"Bots":0,"server_type":"Dedicated","server_os":"Linux","password":true,"vac":true,"version":"7757534","steam_id":85568392924500090,"keywords":["nocrits","nodmgspread","payload","uncletopia"],"game_id":440,"stv_port":27046,"stv_name":"Uncletopia | Montréal | 4 | No Payload | STV","players":null},{"server_id":13,"name":"Uncletopia | New York City | 1 | All Maps","name_short":"nyc-1","host":"nyc-1.us.uncletopia.com","port":27015,"enabled":true,"region":"us-east","cc":"us","latitude":40.73061,"longitude":-73.93524,"reserved":0,"last_update":"0001-01-01T00:00:00Z","name_a2s":"Uncletopia | New York City | 1 | All Maps","protocol":17,"map":"pl_borneo","folder":"tf","game":"Team Fortress","app_id":440,"player_count":0,"max_players":24,"Bots":0,"server_type":"Dedicated","server_os":"Linux","password":true,"vac":true,"version":"7757534","steam_id":85568392924469993,"keywords":["nocrits","nodmgspread","payload","uncletopia"],"game_id":440,"stv_port":27016,"stv_name":"Uncletopia | New York City | 1 | All Maps | STV","players":null},{"server_id":14,"name":"Uncletopia | New York City | 2 | All Maps","name_short":"nyc-2","host":"nyc-1.us.uncletopia.com","port":27025,"enabled":true,"region":"us-east","cc":"us","latitude":40.73061,"longitude":-73.93524,"reserved":0,"last_update":"0001-01-01T00:00:00Z","name_a2s":"Uncletopia | New York City | 2 | All Maps","protocol":17,"map":"pl_barnblitz","folder":"tf","game":"Team Fortress","app_id":440,"player_count":24,"max_players":24,"Bots":0,"server_type":"Dedicated","server_os":"Linux","password":true,"vac":true,"version":"7757534","steam_id":85568392924469994,"keywords":["nocrits","nodmgspread","payload","uncletopia"],"game_id":440,"stv_port":27026,"stv_name":"Uncletopia | New York City | 2 | All Maps | STV","players":[{"user_id":119,"name":"Reisen","steam_id":76561197968832019,"connected_time":3655000000000,"state":"connecting","ping":46},{"user_id":127,"name":"stevefelber","steam_id":76561199467139120,"connected_time":2934000000000,"state":"connecting","ping":60},{"user_id":76,"name":"Chachi","steam_id":76561199045511890,"connected_time":5942000000000,"state":"connecting","ping":67},{"user_id":107,"name":"goose","steam_id":76561198139632880,"connected_time":3988000000000,"state":"connecting","ping":66},{"user_id":161,"name":"Induceddata","steam_id":76561198868302455,"connected_time":24000000000,"state":"connecting","ping":49},{"user_id":20,"name":"gghfgfgfg","steam_id":76561198064823861,"connected_time":8731000000000,"state":"connecting","ping":72},{"user_id":24,"name":"\\|)=|_|=(|/","steam_id":76561198171491110,"connected_time":8657000000000,"state":"connecting","ping":72},{"user_id":142,"name":"Smoeker","steam_id":76561198166723053,"connected_time":1173000000000,"state":"connecting","ping":96},{"user_id":141,"name":"Fiendish Frog","steam_id":76561198029478821,"connected_time":1186000000000,"state":"connecting","ping":65},{"user_id":145,"name":"Monsieur Hon Hon","steam_id":76561198023120057,"connected_time":1109000000000,"state":"connecting","ping":76},{"user_id":89,"name":"Bambi's Mom","steam_id":76561199120483390,"connected_time":5337000000000,"state":"connecting","ping":107},{"user_id":155,"name":"WhitePenguin = Cute","steam_id":76561198962770049,"connected_time":698000000000,"state":"connecting","ping":139},{"user_id":146,"name":"Captain Demytri","steam_id":76561198097998607,"connected_time":1100000000000,"state":"connecting","ping":54},{"user_id":156,"name":"canakblasteran","steam_id":76561199472518822,"connected_time":663000000000,"state":"connecting","ping":144},{"user_id":137,"name":"ThePacBruno","steam_id":76561198046084545,"connected_time":1998000000000,"state":"connecting","ping":178},{"user_id":159,"name":"lyanide","steam_id":76561198311704368,"connected_time":389000000000,"state":"connecting","ping":76},{"user_id":157,"name":"vieodgaems","steam_id":76561198025295263,"connected_time":633000000000,"state":"connecting","ping":111},{"user_id":164,"name":"PzVIIIMaus","steam_id":76561198346559365,"connected_time":14000000000,"state":"connecting","ping":59},{"user_id":144,"name":"jimbo","steam_id":76561198046059770,"connected_time":1167000000000,"state":"connecting","ping":65},{"user_id":160,"name":"Spirit","steam_id":76561199069322627,"connected_time":65000000000,"state":"connecting","ping":68},{"user_id":162,"name":"Cecil","steam_id":76561199309028776,"connected_time":24000000000,"state":"connecting","ping":66},{"user_id":118,"name":"Dreysidehl","steam_id":76561198056496183,"connected_time":3683000000000,"state":"connecting","ping":94},{"user_id":163,"name":"You Don't Nomi.","steam_id":76561197969137836,"connected_time":23000000000,"state":"connecting","ping":58},{"user_id":143,"name":"qjkxkcd","steam_id":76561198035922283,"connected_time":1173000000000,"state":"connecting","ping":57}]},{"server_id":15,"name":"Uncletopia | New York City | 3 | Stopwatch Beta","name_short":"nyc-3","host":"nyc-1.us.uncletopia.com","port":27035,"enabled":true,"region":"us-east","cc":"us","latitude":40.73061,"longitude":-73.93524,"reserved":0,"last_update":"0001-01-01T00:00:00Z","name_a2s":"Uncletopia | New York City | 3 | Stopwatch Beta","protocol":17,"map":"workshop/koth_ashville_final.ugc2130459942","folder":"tf","game":"Team Fortress","app_id":440,"player_count":0,"max_players":24,"Bots":0,"server_type":"Dedicated","server_os":"Linux","password":true,"vac":true,"version":"7757534","steam_id":85568392924742820,"keywords":["cp","nocrits","nodmgspread","uncletopia"],"game_id":440,"stv_port":27036,"stv_name":"Uncletopia | New York City | 3 | Stopwatch Beta | STV","players":null},{"server_id":16,"name":"Uncletopia | New York City | 4 | Community","name_short":"nyc-4","host":"nyc-1.us.uncletopia.com","port":27045,"enabled":true,"region":"us-east","cc":"us","latitude":40.73061,"longitude":-73.93524,"reserved":0,"last_update":"0001-01-01T00:00:00Z","name_a2s":"Uncletopia | New York City | 4 | Community","protocol":17,"map":"workshop/cp_kalinka_rc6a.ugc1272700588","folder":"tf","game":"Team Fortress","app_id":440,"player_count":0,"max_players":24,"Bots":0,"server_type":"Dedicated","server_os":"Linux","password":true,"vac":true,"version":"7757534","steam_id":85568392924742821,"keywords":["cp","nocrits","nodmgspread","uncletopia"],"game_id":440,"stv_port":27046,"stv_name":"Uncletopia | New York City | 4 | Community | STV","players":null},{"server_id":142,"name":"Uncletopia | São Paulo | 1 | All Maps","name_short":"sao-1","host":"sao-1.br.uncletopia.com","port":27015,"enabled":true,"region":"sa","cc":"br","latitude":-23.533773,"longitude":-46.62529,"reserved":0,"last_update":"0001-01-01T00:00:00Z","name_a2s":"Uncletopia | São Paulo | 1 | All Maps","protocol":17,"map":"koth_highpass","folder":"tf","game":"Team Fortress","app_id":440,"player_count":0,"max_players":24,"Bots":0,"server_type":"Dedicated","server_os":"Linux","password":true,"vac":true,"version":"7757534","steam_id":85568392924469996,"keywords":["cp","nocrits","nodmgspread","uncletopia"],"game_id":440,"stv_port":27016,"stv_name":"Uncletopia | São Paulo | 1 | All Maps | STV","players":null},{"server_id":143,"name":"Uncletopia | São Paulo | 2 | All Maps","name_short":"sao-2","host":"sao-2.br.uncletopia.com","port":27015,"enabled":true,"region":"sa","cc":"br","latitude":-23.533773,"longitude":-46.62529,"reserved":0,"last_update":"0001-01-01T00:00:00Z","name_a2s":"Uncletopia | São Paulo | 2 | All Maps","protocol":17,"map":"pl_barnblitz","folder":"tf","game":"Team Fortress","app_id":440,"player_count":1,"max_players":24,"Bots":0,"server_type":"Dedicated","server_os":"Linux","password":true,"vac":true,"version":"7757534","steam_id":85568392924485349,"keywords":["nocrits","nodmgspread","payload","uncletopia"],"game_id":440,"stv_port":27016,"stv_name":"Uncletopia | São Paulo | 2 | All Maps | STV","players":[{"user_id":51,"name":"mrw","steam_id":76561199090188453,"connected_time":72000000000,"state":"active","ping":51}]},{"server_id":7,"name":"Uncletopia | Seattle | 1 | All Maps","name_short":"sea-1","host":"sea-1.us.uncletopia.com","port":27015,"enabled":true,"region":"us-west","cc":"us","latitude":47.608013,"longitude":-122.33517,"reserved":0,"last_update":"0001-01-01T00:00:00Z","name_a2s":"Uncletopia | Seattle | 1 | All Maps","protocol":17,"map":"pl_snowycoast","folder":"tf","game":"Team Fortress","app_id":440,"player_count":24,"max_players":24,"Bots":0,"server_type":"Dedicated","server_os":"Linux","password":true,"vac":true,"version":"7757534","steam_id":85568392924469997,"keywords":["nocrits","nodmgspread","payload","uncletopia"],"game_id":440,"stv_port":27016,"stv_name":"Uncletopia | Seattle | 1 | All Maps | STV","players":[{"user_id":172,"name":"Callahan","steam_id":76561197976928457,"connected_time":958000000000,"state":"active","ping":53},{"user_id":15,"name":"Little Linguine","steam_id":76561198816986370,"connected_time":12143000000000,"state":"active","ping":51},{"user_id":158,"name":"❤ Ashley ❤","steam_id":76561198056428303,"connected_time":2822000000000,"state":"active","ping":76},{"user_id":186,"name":"pew pew","steam_id":76561198110661425,"connected_time":661000000000,"state":"active","ping":111},{"user_id":183,"name":"spacetoven","steam_id":76561198115821131,"connected_time":706000000000,"state":"active","ping":60},{"user_id":176,"name":"EEBIGAA","steam_id":76561198056535988,"connected_time":928000000000,"state":"active","ping":71},{"user_id":165,"name":"garry","steam_id":76561199091007559,"connected_time":2311000000000,"state":"active","ping":87},{"user_id":190,"name":"mhmyeah_yeahmhm","steam_id":76561198341190679,"connected_time":410000000000,"state":"active","ping":62},{"user_id":124,"name":"Futureguy33","steam_id":76561198101336564,"connected_time":5023000000000,"state":"active","ping":129},{"user_id":170,"name":"Xavibite","steam_id":76561198209380493,"connected_time":969000000000,"state":"active","ping":106},{"user_id":177,"name":"His \u003c3","steam_id":76561198340685758,"connected_time":927000000000,"state":"active","ping":64},{"user_id":160,"name":"ShredMaan","steam_id":76561198429982138,"connected_time":2667000000000,"state":"active","ping":84},{"user_id":135,"name":"Universal Knowledge Allah","steam_id":76561198855935442,"connected_time":4672000000000,"state":"active","ping":64},{"user_id":182,"name":"heisenberg","steam_id":76561198170879526,"connected_time":729000000000,"state":"active","ping":77},{"user_id":174,"name":"Warlock","steam_id":76561199033164093,"connected_time":942000000000,"state":"active","ping":47},{"user_id":178,"name":"Jonatello","steam_id":76561198045699189,"connected_time":923000000000,"state":"active","ping":112},{"user_id":167,"name":"Luca","steam_id":76561198125087140,"connected_time":1635000000000,"state":"active","ping":51},{"user_id":153,"name":"Training Arc","steam_id":76561198038832034,"connected_time":3297000000000,"state":"active","ping":56},{"user_id":194,"name":"HaphazardHazel","steam_id":76561198316812693,"connected_time":234000000000,"state":"active","ping":135},{"user_id":161,"name":"SilentninjaTheUndefenestratable","steam_id":76561198387601885,"connected_time":2448000000000,"state":"active","ping":88},{"user_id":162,"name":"ORANGE","steam_id":76561198000401769,"connected_time":2399000000000,"state":"active","ping":49},{"user_id":181,"name":"help","steam_id":76561199056338917,"connected_time":907000000000,"state":"active","ping":122},{"user_id":188,"name":"dearender","steam_id":76561199427644498,"connected_time":514000000000,"state":"active","ping":70},{"user_id":193,"name":"Big Smoke","steam_id":76561198278375987,"connected_time":270000000000,"state":"active","ping":122}]},{"server_id":119,"name":"Uncletopia | Seattle | 2 | All Maps","name_short":"sea-2","host":"sea-1.us.uncletopia.com","port":27025,"enabled":true,"region":"us-west","cc":"us","latitude":47.608013,"longitude":-122.33517,"reserved":0,"last_update":"0001-01-01T00:00:00Z","name_a2s":"Uncletopia | Seattle | 2 | All Maps","protocol":17,"map":"koth_lakeside_final","folder":"tf","game":"Team Fortress","app_id":440,"player_count":10,"max_players":24,"Bots":0,"server_type":"Dedicated","server_os":"Linux","password":true,"vac":true,"version":"7757534","steam_id":85568392924469998,"keywords":["cp","nocrits","nodmgspread","uncletopia"],"game_id":440,"stv_port":27026,"stv_name":"Uncletopia | Seattle | 2 | All Maps | STV","players":[{"user_id":10,"name":"shiftshock01","steam_id":76561199049488870,"connected_time":1830000000000,"state":"active","ping":50},{"user_id":16,"name":"Super Mega Buster #savetf2","steam_id":76561198160316069,"connected_time":700000000000,"state":"active","ping":43},{"user_id":15,"name":"sleepy (Pocket choice)","steam_id":76561199283485895,"connected_time":825000000000,"state":"active","ping":221},{"user_id":18,"name":"Ryld","steam_id":76561198010174380,"connected_time":445000000000,"state":"active","ping":60},{"user_id":19,"name":"toon (arsonist)","steam_id":76561198087422193,"connected_time":199000000000,"state":"active","ping":73},{"user_id":20,"name":"Turnups","steam_id":76561199078299198,"connected_time":185000000000,"state":"active","ping":128},{"user_id":21,"name":"Mirari","steam_id":76561198126889358,"connected_time":165000000000,"state":"active","ping":124},{"user_id":22,"name":"GloryToFlygod","steam_id":76561198963236216,"connected_time":46000000000,"state":"active","ping":96},{"user_id":23,"name":"Blue Protogen - 001198","steam_id":76561198145791867,"connected_time":33000000000,"state":"active","ping":87},{"user_id":24,"name":"1dk","steam_id":76561198135104742,"connected_time":20000000000,"state":"spawning","ping":45}]},{"server_id":406,"name":"Uncletopia | Seattle | 3 | Stopwatch Beta","name_short":"sea-3","host":"sea-1.us.uncletopia.com","port":27035,"enabled":true,"region":"us-west","cc":"us","latitude":47.608013,"longitude":-122.33517,"reserved":0,"last_update":"0001-01-01T00:00:00Z","name_a2s":"Uncletopia | Seattle | 3 | Stopwatch Beta","protocol":17,"map":"pl_barnblitz","folder":"tf","game":"Team Fortress","app_id":440,"player_count":0,"max_players":24,"Bots":0,"server_type":"Dedicated","server_os":"Linux","password":true,"vac":true,"version":"7757534","steam_id":85568392924515217,"keywords":["nocrits","nodmgspread","payload","uncletopia"],"game_id":440,"stv_port":27036,"stv_name":"Uncletopia | Seattle | 3 | Stopwatch Beta | STV","players":null},{"server_id":17,"name":"Uncletopia | San Francisco | 1 | All Maps","name_short":"sfo-1","host":"sfo-1.us.uncletopia.com","port":27015,"enabled":true,"region":"us-west","cc":"us","latitude":37.77397,"longitude":-122.4313,"reserved":0,"last_update":"0001-01-01T00:00:00Z","name_a2s":"Uncletopia | San Francisco | 1 | All Maps","protocol":17,"map":"koth_viaduct","folder":"tf","game":"Team Fortress","app_id":440,"player_count":0,"max_players":24,"Bots":0,"server_type":"Dedicated","server_os":"Linux","password":true,"vac":true,"version":"7757534","steam_id":85568392924469999,"keywords":["cp","nocrits","nodmgspread","uncletopia"],"game_id":440,"stv_port":27016,"stv_name":"Uncletopia | San Francisco | 1 | All Maps | STV","players":null},{"server_id":18,"name":"Uncletopia | San Francisco | 2 | All Maps","name_short":"sfo-2","host":"sfo-1.us.uncletopia.com","port":27025,"enabled":true,"region":"us-west","cc":"us","latitude":37.77397,"longitude":-122.4313,"reserved":0,"last_update":"0001-01-01T00:00:00Z","name_a2s":"Uncletopia | San Francisco | 2 | All Maps","protocol":17,"map":"cp_sunshine","folder":"tf","game":"Team Fortress","app_id":440,"player_count":0,"max_players":24,"Bots":0,"server_type":"Dedicated","server_os":"Linux","password":true,"vac":true,"version":"7757534","steam_id":85568392924470000,"keywords":["cp","nocrits","nodmgspread","uncletopia"],"game_id":440,"stv_port":27026,"stv_name":"Uncletopia | San Francisco | 2 | All Maps | STV","players":null},{"server_id":19,"name":"Uncletopia | San Francisco | 3 | Stopwatch Beta","name_short":"sfo-3","host":"sfo-1.us.uncletopia.com","port":27035,"enabled":true,"region":"us-west","cc":"us","latitude":37.77397,"longitude":-122.4313,"reserved":0,"last_update":"0001-01-01T00:00:00Z","name_a2s":"Uncletopia | San Francisco | 3 | Stopwatch Beta","protocol":17,"map":"pl_borneo","folder":"tf","game":"Team Fortress","app_id":440,"player_count":0,"max_players":24,"Bots":0,"server_type":"Dedicated","server_os":"Linux","password":true,"vac":true,"version":"7757534","steam_id":85568392924742824,"keywords":["nocrits","nodmgspread","payload","uncletopia"],"game_id":440,"stv_port":27036,"stv_name":"Uncletopia | San Francisco | 3 | Stopwatch Beta | STV","players":null},{"server_id":20,"name":"Uncletopia | San Francisco | 4 | Community","name_short":"sfo-4","host":"sfo-1.us.uncletopia.com","port":27045,"enabled":true,"region":"us-west","cc":"us","latitude":37.77397,"longitude":-122.4313,"reserved":0,"last_update":"0001-01-01T00:00:00Z","name_a2s":"Uncletopia | San Francisco | 4 | Community","protocol":17,"map":"koth_highpass","folder":"tf","game":"Team Fortress","app_id":440,"player_count":0,"max_players":24,"Bots":0,"server_type":"Dedicated","server_os":"Linux","password":true,"vac":true,"version":"7757534","steam_id":85568392924742826,"keywords":["cp","nocrits","nodmgspread","uncletopia"],"game_id":440,"stv_port":27046,"stv_name":"Uncletopia | San Francisco | 4 | Community | STV","players":null},{"server_id":141,"name":"Uncletopia | Sydney | 1 | All Maps","name_short":"syd-1","host":"syd-1.au.uncletopia.com","port":27015,"enabled":true,"region":"au","cc":"au","latitude":-33.865143,"longitude":151.2099,"reserved":0,"last_update":"0001-01-01T00:00:00Z","name_a2s":"Uncletopia | Sydney | 1 | All Maps","protocol":17,"map":"koth_highpass","folder":"tf","game":"Team Fortress","app_id":440,"player_count":0,"max_players":24,"Bots":0,"server_type":"Dedicated","server_os":"Linux","password":true,"vac":true,"version":"7757534","steam_id":85568392924470001,"keywords":["cp","nocrits","nodmgspread","uncletopia"],"game_id":440,"stv_port":27016,"stv_name":"Uncletopia | Sydney | 1 | All Maps | STV","players":null},{"server_id":123,"name":"Uncletopia | Sydney | 2 | All Maps","name_short":"syd-2","host":"syd-1.au.uncletopia.com","port":27025,"enabled":true,"region":"au","cc":"au","latitude":-33.865143,"longitude":151.2099,"reserved":0,"last_update":"0001-01-01T00:00:00Z","name_a2s":"Uncletopia | Sydney | 2 | All Maps","protocol":17,"map":"cp_dustbowl","folder":"tf","game":"Team Fortress","app_id":440,"player_count":0,"max_players":24,"Bots":0,"server_type":"Dedicated","server_os":"Linux","password":true,"vac":true,"version":"7757534","steam_id":85568392924470002,"keywords":["cp","nocrits","nodmgspread","uncletopia"],"game_id":440,"stv_port":27026,"stv_name":"Uncletopia | Sydney | 2 | All Maps | STV","players":null},{"server_id":395,"name":"Uncletopia | Sydney | 3 | All Maps","name_short":"syd-3","host":"syd-1.au.uncletopia.com","port":27035,"enabled":true,"region":"au","cc":"au","latitude":-33.865143,"longitude":151.2099,"reserved":0,"last_update":"0001-01-01T00:00:00Z","name_a2s":"Uncletopia | Sydney | 3 | All Maps","protocol":17,"map":"koth_viaduct","folder":"tf","game":"Team Fortress","app_id":440,"player_count":0,"max_players":24,"Bots":0,"server_type":"Dedicated","server_os":"Linux","password":true,"vac":true,"version":"7757534","steam_id":85568392925194467,"keywords":["cp","nocrits","nodmgspread","uncletopia"],"game_id":440,"stv_port":27036,"stv_name":"Uncletopia | Sydney | 3 | All Maps | STV","players":null},{"server_id":396,"name":"Uncletopia | Sydney | 4 | All Maps","name_short":"syd-4","host":"syd-1.au.uncletopia.com","port":27045,"enabled":true,"region":"au","cc":"au","latitude":-33.865143,"longitude":151.2099,"reserved":0,"last_update":"0001-01-01T00:00:00Z","name_a2s":"Uncletopia | Sydney | 4 | All Maps","protocol":17,"map":"pl_upward","folder":"tf","game":"Team Fortress","app_id":440,"player_count":0,"max_players":24,"Bots":0,"server_type":"Dedicated","server_os":"Linux","password":true,"vac":true,"version":"7757534","steam_id":85568392925397958,"keywords":["nocrits","nodmgspread","payload","uncletopia"],"game_id":440,"stv_port":27046,"stv_name":"Uncletopia | Sydney | 4 | All Maps | STV","players":null},{"server_id":58,"name":"Uncletopia | Sydney | 5 | Stopwatch Beta","name_short":"syd-5","host":"syd-1.au.uncletopia.com","port":27055,"enabled":true,"region":"au","cc":"au","latitude":-33.865143,"longitude":151.2099,"reserved":0,"last_update":"0001-01-01T00:00:00Z","name_a2s":"Uncletopia | Sydney | 5 | Stopwatch Beta","protocol":17,"map":"pl_swiftwater_final1","folder":"tf","game":"Team Fortress","app_id":440,"player_count":0,"max_players":24,"Bots":0,"server_type":"Dedicated","server_os":"Linux","password":true,"vac":true,"version":"7757534","steam_id":85568392925397959,"keywords":["nocrits","nodmgspread","payload","uncletopia"],"game_id":440,"stv_port":27056,"stv_name":"Uncletopia | Sydney | 5 | Stopwatch Beta | STV","players":null},{"server_id":59,"name":"Uncletopia | Sydney | 6 | Community","name_short":"syd-6","host":"syd-1.au.uncletopia.com","port":27065,"enabled":true,"region":"au","cc":"au","latitude":-33.865143,"longitude":151.2099,"reserved":0,"last_update":"0001-01-01T00:00:00Z","name_a2s":"Uncletopia | Sydney | 6 | Community","protocol":17,"map":"workshop/koth_synthetic_rc6a.ugc1549817316","folder":"tf","game":"Team Fortress","app_id":440,"player_count":0,"max_players":24,"Bots":0,"server_type":"Dedicated","server_os":"Linux","password":true,"vac":true,"version":"7757534","steam_id":85568392925397960,"keywords":["cp","nocrits","nodmgspread","uncletopia"],"game_id":440,"stv_port":27066,"stv_name":"Uncletopia | Sydney | 6 | Community | STV","players":null},{"server_id":49,"name":"Uncletopia | Warsaw | 1 | All Maps","name_short":"waw-1","host":"waw-1.pl.uncletopia.com","port":27015,"enabled":true,"region":"eu","cc":"pl","latitude":52.2297,"longitude":21.017532,"reserved":0,"last_update":"0001-01-01T00:00:00Z","name_a2s":"","protocol":0,"map":"","folder":"","game":"","app_id":0,"player_count":0,"max_players":0,"Bots":0,"server_type":"","server_os":"","password":false,"vac":false,"version":"","steam_id":0,"keywords":null,"game_id":0,"stv_port":0,"stv_name":"","players":null},{"server_id":50,"name":"Uncletopia | Warsaw | 2 | All Maps","name_short":"waw-2","host":"waw-1.pl.uncletopia.com","port":27025,"enabled":true,"region":"eu","cc":"pl","latitude":52.2297,"longitude":21.017532,"reserved":0,"last_update":"0001-01-01T00:00:00Z","name_a2s":"Uncletopia | Warsaw | 2 | All Maps","protocol":17,"map":"pl_swiftwater_final1","folder":"tf","game":"Team Fortress","app_id":440,"player_count":0,"max_players":24,"Bots":0,"server_type":"Dedicated","server_os":"Linux","password":true,"vac":true,"version":"7757534","steam_id":85568392925397851,"keywords":["nocrits","nodmgspread","payload","uncletopia"],"game_id":440,"stv_port":27026,"stv_name":"Uncletopia | Warsaw | 2 | All Maps | STV","players":null},{"server_id":51,"name":"Uncletopia | Warsaw | 3 | All Maps","name_short":"waw-3","host":"waw-1.pl.uncletopia.com","port":27035,"enabled":true,"region":"eu","cc":"pl","latitude":52.2297,"longitude":21.017532,"reserved":0,"last_update":"0001-01-01T00:00:00Z","name_a2s":"Uncletopia | Warsaw | 3 | All Maps","protocol":17,"map":"pl_barnblitz","folder":"tf","game":"Team Fortress","app_id":440,"player_count":0,"max_players":24,"Bots":0,"server_type":"Dedicated","server_os":"Linux","password":true,"vac":true,"version":"7757534","steam_id":85568392925397852,"keywords":["nocrits","nodmgspread","payload","uncletopia"],"game_id":440,"stv_port":27036,"stv_name":"Uncletopia | Warsaw | 3 | All Maps | STV","players":null},{"server_id":52,"name":"Uncletopia | Warsaw | 4 | All Maps","name_short":"waw-4","host":"waw-1.pl.uncletopia.com","port":27045,"enabled":true,"region":"eu","cc":"pl","latitude":52.2297,"longitude":21.017532,"reserved":0,"last_update":"0001-01-01T00:00:00Z","name_a2s":"Uncletopia | Warsaw | 4 | All Maps","protocol":17,"map":"pl_snowycoast","folder":"tf","game":"Team Fortress","app_id":440,"player_count":0,"max_players":24,"Bots":0,"server_type":"Dedicated","server_os":"Linux","password":true,"vac":true,"version":"7757534","steam_id":85568392925397853,"keywords":["nocrits","nodmgspread","payload","uncletopia"],"game_id":440,"stv_port":27046,"stv_name":"Uncletopia | Warsaw | 4 | All Maps | STV","players":null},{"server_id":53,"name":"Uncletopia | Warsaw | 5 | Stopwatch Beta","name_short":"waw-5","host":"waw-1.pl.uncletopia.com","port":27055,"enabled":true,"region":"eu","cc":"pl","latitude":52.2297,"longitude":21.017532,"reserved":0,"last_update":"0001-01-01T00:00:00Z","name_a2s":"Uncletopia | Warsaw | 5 | Stopwatch Beta","protocol":17,"map":"pl_barnblitz","folder":"tf","game":"Team Fortress","app_id":440,"player_count":0,"max_players":24,"Bots":0,"server_type":"Dedicated","server_os":"Linux","password":true,"vac":true,"version":"7757534","steam_id":85568392925397854,"keywords":["nocrits","nodmgspread","payload","uncletopia"],"game_id":440,"stv_port":27056,"stv_name":"Uncletopia | Warsaw | 5 | Stopwatch Beta | STV","players":null},{"server_id":54,"name":"Uncletopia | Warsaw | 6 | Community","name_short":"waw-6","host":"waw-1.pl.uncletopia.com","port":27065,"enabled":true,"region":"eu","cc":"pl","latitude":52.2297,"longitude":21.017532,"reserved":0,"last_update":"0001-01-01T00:00:00Z","name_a2s":"Uncletopia | Warsaw | 6 | Community","protocol":17,"map":"workshop/koth_trenchfoot_b1a.ugc731436616","folder":"tf","game":"Team Fortress","app_id":440,"player_count":0,"max_players":24,"Bots":0,"server_type":"Dedicated","server_os":"Linux","password":true,"vac":true,"version":"7757534","steam_id":85568392925397856,"keywords":["cp","nocrits","nodmgspread","uncletopia"],"game_id":440,"stv_port":27066,"stv_name":"Uncletopia | Warsaw | 6 | Community | STV","players":null}]}