{"status":true,"message":"","result":[{"server_id":9,"name":"Uncletopia | Atlanta | 1 | All Maps","name_short":"atl-1","host":"atl-1.us.uncletopia.com","port":27015,"enabled":true,"region":"us-east","cc":"us","latitude":33.753746,"longitude":-84.38633,"reserved":0,"last_update":"0001-01-01T00:00:00Z","name_a2s":"Uncletopia | Atlanta | 1 | All Maps","protocol":17,"map":"pl_frontier_final","folder":"tf","game":"Team Fortress","app_id":440,"player_count":6,"max_players":24,"Bots":0,"server_type":"Dedicated","server_os":"Linux","password":true,"vac":true,"version":"7757534","steam_id":85568392924469982,"keywords":["nocrits","nodmgspread","payload","uncletopia"],"game_id":440,"stv_port":27016,"stv_name":"Uncletopia | Atlanta | 1 | All Maps | STV","players":[{"user_id":25,"name":"My meme now","steam_id":76561199244327387,"connected_time":1752000000000,"state":"active","ping":173},{"user_id":26,"name":"Uung","steam_id":76561198183956731,"connected_time":1655000000000,"state":"active","ping":41},{"user_id":27,"name":"RED1 | BeastRyder","steam_id":76561198330281584,"connected_time":1628000000000,"state":"active","ping":78},{"user_id":31,"name":"ThatOneDragonDude","steam_id":76561198835679334,"connected_time":655000000000,"state":"active","ping":79},{"user_id":34,"name":"-Joker-","steam_id":76561198865501612,"connected_time":79000000000,"state":"active","ping":146},{"user_id":35,"name":"SpaceBanana","steam_id":76561198077857315,"connected_time":59000000000,"state":"active","ping":101}]},{"server_id":400,"name":"Uncletopia | Atlanta | 3 | Stopwatch Beta","name_short":"atl-3","host":"atl-1.us.uncletopia.com","port":27035,"enabled":true,"region":"us-east","cc":"us","latitude":33.753746,"longitude":-84.38633,"reserved":0,"last_update":"0001-01-01T00:00:00Z","name_a2s":"Uncletopia | Atlanta | 3 | Stopwatch Beta","protocol":17,"map":"pl_upward","folder":"tf","game":"Team Fortress","app_id":440,"player_count":0,"max_players":24,"Bots":0,"server_type":"Dedicated","server_os":"Linux","password":true,"vac":true,"version":"7757534","steam_id":85568392924515187,"keywords":["nocrits","nodmgspread","payload","uncletopia"],"game_id":440,"stv_port":27036,"stv_name":"Uncletopia | Atlanta | 3 | Stopwatch Beta | STV","players":null},{"server_id":401,"name":"Uncletopia | Atlanta | 4 | No Payload","name_short":"atl-4","host":"atl-1.us.uncletopia.com","port":27045,"enabled":true,"region":"us-east","cc":"us","latitude":33.753746,"longitude":-84.38633,"reserved":0,"last_update":"0001-01-01T00:00:00Z","name_a2s":"Uncletopia | Atlanta | 4 | No Payload","protocol":17,"map":"pl_pier","folder":"tf","game":"Team Fortress","app_id":440,"player_count":0,"max_players":24,"Bots":0,"server_type":"Dedicated","server_os":"Linux","password":true,"vac":true,"version":"7723704","steam_id":85568392924515188,"keywords":["nocrits","nodmgspread","payload","uncletopia"],"game_id":440,"stv_port":27046,"stv_name":"Uncletopia | Atlanta | 4 | No Payload | STV","players":null},{"server_id":2,"name":"Uncletopia | Chicago | 1 | All Maps","name_short":"chi-1","host":"chi-1.us.uncletopia.com","port":27015,"enabled":true,"region":"us-central","cc":"us","latitude":41.881832,"longitude":-87.62318,"reserved":0,"last_update":"0001-01-01T00:00:00Z","name_a2s":"Uncletopia | Chicago | 1 | All Maps","protocol":17,"map":"pl_upward","folder":"tf","game":"Team Fortress","app_id":440,"player_count":24,"max_players":24,"Bots":0,"server_type":"Dedicated","server_os":"Linux","password":true,"vac":true,"version":"7757534","steam_id":85568392924469984,"keywords":["nocrits","nodmgspread","payload","uncletopia"],"game_id":440,"stv_port":27016,"stv_name":"Uncletopia | Chicago | 1 | All Maps | STV","players":[{"user_id":183,"name":"Astoriae!","steam_id":76561199090168858,"connected_time":3405000000000,"state":"active","ping":69},{"user_id":222,"name":"Iggy Dogg","steam_id":76561198059602545,"connected_time":167000000000,"state":"active","ping":53},{"user_id":214,"name":"Gabinator32","steam_id":76561198872467183,"connected_time":711000000000,"state":"active","ping":45},{"user_id":175,"name":"Swedish Crowbar","steam_id":76561199105488936,"connected_time":3760000000000,"state":"active","ping":145},{"user_id":193,"name":"Nnyllazxz","steam_id":76561198247797436,"connected_time":2498000000000,"state":"active","ping":88},{"user_id":177,"name":"defs98","steam_id":76561198134813102,"connected_time":3516000000000,"state":"active","ping":59},{"user_id":195,"name":"TeeTree","steam_id":76561198862307874,"connected_time":1797000000000,"state":"active","ping":60},{"user_id":216,"name":"Craig Isonychia","steam_id":76561198272013678,"connected_time":630000000000,"state":"active","ping":73},{"user_id":196,"name":"Duncan Idaho","steam_id":76561197988963861,"connected_time":1797000000000,"state":"active","ping":65},{"user_id":206,"name":"brian eno","steam_id":76561198109901138,"connected_time":912000000000,"state":"active","ping":85},{"user_id":180,"name":"Turbo Sun Geyser","steam_id":76561198013975080,"connected_time":3410000000000,"state":"active","ping":79},{"user_id":208,"name":"Ras","steam_id":76561198123546775,"connected_time":857000000000,"state":"active","ping":72},{"user_id":218,"name":"Dietrich","steam_id":76561198028163840,"connected_time":408000000000,"state":"active","ping":89},{"user_id":219,"name":"Blargian Snagglebeast","steam_id":76561198115831507,"connected_time":405000000000,"state":"active","ping":52},{"user_id":213,"name":"leumas","steam_id":76561198240408540,"connected_time":836000000000,"state":"active","ping":76},{"user_id":197,"name":"lil bro","steam_id":76561198031675881,"connected_time":1795000000000,"state":"active","ping":60},{"user_id":200,"name":"ZofoJackson","steam_id":76561197998366861,"connected_time":1783000000000,"state":"active","ping":59},{"user_id":156,"name":"Indigolake","steam_id":76561198202215807,"connected_time":5789000000000,"state":"active","ping":85},{"user_id":132,"name":"Rornir","steam_id":76561198081829615,"connected_time":6855000000000,"state":"active","ping":33},{"user_id":215,"name":"lag","steam_id":76561197963872739,"connected_time":709000000000,"state":"active","ping":94},{"user_id":203,"name":"Retrowave","steam_id":76561198061921346,"connected_time":1763000000000,"state":"active","ping":62},{"user_id":217,"name":"nalezinik","steam_id":76561198030026119,"connected_time":627000000000,"state":"active","ping":62},{"user_id":201,"name":"Cuttle's Fish","steam_id":76561198280483257,"connected_time":1779000000000,"state":"active","ping":57},{"user_id":221,"name":"TU TIO :)","steam_id":76561199203373251,"connected_time":404000000000,"state":"active","ping":137}]},{"server_id":106,"name":"Uncletopia | Chicago | 2 | All Maps","name_short":"chi-2","host":"chi-1.us.uncletopia.com","port":27025,"enabled":true,"region":"us-central","cc":"us","latitude":41.881832,"longitude":-87.62318,"reserved":0,"last_update":"0001-01-01T00:00:00Z","name_a2s":"Uncletopia | Chicago | 2 | All Maps","protocol":17,"map":"pl_badwater","folder":"tf","game":"Team Fortress","app_id":440,"player_count":24,"max_players":24,"Bots":0,"server_type":"Dedicated","server_os":"Linux","password":true,"vac":true,"version":"7757534","steam_id":85568392924469985,"keywords":["nocrits","nodmgspread","payload","uncletopia"],"game_id":440,"stv_port":27026,"stv_name":"Uncletopia | Chicago | 2 | All Maps | STV","players":[{"user_id":367,"name":"wheat","steam_id":76561197971158435,"connected_time":2401000000000,"state":"active","ping":56},{"user_id":368,"name":"mae","steam_id":76561198425739511,"connected_time":2321000000000,"state":"active","ping":61},{"user_id":369,"name":"mmmmmmmmmmmmmmmmmmmmmmmmmm","steam_id":76561198044443985,"connected_time":1851000000000,"state":"active","ping":83},{"user_id":325,"name":"Winter the Witchie","steam_id":76561198151971178,"connected_time":5125000000000,"state":"active","ping":59},{"user_id":308,"name":"Cheatcommando","steam_id":76561198034825735,"connected_time":6300000000000,"state":"active","ping":48},{"user_id":374,"name":"Howoriginal","steam_id":76561197993701184,"connected_time":1008000000000,"state":"active","ping":62},{"user_id":322,"name":"Cryo_Dave","steam_id":76561198796748347,"connected_time":5260000000000,"state":"active","ping":116},{"user_id":338,"name":"three three","steam_id":76561198177354155,"connected_time":4428000000000,"state":"active","ping":79},{"user_id":372,"name":"Birdhorse Of Course","steam_id":76561198038997485,"connected_time":1288000000000,"state":"active","ping":72},{"user_id":283,"name":"Lennu","steam_id":76561198060730154,"connected_time":8025000000000,"state":"active","ping":80},{"user_id":347,"name":"Nic0","steam_id":76561198305690218,"connected_time":3503000000000,"state":"active","ping":68},{"user_id":339,"name":"LegendaryMister151","steam_id":76561198064890524,"connected_time":4264000000000,"state":"active","ping":85},{"user_id":365,"name":"crippling fumo addiction","steam_id":76561198115874625,"connected_time":2581000000000,"state":"active","ping":65},{"user_id":297,"name":"Myracle","steam_id":76561198070916920,"connected_time":7139000000000,"state":"active","ping":49},{"user_id":371,"name":"☼ I'M CAPTAIN BASCH","steam_id":76561198074180953,"connected_time":1530000000000,"state":"active","ping":66},{"user_id":380,"name":"co nar","steam_id":76561198086511399,"connected_time":454000000000,"state":"active","ping":78},{"user_id":375,"name":"Barracuda","steam_id":76561198013022083,"connected_time":714000000000,"state":"active","ping":60},{"user_id":343,"name":"Dictatorial Karelian","steam_id":76561198196736457,"connected_time":3805000000000,"state":"active","ping":154},{"user_id":377,"name":"rumple smoothskin","steam_id":76561198000302311,"connected_time":668000000000,"state":"active","ping":59},{"user_id":378,"name":"whistyl","steam_id":76561198991989900,"connected_time":663000000000,"state":"active","ping":103},{"user_id":373,"name":"ThatOneKnight","steam_id":76561198388583650,"connected_time":1060000000000,"state":"active","ping":55},{"user_id":330,"name":"Terrazzle","steam_id":76561197999850393,"connected_time":5108000000000,"state":"active","ping":83},{"user_id":379,"name":"Jazz2T","steam_id":76561198154418867,"connected_time":663000000000,"state":"active","ping":103},{"user_id":345,"name":"doctor sex md","steam_id":76561198150678175,"connected_time":3547000000000,"state":"active","ping":101}]},{"server_id":402,"name":"Uncletopia | Chicago | 3 | All Maps","name_short":"chi-3","host":"chi-1.us.uncletopia.com","port":27035,"enabled":true,"region":"us-central","cc":"us","latitude":41.881832,"longitude":-87.62318,"reserved":0,"last_update":"0001-01-01T00:00:00Z","name_a2s":"Uncletopia | Chicago | 3 | All Maps","protocol":17,"map":"koth_viaduct","folder":"tf","game":"Team Fortress","app_id":440,"player_count":0,"max_players":24,"Bots":0,"server_type":"Dedicated","server_os":"Linux","password":true,"vac":true,"version":"7757534","steam_id":85568392924515191,"keywords":["cp","nocrits","nodmgspread","uncletopia"],"game_id":440,"stv_port":27036,"stv_name":"Uncletopia | Chicago | 3 | All Maps | STV","players":null},{"server_id":403,"name":"Uncletopia | Chicago | 4 | All Maps","name_short":"chi-4","host":"chi-1.us.uncletopia.com","port":27045,"enabled":true,"region":"us-central","cc":"us","latitude":41.881832,"longitude":-87.62318,"reserved":0,"last_update":"0001-01-01T00:00:00Z","name_a2s":"Uncletopia | Chicago | 4 | All Maps","protocol":17,"map":"pl_frontier_final","folder":"tf","game":"Team Fortress","app_id":440,"player_count":0,"max_players":24,"Bots":0,"server_type":"Dedicated","server_os":"Linux","password":true,"vac":true,"version":"7757534","steam_id":85568392924515193,"keywords":["nocrits","nodmgspread","payload","uncletopia"],"game_id":440,"stv_port":27046,"stv_name":"Uncletopia | Chicago | 4 | All Maps | STV","players":null},{"server_id":36,"name":"Uncletopia | Chicago | 5 | All Maps","name_short":"chi-5","host":"chi-2.us.uncletopia.com","port":27015,"enabled":true,"region":"us-central","cc":"us","latitude":41.881832,"longitude":-87.62318,"reserved":0,"last_update":"0001-01-01T00:00:00Z","name_a2s":"Uncletopia | Chicago | 5 | All Maps","protocol":17,"map":"koth_cascade","folder":"tf","game":"Team Fortress","app_id":440,"player_count":0,"max_players":24,"Bots":0,"server_type":"Dedicated","server_os":"Linux","password":true,"vac":true,"version":"7757534","steam_id":85568392924866362,"keywords":["cp","nocrits","nodmgspread","uncletopia"],"game_id":440,"stv_port":27016,"stv_name":"Uncletopia | Chicago | 5 | All Maps | STV","players":null},{"server_id":37,"name":"Uncletopia | Chicago | 6 | All Maps","name_short":"chi-6","host":"chi-2.us.uncletopia.com","port":27025,"enabled":true,"region":"us-central","cc":"us","latitude":41.881832,"longitude":-87.62318,"reserved":0,"last_update":"0001-01-01T00:00:00Z","name_a2s":"Uncletopia | Chicago | 6 | All Maps","protocol":17,"map":"pl_snowycoast","folder":"tf","game":"Team Fortress","app_id":440,"player_count":22,"max_players":24,"Bots":0,"server_type":"Dedicated","server_os":"Linux","password":true,"vac":true,"version":"7757534","steam_id":85568392924866363,"keywords":["nocrits","nodmgspread","payload","uncletopia"],"game_id":440,"stv_port":27026,"stv_name":"Uncletopia | Chicago | 6 | All Maps | STV","players":[{"user_id":37,"name":"MntlMetaMonty","steam_id":76561199185409434,"connected_time":170000000000,"state":"active","ping":74},{"user_id":4,"name":"Athaz","steam_id":76561198296557673,"connected_time":2042000000000,"state":"active","ping":60},{"user_id":6,"name":"Josh Diddily","steam_id":76561198286957487,"connected_time":1965000000000,"state":"active","ping":110},{"user_id":7,"name":"LazyKoala99","steam_id":76561199183623672,"connected_time":1888000000000,"state":"active","ping":66},{"user_id":19,"name":"JustCoffee","steam_id":76561199389473180,"connected_time":864000000000,"state":"active","ping":55},{"user_id":10,"name":"CitrusFizz","steam_id":76561198071157189,"connected_time":1351000000000,"state":"active","ping":107},{"user_id":16,"name":"Watatsuki no Yorihime","steam_id":76561198063315650,"connected_time":1115000000000,"state":"active","ping":77},{"user_id":12,"name":"McFallenOne","steam_id":76561199178575029,"connected_time":1263000000000,"state":"active","ping":77},{"user_id":38,"name":"altacount1122","steam_id":76561198383263281,"connected_time":108000000000,"state":"active","ping":101},{"user_id":14,"name":"ECCO","steam_id":76561198002821513,"connected_time":1209000000000,"state":"active","ping":66},{"user_id":27,"name":"Vexed","steam_id":76561198157557477,"connected_time":357000000000,"state":"active","ping":64},{"user_id":40,"name":"Back with the milk","steam_id":76561199020105501,"connected_time":43000000000,"state":"active","ping":50},{"user_id":24,"name":"Metal Silver","steam_id":76561198422159570,"connected_time":650000000000,"state":"active","ping":93},{"user_id":28,"name":"WannaSeeA","steam_id":76561198097701042,"connected_time":332000000000,"state":"active","ping":75},{"user_id":36,"name":"iamoctopii","steam_id":76561198876901076,"connected_time":231000000000,"state":"active","ping":123},{"user_id":29,"name":"j4miecl4rk","steam_id":76561198404312721,"connected_time":315000000000,"state":"active","ping":58},{"user_id":30,"name":"McNamJam","steam_id":76561198028128686,"connected_time":278000000000,"state":"active","ping":94},{"user_id":31,"name":"300 Ping Gaming [WLP]","steam_id":76561199042160997,"connected_time":273000000000,"state":"active","ping":140},{"user_id":32,"name":"Divine Kitty","steam_id":76561198293490689,"connected_time":267000000000,"state":"active","ping":113},{"user_id":33,"name":"Ethereal","steam_id":76561199385170644,"connected_time":247000000000,"state":"active","ping":59},{"user_id":34,"name":"DJ Taj Mahal","steam_id":76561198024504491,"connected_time":243000000000,"state":"active","ping":49},{"user_id":41,"name":"TheAceDefiant","steam_id":76561198133264734,"connected_time":12000000000,"state":"spawning","ping":49}]},{"server_id":38,"name":"Uncletopia | Chicago | 7 | Stopwatch Beta","name_short":"chi-7","host":"chi-2.us.uncletopia.com","port":27035,"enabled":true,"region":"us-central","cc":"us","latitude":41.881832,"longitude":-87.62318,"reserved":0,"last_update":"0001-01-01T00:00:00Z","name_a2s":"Uncletopia | Chicago | 7 | Stopwatch Beta","protocol":17,"map":"cp_sunshine","folder":"tf","game":"Team Fortress","app_id":440,"player_count":0,"max_players":24,"Bots":0,"server_type":"Dedicated","server_os":"Linux","password":true,"vac":true,"version":"7757534","steam_id":85568392924866364,"keywords":["cp","nocrits","nodmgspread","uncletopia"],"game_id":440,"stv_port":27036,"stv_name":"Uncletopia | Chicago | 7 | Stopwatch Beta | STV","players":null},{"server_id":39,"name":"Uncletopia | Chicago | 8 | Community","name_short":"chi-8","host":"chi-2.us.uncletopia.com","port":27045,"enabled":true,"region":"us-central","cc":"us","latitude":41.881832,"longitude":-87.62318,"reserved":0,"last_update":"0001-01-01T00:00:00Z","name_a2s":"Uncletopia | Chicago | 8 | Community","protocol":17,"map":"workshop/cp_logjam_rc12.ugc454812035","folder":"tf","game":"Team Fortress","app_id":440,"player_count":0,"max_players":24,"Bots":0,"server_type":"Dedicated","server_os":"Linux","password":true,"vac":true,"version":"7757534","steam_id":85568392924866365,"keywords":["cp","nocrits","nodmgspread","uncletopia"],"game_id":440,"stv_port":27046,"stv_name":"Uncletopia | Chicago | 8 | Community | STV","players":null},{"server_id":8,"name":"Uncletopia | Dallas | 1 | All Maps","name_short":"dal-1","host":"dal-1.us.uncletopia.com","port":27015,"enabled":true,"region":"us-central","cc":"us","latitude":32.779167,"longitude":-96.80889,"reserved":0,"last_update":"0001-01-01T00:00:00Z","name_a2s":"Uncletopia | Dallas | 1 | All Maps","protocol":17,"map":"koth_king","folder":"tf","game":"Team Fortress","app_id":440,"player_count":24,"max_players":24,"Bots":0,"server_type":"Dedicated","server_os":"Linux","password":true,"vac":true,"version":"7757534","steam_id":85568392924469986,"keywords":["cp","nocrits","nodmgspread","uncletopia"],"game_id":440,"stv_port":27016,"stv_name":"Uncletopia | Dallas | 1 | All Maps | STV","players":[{"user_id":50,"name":"SMHTMFTTF","steam_id":76561199079614516,"connected_time":1685000000000,"state":"active","ping":57},{"user_id":44,"name":"Whoa","steam_id":76561197970353496,"connected_time":2655000000000,"state":"active","ping":75},{"user_id":76,"name":"octanyl","steam_id":76561199239926014,"connected_time":193000000000,"state":"active","ping":71},{"user_id":47,"name":"Fablor","steam_id":76561198175644926,"connected_time":1905000000000,"state":"active","ping":86},{"user_id":58,"name":"yitz","steam_id":76561198375575841,"connected_time":1167000000000,"state":"active","ping":75},{"user_id":60,"name":"Mac-Inosh","steam_id":76561198176886959,"connected_time":1089000000000,"state":"active","ping":76},{"user_id":63,"name":"Queen Frau the Round","steam_id":76561197999942134,"connected_time":1010000000000,"state":"active","ping":70},{"user_id":23,"name":"fuckterry","steam_id":76561198271957738,"connected_time":3307000000000,"state":"active","ping":70},{"user_id":30,"name":"Dinn","steam_id":76561198159566867,"connected_time":3113000000000,"state":"active","ping":106},{"user_id":77,"name":"Jello","steam_id":76561198890633732,"connected_time":191000000000,"state":"active","ping":60},{"user_id":70,"name":"M@verick","steam_id":76561198006363519,"connected_time":834000000000,"state":"active","ping":91},{"user_id":62,"name":"CrazyMush","steam_id":76561198141783855,"connected_time":1036000000000,"state":"active","ping":67},{"user_id":75,"name":"Yoshi62","steam_id":76561199103748704,"connected_time":586000000000,"state":"active","ping":132},{"user_id":40,"name":"2 Point Tom","steam_id":76561198087617008,"connected_time":2944000000000,"state":"active","ping":124},{"user_id":72,"name":"EchoHunter","steam_id":76561199165491231,"connected_time":741000000000,"state":"active","ping":66},{"user_id":33,"name":"SKIN IS WHERE THE FLAVOR IS","steam_id":76561198115842661,"connected_time":3094000000000,"state":"active","ping":96},{"user_id":64,"name":"pearly","steam_id":76561198017274978,"connected_time":991000000000,"state":"active","ping":90},{"user_id":35,"name":"Ass Blaster, Disaster Master","steam_id":76561197997774469,"connected_time":3068000000000,"state":"active","ping":61},{"user_id":78,"name":"Caoticaos","steam_id":76561198114800227,"connected_time":177000000000,"state":"active","ping":141},{"user_id":37,"name":"Mrakan","steam_id":76561199239780769,"connected_time":3004000000000,"state":"active","ping":177},{"user_id":38,"name":"Drakon","steam_id":76561198078210822,"connected_time":2994000000000,"state":"active","ping":87},{"user_id":66,"name":"The Horselords and Animal Gods","steam_id":76561197975094050,"connected_time":894000000000,"state":"active","ping":85},{"user_id":67,"name":"Johnny Lawrence #JohnnyMaxxing","steam_id":76561199367141671,"connected_time":891000000000,"state":"active","ping":90},{"user_id":69,"name":"Blitzy","steam_id":76561198149472890,"connected_time":877000000000,"state":"active","ping":104}]},{"server_id":108,"name":"Uncletopia | Dallas | 2 | All Maps","name_short":"dal-2","host":"dal-1.us.uncletopia.com","port":27025,"enabled":true,"region":"us-central","cc":"us","latitude":32.779167,"longitude":-96.80889,"reserved":0,"last_update":"0001-01-01T00:00:00Z","name_a2s":"Uncletopia | Dallas | 2 | All Maps","protocol":17,"map":"cp_altitude","folder":"tf","game":"Team Fortress","app_id":440,"player_count":0,"max_players":24,"Bots":0,"server_type":"Dedicated","server_os":"Linux","password":true,"vac":true,"version":"7757534","steam_id":85568392924469988,"keywords":["cp","nocrits","nodmgspread","uncletopia"],"game_id":440,"stv_port":27026,"stv_name":"Uncletopia | Dallas | 2 | All Maps | STV","players":null},{"server_id":5,"name":"Uncletopia | Frankfurt | 1 | All Maps","name_short":"frk-1","host":"frk-1.de.uncletopia.com","port":27015,"enabled":true,"region":"eu","cc":"de","latitude":50.110924,"longitude":8.682127,"reserved":0,"last_update":"0001-01-01T00:00:00Z","name_a2s":"Uncletopia | Frankfurt | 1 | All Maps","protocol":17,"map":"pl_frontier_final","folder":"tf","game":"Team Fortress","app_id":440,"player_count":24,"max_players":24,"Bots":0,"server_type":"Dedicated","server_os":"Linux","password":true,"vac":true,"version":"7757534","steam_id":85568392924469989,"keywords":["nocrits","nodmgspread","payload","uncletopia"],"game_id":440,"stv_port":27016,"stv_name":"Uncletopia | Frankfurt | 1 | All Maps | STV","players":[{"user_id":335,"name":"skibidi bop yes yes yes","steam_id":76561198306177608,"connected_time":1778000000000,"state":"active","ping":71},{"user_id":345,"name":"Zethos","steam_id":76561198103851330,"connected_time":1207000000000,"state":"active","ping":69},{"user_id":286,"name":"Miss Bari","steam_id":76561198365286092,"connected_time":5439000000000,"state":"active","ping":56},{"user_id":300,"name":"Vosteria","steam_id":76561198290253884,"connected_time":4574000000000,"state":"active","ping":97},{"user_id":366,"name":"Daemon","steam_id":76561198007015109,"connected_time":331000000000,"state":"active","ping":64},{"user_id":367,"name":"juni","steam_id":76561198036504214,"connected_time":297000000000,"state":"active","ping":46},{"user_id":330,"name":"Telivan","steam_id":76561198026048940,"connected_time":2434000000000,"state":"active","ping":62},{"user_id":337,"name":"CRWND","steam_id":76561198329810027,"connected_time":1544000000000,"state":"active","ping":56},{"user_id":306,"name":"NotFionn","steam_id":76561198890525176,"connected_time":4408000000000,"state":"active","ping":96},{"user_id":371,"name":"Fat Pigeon","steam_id":76561198817940142,"connected_time":162000000000,"state":"active","ping":59},{"user_id":374,"name":"Dooble donk man look at me donk","steam_id":76561198225523596,"connected_time":101000000000,"state":"active","ping":71},{"user_id":319,"name":"robitamoft","steam_id":76561198315903156,"connected_time":3514000000000,"state":"active","ping":86},{"user_id":288,"name":"Vᴀʟᴀꜰᴀʀ","steam_id":76561198069723799,"connected_time":5224000000000,"state":"active","ping":48},{"user_id":351,"name":"Brick Top","steam_id":76561198035586064,"connected_time":1001000000000,"state":"active","ping":70},{"user_id":343,"name":"John Bovril","steam_id":76561198067774895,"connected_time":1216000000000,"state":"active","ping":70},{"user_id":273,"name":"john fortress","steam_id":76561198013237629,"connected_time":6752000000000,"state":"active","ping":100},{"user_id":320,"name":"Gnarville","steam_id":76561198006373329,"connected_time":3508000000000,"state":"active","ping":62},{"user_id":252,"name":"X-tis","steam_id":76561198043837480,"connected_time":8245000000000,"state":"active","ping":79},{"user_id":321,"name":"LasagnaLarry22","steam_id":76561198089478290,"connected_time":3507000000000,"state":"active","ping":52},{"user_id":353,"name":"Jonathan","steam_id":76561198087988880,"connected_time":755000000000,"state":"active","ping":55},{"user_id":347,"name":"Gooeycornet","steam_id":76561198267710345,"connected_time":1199000000000,"state":"active","ping":83},{"user_id":348,"name":"Solid","steam_id":76561198357049292,"connected_time":1199000000000,"state":"active","ping":95},{"user_id":378,"name":"Caliban","steam_id":76561197999696839,"connected_time":12000000000,"state":"active","ping":100},{"user_id":339,"name":"Serton♝","steam_id":76561198011061126,"connected_time":1442000000000,"state":"active","ping":87}]},{"server_id":110,"name":"Uncletopia | Frankfurt | 2 | All Maps","name_short":"frk-2","host":"frk-1.de.uncletopia.com","port":27025,"enabled":true,"region":"eu","cc":"de","latitude":50.110924,"longitude":8.682127,"reserved":0,"last_update":"0001-01-01T00:00:00Z","name_a2s":"Uncletopia | Frankfurt | 2 | All Maps","protocol":17,"map":"pl_thundermountain","folder":"tf","game":"Team Fortress","app_id":440,"player_count":23,"max_players":24,"Bots":0,"server_type":"Dedicated","server_os":"Linux","password":true,"vac":true,"version":"7757534","steam_id":85568392924469990,"keywords":["nocrits","nodmgspread","payload","uncletopia"],"game_id":440,"stv_port":27026,"stv_name":"Uncletopia | Frankfurt | 2 | All Maps | STV","players":[{"user_id":297,"name":"poorchel","steam_id":76561198056905953,"connected_time":825000000000,"state":"active","ping":121},{"user_id":215,"name":"Salad's Warband","steam_id":76561198214089583,"connected_time":5506000000000,"state":"active","ping":71},{"user_id":232,"name":"le huegloto de poeboto","steam_id":76561198865957930,"connected_time":4318000000000,"state":"active","ping":94},{"user_id":160,"name":"Gordon Birdman","steam_id":76561198013382324,"connected_time":8843000000000,"state":"active","ping":66},{"user_id":279,"name":"Nomad994","steam_id":76561198051908201,"connected_time":1377000000000,"state":"active","ping":84},{"user_id":300,"name":"Enforcer02","steam_id":76561197966045944,"connected_time":695000000000,"state":"active","ping":59},{"user_id":280,"name":"Tynnyri","steam_id":76561198075516541,"connected_time":1373000000000,"state":"active","ping":101},{"user_id":234,"name":"Slomlol","steam_id":76561198208747007,"connected_time":4260000000000,"state":"active","ping":63},{"user_id":281,"name":"Jammy Donut","steam_id":76561198214406761,"connected_time":1361000000000,"state":"active","ping":59},{"user_id":282,"name":"EastmoreRandoms.","steam_id":76561198048921203,"connected_time":1356000000000,"state":"active","ping":67},{"user_id":283,"name":"lyudmilakh","steam_id":76561198362779878,"connected_time":1354000000000,"state":"active","ping":91},{"user_id":299,"name":"whoppr","steam_id":76561198886757115,"connected_time":749000000000,"state":"active","ping":65},{"user_id":253,"name":"Deacon Dracul","steam_id":76561198046880663,"connected_time":3201000000000,"state":"active","ping":111},{"user_id":301,"name":"reik","steam_id":76561198075239099,"connected_time":142000000000,"state":"active","ping":62},{"user_id":287,"name":"ŠFO","steam_id":76561198132104112,"connected_time":1331000000000,"state":"active","ping":75},{"user_id":267,"name":"ALARM","steam_id":76561198120686521,"connected_time":2127000000000,"state":"active","ping":57},{"user_id":224,"name":"NiNYÃ","steam_id":76561197995685294,"connected_time":5290000000000,"state":"active","ping":60},{"user_id":266,"name":"mordecai.nmc","steam_id":76561197997223851,"connected_time":2133000000000,"state":"active","ping":65},{"user_id":291,"name":"DREADNAWGHT","steam_id":76561198000973506,"connected_time":1155000000000,"state":"active","ping":69},{"user_id":292,"name":"spillr-.-","steam_id":76561198031330889,"connected_time":1138000000000,"state":"active","ping":71},{"user_id":268,"name":"Big Fart","steam_id":76561198163048826,"connected_time":2111000000000,"state":"active","ping":79},{"user_id":293,"name":"Memesus","steam_id":76561199362236174,"connected_time":1117000000000,"state":"active","ping":81},{"user_id":246,"name":"jebac disa","steam_id":76561197995572935,"connected_time":3886000000000,"state":"active","ping":83}]},{"server_id":308,"name":"Uncletopia | Frankfurt | 3 | All Maps","name_short":"frk-3","host":"frk-1.de.uncletopia.com","port":27035,"enabled":true,"region":"eu","cc":"de","latitude":50.110924,"longitude":8.682127,"reserved":0,"last_update":"0001-01-01T00:00:00Z","name_a2s":"Uncletopia | Frankfurt | 3 | All Maps","protocol":17,"map":"cp_sunshine","folder":"tf","game":"Team Fortress","app_id":440,"player_count":24,"max_players":24,"Bots":0,"server_type":"Dedicated","server_os":"Linux","password":true,"vac":true,"version":"7757534","steam_id":85568392924504274,"keywords":["cp","nocrits","nodmgspread","uncletopia"],"game_id":440,"stv_port":27036,"stv_name":"Uncletopia | Frankfurt | 3 | All Maps | STV","players":[{"user_id":213,"name":"Gotta","steam_id":76561198027276027,"connected_time":1853000000000,"state":"active","ping":108},{"user_id":105,"name":"тукку ирма","steam_id":76561197998715016,"connected_time":9568000000000,"state":"active","ping":57},{"user_id":171,"name":"Reverie","steam_id":76561198987005784,"connected_time":3587000000000,"state":"active","ping":151},{"user_id":229,"name":"Purple Soup :D","steam_id":76561198985100366,"connected_time":1503000000000,"state":"active","ping":100},{"user_id":248,"name":"Senator Armstrong","steam_id":76561198984346408,"connected_time":728000000000,"state":"active","ping":74},{"user_id":224,"name":"Paulbraker","steam_id":76561198150162470,"connected_time":1612000000000,"state":"active","ping":76},{"user_id":250,"name":"C L 1 Q","steam_id":76561198363021979,"connected_time":576000000000,"state":"active","ping":61},{"user_id":233,"name":"SantiThePug #ReviveTheCaber","steam_id":76561199049615996,"connected_time":1432000000000,"state":"active","ping":75},{"user_id":247,"name":"jameso","steam_id":76561198064042970,"connected_time":816000000000,"state":"active","ping":64},{"user_id":246,"name":"the foe","steam_id":76561198065743977,"connected_time":832000000000,"state":"active","ping":58},{"user_id":241,"name":"kotamine","steam_id":76561198068907991,"connected_time":986000000000,"state":"active","ping":60},{"user_id":239,"name":"mumbler","steam_id":76561197970641239,"connected_time":1058000000000,"state":"active","ping":45},{"user_id":240,"name":"Phil3k.","steam_id":76561198283072297,"connected_time":1021000000000,"state":"active","ping":63},{"user_id":234,"name":"masatin","steam_id":76561198044967818,"connected_time":1399000000000,"state":"active","ping":60},{"user_id":242,"name":"Cdesmondd","steam_id":76561198072774462,"connected_time":983000000000,"state":"active","ping":171},{"user_id":236,"name":"Lumiukko1","steam_id":76561198045448482,"connected_time":1371000000000,"state":"active","ping":62},{"user_id":182,"name":"Pabs :D","steam_id":76561198000016962,"connected_time":2484000000000,"state":"active","ping":54},{"user_id":152,"name":":\u003e","steam_id":76561198111134021,"connected_time":5483000000000,"state":"active","ping":72},{"user_id":175,"name":"ZOMBINΣ","steam_id":76561198151057964,"connected_time":3454000000000,"state":"active","ping":79},{"user_id":176,"name":"[G.E.W.P.] | Gr0t0s","steam_id":76561198157368331,"connected_time":3454000000000,"state":"active","ping":72},{"user_id":249,"name":"JC","steam_id":76561198029213352,"connected_time":647000000000,"state":"active","ping":46},{"user_id":243,"name":"Hunnington","steam_id":76561198052219699,"connected_time":972000000000,"state":"active","ping":59},{"user_id":251,"name":"KajaStorm","steam_id":76561199215842872,"connected_time":92000000000,"state":"active","ping":128},{"user_id":244,"name":"Dingus","steam_id":76561198140514058,"connected_time":964000000000,"state":"active","ping":52}]},{"server_id":309,"name":"Uncletopia | Frankfurt | 4 | All Maps","name_short":"frk-4","host":"frk-1.de.uncletopia.com","port":27045,"enabled":true,"region":"eu","cc":"de","latitude":50.110924,"longitude":8.682127,"reserved":0,"last_update":"0001-01-01T00:00:00Z","name_a2s":"Uncletopia | Frankfurt | 4 | All Maps","protocol":17,"map":"pl_badwater","folder":"tf","game":"Team Fortress","app_id":440,"player_count":24,"max_players":24,"Bots":0,"server_type":"Dedicated","server_os":"Linux","password":true,"vac":true,"version":"7757534","steam_id":85568392924504275,"keywords":["nocrits","nodmgspread","payload","uncletopia"],"game_id":440,"stv_port":27046,"stv_name":"Uncletopia | Frankfurt | 4 | All Maps | STV","players":[{"user_id":180,"name":"Yessirskiii","steam_id":76561198179324075,"connected_time":887000000000,"state":"active","ping":70},{"user_id":189,"name":"snsmac","steam_id":76561198082821185,"connected_time":611000000000,"state":"active","ping":49},{"user_id":191,"name":"Sweat Plantation","steam_id":76561198025086883,"connected_time":450000000000,"state":"active","ping":85},{"user_id":150,"name":"German Prick","steam_id":76561198181410637,"connected_time":2521000000000,"state":"active","ping":56},{"user_id":194,"name":"domingamin","steam_id":76561198846466054,"connected_time":130000000000,"state":"active","ping":113},{"user_id":174,"name":"Vitamin Weee","steam_id":76561199183937747,"connected_time":1075000000000,"state":"active","ping":83},{"user_id":176,"name":"GregerUlander","steam_id":76561198152375055,"connected_time":940000000000,"state":"active","ping":71},{"user_id":190,"name":"CKenny.js","steam_id":76561198063245962,"connected_time":605000000000,"state":"active","ping":89},{"user_id":172,"name":"kag","steam_id":76561198059813166,"connected_time":1242000000000,"state":"active","ping":56},{"user_id":192,"name":"Beanie","steam_id":76561198810626200,"connected_time":378000000000,"state":"active","ping":45},{"user_id":182,"name":"kilo","steam_id":76561198015641339,"connected_time":867000000000,"state":"active","ping":64},{"user_id":157,"name":"KLAMA  ❤","steam_id":76561198351549661,"connected_time":2425000000000,"state":"active","ping":63},{"user_id":193,"name":"SgtRookie","steam_id":76561198030230427,"connected_time":238000000000,"state":"active","ping":86},{"user_id":195,"name":"Clorox Consumer","steam_id":76561198120949216,"connected_time":125000000000,"state":"active","ping":60},{"user_id":170,"name":"naaaa","steam_id":76561198136259553,"connected_time":1673000000000,"state":"active","ping":99},{"user_id":177,"name":"padillacampos","steam_id":76561198161923970,"connected_time":919000000000,"state":"active","ping":78},{"user_id":165,"name":"The Wolf Leader","steam_id":76561198038007462,"connected_time":2023000000000,"state":"active","ping":67},{"user_id":186,"name":"jo","steam_id":76561198109074418,"connected_time":813000000000,"state":"active","ping":73},{"user_id":178,"name":".quickfast.","steam_id":76561199438900919,"connected_time":915000000000,"state":"active","ping":58},{"user_id":169,"name":"papaja","steam_id":76561199216208960,"connected_time":1720000000000,"state":"active","ping":85},{"user_id":183,"name":"reho-iwnw","steam_id":76561198348062373,"connected_time":866000000000,"state":"active","ping":82},{"user_id":179,"name":"Daud","steam_id":76561199177668753,"connected_time":913000000000,"state":"active","ping":52},{"user_id":187,"name":"Platform666","steam_id":76561198314266851,"connected_time":812000000000,"state":"active","ping":91},{"user_id":161,"name":"certified caber enjoyer","steam_id":76561199012488416,"connected_time":2405000000000,"state":"active","ping":74}]},{"server_id":310,"name":"Uncletopia | Frankfurt | 5 | All Maps","name_short":"frk-5","host":"frk-1.de.uncletopia.com","port":27055,"enabled":true,"region":"eu","cc":"de","latitude":50.110924,"longitude":8.682127,"reserved":0,"last_update":"0001-01-01T00:00:00Z","name_a2s":"Uncletopia | Frankfurt | 5 | All Maps","protocol":17,"map":"pl_frontier_final","folder":"tf","game":"Team Fortress","app_id":440,"player_count":24,"max_players":24,"Bots":0,"server_type":"Dedicated","server_os":"Linux","password":true,"vac":true,"version":"7757534","steam_id":85568392924504277,"keywords":["nocrits","nodmgspread","payload","uncletopia"],"game_id":440,"stv_port":27056,"stv_name":"Uncletopia | Frankfurt | 5 | All Maps | STV","players":[{"user_id":102,"name":"yush","steam_id":76561198121688934,"connected_time":2677000000000,"state":"active","ping":76},{"user_id":129,"name":"✧ Luigi Time ✧","steam_id":76561198026903673,"connected_time":1219000000000,"state":"active","ping":59},{"user_id":132,"name":"Dr. Mario","steam_id":76561199125182282,"connected_time":763000000000,"state":"active","ping":44},{"user_id":142,"name":"Klonky","steam_id":76561199068329886,"connected_time":120000000000,"state":"active","ping":73},{"user_id":141,"name":"Pinkchup","steam_id":76561198106802803,"connected_time":284000000000,"state":"active","ping":81},{"user_id":133,"name":"蓮 Lotus","steam_id":76561198083141117,"connected_time":756000000000,"state":"active","ping":60},{"user_id":81,"name":"salmonander","steam_id":76561198104577052,"connected_time":4292000000000,"state":"active","ping":95},{"user_id":60,"name":"Bob Sacamano","steam_id":76561198085610701,"connected_time":5382000000000,"state":"active","ping":92},{"user_id":96,"name":"Carl Gustav Jung","steam_id":76561198284558039,"connected_time":3421000000000,"state":"active","ping":113},{"user_id":86,"name":"KarlRanzeier","steam_id":76561198066281337,"connected_time":3833000000000,"state":"active","ping":51},{"user_id":131,"name":"AngryBurrito","steam_id":76561197972778702,"connected_time":784000000000,"state":"active","ping":72},{"user_id":126,"name":"let me cook","steam_id":76561198010380786,"connected_time":1645000000000,"state":"active","ping":56},{"user_id":135,"name":"Minimi","steam_id":76561198873850443,"connected_time":715000000000,"state":"active","ping":56},{"user_id":123,"name":"KeanuCheems","steam_id":76561198145580689,"connected_time":1889000000000,"state":"active","ping":82},{"user_id":34,"name":"posht0 ._.","steam_id":76561198106182078,"connected_time":6301000000000,"state":"active","ping":100},{"user_id":35,"name":"sabaka jebanoia","steam_id":76561198147249160,"connected_time":6295000000000,"state":"active","ping":101},{"user_id":136,"name":"Mankor","steam_id":76561198020439322,"connected_time":708000000000,"state":"active","ping":46},{"user_id":137,"name":"lofimonkeyjazz","steam_id":76561198117059662,"connected_time":705000000000,"state":"active","ping":89},{"user_id":128,"name":"Wir suchen dich!","steam_id":76561198307613521,"connected_time":1407000000000,"state":"active","ping":47},{"user_id":110,"name":"triangle","steam_id":76561198046838168,"connected_time":2148000000000,"state":"active","ping":46},{"user_id":140,"name":"VEH-DEH-VEH","steam_id":76561198010978989,"connected_time":321000000000,"state":"active","ping":70},{"user_id":107,"name":"󠀡󠀡","steam_id":76561198015585266,"connected_time":2230000000000,"state":"active","ping":74},{"user_id":100,"name":"Fekeks |Potato Industries|","steam_id":76561198152536563,"connected_time":2758000000000,"state":"active","ping":58},{"user_id":116,"name":"Christmas Ham","steam_id":76561198119601623,"connected_time":1989000000000,"state":"active","ping":69}]},{"server_id":311,"name":"Uncletopia | Frankfurt | 6 | All Maps","name_short":"frk-6","host":"frk-1.de.uncletopia.com","port":27065,"enabled":true,"region":"eu","cc":"de","latitude":50.110924,"longitude":8.682127,"reserved":0,"last_update":"0001-01-01T00:00:00Z","name_a2s":"Uncletopia | Frankfurt | 6 | All Maps","protocol":17,"map":"pl_pier","folder":"tf","game":"Team Fortress","app_id":440,"player_count":24,"max_players":24,"Bots":0,"server_type":"Dedicated","server_os":"Linux","password":true,"vac":true,"version":"7757534","steam_id":85568392924504278,"keywords":["nocrits","nodmgspread","payload","uncletopia"],"game_id":440,"stv_port":27066,"stv_name":"Uncletopia | Frankfurt | 6 | All Maps | STV","players":[{"user_id":158,"name":"Bruski","steam_id":76561198053589119,"connected_time":652000000000,"state":"active","ping":95},{"user_id":157,"name":"Stepoface","steam_id":76561198091569863,"connected_time":823000000000,"state":"active","ping":56},{"user_id":130,"name":"Mishaswy","steam_id":76561198156848144,"connected_time":2736000000000,"state":"active","ping":101},{"user_id":168,"name":"mrms","steam_id":76561198289331719,"connected_time":0,"state":"connecting","ping":0},{"user_id":167,"name":"Kiska D","steam_id":76561198261377744,"connected_time":93000000000,"state":"active","ping":104},{"user_id":109,"name":"Oceanic | tuesday maybe","steam_id":76561197979741827,"connected_time":5004000000000,"state":"active","ping":68},{"user_id":139,"name":"The Wheel (Live on KEXP)","steam_id":76561199064350902,"connected_time":2032000000000,"state":"active","ping":93},{"user_id":131,"name":"Paul Penix","steam_id":76561197996941396,"connected_time":2728000000000,"state":"active","ping":55},{"user_id":156,"name":"Clitorina","steam_id":76561198077570815,"connected_time":1048000000000,"state":"active","ping":58},{"user_id":99,"name":"Lopata","steam_id":76561198820264239,"connected_time":5542000000000,"state":"active","ping":109},{"user_id":140,"name":"Cosmic Gamer","steam_id":76561198027357981,"connected_time":2010000000000,"state":"active","ping":92},{"user_id":148,"name":"Fancy","steam_id":76561198350658462,"connected_time":1619000000000,"state":"active","ping":75},{"user_id":165,"name":"Lux","steam_id":76561198060417740,"connected_time":372000000000,"state":"active","ping":47},{"user_id":162,"name":"You slumber","steam_id":76561198344639692,"connected_time":459000000000,"state":"active","ping":89},{"user_id":52,"name":"Owlet","steam_id":76561198065613974,"connected_time":7863000000000,"state":"active","ping":74},{"user_id":153,"name":"DARTH MOMMY x_x","steam_id":76561199204257697,"connected_time":1228000000000,"state":"active","ping":59},{"user_id":122,"name":"etc","steam_id":76561197998394797,"connected_time":3294000000000,"state":"active","ping":64},{"user_id":112,"name":"xenia","steam_id":76561198062107879,"connected_time":4482000000000,"state":"active","ping":80},{"user_id":166,"name":"RejectModernityEmbraceMonke","steam_id":76561198318271657,"connected_time":215000000000,"state":"active","ping":92},{"user_id":154,"name":"/hm/","steam_id":76561199213268288,"connected_time":1206000000000,"state":"active","ping":80},{"user_id":155,"name":"tiiyama","steam_id":76561198046196005,"connected_time":1203000000000,"state":"active","ping":48},{"user_id":135,"name":"sleep","steam_id":76561198034882276,"connected_time":2500000000000,"state":"active","ping":87},{"user_id":163,"name":"Qwerty","steam_id":76561198023525894,"connected_time":455000000000,"state":"active","ping":81},{"user_id":150,"name":"Laki","steam_id":76561198126078953,"connected_time":1244000000000,"state":"active","ping":96}]},{"server_id":23,"name":"Uncletopia | Frankfurt | 7 | Stopwatch Beta","name_short":"frk-7","host":"frk-1.de.uncletopia.com","port":27075,"enabled":true,"region":"eu","cc":"de","latitude":50.110924,"longitude":8.682127,"reserved":0,"last_update":"0001-01-01T00:00:00Z","name_a2s":"Uncletopia | Frankfurt | 7 | Stopwatch Beta","protocol":17,"map":"pl_borneo","folder":"tf","game":"Team Fortress","app_id":440,"player_count":1,"max_players":24,"Bots":0,"server_type":"Dedicated","server_os":"Linux","password":true,"vac":true,"version":"7757534","steam_id":85568392924742827,"keywords":["nocrits","nodmgspread","payload","uncletopia"],"game_id":440,"stv_port":27076,"stv_name":"Uncletopia | Frankfurt | 7 | Stopwatch Beta | STV","players":[{"user_id":10,"name":"Bits\u0026Peices","steam_id":76561199225453607,"connected_time":32000000000,"state":"active","ping":120}]},{"server_id":24,"name":"Uncletopia | Frankfurt | 8 | Community","name_short":"frk-8","host":"frk-1.de.uncletopia.com","port":27085,"enabled":true,"region":"eu","cc":"de","latitude":50.110924,"longitude":8.682127,"reserved":0,"last_update":"0001-01-01T00:00:00Z","name_a2s":"Uncletopia | Frankfurt | 8 | Community","protocol":17,"map":"workshop/cp_sulfur_rc2.ugc619869471","folder":"tf","game":"Team Fortress","app_id":440,"player_count":24,"max_players":24,"Bots":0,"server_type":"Dedicated","server_os":"Linux","password":true,"vac":true,"version":"7757534","steam_id":85568392924742828,"keywords":["cp","nocrits","nodmgspread","uncletopia"],"game_id":440,"stv_port":27086,"stv_name":"Uncletopia | Frankfurt | 8 | Community | STV","players":[{"user_id":146,"name":"spesmarine42","steam_id":76561199404806029,"connected_time":1162000000000,"state":"active","ping":90},{"user_id":157,"name":"game","steam_id":76561199111169960,"connected_time":799000000000,"state":"active","ping":60},{"user_id":151,"name":"TJ1212","steam_id":76561199013575313,"connected_time":871000000000,"state":"active","ping":78},{"user_id":150,"name":"Jaggy Snake","steam_id":76561197972779231,"connected_time":911000000000,"state":"active","ping":61},{"user_id":152,"name":"i5","steam_id":76561198212702751,"connected_time":863000000000,"state":"active","ping":84},{"user_id":153,"name":"willo","steam_id":76561198034442999,"connected_time":859000000000,"state":"active","ping":74},{"user_id":149,"name":"Dinges360","steam_id":76561198042032834,"connected_time":1068000000000,"state":"active","ping":64},{"user_id":135,"name":"silly little guy","steam_id":76561198995121468,"connected_time":1344000000000,"state":"active","ping":163},{"user_id":101,"name":"HanımSever23","steam_id":76561198142124751,"connected_time":2795000000000,"state":"active","ping":111},{"user_id":131,"name":"Aregularhuman","steam_id":76561198343319848,"connected_time":1551000000000,"state":"active","ping":39},{"user_id":154,"name":"Irbynx","steam_id":76561197980421195,"connected_time":841000000000,"state":"active","ping":83},{"user_id":165,"name":"Burgoo_King","steam_id":76561198133572225,"connected_time":98000000000,"state":"active","ping":77},{"user_id":155,"name":"Sleepyguy","steam_id":76561198008520542,"connected_time":824000000000,"state":"active","ping":68},{"user_id":156,"name":"nep-nep","steam_id":76561198303149838,"connected_time":820000000000,"state":"active","ping":59},{"user_id":158,"name":"ground-to-air slunge","steam_id":76561198041966915,"connected_time":794000000000,"state":"active","ping":86},{"user_id":80,"name":"Proton","steam_id":76561198415643891,"connected_time":4113000000000,"state":"active","ping":74},{"user_id":125,"name":"juicymangoes.2011","steam_id":76561198131670413,"connected_time":1801000000000,"state":"active","ping":62},{"user_id":159,"name":"junior","steam_id":76561198869806001,"connected_time":782000000000,"state":"active","ping":45},{"user_id":166,"name":"Dave The Sloth","steam_id":76561199135831355,"connected_time":92000000000,"state":"active","ping":204},{"user_id":145,"name":"Magirby","steam_id":76561198818777390,"connected_time":1172000000000,"state":"active","ping":121},{"user_id":162,"name":"Miton","steam_id":76561197970323209,"connected_time":647000000000,"state":"active","ping":75},{"user_id":164,"name":"kupskuk","steam_id":76561198242843304,"connected_time":176000000000,"state":"active","ping":55},{"user_id":167,"name":"JOÃO MIGUEL","steam_id":76561198066297489,"connected_time":6000000000,"state":"spawning","ping":123},{"user_id":163,"name":"pizza time","steam_id":76561199015899793,"connected_time":507000000000,"state":"active","ping":60}]},{"server_id":202,"name":"Uncletopia | Hong Kong | 1 | All Maps","name_short":"hgk-1","host":"hgk-1.hk.uncletopia.com","port":27015,"enabled":true,"region":"asia","cc":"hk","latitude":22.302711,"longitude":114.177216,"reserved":0,"last_update":"0001-01-01T00:00:00Z","name_a2s":"Uncletopia | Hong Kong | 1 | All Maps","protocol":17,"map":"cp_dustbowl","folder":"tf","game":"Team Fortress","app_id":440,"player_count":0,"max_players":24,"Bots":0,"server_type":"Dedicated","server_os":"Linux","password":true,"vac":true,"version":"7757534","steam_id":85568392924494504,"keywords":["cp","nocrits","nodmgspread","uncletopia"],"game_id":440,"stv_port":27016,"stv_name":"Uncletopia | Hong Kong | 1 | All Maps | STV","players":null},{"server_id":1,"name":"Uncletopia | Los Angeles | 1 | All Maps","name_short":"lax-1","host":"lax-1.us.uncletopia.com","port":27015,"enabled":true,"region":"us-west","cc":"us","latitude":33.94279,"longitude":-118.41004,"reserved":0,"last_update":"0001-01-01T00:00:00Z","name_a2s":"Uncletopia | Los Angeles | 1 | All Maps","protocol":17,"map":"cp_mountainlab","folder":"tf","game":"Team Fortress","app_id":440,"player_count":0,"max_players":24,"Bots":0,"server_type":"Dedicated","server_os":"Linux","password":true,"vac":true,"version":"7757534","steam_id":85568392924469991,"keywords":["cp","nocrits","nodmgspread","uncletopia"],"game_id":440,"stv_port":27016,"stv_name":"Uncletopia | Los Angeles | 1 | All Maps | STV","players":null},{"server_id":112,"name":"Uncletopia | Los Angeles | 2 | All Maps","name_short":"lax-2","host":"lax-1.us.uncletopia.com","port":27025,"enabled":true,"region":"us-west","cc":"us","latitude":33.94279,"longitude":-118.41004,"reserved":0,"last_update":"0001-01-01T00:00:00Z","name_a2s":"Uncletopia | Los Angeles | 2 | All Maps","protocol":17,"map":"koth_cascade","folder":"tf","game":"Team Fortress","app_id":440,"player_count":0,"max_players":24,"Bots":0,"server_type":"Dedicated","server_os":"Linux","password":true,"vac":true,"version":"7757534","steam_id":85568392924469992,"keywords":["cp","nocrits","nodmgspread","uncletopia"],"game_id":440,"stv_port":27026,"stv_name":"Uncletopia | Los Angeles | 2 | All Maps | STV","players":null},{"server_id":324,"name":"Uncletopia | Los Angeles | 3 | All Maps","name_short":"lax-3","host":"lax-1.us.uncletopia.com","port":27035,"enabled":true,"region":"us-west","cc":"us","latitude":33.94279,"longitude":-118.41004,"reserved":0,"last_update":"0001-01-01T00:00:00Z","name_a2s":"Uncletopia | Los Angeles | 3 | All Maps","protocol":17,"map":"koth_highpass","folder":"tf","game":"Team Fortress","app_id":440,"player_count":0,"max_players":24,"Bots":0,"server_type":"Dedicated","server_os":"Linux","password":true,"vac":true,"version":"7757534","steam_id":85568392924510198,"keywords":["cp","nocrits","nodmgspread","uncletopia"],"game_id":440,"stv_port":27036,"stv_name":"Uncletopia | Los Angeles | 3 | All Maps | STV","players":null},{"server_id":25,"name":"Uncletopia | Los Angeles | 4 | Stopwatch Beta","name_short":"lax-4","host":"lax-1.us.uncletopia.com","port":27045,"enabled":true,"region":"us-west","cc":"us","latitude":33.94279,"longitude":-118.41004,"reserved":0,"last_update":"0001-01-01T00:00:00Z","name_a2s":"Uncletopia | Los Angeles | 4 | Stopwatch Beta","protocol":17,"map":"koth_viaduct","folder":"tf","game":"Team Fortress","app_id":440,"player_count":0,"max_players":24,"Bots":0,"server_type":"Dedicated","server_os":"Linux","password":true,"vac":true,"version":"7757534","steam_id":85568392924510199,"keywords":["cp","nocrits","nodmgspread","uncletopia"],"game_id":440,"stv_port":27046,"stv_name":"Uncletopia | Los Angeles | 4 | Stopwatch Beta | STV","players":null},{"server_id":11,"name":"Uncletopia | London | 1 | All Maps","name_short":"lon-1","host":"lon-1.uk.uncletopia.com","port":27015,"enabled":true,"region":"eu","cc":"gb","latitude":51.509865,"longitude":-0.118092,"reserved":0,"last_update":"0001-01-01T00:00:00Z","name_a2s":"Uncletopia | London | 1 | All Maps","protocol":17,"map":"pl_badwater","folder":"tf","game":"Team Fortress","app_id":440,"player_count":24,"max_players":24,"Bots":0,"server_type":"Dedicated","server_os":"Linux","password":true,"vac":true,"version":"7757534","steam_id":85568392924367362,"keywords":["nocrits","nodmgspread","payload","uncletopia"],"game_id":440,"stv_port":27016,"stv_name":"Uncletopia | London | 1 | All Maps | STV","players":[{"user_id":224,"name":"Demoknight tf2","steam_id":76561198133041874,"connected_time":111000000000,"state":"active","ping":55},{"user_id":208,"name":"peshay studio set 1996","steam_id":76561199026097466,"connected_time":1328000000000,"state":"active","ping":75},{"user_id":209,"name":"G6 sherlock","steam_id":76561198802967796,"connected_time":1324000000000,"state":"active","ping":114},{"user_id":217,"name":"Amy2Cute","steam_id":76561198291015553,"connected_time":593000000000,"state":"active","ping":60},{"user_id":197,"name":"Firearms","steam_id":76561197989867612,"connected_time":2704000000000,"state":"active","ping":45},{"user_id":221,"name":"Frozen pizza","steam_id":76561198891046692,"connected_time":306000000000,"state":"active","ping":75},{"user_id":216,"name":"ghenios","steam_id":76561198030011207,"connected_time":635000000000,"state":"active","ping":92},{"user_id":199,"name":"Kahvi","steam_id":76561198723244199,"connected_time":2411000000000,"state":"active","ping":75},{"user_id":204,"name":"✪ J","steam_id":76561198094911581,"connected_time":1336000000000,"state":"active","ping":55},{"user_id":222,"name":"F","steam_id":76561199149462792,"connected_time":199000000000,"state":"active","ping":64},{"user_id":220,"name":"The Main Man","steam_id":76561198275646478,"connected_time":324000000000,"state":"active","ping":80},{"user_id":210,"name":"disposablesuperbread","steam_id":76561199074703607,"connected_time":1250000000000,"state":"active","ping":76},{"user_id":215,"name":"Crinkly Doo","steam_id":76561198018898098,"connected_time":644000000000,"state":"active","ping":39},{"user_id":189,"name":"contor","steam_id":76561198288536977,"connected_time":3219000000000,"state":"active","ping":60},{"user_id":168,"name":"After8","steam_id":76561198090750865,"connected_time":4967000000000,"state":"active","ping":75},{"user_id":190,"name":"halcyon","steam_id":76561198169859157,"connected_time":3217000000000,"state":"active","ping":44},{"user_id":211,"name":"goktwoxd","steam_id":76561198065114415,"connected_time":1115000000000,"state":"active","ping":83},{"user_id":214,"name":"Yxel","steam_id":76561198123982890,"connected_time":938000000000,"state":"active","ping":65},{"user_id":183,"name":"doodgie","steam_id":76561198264934115,"connected_time":3616000000000,"state":"active","ping":55},{"user_id":219,"name":"Randomer","steam_id":76561198010533981,"connected_time":517000000000,"state":"active","ping":85},{"user_id":160,"name":"Homicidal Tendencies","steam_id":76561198828681043,"connected_time":5159000000000,"state":"active","ping":44},{"user_id":179,"name":"Alexandre","steam_id":76561198121784446,"connected_time":4081000000000,"state":"active","ping":39},{"user_id":150,"name":"blindcinema_","steam_id":76561198026908105,"connected_time":5454000000000,"state":"active","ping":75},{"user_id":177,"name":"nudjura","steam_id":76561198281986139,"connected_time":4097000000000,"state":"active","ping":46}]},{"server_id":114,"name":"Uncletopia | London | 2 | All Maps","name_short":"lon-2","host":"lon-1.uk.uncletopia.com","port":27025,"enabled":true,"region":"eu","cc":"gb","latitude":51.509865,"longitude":-0.118092,"reserved":0,"last_update":"0001-01-01T00:00:00Z","name_a2s":"Uncletopia | London | 2 | All Maps","protocol":17,"map":"pl_upward","folder":"tf","game":"Team Fortress","app_id":440,"player_count":24,"max_players":24,"Bots":0,"server_type":"Dedicated","server_os":"Linux","password":true,"vac":true,"version":"7757534","steam_id":85568392924470941,"keywords":["nocrits","nodmgspread","payload","uncletopia"],"game_id":440,"stv_port":27026,"stv_name":"Uncletopia | London | 2 | All Maps | STV","players":[{"user_id":146,"name":"UnusualBrit","steam_id":76561198255679838,"connected_time":2623000000000,"state":"active","ping":52},{"user_id":193,"name":"average f2p","steam_id":76561199136308055,"connected_time":630000000000,"state":"active","ping":56},{"user_id":181,"name":"Fluffy","steam_id":76561198084447725,"connected_time":1326000000000,"state":"active","ping":55},{"user_id":149,"name":"weaponised autism","steam_id":76561199223139797,"connected_time":2365000000000,"state":"active","ping":58},{"user_id":164,"name":"DocTwoEight","steam_id":76561198153488940,"connected_time":1837000000000,"state":"active","ping":73},{"user_id":200,"name":"troglodyke","steam_id":76561199400809482,"connected_time":398000000000,"state":"active","ping":48},{"user_id":165,"name":"Xydran","steam_id":76561198042397402,"connected_time":1832000000000,"state":"active","ping":67},{"user_id":152,"name":"i am bread","steam_id":76561199180277321,"connected_time":2267000000000,"state":"active","ping":65},{"user_id":198,"name":"Elmar.","steam_id":76561198082213179,"connected_time":440000000000,"state":"active","ping":56},{"user_id":192,"name":"default","steam_id":76561198186182298,"connected_time":638000000000,"state":"active","ping":57},{"user_id":204,"name":"tea for two","steam_id":76561198133532980,"connected_time":114000000000,"state":"active","ping":44},{"user_id":199,"name":"bifi","steam_id":76561198045347066,"connected_time":440000000000,"state":"active","ping":66},{"user_id":183,"name":"Castleson","steam_id":76561198054330537,"connected_time":1262000000000,"state":"active","ping":131},{"user_id":160,"name":"tactical783","steam_id":76561199051688560,"connected_time":1949000000000,"state":"active","ping":78},{"user_id":161,"name":"Duke Fishlord","steam_id":76561198079928327,"connected_time":1940000000000,"state":"active","ping":71},{"user_id":180,"name":"Curlew","steam_id":76561198075884540,"connected_time":1423000000000,"state":"active","ping":71},{"user_id":195,"name":"Giclas.","steam_id":76561198061187364,"connected_time":589000000000,"state":"active","ping":47},{"user_id":167,"name":"Grandma","steam_id":76561198042593027,"connected_time":1794000000000,"state":"active","ping":100},{"user_id":184,"name":"Unbreakable Patches","steam_id":76561198040182692,"connected_time":1260000000000,"state":"active","ping":39},{"user_id":186,"name":"Economic crisis","steam_id":76561198063562843,"connected_time":1110000000000,"state":"active","ping":85},{"user_id":196,"name":"AndroKing","steam_id":76561198840591678,"connected_time":583000000000,"state":"active","ping":82},{"user_id":203,"name":"sPork","steam_id":76561198056880331,"connected_time":380000000000,"state":"active","ping":72},{"user_id":202,"name":"homeinvasion$","steam_id":76561199111905021,"connected_time":385000000000,"state":"active","ping":123},{"user_id":178,"name":"blazeeight","steam_id":76561198159456502,"connected_time":1649000000000,"state":"active","ping":46}]},{"server_id":320,"name":"Uncletopia | London | 3 | All Maps","name_short":"lon-3","host":"lon-1.uk.uncletopia.com","port":27035,"enabled":true,"region":"eu","cc":"gb","latitude":51.509865,"longitude":-0.118092,"reserved":0,"last_update":"0001-01-01T00:00:00Z","name_a2s":"Uncletopia | London | 3 | All Maps","protocol":17,"map":"cp_coldfront","folder":"tf","game":"Team Fortress","app_id":440,"player_count":24,"max_players":24,"Bots":0,"server_type":"Dedicated","server_os":"Linux","password":true,"vac":true,"version":"7757534","steam_id":85568392924510192,"keywords":["cp","nocrits","nodmgspread","uncletopia"],"game_id":440,"stv_port":27036,"stv_name":"Uncletopia | London | 3 | All Maps | STV","players":[{"user_id":16,"name":"Mika","steam_id":76561199183780280,"connected_time":6391000000000,"state":"active","ping":59},{"user_id":112,"name":"Palex","steam_id":76561198093219465,"connected_time":718000000000,"state":"active","ping":44},{"user_id":73,"name":"TSx* {Demon-Angel}","steam_id":76561198151486463,"connected_time":3449000000000,"state":"active","ping":88},{"user_id":103,"name":"Chaine","steam_id":76561198088660956,"connected_time":2029000000000,"state":"active","ping":92},{"user_id":117,"name":"greg","steam_id":76561198047388059,"connected_time":456000000000,"state":"active","ping":81},{"user_id":108,"name":"Lovelessvaccuum","steam_id":76561198079555422,"connected_time":1510000000000,"state":"active","ping":31},{"user_id":113,"name":"Whallie","steam_id":76561198881117247,"connected_time":590000000000,"state":"active","ping":84},{"user_id":99,"name":"Bell","steam_id":76561199454586928,"connected_time":2194000000000,"state":"active","ping":134},{"user_id":119,"name":"PASTAMANIA!","steam_id":76561197967858558,"connected_time":429000000000,"state":"active","ping":45},{"user_id":74,"name":"TSx* Naxer","steam_id":76561198011986779,"connected_time":3443000000000,"state":"active","ping":75},{"user_id":40,"name":"American Fumo","steam_id":76561198143751259,"connected_time":5027000000000,"state":"active","ping":75},{"user_id":118,"name":"YEEET","steam_id":76561198914938199,"connected_time":449000000000,"state":"active","ping":105},{"user_id":120,"name":"rrm#4395","steam_id":76561199225339381,"connected_time":406000000000,"state":"active","ping":43},{"user_id":93,"name":"CutteLighty","steam_id":76561198080700641,"connected_time":2631000000000,"state":"active","ping":60},{"user_id":76,"name":"Unfortunate ❤","steam_id":76561198125500777,"connected_time":3425000000000,"state":"active","ping":102},{"user_id":122,"name":"phyre.","steam_id":76561198146519638,"connected_time":238000000000,"state":"active","ping":68},{"user_id":78,"name":"TSx* Osa__PL","steam_id":76561198027016799,"connected_time":3419000000000,"state":"active","ping":76},{"user_id":92,"name":"TSx* Bargal","steam_id":76561198040266872,"connected_time":2805000000000,"state":"active","ping":81},{"user_id":116,"name":"Pando","steam_id":76561198137947338,"connected_time":478000000000,"state":"active","ping":74},{"user_id":101,"name":"9:02","steam_id":76561198795862574,"connected_time":2188000000000,"state":"active","ping":130},{"user_id":114,"name":"[Sheep] Tomco","steam_id":76561198388549261,"connected_time":554000000000,"state":"active","ping":63},{"user_id":121,"name":"Mr.Man","steam_id":76561199175688390,"connected_time":352000000000,"state":"active","ping":88},{"user_id":109,"name":"Dark Souls Reference","steam_id":76561198094102747,"connected_time":1429000000000,"state":"active","ping":57},{"user_id":81,"name":"SpeddyMeddy","steam_id":76561197999693825,"connected_time":3405000000000,"state":"active","ping":84}]},{"server_id":321,"name":"Uncletopia | London | 4 | All Maps","name_short":"lon-4","host":"lon-1.uk.uncletopia.com","port":27045,"enabled":true,"region":"eu","cc":"gb","latitude":51.509865,"longitude":-0.118092,"reserved":0,"last_update":"0001-01-01T00:00:00Z","name_a2s":"Uncletopia | London | 4 | All Maps","protocol":17,"map":"pl_pier","folder":"tf","game":"Team Fortress","app_id":440,"player_count":24,"max_players":24,"Bots":0,"server_type":"Dedicated","server_os":"Linux","password":true,"vac":true,"version":"7757534","steam_id":85568392924510193,"keywords":["nocrits","nodmgspread","payload","uncletopia"],"game_id":440,"stv_port":27046,"stv_name":"Uncletopia | London | 4 | All Maps | STV","players":[{"user_id":606,"name":"Deva Path","steam_id":76561198085763542,"connected_time":96000000000,"state":"active","ping":84},{"user_id":608,"name":"British Disapproval","steam_id":76561198001375260,"connected_time":62000000000,"state":"active","ping":63},{"user_id":607,"name":"TheKindleTheory","steam_id":76561198010230101,"connected_time":80000000000,"state":"active","ping":54},{"user_id":598,"name":"dafydd","steam_id":76561198052200325,"connected_time":471000000000,"state":"active","ping":85},{"user_id":585,"name":"Mr. Hunts","steam_id":76561197981910397,"connected_time":1040000000000,"state":"active","ping":65},{"user_id":582,"name":"¬°Nice","steam_id":76561198387871867,"connected_time":1058000000000,"state":"active","ping":83},{"user_id":580,"name":"stun","steam_id":76561198276681691,"connected_time":1077000000000,"state":"active","ping":48},{"user_id":600,"name":"PineApple","steam_id":76561198114541452,"connected_time":381000000000,"state":"active","ping":55},{"user_id":538,"name":"WMW","steam_id":76561198837706438,"connected_time":5746000000000,"state":"active","ping":53},{"user_id":563,"name":"Jeikku","steam_id":76561198078651679,"connected_time":3209000000000,"state":"active","ping":42},{"user_id":514,"name":"Frazzle","steam_id":76561198262577951,"connected_time":8244000000000,"state":"active","ping":66},{"user_id":604,"name":"Nokah","steam_id":76561198973184361,"connected_time":203000000000,"state":"active","ping":77},{"user_id":546,"name":"Hexagon","steam_id":76561198151205758,"connected_time":5324000000000,"state":"active","ping":60},{"user_id":443,"name":"Brass beast heavy","steam_id":76561198274197623,"connected_time":12405000000000,"state":"active","ping":67},{"user_id":586,"name":"Mr. Mundy","steam_id":76561198132008918,"connected_time":1035000000000,"state":"active","ping":81},{"user_id":539,"name":"FELHEEE","steam_id":76561197987151150,"connected_time":5637000000000,"state":"active","ping":77},{"user_id":571,"name":"pain","steam_id":76561198047359132,"connected_time":2075000000000,"state":"active","ping":72},{"user_id":581,"name":"TheEventGuy","steam_id":76561197972797744,"connected_time":1061000000000,"state":"active","ping":72},{"user_id":577,"name":"Shunsninja13","steam_id":76561198021389366,"connected_time":1454000000000,"state":"active","ping":77},{"user_id":583,"name":"Ducc","steam_id":76561198030677425,"connected_time":1058000000000,"state":"active","ping":61},{"user_id":579,"name":"LL66","steam_id":76561198269997109,"connected_time":1208000000000,"state":"active","ping":81},{"user_id":587,"name":"Caro-Kann","steam_id":76561198065506317,"connected_time":1033000000000,"state":"active","ping":74},{"user_id":591,"name":"Thors","steam_id":76561197968739075,"connected_time":865000000000,"state":"active","ping":41},{"user_id":595,"name":"New_SteFano_","steam_id":76561198448642353,"connected_time":775000000000,"state":"active","ping":92}]},{"server_id":21,"name":"Uncletopia | London | 5 | All Maps","name_short":"lon-5","host":"lon-1.uk.uncletopia.com","port":27055,"enabled":true,"region":"eu","cc":"gb","latitude":51.509865,"longitude":-0.118092,"reserved":0,"last_update":"0001-01-01T00:00:00Z","name_a2s":"Uncletopia | London | 5 | All Maps","protocol":17,"map":"koth_nucleus","folder":"tf","game":"Team Fortress","app_id":440,"player_count":21,"max_players":24,"Bots":0,"server_type":"Dedicated","server_os":"Linux","password":true,"vac":true,"version":"7757534","steam_id":85568392924742829,"keywords":["cp","nocrits","nodmgspread","uncletopia"],"game_id":440,"stv_port":27056,"stv_name":"Uncletopia | London | 5 | All Maps | STV","players":[{"user_id":637,"name":"Blyatwork","steam_id":76561198825379598,"connected_time":3221000000000,"state":"active","ping":56},{"user_id":656,"name":"Tmpod","steam_id":76561198069210431,"connected_time":1975000000000,"state":"active","ping":61},{"user_id":687,"name":"yasin","steam_id":76561198055452270,"connected_time":158000000000,"state":"active","ping":67},{"user_id":680,"name":"knyazF","steam_id":76561198163278585,"connected_time":741000000000,"state":"active","ping":75},{"user_id":691,"name":"Key Lyor Selph","steam_id":76561198256704286,"connected_time":74000000000,"state":"active","ping":60},{"user_id":677,"name":"Bentley","steam_id":76561197978252169,"connected_time":1191000000000,"state":"active","ping":63},{"user_id":679,"name":"Bob_Tostas","steam_id":76561198249006560,"connected_time":997000000000,"state":"active","ping":86},{"user_id":689,"name":"ijustsmokeandcry","steam_id":76561198044189114,"connected_time":149000000000,"state":"active","ping":67},{"user_id":692,"name":"Uncle Terry","steam_id":76561198396415736,"connected_time":28000000000,"state":"active","ping":71},{"user_id":626,"name":"Mayor Wank from Wanker Town","steam_id":76561197998253588,"connected_time":3327000000000,"state":"active","ping":60},{"user_id":690,"name":"antman","steam_id":76561198017352695,"connected_time":130000000000,"state":"active","ping":122},{"user_id":693,"name":"glorbert","steam_id":76561198007792525,"connected_time":14000000000,"state":"spawning","ping":44},{"user_id":659,"name":"mr gaming","steam_id":76561198110103308,"connected_time":1930000000000,"state":"active","ping":45},{"user_id":643,"name":"0xDEADBEEF","steam_id":76561199075416111,"connected_time":2895000000000,"state":"active","ping":72},{"user_id":686,"name":"ike","steam_id":76561198039573338,"connected_time":181000000000,"state":"active","ping":101},{"user_id":662,"name":"symbiome","steam_id":76561198047548582,"connected_time":1913000000000,"state":"active","ping":60},{"user_id":685,"name":"Mass","steam_id":76561198432195204,"connected_time":223000000000,"state":"active","ping":59},{"user_id":681,"name":"plaier123457","steam_id":76561198993969194,"connected_time":400000000000,"state":"active","ping":91},{"user_id":678,"name":"Doc","steam_id":76561198433991203,"connected_time":1126000000000,"state":"active","ping":42},{"user_id":674,"name":"B0rеаl","steam_id":76561198268369013,"connected_time":1456000000000,"state":"active","ping":85},{"user_id":665,"name":"kreeekz","steam_id":76561198014431602,"connected_time":1875000000000,"state":"active","ping":88}]},{"server_id":22,"name":"Uncletopia | London | 6 | All Maps","name_short":"lon-6","host":"lon-1.uk.uncletopia.com","port":27065,"enabled":true,"region":"eu","cc":"gb","latitude":51.509865,"longitude":-0.118092,"reserved":0,"last_update":"0001-01-01T00:00:00Z","name_a2s":"Uncletopia | London | 6 | All Maps","protocol":17,"map":"pl_barnblitz","folder":"tf","game":"Team Fortress","app_id":440,"player_count":0,"max_players":24,"Bots":0,"server_type":"Dedicated","server_os":"Linux","password":true,"vac":true,"version":"7757534","steam_id":85568392924742830,"keywords":["nocrits","nodmgspread","payload","uncletopia"],"game_id":440,"stv_port":27066,"stv_name":"Uncletopia | London | 6 | All Maps | STV","players":null},{"server_id":40,"name":"Uncletopia | London | 7 | No Payload","name_short":"lon-7","host":"lon-1.uk.uncletopia.com","port":27075,"enabled":true,"region":"eu","cc":"gb","latitude":51.509865,"longitude":-0.118092,"reserved":0,"last_update":"0001-01-01T00:00:00Z","name_a2s":"Uncletopia | London | 7 | No Payload","protocol":17,"map":"cp_granary","folder":"tf","game":"Team Fortress","app_id":440,"player_count":0,"max_players":24,"Bots":0,"server_type":"Dedicated","server_os":"Linux","password":true,"vac":true,"version":"7757534","steam_id":85568392924964314,"keywords":["cp","nocrits","nodmgspread","uncletopia"],"game_id":440,"stv_port":27076,"stv_name":"Uncletopia | London | 7 | No Payload | STV","players":null},{"server_id":41,"name":"Uncletopia | London | 8 | Community","name_short":"lon-8","host":"lon-1.uk.uncletopia.com","port":27085,"enabled":true,"region":"eu","cc":"gb","latitude":51.509865,"longitude":-0.118092,"reserved":0,"last_update":"0001-01-01T00:00:00Z","name_a2s":"Uncletopia | London | 8 | Community","protocol":17,"map":"workshop/pl_fifthcurve_rc1.ugc648227046","folder":"tf","game":"Team Fortress","app_id":440,"player_count":0,"max_players":24,"Bots":0,"server_type":"Dedicated","server_os":"Linux","password":true,"vac":true,"version":"7757534","steam_id":85568392924964315,"keywords":["nocrits","nodmgspread","payload","uncletopia"],"game_id":440,"stv_port":27086,"stv_name":"Uncletopia | London | 8 | Community | STV","players":null},{"server_id":300,"name":"Uncletopia | Montréal | 1 | All Maps","name_short":"mtl-1","host":"mtl-1.ca.uncletopia.com","port":27015,"enabled":true,"region":"us-east","cc":"ca","latitude":45.50889,"longitude":-73.56167,"reserved":0,"last_update":"0001-01-01T00:00:00Z","name_a2s":"Uncletopia | Montréal | 1 | All Maps","protocol":17,"map":"koth_cascade","folder":"tf","game":"Team Fortress","app_id":440,"player_count":0,"max_players":24,"Bots":0,"server_type":"Dedicated","server_os":"Linux","password":true,"vac":true,"version":"7757534","steam_id":85568392924500087,"keywords":["cp","nocrits","nodmgspread","uncletopia"],"game_id":440,"stv_port":27016,"stv_name":"Uncletopia | Montréal | 1 | All Maps | STV","players":null},{"server_id":301,"name":"Uncletopia | Montréal | 2 | All Maps","name_short":"mtl-2","host":"mtl-1.ca.uncletopia.com","port":27025,"enabled":true,"region":"us-east","cc":"ca","latitude":45.50889,"longitude":-73.56167,"reserved":0,"last_update":"0001-01-01T00:00:00Z","name_a2s":"Uncletopia | Montréal | 2 | All Maps","protocol":17,"map":"pl_borneo","folder":"tf","game":"Team Fortress","app_id":440,"player_count":0,"max_players":24,"Bots":0,"server_type":"Dedicated","server_os":"Linux","password":true,"vac":true,"version":"7757534","steam_id":85568392924500088,"keywords":["nocrits","nodmgspread","payload","uncletopia"],"game_id":440,"stv_port":27026,"stv_name":"Uncletopia | Montréal | 2 | All Maps | STV","players":null},{"server_id":302,"name":"Uncletopia | Montréal | 3 | All Maps","name_short":"mtl-3","host":"mtl-1.ca.uncletopia.com","port":27035,"enabled":true,"region":"us-east","cc":"ca","latitude":45.50889,"longitude":-73.56167,"reserved":0,"last_update":"0001-01-01T00:00:00Z","name_a2s":"Uncletopia | Montréal | 3 | All Maps","protocol":17,"map":"cp_sunshine","folder":"tf","game":"Team Fortress","app_id":440,"player_count":0,"max_players":24,"Bots":0,"server_type":"Dedicated","server_os":"Linux","password":true,"vac":true,"version":"7757534","steam_id":85568392924500089,"keywords":["cp","nocrits","nodmgspread","uncletopia"],"game_id":440,"stv_port":27036,"stv_name":"Uncletopia | Montréal | 3 | All Maps | STV","players":null},{"server_id":303,"name":"Uncletopia | Montréal | 4 | No Payload","name_short":"mtl-4","host":"mtl-1.ca.uncletopia.com","port":27045,"enabled":true,"region":"us-east","cc":"ca","latitude":45.50889,"longitude":-73.56167,"reserved":0,"last_update":"0001-01-01T00:00:00Z","name_a2s":"Uncletopia | Montréal | 4 | No Payload","protocol":17,"map":"koth_lakeside_final","folder":"tf","game":"Team Fortress","app_id":440,"player_count":0,"max_players":24,"Bots":0,"server_type":"Dedicated","server_os":"Linux","password":true,"vac":true,"version":"7757534","steam_id":85568392924500090,"keywords":["cp","nocrits","nodmgspread","uncletopia"],"game_id":440,"stv_port":27046,"stv_name":"Uncletopia | Montréal | 4 | No Payload | STV","players":null},{"server_id":13,"name":"Uncletopia | New York City | 1 | All Maps","name_short":"nyc-1","host":"nyc-1.us.uncletopia.com","port":27015,"enabled":true,"region":"us-east","cc":"us","latitude":40.73061,"longitude":-73.93524,"reserved":0,"last_update":"0001-01-01T00:00:00Z","name_a2s":"Uncletopia | New York City | 1 | All Maps","protocol":17,"map":"pl_frontier_final","folder":"tf","game":"Team Fortress","app_id":440,"player_count":24,"max_players":24,"Bots":0,"server_type":"Dedicated","server_os":"Linux","password":true,"vac":true,"version":"7757534","steam_id":85568392924469993,"keywords":["nocrits","nodmgspread","payload","uncletopia"],"game_id":440,"stv_port":27016,"stv_name":"Uncletopia | New York City | 1 | All Maps | STV","players":[{"user_id":131,"name":"scarecrow (evil)","steam_id":76561198082979347,"connected_time":1155000000000,"state":"active","ping":109},{"user_id":133,"name":"Lilac Lulamoon","steam_id":76561198111402757,"connected_time":1119000000000,"state":"active","ping":83},{"user_id":129,"name":"SalamenceFury","steam_id":76561198054585848,"connected_time":1441000000000,"state":"active","ping":135},{"user_id":120,"name":"The Rambler","steam_id":76561198109648603,"connected_time":2012000000000,"state":"active","ping":80},{"user_id":149,"name":"Quansen","steam_id":76561198151594550,"connected_time":148000000000,"state":"active","ping":79},{"user_id":141,"name":"lu","steam_id":76561198080731872,"connected_time":897000000000,"state":"active","ping":99},{"user_id":150,"name":"Owned","steam_id":76561198426350355,"connected_time":139000000000,"state":"active","ping":117},{"user_id":105,"name":"[Deep]GooeyGapedGrannys","steam_id":76561198089731303,"connected_time":2743000000000,"state":"active","ping":47},{"user_id":151,"name":".✮ RoseLina ✮.","steam_id":76561198104370559,"connected_time":114000000000,"state":"active","ping":107},{"user_id":144,"name":"kuromble","steam_id":76561198130312064,"connected_time":405000000000,"state":"active","ping":117},{"user_id":122,"name":"Dip-Shit Dave","steam_id":76561198357468325,"connected_time":1837000000000,"state":"active","ping":61},{"user_id":136,"name":"Kelpy","steam_id":76561198294906383,"connected_time":1099000000000,"state":"active","ping":46},{"user_id":130,"name":"Timotheo_Belfrey","steam_id":76561198110587539,"connected_time":1389000000000,"state":"active","ping":78},{"user_id":152,"name":"Deltaco","steam_id":76561198094572694,"connected_time":83000000000,"state":"active","ping":140},{"user_id":108,"name":"wetnails","steam_id":76561198263271697,"connected_time":2544000000000,"state":"active","ping":81},{"user_id":148,"name":"Bart Harley Jarvis","steam_id":76561199215811448,"connected_time":167000000000,"state":"active","ping":65},{"user_id":146,"name":"MR DADDY","steam_id":76561198350794663,"connected_time":211000000000,"state":"active","ping":55},{"user_id":132,"name":"THRILLHO","steam_id":76561198371663047,"connected_time":1145000000000,"state":"active","ping":45},{"user_id":140,"name":"FellowGamer","steam_id":76561198089600392,"connected_time":1048000000000,"state":"active","ping":66},{"user_id":84,"name":"The Land Admiral","steam_id":76561198159356609,"connected_time":3807000000000,"state":"active","ping":56},{"user_id":143,"name":"white ray","steam_id":76561198026664629,"connected_time":775000000000,"state":"active","ping":44},{"user_id":115,"name":"Fives","steam_id":76561199199863275,"connected_time":2373000000000,"state":"active","ping":128},{"user_id":153,"name":"O'brien","steam_id":76561198289339403,"connected_time":66000000000,"state":"active","ping":85},{"user_id":118,"name":"The Guy","steam_id":76561198131629233,"connected_time":2320000000000,"state":"active","ping":71}]},{"server_id":14,"name":"Uncletopia | New York City | 2 | All Maps","name_short":"nyc-2","host":"nyc-1.us.uncletopia.com","port":27025,"enabled":true,"region":"us-east","cc":"us","latitude":40.73061,"longitude":-73.93524,"reserved":0,"last_update":"0001-01-01T00:00:00Z","name_a2s":"Uncletopia | New York City | 2 | All Maps","protocol":17,"map":"cp_mountainlab","folder":"tf","game":"Team Fortress","app_id":440,"player_count":0,"max_players":24,"Bots":0,"server_type":"Dedicated","server_os":"Linux","password":true,"vac":true,"version":"7757534","steam_id":85568392924469994,"keywords":["cp","nocrits","nodmgspread","uncletopia"],"game_id":440,"stv_port":27026,"stv_name":"Uncletopia | New York City | 2 | All Maps | STV","players":null},{"server_id":15,"name":"Uncletopia | New York City | 3 | Stopwatch Beta","name_short":"nyc-3","host":"nyc-1.us.uncletopia.com","port":27035,"enabled":true,"region":"us-east","cc":"us","latitude":40.73061,"longitude":-73.93524,"reserved":0,"last_update":"0001-01-01T00:00:00Z","name_a2s":"Uncletopia | New York City | 3 | Stopwatch Beta","protocol":17,"map":"koth_lakeside_final","folder":"tf","game":"Team Fortress","app_id":440,"player_count":0,"max_players":24,"Bots":0,"server_type":"Dedicated","server_os":"Linux","password":true,"vac":true,"version":"7757534","steam_id":85568392924742820,"keywords":["cp","nocrits","nodmgspread","uncletopia"],"game_id":440,"stv_port":27036,"stv_name":"Uncletopia | New York City | 3 | Stopwatch Beta | STV","players":null},{"server_id":16,"name":"Uncletopia | New York City | 4 | Community","name_short":"nyc-4","host":"nyc-1.us.uncletopia.com","port":27045,"enabled":true,"region":"us-east","cc":"us","latitude":40.73061,"longitude":-73.93524,"reserved":0,"last_update":"0001-01-01T00:00:00Z","name_a2s":"Uncletopia | New York City | 4 | Community","protocol":17,"map":"workshop/pl_eruption_b9a.ugc2807898013","folder":"tf","game":"Team Fortress","app_id":440,"player_count":0,"max_players":24,"Bots":0,"server_type":"Dedicated","server_os":"Linux","password":true,"vac":true,"version":"7757534","steam_id":85568392924742821,"keywords":["nocrits","nodmgspread","payload","uncletopia"],"game_id":440,"stv_port":27046,"stv_name":"Uncletopia | New York City | 4 | Community | STV","players":null},{"server_id":142,"name":"Uncletopia | São Paulo | 1 | All Maps","name_short":"sao-1","host":"sao-1.br.uncletopia.com","port":27015,"enabled":true,"region":"sa","cc":"br","latitude":-23.533773,"longitude":-46.62529,"reserved":0,"last_update":"0001-01-01T00:00:00Z","name_a2s":"Uncletopia | São Paulo | 1 | All Maps","protocol":17,"map":"koth_highpass","folder":"tf","game":"Team Fortress","app_id":440,"player_count":2,"max_players":24,"Bots":0,"server_type":"Dedicated","server_os":"Linux","password":true,"vac":true,"version":"7757534","steam_id":85568392924469996,"keywords":["cp","nocrits","nodmgspread","uncletopia"],"game_id":440,"stv_port":27016,"stv_name":"Uncletopia | São Paulo | 1 | All Maps | STV","players":[{"user_id":44,"name":"Roasted Ham","steam_id":76561199052193709,"connected_time":820000000000,"state":"active","ping":112},{"user_id":46,"name":"dinolorb","steam_id":76561199386614787,"connected_time":771000000000,"state":"active","ping":45}]},{"server_id":143,"name":"Uncletopia | São Paulo | 2 | All Maps","name_short":"sao-2","host":"sao-2.br.uncletopia.com","port":27015,"enabled":true,"region":"sa","cc":"br","latitude":-23.533773,"longitude":-46.62529,"reserved":0,"last_update":"0001-01-01T00:00:00Z","name_a2s":"Uncletopia | São Paulo | 2 | All Maps","protocol":17,"map":"pl_upward","folder":"tf","game":"Team Fortress","app_id":440,"player_count":0,"max_players":24,"Bots":0,"server_type":"Dedicated","server_os":"Linux","password":true,"vac":true,"version":"7757534","steam_id":85568392924485349,"keywords":["nocrits","nodmgspread","payload","uncletopia"],"game_id":440,"stv_port":27016,"stv_name":"Uncletopia | São Paulo | 2 | All Maps | STV","players":null},{"server_id":7,"name":"Uncletopia | Seattle | 1 | All Maps","name_short":"sea-1","host":"sea-1.us.uncletopia.com","port":27015,"enabled":true,"region":"us-west","cc":"us","latitude":47.608013,"longitude":-122.33517,"reserved":0,"last_update":"0001-01-01T00:00:00Z","name_a2s":"Uncletopia | Seattle | 1 | All Maps","protocol":17,"map":"pl_barnblitz","folder":"tf","game":"Team Fortress","app_id":440,"player_count":24,"max_players":24,"Bots":0,"server_type":"Dedicated","server_os":"Linux","password":true,"vac":true,"version":"7757534","steam_id":85568392924469997,"keywords":["nocrits","nodmgspread","payload","uncletopia"],"game_id":440,"stv_port":27016,"stv_name":"Uncletopia | Seattle | 1 | All Maps | STV","players":[{"user_id":239,"name":"BooG","steam_id":76561198879345384,"connected_time":195000000000,"state":"active","ping":111},{"user_id":231,"name":"Defeat","steam_id":76561198065203818,"connected_time":786000000000,"state":"active","ping":44},{"user_id":195,"name":"a crazy hobo","steam_id":76561198289650060,"connected_time":3599000000000,"state":"active","ping":75},{"user_id":240,"name":"Ari","steam_id":76561198183269215,"connected_time":190000000000,"state":"active","ping":92},{"user_id":216,"name":"Mario Trapped in a Piano","steam_id":76561198116765135,"connected_time":1957000000000,"state":"active","ping":45},{"user_id":232,"name":"A kingly frog","steam_id":76561198041334888,"connected_time":763000000000,"state":"active","ping":94},{"user_id":234,"name":"scrapheap","steam_id":76561198202407087,"connected_time":720000000000,"state":"active","ping":122},{"user_id":228,"name":"dep","steam_id":76561198044106812,"connected_time":1208000000000,"state":"active","ping":105},{"user_id":212,"name":"Seru","steam_id":76561199219827214,"connected_time":2452000000000,"state":"active","ping":133},{"user_id":208,"name":"Grilled Jizo","steam_id":76561199250875340,"connected_time":2644000000000,"state":"active","ping":60},{"user_id":233,"name":"Cool Ranch Buddha","steam_id":76561197982863756,"connected_time":729000000000,"state":"active","ping":120},{"user_id":205,"name":"C U Next Tuesday","steam_id":76561198058493492,"connected_time":2733000000000,"state":"active","ping":53},{"user_id":227,"name":"TheMagicMrWaffle","steam_id":76561198104357256,"connected_time":1233000000000,"state":"active","ping":74},{"user_id":209,"name":"Kraul","steam_id":76561198043682060,"connected_time":2579000000000,"state":"active","ping":125},{"user_id":237,"name":"Naeole1","steam_id":76561198240378926,"connected_time":388000000000,"state":"active","ping":121},{"user_id":206,"name":"Julien","steam_id":76561199389584938,"connected_time":2700000000000,"state":"active","ping":39},{"user_id":235,"name":"Lamarr","steam_id":76561198087965924,"connected_time":650000000000,"state":"active","ping":104},{"user_id":203,"name":"Fh","steam_id":76561198000903511,"connected_time":3331000000000,"state":"active","ping":64},{"user_id":46,"name":"THE NUT","steam_id":76561198067813626,"connected_time":14565000000000,"state":"active","ping":44},{"user_id":230,"name":"h","steam_id":76561198868164815,"connected_time":874000000000,"state":"active","ping":53},{"user_id":222,"name":"Prankless","steam_id":76561198070678366,"connected_time":1798000000000,"state":"active","ping":88},{"user_id":220,"name":"JustAGuy676","steam_id":76561199111878235,"connected_time":1903000000000,"state":"active","ping":124},{"user_id":236,"name":"Lily Thorn","steam_id":76561198305488625,"connected_time":582000000000,"state":"active","ping":71},{"user_id":191,"name":"EatSomeBEES","steam_id":76561198047334307,"connected_time":4109000000000,"state":"active","ping":88}]},{"server_id":119,"name":"Uncletopia | Seattle | 2 | All Maps","name_short":"sea-2","host":"sea-1.us.uncletopia.com","port":27025,"enabled":true,"region":"us-west","cc":"us","latitude":47.608013,"longitude":-122.33517,"reserved":0,"last_update":"0001-01-01T00:00:00Z","name_a2s":"Uncletopia | Seattle | 2 | All Maps","protocol":17,"map":"cp_process_final","folder":"tf","game":"Team Fortress","app_id":440,"player_count":0,"max_players":24,"Bots":0,"server_type":"Dedicated","server_os":"Linux","password":true,"vac":true,"version":"7757534","steam_id":85568392924469998,"keywords":["cp","nocrits","nodmgspread","uncletopia"],"game_id":440,"stv_port":27026,"stv_name":"Uncletopia | Seattle | 2 | All Maps | STV","players":null},{"server_id":406,"name":"Uncletopia | Seattle | 3 | Stopwatch Beta","name_short":"sea-3","host":"sea-1.us.uncletopia.com","port":27035,"enabled":true,"region":"us-west","cc":"us","latitude":47.608013,"longitude":-122.33517,"reserved":0,"last_update":"0001-01-01T00:00:00Z","name_a2s":"Uncletopia | Seattle | 3 | Stopwatch Beta","protocol":17,"map":"workshop/pl_summercoast_rc8e.ugc1761528829","folder":"tf","game":"Team Fortress","app_id":440,"player_count":0,"max_players":24,"Bots":0,"server_type":"Dedicated","server_os":"Linux","password":true,"vac":true,"version":"7757534","steam_id":85568392924515217,"keywords":["nocrits","nodmgspread","payload","uncletopia"],"game_id":440,"stv_port":27036,"stv_name":"Uncletopia | Seattle | 3 | Stopwatch Beta | STV","players":null},{"server_id":17,"name":"Uncletopia | San Francisco | 1 | All Maps","name_short":"sfo-1","host":"sfo-1.us.uncletopia.com","port":27015,"enabled":true,"region":"us-west","cc":"us","latitude":37.77397,"longitude":-122.4313,"reserved":0,"last_update":"0001-01-01T00:00:00Z","name_a2s":"Uncletopia | San Francisco | 1 | All Maps","protocol":17,"map":"pl_pier","folder":"tf","game":"Team Fortress","app_id":440,"player_count":0,"max_players":24,"Bots":0,"server_type":"Dedicated","server_os":"Linux","password":true,"vac":true,"version":"7757534","steam_id":85568392924469999,"keywords":["nocrits","nodmgspread","payload","uncletopia"],"game_id":440,"stv_port":27016,"stv_name":"Uncletopia | San Francisco | 1 | All Maps | STV","players":null},{"server_id":18,"name":"Uncletopia | San Francisco | 2 | All Maps","name_short":"sfo-2","host":"sfo-1.us.uncletopia.com","port":27025,"enabled":true,"region":"us-west","cc":"us","latitude":37.77397,"longitude":-122.4313,"reserved":0,"last_update":"0001-01-01T00:00:00Z","name_a2s":"Uncletopia | San Francisco | 2 | All Maps","protocol":17,"map":"cp_mountainlab","folder":"tf","game":"Team Fortress","app_id":440,"player_count":0,"max_players":24,"Bots":0,"server_type":"Dedicated","server_os":"Linux","password":true,"vac":true,"version":"7757534","steam_id":85568392924470000,"keywords":["cp","nocrits","nodmgspread","uncletopia"],"game_id":440,"stv_port":27026,"stv_name":"Uncletopia | San Francisco | 2 | All Maps | STV","players":null},{"server_id":19,"name":"Uncletopia | San Francisco | 3 | Stopwatch Beta","name_short":"sfo-3","host":"sfo-1.us.uncletopia.com","port":27035,"enabled":true,"region":"us-west","cc":"us","latitude":37.77397,"longitude":-122.4313,"reserved":0,"last_update":"0001-01-01T00:00:00Z","name_a2s":"Uncletopia | San Francisco | 3 | Stopwatch Beta","protocol":17,"map":"koth_viaduct","folder":"tf","game":"Team Fortress","app_id":440,"player_count":0,"max_players":24,"Bots":0,"server_type":"Dedicated","server_os":"Linux","password":true,"vac":true,"version":"7757534","steam_id":85568392924742824,"keywords":["cp","nocrits","nodmgspread","uncletopia"],"game_id":440,"stv_port":27036,"stv_name":"Uncletopia | San Francisco | 3 | Stopwatch Beta | STV","players":null},{"server_id":20,"name":"Uncletopia | San Francisco | 4 | Community","name_short":"sfo-4","host":"sfo-1.us.uncletopia.com","port":27045,"enabled":true,"region":"us-west","cc":"us","latitude":37.77397,"longitude":-122.4313,"reserved":0,"last_update":"0001-01-01T00:00:00Z","name_a2s":"Uncletopia | San Francisco | 4 | Community","protocol":17,"map":"pl_borneo","folder":"tf","game":"Team Fortress","app_id":440,"player_count":0,"max_players":24,"Bots":0,"server_type":"Dedicated","server_os":"Linux","password":true,"vac":true,"version":"7757534","steam_id":85568392924742826,"keywords":["nocrits","nodmgspread","payload","uncletopia"],"game_id":440,"stv_port":27046,"stv_name":"Uncletopia | San Francisco | 4 | Community | STV","players":null},{"server_id":141,"name":"Uncletopia | Sydney | 1 | All Maps","name_short":"syd-1","host":"syd-1.au.uncletopia.com","port":27015,"enabled":true,"region":"au","cc":"au","latitude":-33.865143,"longitude":151.2099,"reserved":0,"last_update":"0001-01-01T00:00:00Z","name_a2s":"Uncletopia | Sydney | 1 | All Maps","protocol":17,"map":"koth_lakeside_final","folder":"tf","game":"Team Fortress","app_id":440,"player_count":0,"max_players":24,"Bots":0,"server_type":"Dedicated","server_os":"Linux","password":true,"vac":true,"version":"7757534","steam_id":85568392924470001,"keywords":["cp","nocrits","nodmgspread","uncletopia"],"game_id":440,"stv_port":27016,"stv_name":"Uncletopia | Sydney | 1 | All Maps | STV","players":null},{"server_id":123,"name":"Uncletopia | Sydney | 2 | All Maps","name_short":"syd-2","host":"syd-1.au.uncletopia.com","port":27025,"enabled":true,"region":"au","cc":"au","latitude":-33.865143,"longitude":151.2099,"reserved":0,"last_update":"0001-01-01T00:00:00Z","name_a2s":"Uncletopia | Sydney | 2 | All Maps","protocol":17,"map":"koth_viaduct","folder":"tf","game":"Team Fortress","app_id":440,"player_count":0,"max_players":24,"Bots":0,"server_type":"Dedicated","server_os":"Linux","password":true,"vac":true,"version":"7757534","steam_id":85568392924470002,"keywords":["cp","nocrits","nodmgspread","uncletopia"],"game_id":440,"stv_port":27026,"stv_name":"Uncletopia | Sydney | 2 | All Maps | STV","players":null},{"server_id":395,"name":"Uncletopia | Sydney | 3 | All Maps","name_short":"syd-3","host":"syd-1.au.uncletopia.com","port":27035,"enabled":true,"region":"au","cc":"au","latitude":-33.865143,"longitude":151.2099,"reserved":0,"last_update":"0001-01-01T00:00:00Z","name_a2s":"Uncletopia | Sydney | 3 | All Maps","protocol":17,"map":"koth_viaduct","folder":"tf","game":"Team Fortress","app_id":440,"player_count":0,"max_players":24,"Bots":0,"server_type":"Dedicated","server_os":"Linux","password":true,"vac":true,"version":"7757534","steam_id":85568392925194467,"keywords":["cp","nocrits","nodmgspread","uncletopia"],"game_id":440,"stv_port":27036,"stv_name":"Uncletopia | Sydney | 3 | All Maps | STV","players":null},{"server_id":396,"name":"Uncletopia | Sydney | 4 | All Maps","name_short":"syd-4","host":"syd-1.au.uncletopia.com","port":27045,"enabled":true,"region":"au","cc":"au","latitude":-33.865143,"longitude":151.2099,"reserved":0,"last_update":"0001-01-01T00:00:00Z","name_a2s":"Uncletopia | Sydney | 4 | All Maps","protocol":17,"map":"cp_snakewater_final1","folder":"tf","game":"Team Fortress","app_id":440,"player_count":0,"max_players":24,"Bots":0,"server_type":"Dedicated","server_os":"Linux","password":true,"vac":true,"version":"7757534","steam_id":85568392925397958,"keywords":["cp","nocrits","nodmgspread","uncletopia"],"game_id":440,"stv_port":27046,"stv_name":"Uncletopia | Sydney | 4 | All Maps | STV","players":null},{"server_id":58,"name":"Uncletopia | Sydney | 5 | Stopwatch Beta","name_short":"syd-5","host":"syd-1.au.uncletopia.com","port":27055,"enabled":true,"region":"au","cc":"au","latitude":-33.865143,"longitude":151.2099,"reserved":0,"last_update":"0001-01-01T00:00:00Z","name_a2s":"Uncletopia | Sydney | 5 | Stopwatch Beta","protocol":17,"map":"pl_barnblitz","folder":"tf","game":"Team Fortress","app_id":440,"player_count":0,"max_players":24,"Bots":0,"server_type":"Dedicated","server_os":"Linux","password":true,"vac":true,"version":"7757534","steam_id":85568392925397959,"keywords":["nocrits","nodmgspread","payload","uncletopia"],"game_id":440,"stv_port":27056,"stv_name":"Uncletopia | Sydney | 5 | Stopwatch Beta | STV","players":null},{"server_id":59,"name":"Uncletopia | Sydney | 6 | Community","name_short":"syd-6","host":"syd-1.au.uncletopia.com","port":27065,"enabled":true,"region":"au","cc":"au","latitude":-33.865143,"longitude":151.2099,"reserved":0,"last_update":"0001-01-01T00:00:00Z","name_a2s":"Uncletopia | Sydney | 6 | Community","protocol":17,"map":"cp_mountainlab","folder":"tf","game":"Team Fortress","app_id":440,"player_count":0,"max_players":24,"Bots":0,"server_type":"Dedicated","server_os":"Linux","password":true,"vac":true,"version":"7757534","steam_id":85568392925397960,"keywords":["cp","nocrits","nodmgspread","uncletopia"],"game_id":440,"stv_port":27066,"stv_name":"Uncletopia | Sydney | 6 | Community | STV","players":null},{"server_id":49,"name":"Uncletopia | Warsaw | 1 | All Maps","name_short":"waw-1","host":"waw-1.pl.uncletopia.com","port":27015,"enabled":true,"region":"eu","cc":"pl","latitude":52.2297,"longitude":21.017532,"reserved":0,"last_update":"0001-01-01T00:00:00Z","name_a2s":"","protocol":0,"map":"","folder":"","game":"","app_id":0,"player_count":0,"max_players":0,"Bots":0,"server_type":"","server_os":"","password":false,"vac":false,"version":"","steam_id":0,"keywords":null,"game_id":0,"stv_port":0,"stv_name":"","players":null},{"server_id":50,"name":"Uncletopia | Warsaw | 2 | All Maps","name_short":"waw-2","host":"waw-1.pl.uncletopia.com","port":27025,"enabled":true,"region":"eu","cc":"pl","latitude":52.2297,"longitude":21.017532,"reserved":0,"last_update":"0001-01-01T00:00:00Z","name_a2s":"Uncletopia | Warsaw | 2 | All Maps","protocol":17,"map":"pl_borneo","folder":"tf","game":"Team Fortress","app_id":440,"player_count":2,"max_players":24,"Bots":0,"server_type":"Dedicated","server_os":"Linux","password":true,"vac":true,"version":"7757534","steam_id":85568392925397851,"keywords":["nocrits","nodmgspread","payload","uncletopia"],"game_id":440,"stv_port":27026,"stv_name":"Uncletopia | Warsaw | 2 | All Maps | STV","players":[{"user_id":14,"name":"Brother Roga","steam_id":76561198029613515,"connected_time":448000000000,"state":"active","ping":69},{"user_id":15,"name":"Whoopi Goldberg","steam_id":76561199378865926,"connected_time":278000000000,"state":"active","ping":164}]},{"server_id":51,"name":"Uncletopia | Warsaw | 3 | All Maps","name_short":"waw-3","host":"waw-1.pl.uncletopia.com","port":27035,"enabled":true,"region":"eu","cc":"pl","latitude":52.2297,"longitude":21.017532,"reserved":0,"last_update":"0001-01-01T00:00:00Z","name_a2s":"Uncletopia | Warsaw | 3 | All Maps","protocol":17,"map":"koth_viaduct","folder":"tf","game":"Team Fortress","app_id":440,"player_count":0,"max_players":24,"Bots":0,"server_type":"Dedicated","server_os":"Linux","password":true,"vac":true,"version":"7757534","steam_id":85568392925397852,"keywords":["cp","nocrits","nodmgspread","uncletopia"],"game_id":440,"stv_port":27036,"stv_name":"Uncletopia | Warsaw | 3 | All Maps | STV","players":null},{"server_id":52,"name":"Uncletopia | Warsaw | 4 | All Maps","name_short":"waw-4","host":"waw-1.pl.uncletopia.com","port":27045,"enabled":true,"region":"eu","cc":"pl","latitude":52.2297,"longitude":21.017532,"reserved":0,"last_update":"0001-01-01T00:00:00Z","name_a2s":"Uncletopia | Warsaw | 4 | All Maps","protocol":17,"map":"koth_lakeside_final","folder":"tf","game":"Team Fortress","app_id":440,"player_count":0,"max_players":24,"Bots":0,"server_type":"Dedicated","server_os":"Linux","password":true,"vac":true,"version":"7757534","steam_id":85568392925397853,"keywords":["cp","nocrits","nodmgspread","uncletopia"],"game_id":440,"stv_port":27046,"stv_name":"Uncletopia | Warsaw | 4 | All Maps | STV","players":null},{"server_id":53,"name":"Uncletopia | Warsaw | 5 | Stopwatch Beta","name_short":"waw-5","host":"waw-1.pl.uncletopia.com","port":27055,"enabled":true,"region":"eu","cc":"pl","latitude":52.2297,"longitude":21.017532,"reserved":0,"last_update":"0001-01-01T00:00:00Z","name_a2s":"Uncletopia | Warsaw | 5 | Stopwatch Beta","protocol":17,"map":"pl_upward","folder":"tf","game":"Team Fortress","app_id":440,"player_count":0,"max_players":24,"Bots":0,"server_type":"Dedicated","server_os":"Linux","password":true,"vac":true,"version":"7757534","steam_id":85568392925397854,"keywords":["nocrits","nodmgspread","payload","uncletopia"],"game_id":440,"stv_port":27056,"stv_name":"Uncletopia | Warsaw | 5 | Stopwatch Beta | STV","players":null},{"server_id":54,"name":"Uncletopia | Warsaw | 6 | Community","name_short":"waw-6","host":"waw-1.pl.uncletopia.com","port":27065,"enabled":true,"region":"eu","cc":"pl","latitude":52.2297,"longitude":21.017532,"reserved":0,"last_update":"0001-01-01T00:00:00Z","name_a2s":"Uncletopia | Warsaw | 6 | Community","protocol":17,"map":"workshop/cp_overgrown_rc7b.ugc503939302","folder":"tf","game":"Team Fortress","app_id":440,"player_count":0,"max_players":24,"Bots":0,"server_type":"Dedicated","server_os":"Linux","password":true,"vac":true,"version":"7757534","steam_id":85568392925397856,"keywords":["cp","nocrits","nodmgspread","uncletopia"],"game_id":440,"stv_port":27066,"stv_name":"Uncletopia | Warsaw | 6 | Community | STV","players":null}]}