{"status":true,"message":"","result":[{"server_id":2,"name":"Uncletopia | Chicago | 1 | All Maps","name_short":"chi-1","host":"chi-1.us.uncletopia.com","port":27015,"enabled":true,"region":"us-central","cc":"us","latitude":41.881832,"longitude":-87.62318,"reserved":0,"last_update":"0001-01-01T00:00:00Z","name_a2s":"Uncletopia | Chicago | 1 | All Maps","protocol":17,"map":"pl_borneo","folder":"tf","game":"Team Fortress","app_id":440,"player_count":24,"max_players":24,"Bots":0,"server_type":"Dedicated","server_os":"Linux","password":true,"vac":true,"version":"7961495","steam_id":85568392924469984,"keywords":["nocrits","nodmgspread","payload","uncletopia"],"game_id":440,"stv_port":27016,"stv_name":"Uncletopia | Chicago | 1 | All Maps | STV","players":[{"user_id":425,"name":"Hooked","steam_id":76561198007302139,"connected_time":845000000000,"state":"active","ping":76},{"user_id":404,"name":"DinkleBerg","steam_id":76561198891626233,"connected_time":2925000000000,"state":"active","ping":59},{"user_id":398,"name":"Jabawakai","steam_id":76561198088881254,"connected_time":3230000000000,"state":"active","ping":57},{"user_id":434,"name":"Lucky","steam_id":76561198418262145,"connected_time":177000000000,"state":"active","ping":125},{"user_id":417,"name":"richard clock","steam_id":76561198048455671,"connected_time":1450000000000,"state":"active","ping":54},{"user_id":415,"name":"kite","steam_id":76561198346516392,"connected_time":1975000000000,"state":"active","ping":66},{"user_id":422,"name":"Notsocreative","steam_id":76561198236372202,"connected_time":1150000000000,"state":"active","ping":80},{"user_id":414,"name":"Zoot","steam_id":76561198121944243,"connected_time":1993000000000,"state":"active","ping":78},{"user_id":418,"name":"Waddlehi","steam_id":76561198072553840,"connected_time":1405000000000,"state":"active","ping":61},{"user_id":388,"name":"Praise_to_the_Flashlight!","steam_id":76561199001728789,"connected_time":4176000000000,"state":"active","ping":65},{"user_id":432,"name":"Im High","steam_id":76561198049954886,"connected_time":298000000000,"state":"active","ping":66},{"user_id":435,"name":"kentrell jr.","steam_id":76561198136642793,"connected_time":130000000000,"state":"active","ping":81},{"user_id":352,"name":"aphexjh","steam_id":76561197985854658,"connected_time":5614000000000,"state":"active","ping":58},{"user_id":403,"name":"sir_shroomer","steam_id":76561199073946769,"connected_time":2936000000000,"state":"active","ping":115},{"user_id":332,"name":"Hector Salamanca","steam_id":76561199103213955,"connected_time":7172000000000,"state":"active","ping":114},{"user_id":428,"name":"flaccid","steam_id":76561198299241777,"connected_time":773000000000,"state":"active","ping":88},{"user_id":431,"name":"Draconic Ballad","steam_id":76561198027191515,"connected_time":310000000000,"state":"active","ping":56},{"user_id":433,"name":"Celestial Bodies","steam_id":76561198212572955,"connected_time":286000000000,"state":"active","ping":80},{"user_id":390,"name":"paetho YT (new vid!)","steam_id":76561198152690003,"connected_time":4061000000000,"state":"active","ping":59},{"user_id":411,"name":"Jag","steam_id":76561198001220471,"connected_time":2684000000000,"state":"active","ping":60},{"user_id":430,"name":"Dwaggy","steam_id":76561198027369555,"connected_time":605000000000,"state":"active","ping":68},{"user_id":436,"name":"Wess","steam_id":76561198302735017,"connected_time":127000000000,"state":"active","ping":51},{"user_id":405,"name":"Oli B\u003eQS/BP/Bulk w/ 500+ keys","steam_id":76561198140316312,"connected_time":2925000000000,"state":"active","ping":56}]},{"server_id":106,"name":"Uncletopia | Chicago | 2 | All Maps","name_short":"chi-2","host":"chi-1.us.uncletopia.com","port":27025,"enabled":true,"region":"us-central","cc":"us","latitude":41.881832,"longitude":-87.62318,"reserved":0,"last_update":"0001-01-01T00:00:00Z","name_a2s":"Uncletopia | Chicago | 2 | All Maps","protocol":17,"map":"pl_swiftwater_final1","folder":"tf","game":"Team Fortress","app_id":440,"player_count":23,"max_players":24,"Bots":0,"server_type":"Dedicated","server_os":"Linux","password":true,"vac":true,"version":"7961495","steam_id":85568392924469985,"keywords":["nocrits","nodmgspread","payload","uncletopia"],"game_id":440,"stv_port":27026,"stv_name":"Uncletopia | Chicago | 2 | All Maps | STV","players":[{"user_id":593,"name":"Sergeant Joker #savetf2","steam_id":76561198854616604,"connected_time":1172000000000,"state":"active","ping":63},{"user_id":598,"name":"pai-sano","steam_id":76561198065575472,"connected_time":1068000000000,"state":"active","ping":59},{"user_id":579,"name":"Apetometrist","steam_id":76561198045391635,"connected_time":2997000000000,"state":"active","ping":66},{"user_id":562,"name":"wiiblob","steam_id":76561198109106242,"connected_time":3872000000000,"state":"active","ping":145},{"user_id":610,"name":"az_noob","steam_id":76561199382983284,"connected_time":141000000000,"state":"active","ping":90},{"user_id":592,"name":"MyTeamIsAzz","steam_id":76561198241921220,"connected_time":1215000000000,"state":"active","ping":93},{"user_id":583,"name":"chesterwnimitz","steam_id":76561198062664377,"connected_time":1820000000000,"state":"active","ping":91},{"user_id":556,"name":"Luca!","steam_id":76561198137880777,"connected_time":4325000000000,"state":"active","ping":89},{"user_id":584,"name":"Satan-2","steam_id":76561199231742764,"connected_time":1344000000000,"state":"active","ping":69},{"user_id":574,"name":"gps","steam_id":76561198067492304,"connected_time":3422000000000,"state":"active","ping":84},{"user_id":595,"name":"Trader Yohan","steam_id":76561198048956010,"connected_time":1143000000000,"state":"active","ping":127},{"user_id":606,"name":"Old Sport","steam_id":76561198135435875,"connected_time":232000000000,"state":"active","ping":98},{"user_id":601,"name":"Corbe","steam_id":76561198353893927,"connected_time":898000000000,"state":"active","ping":39},{"user_id":590,"name":"Protato","steam_id":76561198061182563,"connected_time":1218000000000,"state":"active","ping":75},{"user_id":591,"name":"bloodyboorp","steam_id":76561199177105829,"connected_time":1217000000000,"state":"active","ping":151},{"user_id":602,"name":"Icewetalot","steam_id":76561199167985720,"connected_time":771000000000,"state":"active","ping":93},{"user_id":596,"name":"REALLINUSJEWTIP.","steam_id":76561198056647983,"connected_time":1098000000000,"state":"active","ping":73},{"user_id":599,"name":"Mer","steam_id":76561198192171041,"connected_time":1065000000000,"state":"active","ping":104},{"user_id":557,"name":"Mister Rattlebones","steam_id":76561198065560157,"connected_time":4301000000000,"state":"active","ping":55},{"user_id":558,"name":"loser","steam_id":76561198259380127,"connected_time":4287000000000,"state":"active","ping":57},{"user_id":605,"name":"notdoxed","steam_id":76561197992591404,"connected_time":563000000000,"state":"active","ping":51},{"user_id":607,"name":"LegendaryMister151","steam_id":76561198064890524,"connected_time":231000000000,"state":"active","ping":96},{"user_id":609,"name":"gnome zone","steam_id":76561198883349445,"connected_time":175000000000,"state":"active","ping":94}]},{"server_id":402,"name":"Uncletopia | Chicago | 3 | All Maps","name_short":"chi-3","host":"chi-1.us.uncletopia.com","port":27035,"enabled":true,"region":"us-central","cc":"us","latitude":41.881832,"longitude":-87.62318,"reserved":0,"last_update":"0001-01-01T00:00:00Z","name_a2s":"Uncletopia | Chicago | 3 | All Maps","protocol":17,"map":"koth_lakeside_final","folder":"tf","game":"Team Fortress","app_id":440,"player_count":24,"max_players":24,"Bots":0,"server_type":"Dedicated","server_os":"Linux","password":true,"vac":true,"version":"7961495","steam_id":85568392924515191,"keywords":["cp","nocrits","nodmgspread","uncletopia"],"game_id":440,"stv_port":27036,"stv_name":"Uncletopia | Chicago | 3 | All Maps | STV","players":[{"user_id":349,"name":"oxycodone","steam_id":76561198188722751,"connected_time":4839000000000,"state":"active","ping":96},{"user_id":378,"name":"MilkMuncher","steam_id":76561198103055485,"connected_time":2706000000000,"state":"active","ping":49},{"user_id":396,"name":"battle clown","steam_id":76561198045788371,"connected_time":1131000000000,"state":"active","ping":64},{"user_id":398,"name":"Skeleton Hotel","steam_id":76561198041704727,"connected_time":1052000000000,"state":"active","ping":54},{"user_id":348,"name":"Rappitor","steam_id":76561198105613110,"connected_time":4847000000000,"state":"active","ping":49},{"user_id":399,"name":"eryn üó∫","steam_id":76561198004433070,"connected_time":1006000000000,"state":"active","ping":83},{"user_id":362,"name":"LittleFieryOne","steam_id":76561198107463724,"connected_time":3716000000000,"state":"active","ping":54},{"user_id":363,"name":"AwakenedLaser","steam_id":76561198881657823,"connected_time":3708000000000,"state":"active","ping":108},{"user_id":313,"name":"Digitic","steam_id":76561198080295536,"connected_time":7410000000000,"state":"active","ping":76},{"user_id":406,"name":"NUt","steam_id":76561198031007966,"connected_time":909000000000,"state":"active","ping":68},{"user_id":379,"name":"Shoeshocker","steam_id":76561198174302467,"connected_time":2618000000000,"state":"active","ping":67},{"user_id":409,"name":"Tacitus Kilgore","steam_id":76561198053915145,"connected_time":387000000000,"state":"active","ping":45},{"user_id":402,"name":"CorgiYasu","steam_id":76561198082298201,"connected_time":953000000000,"state":"active","ping":87},{"user_id":386,"name":"Bush.exe","steam_id":76561198124385307,"connected_time":1529000000000,"state":"active","ping":66},{"user_id":385,"name":"gus","steam_id":76561198209316492,"connected_time":2295000000000,"state":"active","ping":87},{"user_id":340,"name":"Acehay14","steam_id":76561198052373291,"connected_time":5255000000000,"state":"active","ping":57},{"user_id":393,"name":"Centila","steam_id":76561197992671606,"connected_time":1317000000000,"state":"active","ping":45},{"user_id":410,"name":"Cthulwho?","steam_id":76561198165550810,"connected_time":360000000000,"state":"active","ping":59},{"user_id":407,"name":"The CEO of cement","steam_id":76561199107177460,"connected_time":716000000000,"state":"active","ping":98},{"user_id":395,"name":"Creativitybreaks","steam_id":76561199468176518,"connected_time":1183000000000,"state":"active","ping":71},{"user_id":403,"name":"Cyber Cylon","steam_id":76561198048972781,"connected_time":950000000000,"state":"active","ping":57},{"user_id":404,"name":"You Kn0w","steam_id":76561198081738605,"connected_time":947000000000,"state":"active","ping":74},{"user_id":377,"name":"Capitalism 101","steam_id":76561198017214464,"connected_time":2966000000000,"state":"active","ping":66},{"user_id":405,"name":"Meep","steam_id":76561198044645661,"connected_time":940000000000,"state":"active","ping":71}]},{"server_id":403,"name":"Uncletopia | Chicago | 4 | All Maps","name_short":"chi-4","host":"chi-1.us.uncletopia.com","port":27045,"enabled":true,"region":"us-central","cc":"us","latitude":41.881832,"longitude":-87.62318,"reserved":0,"last_update":"0001-01-01T00:00:00Z","name_a2s":"Uncletopia | Chicago | 4 | All Maps","protocol":17,"map":"pl_swiftwater_final1","folder":"tf","game":"Team Fortress","app_id":440,"player_count":24,"max_players":24,"Bots":0,"server_type":"Dedicated","server_os":"Linux","password":true,"vac":true,"version":"7961495","steam_id":85568392924515193,"keywords":["nocrits","nodmgspread","payload","uncletopia"],"game_id":440,"stv_port":27046,"stv_name":"Uncletopia | Chicago | 4 | All Maps | STV","players":[{"user_id":746,"name":"Walter Malone","steam_id":76561198078661356,"connected_time":4031000000000,"state":"active","ping":83},{"user_id":799,"name":"Evillou","steam_id":76561198010395648,"connected_time":999000000000,"state":"active","ping":72},{"user_id":747,"name":"cat","steam_id":76561198096347625,"connected_time":4011000000000,"state":"active","ping":84},{"user_id":783,"name":"An Erect Penis :)","steam_id":76561198086477485,"connected_time":2236000000000,"state":"active","ping":43},{"user_id":803,"name":"Fluffeline","steam_id":76561198352909489,"connected_time":430000000000,"state":"active","ping":136},{"user_id":805,"name":"brains","steam_id":76561198197388678,"connected_time":192000000000,"state":"active","ping":88},{"user_id":806,"name":"Dr. Blair Chao","steam_id":76561198146027518,"connected_time":181000000000,"state":"active","ping":63},{"user_id":786,"name":"[kot]Pints","steam_id":76561198077017684,"connected_time":2182000000000,"state":"active","ping":68},{"user_id":780,"name":"ronny","steam_id":76561197994180230,"connected_time":2283000000000,"state":"active","ping":60},{"user_id":785,"name":"Mr. Green","steam_id":76561198037778253,"connected_time":2199000000000,"state":"active","ping":65},{"user_id":787,"name":"the whale (2022)","steam_id":76561198095313463,"connected_time":2174000000000,"state":"active","ping":66},{"user_id":777,"name":"Stauxie","steam_id":76561198255030077,"connected_time":2531000000000,"state":"active","ping":92},{"user_id":762,"name":"bananalover5","steam_id":76561199143854578,"connected_time":3313000000000,"state":"active","ping":91},{"user_id":795,"name":"HTML","steam_id":76561198099061153,"connected_time":1479000000000,"state":"active","ping":91},{"user_id":790,"name":"Bluedot","steam_id":76561198019909639,"connected_time":1977000000000,"state":"active","ping":60},{"user_id":778,"name":"nbwingdinger","steam_id":76561198412627015,"connected_time":2526000000000,"state":"active","ping":116},{"user_id":756,"name":"Kev","steam_id":76561198310880776,"connected_time":3676000000000,"state":"active","ping":76},{"user_id":804,"name":"MonsterHunter","steam_id":76561198146118010,"connected_time":225000000000,"state":"active","ping":90},{"user_id":791,"name":"PunkZombie24","steam_id":76561198035786963,"connected_time":1883000000000,"state":"active","ping":69},{"user_id":802,"name":"Ceige (redemption arc)","steam_id":76561198068538473,"connected_time":810000000000,"state":"active","ping":75},{"user_id":801,"name":"Preacher","steam_id":76561198022215764,"connected_time":906000000000,"state":"active","ping":74},{"user_id":773,"name":"yes daddy","steam_id":76561198166100997,"connected_time":2579000000000,"state":"active","ping":83},{"user_id":798,"name":"Jerphf","steam_id":76561198328825964,"connected_time":1067000000000,"state":"active","ping":51},{"user_id":743,"name":"DickTheCock","steam_id":76561198104346849,"connected_time":4876000000000,"state":"active","ping":96}]},{"server_id":36,"name":"Uncletopia | Chicago | 5 | All Maps","name_short":"chi-5","host":"chi-2.us.uncletopia.com","port":27015,"enabled":true,"region":"us-central","cc":"us","latitude":41.881832,"longitude":-87.62318,"reserved":0,"last_update":"0001-01-01T00:00:00Z","name_a2s":"Uncletopia | Chicago | 5 | All Maps","protocol":17,"map":"pl_swiftwater_final1","folder":"tf","game":"Team Fortress","app_id":440,"player_count":24,"max_players":24,"Bots":0,"server_type":"Dedicated","server_os":"Linux","password":true,"vac":true,"version":"7961495","steam_id":85568392924866362,"keywords":["nocrits","nodmgspread","payload","uncletopia"],"game_id":440,"stv_port":27016,"stv_name":"Uncletopia | Chicago | 5 | All Maps | STV","players":[{"user_id":347,"name":"Makina","steam_id":76561198057475567,"connected_time":220000000000,"state":"active","ping":69},{"user_id":289,"name":"bikerkid207","steam_id":76561198390782783,"connected_time":4342000000000,"state":"active","ping":70},{"user_id":332,"name":"crittr","steam_id":76561198014302068,"connected_time":1223000000000,"state":"active","ping":64},{"user_id":345,"name":"4jess20","steam_id":76561199488852383,"connected_time":618000000000,"state":"active","ping":85},{"user_id":338,"name":"shadow wizard money gang","steam_id":76561198418414338,"connected_time":1072000000000,"state":"active","ping":79},{"user_id":317,"name":"wunkem","steam_id":76561198055948497,"connected_time":2464000000000,"state":"active","ping":63},{"user_id":339,"name":"Idk","steam_id":76561198971629959,"connected_time":1031000000000,"state":"active","ping":134},{"user_id":306,"name":"Yam Jazzy Jim","steam_id":76561198000788950,"connected_time":2814000000000,"state":"active","ping":64},{"user_id":348,"name":"Wet Deer","steam_id":76561198145045927,"connected_time":200000000000,"state":"active","ping":72},{"user_id":294,"name":"Pizza","steam_id":76561198835151009,"connected_time":4063000000000,"state":"active","ping":74},{"user_id":349,"name":"Discount Santa (and He is free)","steam_id":76561198269347992,"connected_time":178000000000,"state":"active","ping":68},{"user_id":335,"name":"Toothpork_","steam_id":76561198152242368,"connected_time":1166000000000,"state":"active","ping":121},{"user_id":336,"name":"Mr. Durian","steam_id":76561198093813212,"connected_time":1157000000000,"state":"active","ping":84},{"user_id":337,"name":"Jellin","steam_id":76561198093616984,"connected_time":1141000000000,"state":"active","ping":73},{"user_id":309,"name":"gorf?","steam_id":76561198142286417,"connected_time":2808000000000,"state":"active","ping":60},{"user_id":346,"name":"Jar Jar Kinks","steam_id":76561199087748803,"connected_time":385000000000,"state":"active","ping":84},{"user_id":340,"name":"wow120000000000000098","steam_id":76561198016826181,"connected_time":1010000000000,"state":"active","ping":69},{"user_id":330,"name":"spurious george","steam_id":76561198043558709,"connected_time":1358000000000,"state":"active","ping":102},{"user_id":313,"name":"definitely (not) a twink","steam_id":76561199208833695,"connected_time":2784000000000,"state":"active","ping":86},{"user_id":325,"name":"DaMultiversalist","steam_id":76561198239552412,"connected_time":1532000000000,"state":"active","ping":70},{"user_id":259,"name":"Angry Ginger","steam_id":76561198256929349,"connected_time":6816000000000,"state":"active","ping":47},{"user_id":341,"name":"Mattron1","steam_id":76561198012270524,"connected_time":1004000000000,"state":"active","ping":93},{"user_id":342,"name":"(1)Pizza","steam_id":76561198118748364,"connected_time":939000000000,"state":"active","ping":75},{"user_id":344,"name":"Cedric","steam_id":76561198072090580,"connected_time":786000000000,"state":"active","ping":119}]},{"server_id":37,"name":"Uncletopia | Chicago | 6 | All Maps","name_short":"chi-6","host":"chi-2.us.uncletopia.com","port":27025,"enabled":true,"region":"us-central","cc":"us","latitude":41.881832,"longitude":-87.62318,"reserved":0,"last_update":"0001-01-01T00:00:00Z","name_a2s":"Uncletopia | Chicago | 6 | All Maps","protocol":17,"map":"pl_badwater","folder":"tf","game":"Team Fortress","app_id":440,"player_count":23,"max_players":24,"Bots":0,"server_type":"Dedicated","server_os":"Linux","password":true,"vac":true,"version":"7961495","steam_id":85568392924866363,"keywords":["nocrits","nodmgspread","payload","uncletopia"],"game_id":440,"stv_port":27026,"stv_name":"Uncletopia | Chicago | 6 | All Maps | STV","players":[{"user_id":425,"name":"DB1","steam_id":76561199172642819,"connected_time":1066000000000,"state":"active","ping":69},{"user_id":401,"name":"EdogDock","steam_id":76561198017380363,"connected_time":2476000000000,"state":"active","ping":66},{"user_id":445,"name":"Carlos Spartan","steam_id":76561198362047478,"connected_time":0,"state":"spawning","ping":101},{"user_id":427,"name":"zen","steam_id":76561198066485047,"connected_time":893000000000,"state":"active","ping":59},{"user_id":420,"name":"Extinct","steam_id":76561199013696367,"connected_time":1488000000000,"state":"active","ping":70},{"user_id":443,"name":"nhbiker","steam_id":76561198081277675,"connected_time":320000000000,"state":"active","ping":58},{"user_id":423,"name":"sonikro","steam_id":76561197989428692,"connected_time":1350000000000,"state":"active","ping":60},{"user_id":398,"name":"you keep smelling the syrup","steam_id":76561198142756572,"connected_time":2513000000000,"state":"active","ping":60},{"user_id":408,"name":"lost in spaaaaace","steam_id":76561199085974120,"connected_time":2424000000000,"state":"active","ping":71},{"user_id":403,"name":"seldom","steam_id":76561198166193756,"connected_time":2463000000000,"state":"active","ping":59},{"user_id":440,"name":"father moon","steam_id":76561198081123470,"connected_time":422000000000,"state":"active","ping":74},{"user_id":431,"name":"Haveltherock27","steam_id":76561199219844391,"connected_time":598000000000,"state":"active","ping":89},{"user_id":415,"name":"thepokeyen","steam_id":76561198236847572,"connected_time":1785000000000,"state":"active","ping":68},{"user_id":433,"name":"A Trigger Happy Chipmunk","steam_id":76561198013608736,"connected_time":593000000000,"state":"active","ping":42},{"user_id":444,"name":"crispylego_","steam_id":76561199453679719,"connected_time":158000000000,"state":"active","ping":129},{"user_id":436,"name":"hazel","steam_id":76561198447244031,"connected_time":545000000000,"state":"active","ping":69},{"user_id":369,"name":"super clickteam fusion","steam_id":76561198275101482,"connected_time":5426000000000,"state":"active","ping":139},{"user_id":419,"name":"Vanadium","steam_id":76561198445677637,"connected_time":1549000000000,"state":"active","ping":374},{"user_id":396,"name":"canofspaghettios","steam_id":76561198124204246,"connected_time":3238000000000,"state":"active","ping":59},{"user_id":384,"name":"Toblerone","steam_id":76561198057374871,"connected_time":4094000000000,"state":"active","ping":67},{"user_id":442,"name":"voyager","steam_id":76561198169747517,"connected_time":407000000000,"state":"active","ping":95},{"user_id":430,"name":"vanta","steam_id":76561198084317504,"connected_time":861000000000,"state":"active","ping":49},{"user_id":418,"name":"[GS]Vitrex","steam_id":76561198167796288,"connected_time":1612000000000,"state":"active","ping":85}]},{"server_id":38,"name":"Uncletopia | Chicago | 7 | Stopwatch Beta","name_short":"chi-7","host":"chi-2.us.uncletopia.com","port":27035,"enabled":true,"region":"us-central","cc":"us","latitude":41.881832,"longitude":-87.62318,"reserved":0,"last_update":"0001-01-01T00:00:00Z","name_a2s":"Uncletopia | Chicago | 7 | Stopwatch Beta","protocol":17,"map":"cp_gullywash_final1","folder":"tf","game":"Team Fortress","app_id":440,"player_count":24,"max_players":24,"Bots":0,"server_type":"Dedicated","server_os":"Linux","password":true,"vac":true,"version":"7961495","steam_id":85568392924866364,"keywords":["cp","nocrits","nodmgspread","uncletopia"],"game_id":440,"stv_port":27036,"stv_name":"Uncletopia | Chicago | 7 | Stopwatch Beta | STV","players":[{"user_id":106,"name":"Ash40000","steam_id":76561198092841526,"connected_time":452000000000,"state":"active","ping":85},{"user_id":62,"name":"Help Me","steam_id":76561198133851467,"connected_time":2026000000000,"state":"active","ping":98},{"user_id":71,"name":"[DATS‚û°] Sugar Meowth","steam_id":76561197995251793,"connected_time":1579000000000,"state":"active","ping":92},{"user_id":78,"name":"Auto","steam_id":76561198118991165,"connected_time":1424000000000,"state":"active","ping":54},{"user_id":70,"name":"scruhlman","steam_id":76561198212448060,"connected_time":1588000000000,"state":"active","ping":100},{"user_id":79,"name":"Security Chief Boper","steam_id":76561198218558897,"connected_time":1382000000000,"state":"active","ping":118},{"user_id":93,"name":"SilentFootba11","steam_id":76561199006570947,"connected_time":753000000000,"state":"active","ping":81},{"user_id":31,"name":"too much peyote","steam_id":76561198161747964,"connected_time":2747000000000,"state":"active","ping":77},{"user_id":40,"name":"ultralisk52","steam_id":76561198051666604,"connected_time":2531000000000,"state":"active","ping":59},{"user_id":118,"name":"rainbowmaster25!","steam_id":76561199215255414,"connected_time":76000000000,"state":"active","ping":87},{"user_id":87,"name":"Superman123389","steam_id":76561198267472539,"connected_time":952000000000,"state":"active","ping":93},{"user_id":85,"name":"k3ramb1t","steam_id":76561198097880352,"connected_time":1238000000000,"state":"active","ping":78},{"user_id":103,"name":"amity‚úø","steam_id":76561198039506482,"connected_time":528000000000,"state":"active","ping":53},{"user_id":75,"name":"tomarus","steam_id":76561199229648887,"connected_time":1511000000000,"state":"active","ping":70},{"user_id":119,"name":"WallHitter","steam_id":76561199394273076,"connected_time":69000000000,"state":"active","ping":73},{"user_id":76,"name":"Sorry my mouse slipped","steam_id":76561198136169355,"connected_time":1481000000000,"state":"active","ping":55},{"user_id":109,"name":"SodaKid_7","steam_id":76561198079419485,"connected_time":364000000000,"state":"active","ping":99},{"user_id":97,"name":"Fairchild Republic A-10 Thndrbl","steam_id":76561199038043360,"connected_time":645000000000,"state":"active","ping":80},{"user_id":77,"name":"King Ree","steam_id":76561198064170546,"connected_time":1473000000000,"state":"active","ping":57},{"user_id":58,"name":"caberknight tf2  (f2p-ish)","steam_id":76561199273882768,"connected_time":2121000000000,"state":"active","ping":74},{"user_id":60,"name":"berserker_tf2 yt","steam_id":76561198303464488,"connected_time":2102000000000,"state":"active","ping":54},{"user_id":110,"name":"Guy Baloney","steam_id":76561198064911344,"connected_time":351000000000,"state":"active","ping":73},{"user_id":95,"name":"ÁÑ°Ë¨Ä„Å™ÊîæÁÅ´ÁäØ - Reckless","steam_id":76561198845582974,"connected_time":745000000000,"state":"active","ping":71},{"user_id":81,"name":"Organ Harvester","steam_id":76561198069948353,"connected_time":1354000000000,"state":"active","ping":80}]},{"server_id":39,"name":"Uncletopia | Chicago | 8 | Community","name_short":"chi-8","host":"chi-2.us.uncletopia.com","port":27045,"enabled":true,"region":"us-central","cc":"us","latitude":41.881832,"longitude":-87.62318,"reserved":0,"last_update":"0001-01-01T00:00:00Z","name_a2s":"Uncletopia | Chicago | 8 | Community","protocol":17,"map":"workshop/pl_fifthcurve_rc1.ugc648227046","folder":"tf","game":"Team Fortress","app_id":440,"player_count":23,"max_players":24,"Bots":0,"server_type":"Dedicated","server_os":"Linux","password":true,"vac":true,"version":"7961495","steam_id":85568392924866365,"keywords":["nocrits","nodmgspread","payload","uncletopia"],"game_id":440,"stv_port":27046,"stv_name":"Uncletopia | Chicago | 8 | Community | STV","players":[{"user_id":204,"name":"Phil Collins","steam_id":76561198068868644,"connected_time":179000000000,"state":"active","ping":108},{"user_id":198,"name":"cass","steam_id":76561198074502046,"connected_time":358000000000,"state":"active","ping":100},{"user_id":200,"name":"Lv4 Gnoll Magus","steam_id":76561198042068995,"connected_time":281000000000,"state":"active","ping":82},{"user_id":197,"name":"I Went To 2Fort An Nobody Knew ","steam_id":76561197991868141,"connected_time":408000000000,"state":"active","ping":80},{"user_id":176,"name":"WhackyOrc","steam_id":76561199470020355,"connected_time":2715000000000,"state":"active","ping":97},{"user_id":171,"name":"savetherobot","steam_id":76561197970664111,"connected_time":3074000000000,"state":"active","ping":87},{"user_id":185,"name":"jumpingjellybean123","steam_id":76561198067295068,"connected_time":1646000000000,"state":"active","ping":72},{"user_id":164,"name":"green bean","steam_id":76561198113099204,"connected_time":3844000000000,"state":"active","ping":89},{"user_id":199,"name":"hestia-sm0ker","steam_id":76561198051881047,"connected_time":304000000000,"state":"active","ping":35},{"user_id":196,"name":"Wiggee","steam_id":76561197972792989,"connected_time":477000000000,"state":"active","ping":62},{"user_id":205,"name":"vvichael","steam_id":76561198238148528,"connected_time":170000000000,"state":"active","ping":64},{"user_id":202,"name":"Dreamy Sweat from 2hu","steam_id":76561198094602446,"connected_time":220000000000,"state":"active","ping":61},{"user_id":207,"name":"alpharuby","steam_id":76561198051638462,"connected_time":129000000000,"state":"active","ping":104},{"user_id":172,"name":"Jolt","steam_id":76561198168669087,"connected_time":3044000000000,"state":"active","ping":60},{"user_id":206,"name":"Cream","steam_id":76561198346432954,"connected_time":158000000000,"state":"active","ping":107},{"user_id":191,"name":"Gorgon Freeman","steam_id":76561198000367036,"connected_time":718000000000,"state":"active","ping":61},{"user_id":187,"name":"Carson","steam_id":76561198076771071,"connected_time":1144000000000,"state":"active","ping":47},{"user_id":146,"name":"stampdawg","steam_id":76561198050500060,"connected_time":4975000000000,"state":"active","ping":76},{"user_id":208,"name":"Guess I'm just popo","steam_id":76561197966419253,"connected_time":105000000000,"state":"active","ping":80},{"user_id":192,"name":"I Eat Trains","steam_id":76561198054791624,"connected_time":717000000000,"state":"active","ping":63},{"user_id":177,"name":"root","steam_id":76561198001727518,"connected_time":2710000000000,"state":"active","ping":72},{"user_id":181,"name":"Waybe","steam_id":76561197989076151,"connected_time":2495000000000,"state":"active","ping":73},{"user_id":209,"name":"H.","steam_id":76561198074951179,"connected_time":95000000000,"state":"active","ping":104}]},{"server_id":8,"name":"Uncletopia | Dallas | 1 | All Maps","name_short":"dal-1","host":"dal-1.us.uncletopia.com","port":27015,"enabled":true,"region":"us-central","cc":"us","latitude":32.779167,"longitude":-96.80889,"reserved":0,"last_update":"0001-01-01T00:00:00Z","name_a2s":"Uncletopia | Dallas | 1 | All Maps","protocol":17,"map":"pl_badwater","folder":"tf","game":"Team Fortress","app_id":440,"player_count":23,"max_players":24,"Bots":0,"server_type":"Dedicated","server_os":"Linux","password":true,"vac":true,"version":"7961495","steam_id":85568392924469986,"keywords":["nocrits","nodmgspread","payload","uncletopia"],"game_id":440,"stv_port":27016,"stv_name":"Uncletopia | Dallas | 1 | All Maps | STV","players":[{"user_id":581,"name":"kat","steam_id":76561198099191938,"connected_time":16000000000,"state":"spawning","ping":96},{"user_id":580,"name":"Ôº≥Ôº£Ôº∞ÔºëÔºêÔºñ","steam_id":76561198883157736,"connected_time":24000000000,"state":"spawning","ping":102},{"user_id":567,"name":"dathan.chrisman","steam_id":76561198068551903,"connected_time":301000000000,"state":"spawning","ping":57},{"user_id":415,"name":"artichoke","steam_id":76561198980994364,"connected_time":4794000000000,"state":"spawning","ping":105},{"user_id":444,"name":"Obama","steam_id":76561198194065283,"connected_time":2953000000000,"state":"spawning","ping":100},{"user_id":577,"name":"nayonhaha","steam_id":76561198066507360,"connected_time":153000000000,"state":"spawning","ping":97},{"user_id":495,"name":"Brandonazz","steam_id":76561197994366351,"connected_time":1929000000000,"state":"spawning","ping":111},{"user_id":435,"name":"ƒ†1 ‚ô¶ Synth","steam_id":76561198058660228,"connected_time":3947000000000,"state":"spawning","ping":67},{"user_id":560,"name":"Ickyboar","steam_id":76561198065028791,"connected_time":413000000000,"state":"spawning","ping":90},{"user_id":420,"name":"Pukei-Pukei","steam_id":76561197992722546,"connected_time":4366000000000,"state":"spawning","ping":79},{"user_id":511,"name":"Rookie","steam_id":76561198074607715,"connected_time":1515000000000,"state":"spawning","ping":119},{"user_id":433,"name":"pandora0016","steam_id":76561198089092873,"connected_time":3966000000000,"state":"spawning","ping":99},{"user_id":443,"name":"Glaceon","steam_id":76561198177715869,"connected_time":2960000000000,"state":"spawning","ping":66},{"user_id":501,"name":"Fujiwara no Mokou","steam_id":76561198063315650,"connected_time":1794000000000,"state":"spawning","ping":105},{"user_id":440,"name":"A Straw","steam_id":76561199367935846,"connected_time":3336000000000,"state":"spawning","ping":73},{"user_id":579,"name":"sock","steam_id":76561199117597830,"connected_time":105000000000,"state":"spawning","ping":97},{"user_id":558,"name":"errant","steam_id":76561197961758410,"connected_time":439000000000,"state":"spawning","ping":58},{"user_id":557,"name":"Khaki","steam_id":76561197991523078,"connected_time":447000000000,"state":"spawning","ping":86},{"user_id":475,"name":"leesh","steam_id":76561198079603938,"connected_time":2260000000000,"state":"spawning","ping":89},{"user_id":573,"name":"SUICIDEBOMBER","steam_id":76561198990902905,"connected_time":193000000000,"state":"spawning","ping":115},{"user_id":418,"name":"fleepore (:","steam_id":76561199238295034,"connected_time":4423000000000,"state":"spawning","ping":74},{"user_id":446,"name":"SmokeyGalaxy","steam_id":76561198118780516,"connected_time":2823000000000,"state":"spawning","ping":56},{"user_id":575,"name":"DrDallas","steam_id":76561198267631716,"connected_time":183000000000,"state":"spawning","ping":97}]},{"server_id":108,"name":"Uncletopia | Dallas | 2 | All Maps","name_short":"dal-2","host":"dal-1.us.uncletopia.com","port":27025,"enabled":true,"region":"us-central","cc":"us","latitude":32.779167,"longitude":-96.80889,"reserved":0,"last_update":"0001-01-01T00:00:00Z","name_a2s":"Uncletopia | Dallas | 2 | All Maps","protocol":17,"map":"cp_dustbowl","folder":"tf","game":"Team Fortress","app_id":440,"player_count":23,"max_players":24,"Bots":0,"server_type":"Dedicated","server_os":"Linux","password":true,"vac":true,"version":"7961495","steam_id":85568392924469988,"keywords":["cp","nocrits","nodmgspread","uncletopia"],"game_id":440,"stv_port":27026,"stv_name":"Uncletopia | Dallas | 2 | All Maps | STV","players":[{"user_id":628,"name":"RichPanda19","steam_id":76561199008923627,"connected_time":81000000000,"state":"active","ping":79},{"user_id":603,"name":"bubba simp club","steam_id":76561199338554815,"connected_time":2813000000000,"state":"active","ping":81},{"user_id":551,"name":"Aeris","steam_id":76561198287271028,"connected_time":6258000000000,"state":"active","ping":85},{"user_id":612,"name":"a bucket of chicken","steam_id":76561198023710042,"connected_time":1804000000000,"state":"active","ping":55},{"user_id":619,"name":"PlugFromBehind","steam_id":76561198143283800,"connected_time":1544000000000,"state":"active","ping":59},{"user_id":621,"name":"WrenLightsaber","steam_id":76561199054971009,"connected_time":1482000000000,"state":"active","ping":47},{"user_id":611,"name":"Ironaka","steam_id":76561198029993183,"connected_time":1817000000000,"state":"active","ping":91},{"user_id":585,"name":"Necronoxide","steam_id":76561197997856321,"connected_time":4265000000000,"state":"active","ping":88},{"user_id":618,"name":"Admiral Angry","steam_id":76561198058199206,"connected_time":1703000000000,"state":"active","ping":80},{"user_id":597,"name":"HeavyMettleDick","steam_id":76561198001925087,"connected_time":3513000000000,"state":"active","ping":88},{"user_id":572,"name":"Proud Swift City Resident","steam_id":76561198036283992,"connected_time":5057000000000,"state":"active","ping":83},{"user_id":626,"name":"Rafl","steam_id":76561198055222756,"connected_time":656000000000,"state":"active","ping":45},{"user_id":601,"name":"genaro salazar","steam_id":76561198085451776,"connected_time":2836000000000,"state":"active","ping":114},{"user_id":593,"name":"Voodo133","steam_id":76561198042670351,"connected_time":4070000000000,"state":"active","ping":100},{"user_id":620,"name":"L to the OG","steam_id":76561199215811448,"connected_time":1517000000000,"state":"active","ping":111},{"user_id":589,"name":"SkullFireAce","steam_id":76561198083649727,"connected_time":4162000000000,"state":"active","ping":51},{"user_id":624,"name":"dailydiamond","steam_id":76561199123582502,"connected_time":892000000000,"state":"active","ping":99},{"user_id":538,"name":"TechnoBear2099","steam_id":76561198238863596,"connected_time":7197000000000,"state":"active","ping":46},{"user_id":606,"name":"cookin up the burger","steam_id":76561198071775268,"connected_time":2575000000000,"state":"active","ping":85},{"user_id":452,"name":"[cf] Captain Terror","steam_id":76561198028034742,"connected_time":12088000000000,"state":"active","ping":94},{"user_id":627,"name":"Warlord Sprinkle","steam_id":76561198359709367,"connected_time":648000000000,"state":"active","ping":87},{"user_id":524,"name":"sebjzy ‚ô•","steam_id":76561198009959034,"connected_time":7932000000000,"state":"active","ping":58},{"user_id":608,"name":"Spazz","steam_id":76561198036167494,"connected_time":2009000000000,"state":"active","ping":46}]},{"server_id":5,"name":"Uncletopia | Frankfurt | 1 | All Maps","name_short":"frk-1","host":"frk-1.de.uncletopia.com","port":27015,"enabled":true,"region":"eu","cc":"de","latitude":50.110924,"longitude":8.682127,"reserved":0,"last_update":"0001-01-01T00:00:00Z","name_a2s":"Uncletopia | Frankfurt | 1 | All Maps","protocol":17,"map":"koth_viaduct","folder":"tf","game":"Team Fortress","app_id":440,"player_count":0,"max_players":24,"Bots":0,"server_type":"Dedicated","server_os":"Linux","password":true,"vac":true,"version":"7961495","steam_id":85568392924469989,"keywords":["cp","nocrits","nodmgspread","uncletopia"],"game_id":440,"stv_port":27016,"stv_name":"Uncletopia | Frankfurt | 1 | All Maps | STV","players":null},{"server_id":110,"name":"Uncletopia | Frankfurt | 2 | All Maps","name_short":"frk-2","host":"frk-1.de.uncletopia.com","port":27025,"enabled":true,"region":"eu","cc":"de","latitude":50.110924,"longitude":8.682127,"reserved":0,"last_update":"0001-01-01T00:00:00Z","name_a2s":"Uncletopia | Frankfurt | 2 | All Maps","protocol":17,"map":"pl_barnblitz","folder":"tf","game":"Team Fortress","app_id":440,"player_count":19,"max_players":24,"Bots":0,"server_type":"Dedicated","server_os":"Linux","password":true,"vac":true,"version":"7961495","steam_id":85568392924469990,"keywords":["nocrits","nodmgspread","payload","uncletopia"],"game_id":440,"stv_port":27026,"stv_name":"Uncletopia | Frankfurt | 2 | All Maps | STV","players":[{"user_id":828,"name":"Traylie","steam_id":76561198050797796,"connected_time":1177000000000,"state":"active","ping":76},{"user_id":835,"name":"Suetolog","steam_id":76561199053090212,"connected_time":495000000000,"state":"active","ping":48},{"user_id":830,"name":"ein'd","steam_id":76561198152162834,"connected_time":1030000000000,"state":"active","ping":79},{"user_id":804,"name":"‚ôÇ Dungeon Master ‚ôÇ","steam_id":76561198106441033,"connected_time":2763000000000,"state":"active","ping":98},{"user_id":831,"name":"PluNgBe","steam_id":76561198131100420,"connected_time":1023000000000,"state":"active","ping":71},{"user_id":836,"name":"—Å–≤–∏–Ω—Ç—É—Å –ø—Ä–∏–π–¥–µ—Ç","steam_id":76561198172046813,"connected_time":410000000000,"state":"active","ping":72},{"user_id":832,"name":"Crabmeat","steam_id":76561198304717724,"connected_time":969000000000,"state":"active","ping":192},{"user_id":837,"name":"Awhsome Shause","steam_id":76561198042937036,"connected_time":279000000000,"state":"active","ping":178},{"user_id":834,"name":"Minimi","steam_id":76561198873850443,"connected_time":728000000000,"state":"active","ping":56},{"user_id":838,"name":"That Brown Nerd","steam_id":76561198196685086,"connected_time":87000000000,"state":"active","ping":53},{"user_id":717,"name":"Mr_Pulse_","steam_id":76561198095001602,"connected_time":10501000000000,"state":"active","ping":89},{"user_id":810,"name":"gerg","steam_id":76561198041663219,"connected_time":2639000000000,"state":"active","ping":70},{"user_id":811,"name":"bilgobaggings","steam_id":76561198041520751,"connected_time":2636000000000,"state":"active","ping":72},{"user_id":841,"name":"azzy","steam_id":76561198061293740,"connected_time":61000000000,"state":"active","ping":87},{"user_id":806,"name":"Calo Nord","steam_id":76561197998227526,"connected_time":2720000000000,"state":"active","ping":93},{"user_id":840,"name":"Star in a pond","steam_id":76561198205501279,"connected_time":65000000000,"state":"active","ping":99},{"user_id":816,"name":"Lewylow","steam_id":76561198005425686,"connected_time":2338000000000,"state":"active","ping":72},{"user_id":823,"name":"brehs","steam_id":76561198150653454,"connected_time":2030000000000,"state":"active","ping":48},{"user_id":795,"name":"Bobo","steam_id":76561198052308399,"connected_time":4290000000000,"state":"active","ping":62}]},{"server_id":308,"name":"Uncletopia | Frankfurt | 3 | All Maps","name_short":"frk-3","host":"frk-1.de.uncletopia.com","port":27035,"enabled":true,"region":"eu","cc":"de","latitude":50.110924,"longitude":8.682127,"reserved":0,"last_update":"0001-01-01T00:00:00Z","name_a2s":"Uncletopia | Frankfurt | 3 | All Maps","protocol":17,"map":"pl_barnblitz","folder":"tf","game":"Team Fortress","app_id":440,"player_count":19,"max_players":24,"Bots":0,"server_type":"Dedicated","server_os":"Linux","password":true,"vac":true,"version":"7961495","steam_id":85568392924504274,"keywords":["nocrits","nodmgspread","payload","uncletopia"],"game_id":440,"stv_port":27036,"stv_name":"Uncletopia | Frankfurt | 3 | All Maps | STV","players":[{"user_id":551,"name":"quava","steam_id":76561199004043064,"connected_time":4000000000,"state":"spawning","ping":87},{"user_id":519,"name":"Proud Jojo Fan #TF2SP","steam_id":76561198847327216,"connected_time":3001000000000,"state":"active","ping":59},{"user_id":552,"name":"nice cheese","steam_id":76561199212189723,"connected_time":0,"state":"spawning","ping":111},{"user_id":504,"name":"Gaxkang","steam_id":76561198125768571,"connected_time":4400000000000,"state":"active","ping":65},{"user_id":547,"name":"t0ast","steam_id":76561198141722573,"connected_time":1094000000000,"state":"active","ping":45},{"user_id":348,"name":"finbar","steam_id":76561198056812396,"connected_time":15920000000000,"state":"active","ping":88},{"user_id":526,"name":"cvprian","steam_id":76561198066655971,"connected_time":2741000000000,"state":"active","ping":60},{"user_id":540,"name":"Grenade The green goblin.","steam_id":76561197979603871,"connected_time":1707000000000,"state":"active","ping":69},{"user_id":543,"name":"[T]aKer","steam_id":76561198001778013,"connected_time":1611000000000,"state":"active","ping":48},{"user_id":538,"name":"Dr.Disrespect","steam_id":76561198043820228,"connected_time":1734000000000,"state":"active","ping":45},{"user_id":542,"name":"eevee","steam_id":76561198447072392,"connected_time":1678000000000,"state":"active","ping":75},{"user_id":500,"name":"Lazuli","steam_id":76561198058636964,"connected_time":4498000000000,"state":"active","ping":57},{"user_id":541,"name":"OldBob","steam_id":76561198834987508,"connected_time":1690000000000,"state":"active","ping":73},{"user_id":550,"name":"I ate all the wheat","steam_id":76561199388085402,"connected_time":582000000000,"state":"active","ping":156},{"user_id":502,"name":"Mega","steam_id":76561197970389664,"connected_time":4491000000000,"state":"active","ping":52},{"user_id":512,"name":"‚ùÖ‚úÆnurse‚úÆ‚ùÖ LFT","steam_id":76561198204505424,"connected_time":4011000000000,"state":"active","ping":86},{"user_id":406,"name":"ht","steam_id":76561198860941690,"connected_time":11896000000000,"state":"active","ping":58},{"user_id":544,"name":"click click","steam_id":76561198049405872,"connected_time":1529000000000,"state":"active","ping":45},{"user_id":548,"name":"‚ô• Emma ‚ô•","steam_id":76561198046796406,"connected_time":1077000000000,"state":"active","ping":57}]},{"server_id":309,"name":"Uncletopia | Frankfurt | 4 | All Maps","name_short":"frk-4","host":"frk-1.de.uncletopia.com","port":27045,"enabled":true,"region":"eu","cc":"de","latitude":50.110924,"longitude":8.682127,"reserved":0,"last_update":"0001-01-01T00:00:00Z","name_a2s":"Uncletopia | Frankfurt | 4 | All Maps","protocol":17,"map":"koth_lakeside_final","folder":"tf","game":"Team Fortress","app_id":440,"player_count":0,"max_players":24,"Bots":0,"server_type":"Dedicated","server_os":"Linux","password":true,"vac":true,"version":"7961495","steam_id":85568392924504275,"keywords":["cp","nocrits","nodmgspread","uncletopia"],"game_id":440,"stv_port":27046,"stv_name":"Uncletopia | Frankfurt | 4 | All Maps | STV","players":null},{"server_id":310,"name":"Uncletopia | Frankfurt | 5 | All Maps","name_short":"frk-5","host":"frk-1.de.uncletopia.com","port":27055,"enabled":true,"region":"eu","cc":"de","latitude":50.110924,"longitude":8.682127,"reserved":0,"last_update":"0001-01-01T00:00:00Z","name_a2s":"Uncletopia | Frankfurt | 5 | All Maps","protocol":17,"map":"koth_cascade","folder":"tf","game":"Team Fortress","app_id":440,"player_count":0,"max_players":24,"Bots":0,"server_type":"Dedicated","server_os":"Linux","password":true,"vac":true,"version":"7961495","steam_id":85568392924504277,"keywords":["cp","nocrits","nodmgspread","uncletopia"],"game_id":440,"stv_port":27056,"stv_name":"Uncletopia | Frankfurt | 5 | All Maps | STV","players":null},{"server_id":311,"name":"Uncletopia | Frankfurt | 6 | All Maps","name_short":"frk-6","host":"frk-1.de.uncletopia.com","port":27065,"enabled":true,"region":"eu","cc":"de","latitude":50.110924,"longitude":8.682127,"reserved":0,"last_update":"0001-01-01T00:00:00Z","name_a2s":"Uncletopia | Frankfurt | 6 | All Maps","protocol":17,"map":"pl_badwater","folder":"tf","game":"Team Fortress","app_id":440,"player_count":4,"max_players":24,"Bots":0,"server_type":"Dedicated","server_os":"Linux","password":true,"vac":true,"version":"7961495","steam_id":85568392924504278,"keywords":["nocrits","nodmgspread","payload","uncletopia"],"game_id":440,"stv_port":27066,"stv_name":"Uncletopia | Frankfurt | 6 | All Maps | STV","players":[{"user_id":607,"name":"Orange Gaming Llama","steam_id":76561199088577021,"connected_time":2740000000000,"state":"active","ping":172},{"user_id":613,"name":"johs","steam_id":76561198827312411,"connected_time":1008000000000,"state":"active","ping":152},{"user_id":609,"name":"TeemRi","steam_id":76561199195998110,"connected_time":2678000000000,"state":"active","ping":156},{"user_id":612,"name":"TheMightyJigman","steam_id":76561199161096415,"connected_time":1718000000000,"state":"active","ping":173}]},{"server_id":23,"name":"Uncletopia | Frankfurt | 7 | Stopwatch Beta","name_short":"frk-7","host":"frk-1.de.uncletopia.com","port":27075,"enabled":true,"region":"eu","cc":"de","latitude":50.110924,"longitude":8.682127,"reserved":0,"last_update":"0001-01-01T00:00:00Z","name_a2s":"Uncletopia | Frankfurt | 7 | Stopwatch Beta","protocol":17,"map":"koth_lakeside_final","folder":"tf","game":"Team Fortress","app_id":440,"player_count":0,"max_players":24,"Bots":0,"server_type":"Dedicated","server_os":"Linux","password":true,"vac":true,"version":"7961495","steam_id":85568392924742827,"keywords":["cp","nocrits","nodmgspread","uncletopia"],"game_id":440,"stv_port":27076,"stv_name":"Uncletopia | Frankfurt | 7 | Stopwatch Beta | STV","players":null},{"server_id":24,"name":"Uncletopia | Frankfurt | 8 | Community","name_short":"frk-8","host":"frk-1.de.uncletopia.com","port":27085,"enabled":true,"region":"eu","cc":"de","latitude":50.110924,"longitude":8.682127,"reserved":0,"last_update":"0001-01-01T00:00:00Z","name_a2s":"Uncletopia | Frankfurt | 8 | Community","protocol":17,"map":"workshop/cp_overgrown_rc8.ugc503939302","folder":"tf","game":"Team Fortress","app_id":440,"player_count":0,"max_players":24,"Bots":0,"server_type":"Dedicated","server_os":"Linux","password":true,"vac":true,"version":"7961495","steam_id":85568392924742828,"keywords":["cp","nocrits","nodmgspread","uncletopia"],"game_id":440,"stv_port":27086,"stv_name":"Uncletopia | Frankfurt | 8 | Community | STV","players":null},{"server_id":202,"name":"Uncletopia | Hong Kong | 1 | All Maps","name_short":"hgk-1","host":"hgk-1.hk.uncletopia.com","port":27015,"enabled":true,"region":"asia","cc":"hk","latitude":22.302711,"longitude":114.177216,"reserved":0,"last_update":"0001-01-01T00:00:00Z","name_a2s":"Uncletopia | Hong Kong | 1 | All Maps","protocol":17,"map":"cp_process_final","folder":"tf","game":"Team Fortress","app_id":440,"player_count":0,"max_players":24,"Bots":0,"server_type":"Dedicated","server_os":"Linux","password":true,"vac":true,"version":"7961495","steam_id":85568392924494504,"keywords":["cp","nocrits","nodmgspread","uncletopia"],"game_id":440,"stv_port":27016,"stv_name":"Uncletopia | Hong Kong | 1 | All Maps | STV","players":null},{"server_id":1,"name":"Uncletopia | Los Angeles | 1 | All Maps","name_short":"lax-1","host":"lax-1.us.uncletopia.com","port":27015,"enabled":true,"region":"us-west","cc":"us","latitude":33.94279,"longitude":-118.41004,"reserved":0,"last_update":"0001-01-01T00:00:00Z","name_a2s":"Uncletopia | Los Angeles | 1 | All Maps","protocol":17,"map":"cp_powerhouse","folder":"tf","game":"Team Fortress","app_id":440,"player_count":23,"max_players":24,"Bots":0,"server_type":"Dedicated","server_os":"Linux","password":true,"vac":true,"version":"7961495","steam_id":85568392924469991,"keywords":["cp","nocrits","nodmgspread","uncletopia"],"game_id":440,"stv_port":27016,"stv_name":"Uncletopia | Los Angeles | 1 | All Maps | STV","players":[{"user_id":378,"name":"Reem0h","steam_id":76561198169848690,"connected_time":93000000000,"state":"active","ping":138},{"user_id":363,"name":"Darkspiral","steam_id":76561198080807559,"connected_time":1052000000000,"state":"active","ping":45},{"user_id":358,"name":"DeckofDragons","steam_id":76561198057398213,"connected_time":1957000000000,"state":"active","ping":86},{"user_id":364,"name":"Trace","steam_id":76561198009486000,"connected_time":1007000000000,"state":"active","ping":106},{"user_id":355,"name":"rimed toothpick","steam_id":76561198242099910,"connected_time":2523000000000,"state":"active","ping":121},{"user_id":351,"name":"Space Magic","steam_id":76561199006292310,"connected_time":2687000000000,"state":"active","ping":56},{"user_id":337,"name":"Grim","steam_id":76561198016978310,"connected_time":3108000000000,"state":"active","ping":71},{"user_id":359,"name":"Mothership","steam_id":76561198044029501,"connected_time":1940000000000,"state":"active","ping":102},{"user_id":339,"name":"Herr M√ºller","steam_id":76561198064876829,"connected_time":3098000000000,"state":"active","ping":119},{"user_id":346,"name":"western bacon cheeseburger","steam_id":76561198145320480,"connected_time":2919000000000,"state":"active","ping":106},{"user_id":366,"name":"Gerbias","steam_id":76561198001002427,"connected_time":926000000000,"state":"active","ping":61},{"user_id":376,"name":"heavy","steam_id":76561199391478575,"connected_time":285000000000,"state":"active","ping":100},{"user_id":380,"name":"wayffles","steam_id":76561198044032876,"connected_time":66000000000,"state":"active","ping":84},{"user_id":379,"name":"Ockulus","steam_id":76561199069638460,"connected_time":74000000000,"state":"active","ping":54},{"user_id":368,"name":"miguelrodriguez2013","steam_id":76561198269253587,"connected_time":852000000000,"state":"active","ping":52},{"user_id":370,"name":"Kumatora","steam_id":76561198137748378,"connected_time":754000000000,"state":"active","ping":102},{"user_id":371,"name":"DrCoeloCephalo","steam_id":76561198102666293,"connected_time":727000000000,"state":"active","ping":82},{"user_id":301,"name":"Mr. Blubber","steam_id":76561198338906916,"connected_time":6381000000000,"state":"active","ping":45},{"user_id":286,"name":"[Industrial] A_HUMBLEBUMBLED","steam_id":76561198064771878,"connected_time":8042000000000,"state":"active","ping":77},{"user_id":372,"name":"GRONT","steam_id":76561198040464533,"connected_time":647000000000,"state":"active","ping":103},{"user_id":349,"name":"Mocha Josie","steam_id":76561198066452726,"connected_time":2887000000000,"state":"active","ping":52},{"user_id":373,"name":"G‡∂ûMER","steam_id":76561198340389876,"connected_time":647000000000,"state":"active","ping":58},{"user_id":374,"name":"Flippityflop","steam_id":76561198086692908,"connected_time":584000000000,"state":"active","ping":138}]},{"server_id":112,"name":"Uncletopia | Los Angeles | 2 | All Maps","name_short":"lax-2","host":"lax-1.us.uncletopia.com","port":27025,"enabled":true,"region":"us-west","cc":"us","latitude":33.94279,"longitude":-118.41004,"reserved":0,"last_update":"0001-01-01T00:00:00Z","name_a2s":"Uncletopia | Los Angeles | 2 | All Maps","protocol":17,"map":"ctf_turbine","folder":"tf","game":"Team Fortress","app_id":440,"player_count":23,"max_players":24,"Bots":0,"server_type":"Dedicated","server_os":"Linux","password":true,"vac":true,"version":"7961495","steam_id":85568392924469992,"keywords":["ctf","nocrits","nodmgspread","uncletopia"],"game_id":440,"stv_port":27026,"stv_name":"Uncletopia | Los Angeles | 2 | All Maps | STV","players":[{"user_id":103,"name":"Subject Delta","steam_id":76561199109118980,"connected_time":1586000000000,"state":"active","ping":51},{"user_id":104,"name":"wheresgeorge","steam_id":76561198986281248,"connected_time":1573000000000,"state":"active","ping":118},{"user_id":128,"name":"here2he1p","steam_id":76561199216977630,"connected_time":287000000000,"state":"active","ping":104},{"user_id":129,"name":"Fostrel","steam_id":76561198152160601,"connected_time":271000000000,"state":"active","ping":85},{"user_id":110,"name":"nescoceo","steam_id":76561198040801160,"connected_time":1418000000000,"state":"active","ping":45},{"user_id":108,"name":"bat","steam_id":76561198079973828,"connected_time":1533000000000,"state":"active","ping":71},{"user_id":111,"name":"Aeront","steam_id":76561198072032723,"connected_time":1405000000000,"state":"active","ping":125},{"user_id":113,"name":"Bill","steam_id":76561198075391501,"connected_time":1334000000000,"state":"active","ping":72},{"user_id":50,"name":"InvalidUserID","steam_id":76561198014177920,"connected_time":5433000000000,"state":"active","ping":34},{"user_id":112,"name":"Nyx","steam_id":76561198100929724,"connected_time":1405000000000,"state":"active","ping":66},{"user_id":118,"name":"BuncusBeffer","steam_id":76561198285936616,"connected_time":1148000000000,"state":"active","ping":70},{"user_id":114,"name":"DigBick","steam_id":76561199013107272,"connected_time":1319000000000,"state":"active","ping":58},{"user_id":130,"name":"AntHoot","steam_id":76561198080674895,"connected_time":260000000000,"state":"active","ping":104},{"user_id":123,"name":"SadChicken Œª","steam_id":76561198082458968,"connected_time":681000000000,"state":"active","ping":63},{"user_id":115,"name":"prozXriot","steam_id":76561198401333715,"connected_time":1297000000000,"state":"active","ping":117},{"user_id":102,"name":"Chonkrmonke","steam_id":76561199379170544,"connected_time":1638000000000,"state":"active","ping":57},{"user_id":88,"name":"lemonjack","steam_id":76561198277380277,"connected_time":2999000000000,"state":"active","ping":58},{"user_id":89,"name":"Cool Dog","steam_id":76561198106476075,"connected_time":2968000000000,"state":"active","ping":105},{"user_id":131,"name":"no vc no c","steam_id":76561197989503095,"connected_time":259000000000,"state":"active","ping":158},{"user_id":132,"name":"OG Mando","steam_id":76561198799439774,"connected_time":74000000000,"state":"active","ping":45},{"user_id":126,"name":"Ian","steam_id":76561198159334435,"connected_time":530000000000,"state":"active","ping":176},{"user_id":90,"name":"Indica","steam_id":76561198239218830,"connected_time":2962000000000,"state":"active","ping":88},{"user_id":122,"name":"Tony 'The Fisher' Fisher","steam_id":76561199086339263,"connected_time":858000000000,"state":"active","ping":82}]},{"server_id":324,"name":"Uncletopia | Los Angeles | 3 | All Maps","name_short":"lax-3","host":"lax-1.us.uncletopia.com","port":27035,"enabled":true,"region":"us-west","cc":"us","latitude":33.94279,"longitude":-118.41004,"reserved":0,"last_update":"0001-01-01T00:00:00Z","name_a2s":"Uncletopia | Los Angeles | 3 | All Maps","protocol":17,"map":"pl_barnblitz","folder":"tf","game":"Team Fortress","app_id":440,"player_count":24,"max_players":24,"Bots":0,"server_type":"Dedicated","server_os":"Linux","password":true,"vac":true,"version":"7961495","steam_id":85568392924510198,"keywords":["nocrits","nodmgspread","payload","uncletopia"],"game_id":440,"stv_port":27036,"stv_name":"Uncletopia | Los Angeles | 3 | All Maps | STV","players":[{"user_id":21,"name":"Alex Manneks","steam_id":76561198118579501,"connected_time":5716000000000,"state":"active","ping":68},{"user_id":78,"name":"SneekiCheekiQbone","steam_id":76561198045077980,"connected_time":1435000000000,"state":"active","ping":41},{"user_id":61,"name":"Tofu","steam_id":76561198056736463,"connected_time":3031000000000,"state":"active","ping":115},{"user_id":39,"name":"459d","steam_id":76561198336142389,"connected_time":3690000000000,"state":"active","ping":111},{"user_id":83,"name":"Mopler","steam_id":76561198252904364,"connected_time":510000000000,"state":"active","ping":84},{"user_id":66,"name":"Spooby","steam_id":76561198168114366,"connected_time":2436000000000,"state":"active","ping":115},{"user_id":85,"name":"Spy (I Love spy)","steam_id":76561199138738952,"connected_time":415000000000,"state":"active","ping":91},{"user_id":65,"name":"SanitysEdge","steam_id":76561198130732813,"connected_time":2551000000000,"state":"active","ping":45},{"user_id":53,"name":"Ralph Kramden (Slim Charles)","steam_id":76561197981687895,"connected_time":3467000000000,"state":"active","ping":50},{"user_id":59,"name":"DrWilloughby","steam_id":76561198095260357,"connected_time":3098000000000,"state":"active","ping":66},{"user_id":84,"name":"golia","steam_id":76561198000264266,"connected_time":497000000000,"state":"active","ping":68},{"user_id":63,"name":"slowdance","steam_id":76561198097427947,"connected_time":2705000000000,"state":"active","ping":103},{"user_id":60,"name":"GreenApples","steam_id":76561198120559543,"connected_time":3079000000000,"state":"active","ping":53},{"user_id":86,"name":"||BassMan||","steam_id":76561198279865229,"connected_time":62000000000,"state":"active","ping":84},{"user_id":81,"name":"Gabe","steam_id":76561198081153719,"connected_time":864000000000,"state":"active","ping":85},{"user_id":55,"name":"CHILL WEED VIBEüòéüçÅ","steam_id":76561198150678492,"connected_time":3307000000000,"state":"active","ping":105},{"user_id":73,"name":"el wokismo","steam_id":76561198058617608,"connected_time":2048000000000,"state":"active","ping":52},{"user_id":45,"name":"Mani","steam_id":76561198139428711,"connected_time":3602000000000,"state":"active","ping":73},{"user_id":46,"name":"CadenLCheese","steam_id":76561199105517435,"connected_time":3602000000000,"state":"active","ping":76},{"user_id":69,"name":"Dullahan","steam_id":76561198119668908,"connected_time":2233000000000,"state":"active","ping":60},{"user_id":54,"name":"Schwagz","steam_id":76561198038330649,"connected_time":3427000000000,"state":"active","ping":46},{"user_id":68,"name":"ccat","steam_id":76561198281773224,"connected_time":2379000000000,"state":"active","ping":90},{"user_id":51,"name":"Dededoo","steam_id":76561198279033471,"connected_time":3554000000000,"state":"active","ping":93},{"user_id":82,"name":"SesataPomang","steam_id":76561198145133059,"connected_time":755000000000,"state":"active","ping":97}]},{"server_id":25,"name":"Uncletopia | Los Angeles | 4 | Stopwatch Beta","name_short":"lax-4","host":"lax-1.us.uncletopia.com","port":27045,"enabled":true,"region":"us-west","cc":"us","latitude":33.94279,"longitude":-118.41004,"reserved":0,"last_update":"0001-01-01T00:00:00Z","name_a2s":"Uncletopia | Los Angeles | 4 | Stopwatch Beta","protocol":17,"map":"pl_frontier_final","folder":"tf","game":"Team Fortress","app_id":440,"player_count":0,"max_players":24,"Bots":0,"server_type":"Dedicated","server_os":"Linux","password":true,"vac":true,"version":"7961495","steam_id":85568392924510199,"keywords":["nocrits","nodmgspread","payload","uncletopia"],"game_id":440,"stv_port":27046,"stv_name":"Uncletopia | Los Angeles | 4 | Stopwatch Beta | STV","players":null},{"server_id":11,"name":"Uncletopia | London | 1 | All Maps","name_short":"lon-1","host":"lon-1.uk.uncletopia.com","port":27015,"enabled":true,"region":"eu","cc":"gb","latitude":51.509865,"longitude":-0.118092,"reserved":0,"last_update":"0001-01-01T00:00:00Z","name_a2s":"Uncletopia | London | 1 | All Maps","protocol":17,"map":"koth_cascade","folder":"tf","game":"Team Fortress","app_id":440,"player_count":1,"max_players":24,"Bots":0,"server_type":"Dedicated","server_os":"Linux","password":true,"vac":true,"version":"7961495","steam_id":85568392924367362,"keywords":["cp","nocrits","nodmgspread","uncletopia"],"game_id":440,"stv_port":27016,"stv_name":"Uncletopia | London | 1 | All Maps | STV","players":[{"user_id":847,"name":"Kjat","steam_id":76561198839433592,"connected_time":288000000000,"state":"active","ping":60}]},{"server_id":114,"name":"Uncletopia | London | 2 | All Maps","name_short":"lon-2","host":"lon-1.uk.uncletopia.com","port":27025,"enabled":true,"region":"eu","cc":"gb","latitude":51.509865,"longitude":-0.118092,"reserved":0,"last_update":"0001-01-01T00:00:00Z","name_a2s":"Uncletopia | London | 2 | All Maps","protocol":17,"map":"pl_pier","folder":"tf","game":"Team Fortress","app_id":440,"player_count":24,"max_players":24,"Bots":0,"server_type":"Dedicated","server_os":"Linux","password":true,"vac":true,"version":"7961495","steam_id":85568392924470941,"keywords":["nocrits","nodmgspread","payload","uncletopia"],"game_id":440,"stv_port":27026,"stv_name":"Uncletopia | London | 2 | All Maps | STV","players":[{"user_id":477,"name":"Purps","steam_id":76561198053886680,"connected_time":168000000000,"state":"active","ping":43},{"user_id":450,"name":"REN","steam_id":76561198000596385,"connected_time":2771000000000,"state":"active","ping":76},{"user_id":461,"name":"Faustino","steam_id":76561198061771785,"connected_time":1716000000000,"state":"active","ping":82},{"user_id":464,"name":"Skyfox","steam_id":76561198036647535,"connected_time":1558000000000,"state":"active","ping":54},{"user_id":471,"name":"dec","steam_id":76561198009660168,"connected_time":769000000000,"state":"active","ping":54},{"user_id":440,"name":"Serbian Hammer","steam_id":76561198009032913,"connected_time":4199000000000,"state":"active","ping":72},{"user_id":470,"name":"Pestdoktor","steam_id":76561198058159271,"connected_time":864000000000,"state":"active","ping":74},{"user_id":455,"name":"TheEventGuy","steam_id":76561197972797744,"connected_time":2034000000000,"state":"active","ping":71},{"user_id":462,"name":"Mamaki","steam_id":76561198799617313,"connected_time":1635000000000,"state":"active","ping":77},{"user_id":425,"name":"monaskick","steam_id":76561198326190912,"connected_time":5519000000000,"state":"active","ping":69},{"user_id":465,"name":"Truck-kun2107","steam_id":76561199161417910,"connected_time":1460000000000,"state":"active","ping":161},{"user_id":449,"name":"etc","steam_id":76561197998394797,"connected_time":3064000000000,"state":"active","ping":56},{"user_id":359,"name":"Ran33","steam_id":76561197991474499,"connected_time":9537000000000,"state":"active","ping":82},{"user_id":405,"name":"bob","steam_id":76561198353212719,"connected_time":6689000000000,"state":"active","ping":46},{"user_id":476,"name":"369","steam_id":76561198149967445,"connected_time":255000000000,"state":"active","ping":32},{"user_id":468,"name":"I'm so very sad","steam_id":76561198147173457,"connected_time":1099000000000,"state":"active","ping":74},{"user_id":469,"name":"Miss Bari","steam_id":76561198365286092,"connected_time":1073000000000,"state":"active","ping":44},{"user_id":453,"name":"frosty","steam_id":76561198094560834,"connected_time":2294000000000,"state":"active","ping":50},{"user_id":475,"name":"Son Goku","steam_id":76561199383437138,"connected_time":385000000000,"state":"active","ping":119},{"user_id":432,"name":"Charon","steam_id":76561198061714753,"connected_time":5412000000000,"state":"active","ping":89},{"user_id":433,"name":"Nut Steven","steam_id":76561198051881261,"connected_time":5400000000000,"state":"active","ping":43},{"user_id":436,"name":"nut fondler","steam_id":76561198928909138,"connected_time":4664000000000,"state":"active","ping":55},{"user_id":370,"name":"juicy","steam_id":76561198127264835,"connected_time":9047000000000,"state":"active","ping":47}]},{"server_id":320,"name":"Uncletopia | London | 3 | All Maps","name_short":"lon-3","host":"lon-1.uk.uncletopia.com","port":27035,"enabled":true,"region":"eu","cc":"gb","latitude":51.509865,"longitude":-0.118092,"reserved":0,"last_update":"0001-01-01T00:00:00Z","name_a2s":"Uncletopia | London | 3 | All Maps","protocol":17,"map":"pl_barnblitz","folder":"tf","game":"Team Fortress","app_id":440,"player_count":24,"max_players":24,"Bots":0,"server_type":"Dedicated","server_os":"Linux","password":true,"vac":true,"version":"7961495","steam_id":85568392924510192,"keywords":["nocrits","nodmgspread","payload","uncletopia"],"game_id":440,"stv_port":27036,"stv_name":"Uncletopia | London | 3 | All Maps | STV","players":[{"user_id":270,"name":"pablo","steam_id":76561198322087870,"connected_time":990000000000,"state":"active","ping":117},{"user_id":256,"name":"XxXNftTraderXxX","steam_id":76561198189411439,"connected_time":2522000000000,"state":"active","ping":85},{"user_id":265,"name":"sHIFTINGvORTEX","steam_id":76561198231648332,"connected_time":1736000000000,"state":"active","ping":60},{"user_id":257,"name":"Strudel4427","steam_id":76561198057105230,"connected_time":2503000000000,"state":"active","ping":89},{"user_id":266,"name":"lizard snufkin","steam_id":76561198074618389,"connected_time":1537000000000,"state":"active","ping":150},{"user_id":284,"name":"Panda","steam_id":76561198176342325,"connected_time":415000000000,"state":"active","ping":95},{"user_id":286,"name":"UglyTwinYgor","steam_id":76561198132718039,"connected_time":361000000000,"state":"active","ping":78},{"user_id":198,"name":"Cherry","steam_id":76561198150841824,"connected_time":8487000000000,"state":"active","ping":62},{"user_id":235,"name":"Kamanie","steam_id":76561198135448255,"connected_time":4620000000000,"state":"active","ping":61},{"user_id":260,"name":"Icarus300","steam_id":76561198015125766,"connected_time":2376000000000,"state":"active","ping":74},{"user_id":279,"name":"yuno appreciator","steam_id":76561198083286511,"connected_time":557000000000,"state":"active","ping":36},{"user_id":277,"name":"khan","steam_id":76561198099245500,"connected_time":654000000000,"state":"active","ping":56},{"user_id":243,"name":"Ed geen","steam_id":76561198184360615,"connected_time":3982000000000,"state":"active","ping":94},{"user_id":262,"name":"cuddle","steam_id":76561198805181599,"connected_time":2306000000000,"state":"active","ping":57},{"user_id":263,"name":"Infantile Pillock","steam_id":76561198283851362,"connected_time":2283000000000,"state":"active","ping":71},{"user_id":273,"name":"Rezzarezz","steam_id":76561198092020043,"connected_time":878000000000,"state":"active","ping":75},{"user_id":278,"name":"Ela?","steam_id":76561198382598509,"connected_time":619000000000,"state":"active","ping":72},{"user_id":204,"name":"noVa","steam_id":76561198296550363,"connected_time":7938000000000,"state":"active","ping":56},{"user_id":290,"name":"_Context_","steam_id":76561199163359312,"connected_time":51000000000,"state":"active","ping":67},{"user_id":281,"name":"fecal incident","steam_id":76561198086770023,"connected_time":537000000000,"state":"active","ping":63},{"user_id":282,"name":"koji","steam_id":76561198051636999,"connected_time":492000000000,"state":"active","ping":60},{"user_id":283,"name":"cold","steam_id":76561199017901552,"connected_time":478000000000,"state":"active","ping":155},{"user_id":287,"name":"Dumpster Fire Fortress 2","steam_id":76561197984325644,"connected_time":281000000000,"state":"active","ping":144},{"user_id":288,"name":"Snex","steam_id":76561198054870921,"connected_time":239000000000,"state":"active","ping":47}]},{"server_id":321,"name":"Uncletopia | London | 4 | All Maps","name_short":"lon-4","host":"lon-1.uk.uncletopia.com","port":27045,"enabled":true,"region":"eu","cc":"gb","latitude":51.509865,"longitude":-0.118092,"reserved":0,"last_update":"0001-01-01T00:00:00Z","name_a2s":"Uncletopia | London | 4 | All Maps","protocol":17,"map":"koth_viaduct","folder":"tf","game":"Team Fortress","app_id":440,"player_count":0,"max_players":24,"Bots":0,"server_type":"Dedicated","server_os":"Linux","password":true,"vac":true,"version":"7961495","steam_id":85568392924510193,"keywords":["cp","nocrits","nodmgspread","uncletopia"],"game_id":440,"stv_port":27046,"stv_name":"Uncletopia | London | 4 | All Maps | STV","players":null},{"server_id":21,"name":"Uncletopia | London | 5 | All Maps","name_short":"lon-5","host":"lon-1.uk.uncletopia.com","port":27055,"enabled":true,"region":"eu","cc":"gb","latitude":51.509865,"longitude":-0.118092,"reserved":0,"last_update":"0001-01-01T00:00:00Z","name_a2s":"Uncletopia | London | 5 | All Maps","protocol":17,"map":"cp_sunshine","folder":"tf","game":"Team Fortress","app_id":440,"player_count":0,"max_players":24,"Bots":0,"server_type":"Dedicated","server_os":"Linux","password":true,"vac":true,"version":"7961495","steam_id":85568392924742829,"keywords":["cp","nocrits","nodmgspread","uncletopia"],"game_id":440,"stv_port":27056,"stv_name":"Uncletopia | London | 5 | All Maps | STV","players":null},{"server_id":22,"name":"Uncletopia | London | 6 | All Maps","name_short":"lon-6","host":"lon-1.uk.uncletopia.com","port":27065,"enabled":true,"region":"eu","cc":"gb","latitude":51.509865,"longitude":-0.118092,"reserved":0,"last_update":"0001-01-01T00:00:00Z","name_a2s":"Uncletopia | London | 6 | All Maps","protocol":17,"map":"cp_dustbowl","folder":"tf","game":"Team Fortress","app_id":440,"player_count":0,"max_players":24,"Bots":0,"server_type":"Dedicated","server_os":"Linux","password":true,"vac":true,"version":"7961495","steam_id":85568392924742830,"keywords":["cp","nocrits","nodmgspread","uncletopia"],"game_id":440,"stv_port":27066,"stv_name":"Uncletopia | London | 6 | All Maps | STV","players":null},{"server_id":40,"name":"Uncletopia | London | 7 | No Payload","name_short":"lon-7","host":"lon-1.uk.uncletopia.com","port":27075,"enabled":true,"region":"eu","cc":"gb","latitude":51.509865,"longitude":-0.118092,"reserved":0,"last_update":"0001-01-01T00:00:00Z","name_a2s":"Uncletopia | London | 7 | No Payload","protocol":17,"map":"cp_egypt_final","folder":"tf","game":"Team Fortress","app_id":440,"player_count":0,"max_players":24,"Bots":0,"server_type":"Dedicated","server_os":"Linux","password":true,"vac":true,"version":"7961495","steam_id":85568392924964314,"keywords":["cp","nocrits","nodmgspread","uncletopia"],"game_id":440,"stv_port":27076,"stv_name":"Uncletopia | London | 7 | No Payload | STV","players":null},{"server_id":41,"name":"Uncletopia | London | 8 | Community","name_short":"lon-8","host":"lon-1.uk.uncletopia.com","port":27085,"enabled":true,"region":"eu","cc":"gb","latitude":51.509865,"longitude":-0.118092,"reserved":0,"last_update":"0001-01-01T00:00:00Z","name_a2s":"Uncletopia | London | 8 | Community","protocol":17,"map":"workshop/koth_bagel_rc6.ugc2514036946","folder":"tf","game":"Team Fortress","app_id":440,"player_count":0,"max_players":24,"Bots":0,"server_type":"Dedicated","server_os":"Linux","password":true,"vac":true,"version":"7961495","steam_id":85568392924964315,"keywords":["cp","nocrits","nodmgspread","uncletopia"],"game_id":440,"stv_port":27086,"stv_name":"Uncletopia | London | 8 | Community | STV","players":null},{"server_id":300,"name":"Uncletopia | Montr√©al | 1 | All Maps","name_short":"mtl-1","host":"mtl-1.ca.uncletopia.com","port":27015,"enabled":true,"region":"us-east","cc":"ca","latitude":45.50889,"longitude":-73.56167,"reserved":0,"last_update":"0001-01-01T00:00:00Z","name_a2s":"Uncletopia | Montr√©al | 1 | All Maps","protocol":17,"map":"koth_cascade","folder":"tf","game":"Team Fortress","app_id":440,"player_count":2,"max_players":24,"Bots":0,"server_type":"Dedicated","server_os":"Linux","password":true,"vac":true,"version":"7961495","steam_id":85568392924500087,"keywords":["cp","nocrits","nodmgspread","uncletopia"],"game_id":440,"stv_port":27016,"stv_name":"Uncletopia | Montr√©al | 1 | All Maps | STV","players":[{"user_id":8,"name":"MysteryTopHat","steam_id":76561199011317714,"connected_time":123000000000,"state":"active","ping":71},{"user_id":9,"name":"eipi","steam_id":76561199084492097,"connected_time":40000000000,"state":"active","ping":59}]},{"server_id":301,"name":"Uncletopia | Montr√©al | 2 | All Maps","name_short":"mtl-2","host":"mtl-1.ca.uncletopia.com","port":27025,"enabled":true,"region":"us-east","cc":"ca","latitude":45.50889,"longitude":-73.56167,"reserved":0,"last_update":"0001-01-01T00:00:00Z","name_a2s":"Uncletopia | Montr√©al | 2 | All Maps","protocol":17,"map":"pl_borneo","folder":"tf","game":"Team Fortress","app_id":440,"player_count":23,"max_players":24,"Bots":0,"server_type":"Dedicated","server_os":"Linux","password":true,"vac":true,"version":"7961495","steam_id":85568392924500088,"keywords":["nocrits","nodmgspread","payload","uncletopia"],"game_id":440,"stv_port":27026,"stv_name":"Uncletopia | Montr√©al | 2 | All Maps | STV","players":[{"user_id":151,"name":"goober","steam_id":76561198344499440,"connected_time":1875000000000,"state":"active","ping":61},{"user_id":182,"name":"b","steam_id":76561198099463706,"connected_time":80000000000,"state":"active","ping":120},{"user_id":135,"name":"piggyfeathers","steam_id":76561198090121855,"connected_time":2566000000000,"state":"active","ping":76},{"user_id":137,"name":"simedogg","steam_id":76561198069286632,"connected_time":2470000000000,"state":"active","ping":80},{"user_id":138,"name":"pink hair and pronouns","steam_id":76561198066227208,"connected_time":2246000000000,"state":"active","ping":47},{"user_id":183,"name":"olifur","steam_id":76561198045607732,"connected_time":76000000000,"state":"active","ping":42},{"user_id":140,"name":"corygaming","steam_id":76561198035669409,"connected_time":2241000000000,"state":"active","ping":130},{"user_id":141,"name":"squishy","steam_id":76561198015034116,"connected_time":2226000000000,"state":"active","ping":64},{"user_id":175,"name":"get scrongled, idiot","steam_id":76561198115874625,"connected_time":575000000000,"state":"active","ping":77},{"user_id":176,"name":"Femboy Gaming","steam_id":76561198174108515,"connected_time":563000000000,"state":"active","ping":135},{"user_id":154,"name":"Bastet","steam_id":76561198877812921,"connected_time":1790000000000,"state":"active","ping":132},{"user_id":181,"name":"Navis","steam_id":76561198996230924,"connected_time":128000000000,"state":"active","ping":47},{"user_id":156,"name":"st3shk4a","steam_id":76561198025322638,"connected_time":1696000000000,"state":"active","ping":79},{"user_id":155,"name":"sunny","steam_id":76561198069380992,"connected_time":1788000000000,"state":"active","ping":88},{"user_id":184,"name":"MrVegasAguitar","steam_id":76561198084466946,"connected_time":51000000000,"state":"active","ping":87},{"user_id":178,"name":"Swifgz","steam_id":76561198162875756,"connected_time":523000000000,"state":"active","ping":47},{"user_id":159,"name":"Frontier Psychiatrist","steam_id":76561198038689088,"connected_time":1609000000000,"state":"active","ping":103},{"user_id":185,"name":"hoodatnin","steam_id":76561199489670228,"connected_time":43000000000,"state":"active","ping":58},{"user_id":186,"name":"Crouching Noob Hidden Sniper","steam_id":76561197971328473,"connected_time":33000000000,"state":"spawning","ping":61},{"user_id":171,"name":"canakblasteran","steam_id":76561199472518822,"connected_time":1195000000000,"state":"active","ping":141},{"user_id":168,"name":"brian damage","steam_id":76561198118455606,"connected_time":1260000000000,"state":"active","ping":48},{"user_id":187,"name":"Clone#67","steam_id":76561198010238457,"connected_time":33000000000,"state":"active","ping":88},{"user_id":180,"name":"The destroyer of foreskin","steam_id":76561198135275966,"connected_time":493000000000,"state":"active","ping":83}]},{"server_id":302,"name":"Uncletopia | Montr√©al | 3 | All Maps","name_short":"mtl-3","host":"mtl-1.ca.uncletopia.com","port":27035,"enabled":true,"region":"us-east","cc":"ca","latitude":45.50889,"longitude":-73.56167,"reserved":0,"last_update":"0001-01-01T00:00:00Z","name_a2s":"Uncletopia | Montr√©al | 3 | All Maps","protocol":17,"map":"pl_snowycoast","folder":"tf","game":"Team Fortress","app_id":440,"player_count":1,"max_players":24,"Bots":0,"server_type":"Dedicated","server_os":"Linux","password":true,"vac":true,"version":"7961495","steam_id":85568392924500089,"keywords":["nocrits","nodmgspread","payload","uncletopia"],"game_id":440,"stv_port":27036,"stv_name":"Uncletopia | Montr√©al | 3 | All Maps | STV","players":[{"user_id":14,"name":"Menlymen","steam_id":76561198046508051,"connected_time":93000000000,"state":"active","ping":72}]},{"server_id":303,"name":"Uncletopia | Montr√©al | 4 | No Payload","name_short":"mtl-4","host":"mtl-1.ca.uncletopia.com","port":27045,"enabled":true,"region":"us-east","cc":"ca","latitude":45.50889,"longitude":-73.56167,"reserved":0,"last_update":"0001-01-01T00:00:00Z","name_a2s":"Uncletopia | Montr√©al | 4 | No Payload","protocol":17,"map":"koth_badlands","folder":"tf","game":"Team Fortress","app_id":440,"player_count":0,"max_players":24,"Bots":0,"server_type":"Dedicated","server_os":"Linux","password":true,"vac":true,"version":"7961495","steam_id":85568392924500090,"keywords":["cp","nocrits","nodmgspread","uncletopia"],"game_id":440,"stv_port":27046,"stv_name":"Uncletopia | Montr√©al | 4 | No Payload | STV","players":null},{"server_id":13,"name":"Uncletopia | New York City | 1 | All Maps","name_short":"nyc-1","host":"nyc-1.us.uncletopia.com","port":27015,"enabled":true,"region":"us-east","cc":"us","latitude":40.73061,"longitude":-73.93524,"reserved":0,"last_update":"0001-01-01T00:00:00Z","name_a2s":"Uncletopia | New York City | 1 | All Maps","protocol":17,"map":"pl_frontier_final","folder":"tf","game":"Team Fortress","app_id":440,"player_count":24,"max_players":24,"Bots":0,"server_type":"Dedicated","server_os":"Linux","password":true,"vac":true,"version":"7961495","steam_id":85568392924469993,"keywords":["nocrits","nodmgspread","payload","uncletopia"],"game_id":440,"stv_port":27016,"stv_name":"Uncletopia | New York City | 1 | All Maps | STV","players":[{"user_id":286,"name":"braindead","steam_id":76561198263631055,"connected_time":784000000000,"state":"active","ping":64},{"user_id":242,"name":"JACOB","steam_id":76561198211874895,"connected_time":4684000000000,"state":"active","ping":79},{"user_id":295,"name":"turd ferguson","steam_id":76561198071620782,"connected_time":54000000000,"state":"active","ping":68},{"user_id":281,"name":"NamelessBear‚Ñ¢","steam_id":76561198014564006,"connected_time":1533000000000,"state":"active","ping":69},{"user_id":291,"name":"Don Franches","steam_id":76561198043958772,"connected_time":697000000000,"state":"active","ping":59},{"user_id":220,"name":"Olifont","steam_id":76561198141162919,"connected_time":6190000000000,"state":"active","ping":68},{"user_id":279,"name":"JoCaleb02","steam_id":76561198272389829,"connected_time":1891000000000,"state":"active","ping":51},{"user_id":258,"name":"Broadway Rose","steam_id":76561198046083342,"connected_time":3869000000000,"state":"active","ping":43},{"user_id":280,"name":"Al Cabone","steam_id":76561198956823243,"connected_time":1803000000000,"state":"active","ping":60},{"user_id":292,"name":"Machine Girl - SAD CLAPS","steam_id":76561198294013916,"connected_time":593000000000,"state":"active","ping":45},{"user_id":271,"name":"screaming","steam_id":76561198050523315,"connected_time":2560000000000,"state":"active","ping":131},{"user_id":293,"name":"Gram Tokers Count Doinkula","steam_id":76561198112811565,"connected_time":293000000000,"state":"active","ping":56},{"user_id":255,"name":"Mr_Frosty","steam_id":76561199380389079,"connected_time":4165000000000,"state":"active","ping":76},{"user_id":260,"name":"kimshwim","steam_id":76561198287933134,"connected_time":3332000000000,"state":"active","ping":73},{"user_id":240,"name":"Ranger Plague","steam_id":76561198174647666,"connected_time":4786000000000,"state":"active","ping":84},{"user_id":268,"name":"Trans Girl Online","steam_id":76561198337783795,"connected_time":2945000000000,"state":"active","ping":50},{"user_id":294,"name":"Always Here for You","steam_id":76561198219252313,"connected_time":289000000000,"state":"active","ping":55},{"user_id":282,"name":"Epicdisc","steam_id":76561198025483504,"connected_time":1220000000000,"state":"active","ping":58},{"user_id":257,"name":"retinz","steam_id":76561198135563495,"connected_time":3983000000000,"state":"active","ping":54},{"user_id":266,"name":"MILKY","steam_id":76561198073114061,"connected_time":2961000000000,"state":"active","ping":86},{"user_id":236,"name":"Tank Chili","steam_id":76561198161183031,"connected_time":5247000000000,"state":"active","ping":72},{"user_id":276,"name":"Periculosum PhD in Funny","steam_id":76561198123370914,"connected_time":2003000000000,"state":"active","ping":86},{"user_id":215,"name":"Atomic Ursa","steam_id":76561198032246421,"connected_time":6632000000000,"state":"active","ping":69},{"user_id":284,"name":"Cult of neurodivergency üè≥","steam_id":76561199112194007,"connected_time":1100000000000,"state":"active","ping":71}]},{"server_id":14,"name":"Uncletopia | New York City | 2 | All Maps","name_short":"nyc-2","host":"nyc-1.us.uncletopia.com","port":27025,"enabled":true,"region":"us-east","cc":"us","latitude":40.73061,"longitude":-73.93524,"reserved":0,"last_update":"0001-01-01T00:00:00Z","name_a2s":"Uncletopia | New York City | 2 | All Maps","protocol":17,"map":"pl_barnblitz","folder":"tf","game":"Team Fortress","app_id":440,"player_count":24,"max_players":24,"Bots":0,"server_type":"Dedicated","server_os":"Linux","password":true,"vac":true,"version":"7961495","steam_id":85568392924469994,"keywords":["nocrits","nodmgspread","payload","uncletopia"],"game_id":440,"stv_port":27026,"stv_name":"Uncletopia | New York City | 2 | All Maps | STV","players":[{"user_id":517,"name":"JimmY","steam_id":76561198386339252,"connected_time":896000000000,"state":"active","ping":125},{"user_id":416,"name":"daemon","steam_id":76561198001541433,"connected_time":9545000000000,"state":"active","ping":64},{"user_id":515,"name":"vastrobotmax","steam_id":76561198417110724,"connected_time":1120000000000,"state":"active","ping":73},{"user_id":491,"name":"Johnny Lawrence #JohnnyMaxxing","steam_id":76561199367141671,"connected_time":3436000000000,"state":"active","ping":45},{"user_id":505,"name":"Daksuki","steam_id":76561198084127751,"connected_time":2311000000000,"state":"active","ping":96},{"user_id":506,"name":"Bulk","steam_id":76561199009814535,"connected_time":2034000000000,"state":"active","ping":44},{"user_id":518,"name":"Ian","steam_id":76561199078852180,"connected_time":856000000000,"state":"active","ping":56},{"user_id":507,"name":"fried eggs","steam_id":76561198319442494,"connected_time":1926000000000,"state":"active","ping":117},{"user_id":478,"name":"okar","steam_id":76561198916847884,"connected_time":4734000000000,"state":"active","ping":42},{"user_id":487,"name":"gIBBY","steam_id":76561198080099598,"connected_time":3882000000000,"state":"active","ping":40},{"user_id":490,"name":"Nerrrd_","steam_id":76561198870129960,"connected_time":3663000000000,"state":"active","ping":44},{"user_id":516,"name":"tooth","steam_id":76561197986437643,"connected_time":1105000000000,"state":"active","ping":58},{"user_id":488,"name":"The Sinister Potion","steam_id":76561198131280715,"connected_time":3879000000000,"state":"active","ping":64},{"user_id":522,"name":"nessie","steam_id":76561198010124074,"connected_time":104000000000,"state":"active","ping":41},{"user_id":520,"name":"raduski","steam_id":76561198795699119,"connected_time":743000000000,"state":"active","ping":108},{"user_id":519,"name":"CapnKris22","steam_id":76561198049010994,"connected_time":850000000000,"state":"active","ping":69},{"user_id":481,"name":"chiswola","steam_id":76561198046920142,"connected_time":4479000000000,"state":"active","ping":90},{"user_id":513,"name":"hayes","steam_id":76561198057101042,"connected_time":1163000000000,"state":"active","ping":91},{"user_id":523,"name":"Sully","steam_id":76561198310784589,"connected_time":69000000000,"state":"active","ping":63},{"user_id":482,"name":"Piss Scoundrel","steam_id":76561197995562098,"connected_time":4137000000000,"state":"active","ping":70},{"user_id":499,"name":"$0.18","steam_id":76561198360134800,"connected_time":2954000000000,"state":"active","ping":59},{"user_id":521,"name":"Sigiferd","steam_id":76561198148788110,"connected_time":560000000000,"state":"active","ping":127},{"user_id":463,"name":"Pockets","steam_id":76561198001742296,"connected_time":6345000000000,"state":"active","ping":74}]},{"server_id":15,"name":"Uncletopia | New York City | 3 | Stopwatch Beta","name_short":"nyc-3","host":"nyc-1.us.uncletopia.com","port":27035,"enabled":true,"region":"us-east","cc":"us","latitude":40.73061,"longitude":-73.93524,"reserved":0,"last_update":"0001-01-01T00:00:00Z","name_a2s":"Uncletopia | New York City | 3 | Stopwatch Beta","protocol":17,"map":"workshop/cp_reckoner_rc6.ugc674719999","folder":"tf","game":"Team Fortress","app_id":440,"player_count":0,"max_players":24,"Bots":0,"server_type":"Dedicated","server_os":"Linux","password":true,"vac":true,"version":"7961495","steam_id":85568392924742820,"keywords":["cp","nocrits","nodmgspread","uncletopia"],"game_id":440,"stv_port":27036,"stv_name":"Uncletopia | New York City | 3 | Stopwatch Beta | STV","players":null},{"server_id":16,"name":"Uncletopia | New York City | 4 | Community","name_short":"nyc-4","host":"nyc-1.us.uncletopia.com","port":27045,"enabled":true,"region":"us-east","cc":"us","latitude":40.73061,"longitude":-73.93524,"reserved":0,"last_update":"0001-01-01T00:00:00Z","name_a2s":"Uncletopia | New York City | 4 | Community","protocol":17,"map":"workshop/koth_trenchfoot_b1a.ugc731436616","folder":"tf","game":"Team Fortress","app_id":440,"player_count":0,"max_players":24,"Bots":0,"server_type":"Dedicated","server_os":"Linux","password":true,"vac":true,"version":"7961495","steam_id":85568392924742821,"keywords":["cp","nocrits","nodmgspread","uncletopia"],"game_id":440,"stv_port":27046,"stv_name":"Uncletopia | New York City | 4 | Community | STV","players":null},{"server_id":142,"name":"Uncletopia | S√£o Paulo | 1 | All Maps","name_short":"sao-1","host":"sao-1.br.uncletopia.com","port":27015,"enabled":true,"region":"sa","cc":"br","latitude":-23.533773,"longitude":-46.62529,"reserved":0,"last_update":"0001-01-01T00:00:00Z","name_a2s":"Uncletopia | S√£o Paulo | 1 | All Maps","protocol":17,"map":"cp_snakewater_final1","folder":"tf","game":"Team Fortress","app_id":440,"player_count":0,"max_players":24,"Bots":0,"server_type":"Dedicated","server_os":"Linux","password":true,"vac":true,"version":"7961495","steam_id":85568392924469996,"keywords":["cp","nocrits","nodmgspread","uncletopia"],"game_id":440,"stv_port":27016,"stv_name":"Uncletopia | S√£o Paulo | 1 | All Maps | STV","players":null},{"server_id":143,"name":"Uncletopia | S√£o Paulo | 2 | All Maps","name_short":"sao-2","host":"sao-2.br.uncletopia.com","port":27015,"enabled":true,"region":"sa","cc":"br","latitude":-23.533773,"longitude":-46.62529,"reserved":0,"last_update":"0001-01-01T00:00:00Z","name_a2s":"Uncletopia | S√£o Paulo | 2 | All Maps","protocol":17,"map":"koth_highpass","folder":"tf","game":"Team Fortress","app_id":440,"player_count":7,"max_players":24,"Bots":0,"server_type":"Dedicated","server_os":"Linux","password":true,"vac":true,"version":"7961495","steam_id":85568392924485349,"keywords":["cp","nocrits","nodmgspread","uncletopia"],"game_id":440,"stv_port":27016,"stv_name":"Uncletopia | S√£o Paulo | 2 | All Maps | STV","players":[{"user_id":29,"name":"modulando","steam_id":76561198435468554,"connected_time":1038000000000,"state":"active","ping":43},{"user_id":30,"name":"|AY|LazyCian","steam_id":76561199121786457,"connected_time":996000000000,"state":"active","ping":45},{"user_id":31,"name":"Rena dos seios","steam_id":76561198305477134,"connected_time":773000000000,"state":"active","ping":39},{"user_id":32,"name":"Cogumela peituda \u003c3","steam_id":76561198385035524,"connected_time":745000000000,"state":"active","ping":30},{"user_id":33,"name":"BANANA_GAMING","steam_id":76561199396543110,"connected_time":589000000000,"state":"active","ping":82},{"user_id":34,"name":"stuwpid pyo maim","steam_id":76561199246901712,"connected_time":397000000000,"state":"active","ping":51},{"user_id":35,"name":"Rafinha","steam_id":76561199175472052,"connected_time":143000000000,"state":"active","ping":39}]},{"server_id":7,"name":"Uncletopia | Seattle | 1 | All Maps","name_short":"sea-1","host":"sea-1.us.uncletopia.com","port":27015,"enabled":true,"region":"us-west","cc":"us","latitude":47.608013,"longitude":-122.33517,"reserved":0,"last_update":"0001-01-01T00:00:00Z","name_a2s":"Uncletopia | Seattle | 1 | All Maps","protocol":17,"map":"pl_badwater","folder":"tf","game":"Team Fortress","app_id":440,"player_count":23,"max_players":24,"Bots":0,"server_type":"Dedicated","server_os":"Linux","password":true,"vac":true,"version":"7961495","steam_id":85568392924469997,"keywords":["nocrits","nodmgspread","payload","uncletopia"],"game_id":440,"stv_port":27016,"stv_name":"Uncletopia | Seattle | 1 | All Maps | STV","players":[{"user_id":317,"name":"Polybius","steam_id":76561198072173048,"connected_time":1220000000000,"state":"active","ping":57},{"user_id":319,"name":"flameboy50","steam_id":76561198258638052,"connected_time":1173000000000,"state":"active","ping":56},{"user_id":288,"name":"Villchip","steam_id":76561198198599982,"connected_time":3515000000000,"state":"active","ping":47},{"user_id":290,"name":"Maid 'n' China","steam_id":76561198423392976,"connected_time":3388000000000,"state":"active","ping":65},{"user_id":331,"name":"riSygneD","steam_id":76561198331618687,"connected_time":388000000000,"state":"active","ping":60},{"user_id":250,"name":"ZEKKER","steam_id":76561197967968980,"connected_time":7064000000000,"state":"active","ping":48},{"user_id":327,"name":"smeasly","steam_id":76561198028718812,"connected_time":714000000000,"state":"active","ping":44},{"user_id":271,"name":"dust | she/it","steam_id":76561198045218909,"connected_time":5196000000000,"state":"active","ping":36},{"user_id":318,"name":"moe","steam_id":76561198929586245,"connected_time":1208000000000,"state":"active","ping":74},{"user_id":335,"name":"sneaky snitch","steam_id":76561198313088312,"connected_time":28000000000,"state":"active","ping":62},{"user_id":305,"name":"Skull emoji","steam_id":76561199387783793,"connected_time":2323000000000,"state":"active","ping":131},{"user_id":308,"name":"Luca","steam_id":76561198125087140,"connected_time":2136000000000,"state":"active","ping":46},{"user_id":326,"name":"Karo","steam_id":76561199011823773,"connected_time":944000000000,"state":"active","ping":48},{"user_id":294,"name":"[COS]SonneyDonkeh","steam_id":76561198091284496,"connected_time":3264000000000,"state":"active","ping":80},{"user_id":320,"name":"Arsonist Goose","steam_id":76561198147441830,"connected_time":1165000000000,"state":"active","ping":64},{"user_id":321,"name":"BasedGod","steam_id":76561198061177973,"connected_time":1163000000000,"state":"active","ping":63},{"user_id":274,"name":"BlazedBunny","steam_id":76561198243610560,"connected_time":4769000000000,"state":"active","ping":69},{"user_id":235,"name":"craftylongsword","steam_id":76561198340102940,"connected_time":7982000000000,"state":"active","ping":55},{"user_id":322,"name":"caca sniffer","steam_id":76561199099914725,"connected_time":1141000000000,"state":"active","ping":45},{"user_id":329,"name":"Mr. Baseball","steam_id":76561198112635823,"connected_time":573000000000,"state":"active","ping":52},{"user_id":330,"name":"Dan","steam_id":76561198205054883,"connected_time":560000000000,"state":"active","ping":60},{"user_id":325,"name":"Cup O' Tea","steam_id":76561199181963791,"connected_time":1016000000000,"state":"active","ping":75},{"user_id":301,"name":"„Éí„Éó„Éé„Çπ","steam_id":76561198403829714,"connected_time":2590000000000,"state":"active","ping":50}]},{"server_id":119,"name":"Uncletopia | Seattle | 2 | All Maps","name_short":"sea-2","host":"sea-1.us.uncletopia.com","port":27025,"enabled":true,"region":"us-west","cc":"us","latitude":47.608013,"longitude":-122.33517,"reserved":0,"last_update":"0001-01-01T00:00:00Z","name_a2s":"Uncletopia | Seattle | 2 | All Maps","protocol":17,"map":"cp_sunshine","folder":"tf","game":"Team Fortress","app_id":440,"player_count":18,"max_players":24,"Bots":0,"server_type":"Dedicated","server_os":"Linux","password":true,"vac":true,"version":"7961495","steam_id":85568392924469998,"keywords":["nocrits","nodmgspread","payload","uncletopia"],"game_id":440,"stv_port":27026,"stv_name":"Uncletopia | Seattle | 2 | All Maps | STV","players":[{"user_id":133,"name":"taksss","steam_id":76561198995422051,"connected_time":13000000000,"state":"connecting","ping":58},{"user_id":112,"name":"Forty","steam_id":76561198257410181,"connected_time":1781000000000,"state":"connecting","ping":63},{"user_id":82,"name":"HanakoToast","steam_id":76561198045233131,"connected_time":3927000000000,"state":"connecting","ping":109},{"user_id":110,"name":"F2P Rights Activist","steam_id":76561199012786293,"connected_time":2252000000000,"state":"connecting","ping":148},{"user_id":129,"name":"bullet man","steam_id":76561198080058079,"connected_time":996000000000,"state":"spawning","ping":61},{"user_id":101,"name":"(TTV) The_Astrum_Guardian","steam_id":76561198130134103,"connected_time":2658000000000,"state":"connecting","ping":136},{"user_id":30,"name":"Immortal8Reaper","steam_id":76561198297661559,"connected_time":7929000000000,"state":"connecting","ping":117},{"user_id":31,"name":"The_Skull","steam_id":76561198121244647,"connected_time":7925000000000,"state":"connecting","ping":144},{"user_id":130,"name":"Nukenfutz","steam_id":76561198135666783,"connected_time":630000000000,"state":"spawning","ping":61},{"user_id":113,"name":"Chubbles","steam_id":76561198237619472,"connected_time":1776000000000,"state":"connecting","ping":142},{"user_id":104,"name":"Scorcho","steam_id":76561198071413833,"connected_time":2470000000000,"state":"connecting","ping":70},{"user_id":121,"name":"Tokiw","steam_id":76561197996334383,"connected_time":1578000000000,"state":"spawning","ping":66},{"user_id":77,"name":"Mr. Ravioli","steam_id":76561197996625649,"connected_time":4505000000000,"state":"connecting","ping":63},{"user_id":106,"name":"Terror","steam_id":76561198188685728,"connected_time":2407000000000,"state":"connecting","ping":112}]},{"server_id":406,"name":"Uncletopia | Seattle | 3 | Stopwatch Beta","name_short":"sea-3","host":"sea-1.us.uncletopia.com","port":27035,"enabled":true,"region":"us-west","cc":"us","latitude":47.608013,"longitude":-122.33517,"reserved":0,"last_update":"0001-01-01T00:00:00Z","name_a2s":"Uncletopia | Seattle | 3 | Stopwatch Beta","protocol":17,"map":"pl_borneo","folder":"tf","game":"Team Fortress","app_id":440,"player_count":0,"max_players":24,"Bots":0,"server_type":"Dedicated","server_os":"Linux","password":true,"vac":true,"version":"7961495","steam_id":85568392924515217,"keywords":["nocrits","nodmgspread","payload","uncletopia"],"game_id":440,"stv_port":27036,"stv_name":"Uncletopia | Seattle | 3 | Stopwatch Beta | STV","players":null},{"server_id":17,"name":"Uncletopia | San Francisco | 1 | All Maps","name_short":"sfo-1","host":"sfo-1.us.uncletopia.com","port":27015,"enabled":true,"region":"us-west","cc":"us","latitude":37.77397,"longitude":-122.4313,"reserved":0,"last_update":"0001-01-01T00:00:00Z","name_a2s":"Uncletopia | San Francisco | 1 | All Maps","protocol":17,"map":"pl_frontier_final","folder":"tf","game":"Team Fortress","app_id":440,"player_count":0,"max_players":24,"Bots":0,"server_type":"Dedicated","server_os":"Linux","password":true,"vac":true,"version":"7932396","steam_id":85568392924469999,"keywords":["nocrits","nodmgspread","payload","uncletopia"],"game_id":440,"stv_port":27016,"stv_name":"Uncletopia | San Francisco | 1 | All Maps | STV","players":null},{"server_id":18,"name":"Uncletopia | San Francisco | 2 | All Maps","name_short":"sfo-2","host":"sfo-1.us.uncletopia.com","port":27025,"enabled":true,"region":"us-west","cc":"us","latitude":37.77397,"longitude":-122.4313,"reserved":0,"last_update":"0001-01-01T00:00:00Z","name_a2s":"Uncletopia | San Francisco | 2 | All Maps","protocol":17,"map":"cp_snakewater_final1","folder":"tf","game":"Team Fortress","app_id":440,"player_count":0,"max_players":24,"Bots":0,"server_type":"Dedicated","server_os":"Linux","password":true,"vac":true,"version":"7932396","steam_id":85568392924470000,"keywords":["cp","nocrits","nodmgspread","uncletopia"],"game_id":440,"stv_port":27026,"stv_name":"Uncletopia | San Francisco | 2 | All Maps | STV","players":null},{"server_id":19,"name":"Uncletopia | San Francisco | 3 | Stopwatch Beta","name_short":"sfo-3","host":"sfo-1.us.uncletopia.com","port":27035,"enabled":true,"region":"us-west","cc":"us","latitude":37.77397,"longitude":-122.4313,"reserved":0,"last_update":"0001-01-01T00:00:00Z","name_a2s":"Uncletopia | San Francisco | 3 | Stopwatch Beta","protocol":17,"map":"koth_lakeside_final","folder":"tf","game":"Team Fortress","app_id":440,"player_count":0,"max_players":24,"Bots":0,"server_type":"Dedicated","server_os":"Linux","password":true,"vac":true,"version":"7932396","steam_id":85568392924742824,"keywords":["cp","nocrits","nodmgspread","uncletopia"],"game_id":440,"stv_port":27036,"stv_name":"Uncletopia | San Francisco | 3 | Stopwatch Beta | STV","players":null},{"server_id":20,"name":"Uncletopia | San Francisco | 4 | Community","name_short":"sfo-4","host":"sfo-1.us.uncletopia.com","port":27045,"enabled":true,"region":"us-west","cc":"us","latitude":37.77397,"longitude":-122.4313,"reserved":0,"last_update":"0001-01-01T00:00:00Z","name_a2s":"Uncletopia | San Francisco | 4 | Community","protocol":17,"map":"pl_borneo","folder":"tf","game":"Team Fortress","app_id":440,"player_count":0,"max_players":24,"Bots":0,"server_type":"Dedicated","server_os":"Linux","password":true,"vac":true,"version":"7932396","steam_id":85568392924742826,"keywords":["nocrits","nodmgspread","payload","uncletopia"],"game_id":440,"stv_port":27046,"stv_name":"Uncletopia | San Francisco | 4 | Community | STV","players":null},{"server_id":141,"name":"Uncletopia | Sydney | 1 | All Maps","name_short":"syd-1","host":"syd-1.au.uncletopia.com","port":27015,"enabled":true,"region":"au","cc":"au","latitude":-33.865143,"longitude":151.2099,"reserved":0,"last_update":"0001-01-01T00:00:00Z","name_a2s":"Uncletopia | Sydney | 1 | All Maps","protocol":17,"map":"koth_highpass","folder":"tf","game":"Team Fortress","app_id":440,"player_count":0,"max_players":24,"Bots":0,"server_type":"Dedicated","server_os":"Linux","password":true,"vac":true,"version":"7961495","steam_id":85568392924470001,"keywords":["cp","nocrits","nodmgspread","uncletopia"],"game_id":440,"stv_port":27016,"stv_name":"Uncletopia | Sydney | 1 | All Maps | STV","players":null},{"server_id":123,"name":"Uncletopia | Sydney | 2 | All Maps","name_short":"syd-2","host":"syd-1.au.uncletopia.com","port":27025,"enabled":true,"region":"au","cc":"au","latitude":-33.865143,"longitude":151.2099,"reserved":0,"last_update":"0001-01-01T00:00:00Z","name_a2s":"Uncletopia | Sydney | 2 | All Maps","protocol":17,"map":"koth_viaduct","folder":"tf","game":"Team Fortress","app_id":440,"player_count":0,"max_players":24,"Bots":0,"server_type":"Dedicated","server_os":"Linux","password":true,"vac":true,"version":"7961495","steam_id":85568392924470002,"keywords":["cp","nocrits","nodmgspread","uncletopia"],"game_id":440,"stv_port":27026,"stv_name":"Uncletopia | Sydney | 2 | All Maps | STV","players":null},{"server_id":395,"name":"Uncletopia | Sydney | 3 | All Maps","name_short":"syd-3","host":"syd-1.au.uncletopia.com","port":27035,"enabled":true,"region":"au","cc":"au","latitude":-33.865143,"longitude":151.2099,"reserved":0,"last_update":"0001-01-01T00:00:00Z","name_a2s":"Uncletopia | Sydney | 3 | All Maps","protocol":17,"map":"pl_pier","folder":"tf","game":"Team Fortress","app_id":440,"player_count":17,"max_players":24,"Bots":0,"server_type":"Dedicated","server_os":"Linux","password":true,"vac":true,"version":"7961495","steam_id":85568392925194467,"keywords":["nocrits","nodmgspread","payload","uncletopia"],"game_id":440,"stv_port":27036,"stv_name":"Uncletopia | Sydney | 3 | All Maps | STV","players":[{"user_id":50,"name":"Sterlingpace","steam_id":76561198217945053,"connected_time":1615000000000,"state":"active","ping":93},{"user_id":60,"name":"Del Davis (Del Davis)","steam_id":76561199365669004,"connected_time":476000000000,"state":"active","ping":59},{"user_id":65,"name":"2fort demopan","steam_id":76561199415950432,"connected_time":242000000000,"state":"active","ping":101},{"user_id":51,"name":"Hungry for thumbtacks","steam_id":76561198059129270,"connected_time":1600000000000,"state":"active","ping":62},{"user_id":54,"name":"Office","steam_id":76561198059380714,"connected_time":1220000000000,"state":"active","ping":79},{"user_id":49,"name":"andrewhammo","steam_id":76561198312849831,"connected_time":1762000000000,"state":"active","ping":72},{"user_id":61,"name":"AndGunLun","steam_id":76561198274579754,"connected_time":476000000000,"state":"active","ping":58},{"user_id":55,"name":"Morgenstern","steam_id":76561198253080474,"connected_time":967000000000,"state":"active","ping":67},{"user_id":58,"name":"michael","steam_id":76561198052848358,"connected_time":873000000000,"state":"active","ping":65},{"user_id":72,"name":"perturb (feed/seed)","steam_id":76561198085124297,"connected_time":10000000000,"state":"spawning","ping":50},{"user_id":63,"name":"Dr Nefario","steam_id":76561198254646194,"connected_time":308000000000,"state":"active","ping":243},{"user_id":64,"name":"what_happy","steam_id":76561198971334734,"connected_time":265000000000,"state":"active","ping":54},{"user_id":70,"name":"woppletops","steam_id":76561199216737166,"connected_time":81000000000,"state":"active","ping":80},{"user_id":67,"name":"ljpaters","steam_id":76561198094354484,"connected_time":218000000000,"state":"active","ping":60},{"user_id":68,"name":"Revgon","steam_id":76561198124382876,"connected_time":191000000000,"state":"active","ping":58},{"user_id":69,"name":"Sirgy","steam_id":76561198144274759,"connected_time":156000000000,"state":"active","ping":90},{"user_id":71,"name":"yoran edgar","steam_id":76561198193620930,"connected_time":62000000000,"state":"active","ping":45}]},{"server_id":396,"name":"Uncletopia | Sydney | 4 | All Maps","name_short":"syd-4","host":"syd-1.au.uncletopia.com","port":27045,"enabled":true,"region":"au","cc":"au","latitude":-33.865143,"longitude":151.2099,"reserved":0,"last_update":"0001-01-01T00:00:00Z","name_a2s":"Uncletopia | Sydney | 4 | All Maps","protocol":17,"map":"koth_cascade","folder":"tf","game":"Team Fortress","app_id":440,"player_count":0,"max_players":24,"Bots":0,"server_type":"Dedicated","server_os":"Linux","password":true,"vac":true,"version":"7961495","steam_id":85568392925397958,"keywords":["cp","nocrits","nodmgspread","uncletopia"],"game_id":440,"stv_port":27046,"stv_name":"Uncletopia | Sydney | 4 | All Maps | STV","players":null},{"server_id":58,"name":"Uncletopia | Sydney | 5 | Stopwatch Beta","name_short":"syd-5","host":"syd-1.au.uncletopia.com","port":27055,"enabled":true,"region":"au","cc":"au","latitude":-33.865143,"longitude":151.2099,"reserved":0,"last_update":"0001-01-01T00:00:00Z","name_a2s":"Uncletopia | Sydney | 5 | Stopwatch Beta","protocol":17,"map":"koth_viaduct","folder":"tf","game":"Team Fortress","app_id":440,"player_count":0,"max_players":24,"Bots":0,"server_type":"Dedicated","server_os":"Linux","password":true,"vac":true,"version":"7961495","steam_id":85568392925397959,"keywords":["cp","nocrits","nodmgspread","uncletopia"],"game_id":440,"stv_port":27056,"stv_name":"Uncletopia | Sydney | 5 | Stopwatch Beta | STV","players":null},{"server_id":59,"name":"Uncletopia | Sydney | 6 | Community","name_short":"syd-6","host":"syd-1.au.uncletopia.com","port":27065,"enabled":true,"region":"au","cc":"au","latitude":-33.865143,"longitude":151.2099,"reserved":0,"last_update":"0001-01-01T00:00:00Z","name_a2s":"Uncletopia | Sydney | 6 | Community","protocol":17,"map":"workshop/koth_ramjam_rc1.ugc459778887","folder":"tf","game":"Team Fortress","app_id":440,"player_count":0,"max_players":24,"Bots":0,"server_type":"Dedicated","server_os":"Linux","password":true,"vac":true,"version":"7961495","steam_id":85568392925397960,"keywords":["cp","nocrits","nodmgspread","uncletopia"],"game_id":440,"stv_port":27066,"stv_name":"Uncletopia | Sydney | 6 | Community | STV","players":null},{"server_id":49,"name":"Uncletopia | Warsaw | 1 | All Maps","name_short":"waw-1","host":"waw-1.pl.uncletopia.com","port":27015,"enabled":true,"region":"eu","cc":"pl","latitude":52.2297,"longitude":21.017532,"reserved":0,"last_update":"0001-01-01T00:00:00Z","name_a2s":"","protocol":0,"map":"","folder":"","game":"","app_id":0,"player_count":0,"max_players":0,"Bots":0,"server_type":"","server_os":"","password":false,"vac":false,"version":"","steam_id":0,"keywords":null,"game_id":0,"stv_port":0,"stv_name":"","players":null},{"server_id":50,"name":"Uncletopia | Warsaw | 2 | All Maps","name_short":"waw-2","host":"waw-1.pl.uncletopia.com","port":27025,"enabled":true,"region":"eu","cc":"pl","latitude":52.2297,"longitude":21.017532,"reserved":0,"last_update":"0001-01-01T00:00:00Z","name_a2s":"Uncletopia | Warsaw | 2 | All Maps","protocol":17,"map":"koth_lakeside_final","folder":"tf","game":"Team Fortress","app_id":440,"player_count":0,"max_players":24,"Bots":0,"server_type":"Dedicated","server_os":"Linux","password":true,"vac":true,"version":"7961495","steam_id":85568392925397851,"keywords":["cp","nocrits","nodmgspread","uncletopia"],"game_id":440,"stv_port":27026,"stv_name":"Uncletopia | Warsaw | 2 | All Maps | STV","players":null},{"server_id":51,"name":"Uncletopia | Warsaw | 3 | All Maps","name_short":"waw-3","host":"waw-1.pl.uncletopia.com","port":27035,"enabled":true,"region":"eu","cc":"pl","latitude":52.2297,"longitude":21.017532,"reserved":0,"last_update":"0001-01-01T00:00:00Z","name_a2s":"Uncletopia | Warsaw | 3 | All Maps","protocol":17,"map":"koth_highpass","folder":"tf","game":"Team Fortress","app_id":440,"player_count":0,"max_players":24,"Bots":0,"server_type":"Dedicated","server_os":"Linux","password":true,"vac":true,"version":"7961495","steam_id":85568392925397852,"keywords":["cp","nocrits","nodmgspread","uncletopia"],"game_id":440,"stv_port":27036,"stv_name":"Uncletopia | Warsaw | 3 | All Maps | STV","players":null},{"server_id":52,"name":"Uncletopia | Warsaw | 4 | All Maps","name_short":"waw-4","host":"waw-1.pl.uncletopia.com","port":27045,"enabled":true,"region":"eu","cc":"pl","latitude":52.2297,"longitude":21.017532,"reserved":0,"last_update":"0001-01-01T00:00:00Z","name_a2s":"Uncletopia | Warsaw | 4 | All Maps","protocol":17,"map":"koth_cascade","folder":"tf","game":"Team Fortress","app_id":440,"player_count":0,"max_players":24,"Bots":0,"server_type":"Dedicated","server_os":"Linux","password":true,"vac":true,"version":"7961495","steam_id":85568392925397853,"keywords":["cp","nocrits","nodmgspread","uncletopia"],"game_id":440,"stv_port":27046,"stv_name":"Uncletopia | Warsaw | 4 | All Maps | STV","players":null},{"server_id":53,"name":"Uncletopia | Warsaw | 5 | Stopwatch Beta","name_short":"waw-5","host":"waw-1.pl.uncletopia.com","port":27055,"enabled":true,"region":"eu","cc":"pl","latitude":52.2297,"longitude":21.017532,"reserved":0,"last_update":"0001-01-01T00:00:00Z","name_a2s":"Uncletopia | Warsaw | 5 | Stopwatch Beta","protocol":17,"map":"workshop/pl_summercoast_rc8e.ugc1761528829","folder":"tf","game":"Team Fortress","app_id":440,"player_count":0,"max_players":24,"Bots":0,"server_type":"Dedicated","server_os":"Linux","password":true,"vac":true,"version":"7961495","steam_id":85568392925397854,"keywords":["nocrits","nodmgspread","payload","uncletopia"],"game_id":440,"stv_port":27056,"stv_name":"Uncletopia | Warsaw | 5 | Stopwatch Beta | STV","players":null},{"server_id":54,"name":"Uncletopia | Warsaw | 6 | Community","name_short":"waw-6","host":"waw-1.pl.uncletopia.com","port":27065,"enabled":true,"region":"eu","cc":"pl","latitude":52.2297,"longitude":21.017532,"reserved":0,"last_update":"0001-01-01T00:00:00Z","name_a2s":"Uncletopia | Warsaw | 6 | Community","protocol":17,"map":"workshop/cp_reckoner_rc6.ugc674719999","folder":"tf","game":"Team Fortress","app_id":440,"player_count":0,"max_players":24,"Bots":0,"server_type":"Dedicated","server_os":"Linux","password":true,"vac":true,"version":"7961495","steam_id":85568392925397856,"keywords":["cp","nocrits","nodmgspread","uncletopia"],"game_id":440,"stv_port":27066,"stv_name":"Uncletopia | Warsaw | 6 | Community | STV","players":null}]}