{"status":true,"message":"","result":[{"server_id":9,"name":"Uncletopia | Atlanta | 1 | All Maps","name_short":"atl-1","host":"atl-1.us.uncletopia.com","port":27015,"enabled":true,"region":"us-east","cc":"us","latitude":33.753746,"longitude":-84.38633,"reserved":0,"last_update":"0001-01-01T00:00:00Z","name_a2s":"Uncletopia | Atlanta | 1 | All Maps","protocol":17,"map":"pl_pier","folder":"tf","game":"Team Fortress","app_id":440,"player_count":24,"max_players":24,"Bots":0,"server_type":"Dedicated","server_os":"Linux","password":true,"vac":true,"version":"7882260","steam_id":85568392924469982,"keywords":["nocrits","nodmgspread","payload","uncletopia"],"game_id":440,"stv_port":27016,"stv_name":"Uncletopia | Atlanta | 1 | All Maps | STV","players":[{"user_id":438,"name":"Lancer Fan Club","steam_id":76561198355495948,"connected_time":1236000000000,"state":"active","ping":52},{"user_id":446,"name":"boylover54","steam_id":76561199030726701,"connected_time":3000000000,"state":"spawning","ping":83},{"user_id":434,"name":"DerpFamous","steam_id":76561198046167888,"connected_time":1454000000000,"state":"active","ping":39},{"user_id":433,"name":"Kat","steam_id":76561199148294936,"connected_time":1611000000000,"state":"active","ping":51},{"user_id":412,"name":"Motorolª","steam_id":76561198358119669,"connected_time":2354000000000,"state":"active","ping":145},{"user_id":435,"name":"Urkel The Circle","steam_id":76561198397009880,"connected_time":1432000000000,"state":"active","ping":35},{"user_id":374,"name":"mini vegas stan","steam_id":76561198126029630,"connected_time":6298000000000,"state":"active","ping":80},{"user_id":393,"name":"gamerlegend47","steam_id":76561198122776598,"connected_time":4241000000000,"state":"active","ping":53},{"user_id":431,"name":"Toygar","steam_id":76561198023679830,"connected_time":1676000000000,"state":"active","ping":73},{"user_id":362,"name":"hi","steam_id":76561198809577048,"connected_time":7440000000000,"state":"active","ping":94},{"user_id":425,"name":"atom","steam_id":76561198800020753,"connected_time":2011000000000,"state":"active","ping":69},{"user_id":397,"name":"Heir","steam_id":76561198350772943,"connected_time":3689000000000,"state":"active","ping":99},{"user_id":428,"name":"BIG HOG","steam_id":76561198079923652,"connected_time":1807000000000,"state":"active","ping":64},{"user_id":423,"name":"drwwby","steam_id":76561198067741339,"connected_time":2154000000000,"state":"active","ping":72},{"user_id":406,"name":"MasAcqua","steam_id":76561198007402503,"connected_time":3414000000000,"state":"active","ping":156},{"user_id":440,"name":"scrotal recall","steam_id":76561198135945598,"connected_time":1195000000000,"state":"active","ping":67},{"user_id":422,"name":"Blitz3k","steam_id":76561198055758741,"connected_time":2248000000000,"state":"active","ping":56},{"user_id":420,"name":"Smiles","steam_id":76561198107197973,"connected_time":2270000000000,"state":"active","ping":76},{"user_id":407,"name":"Towns","steam_id":76561198984662863,"connected_time":3027000000000,"state":"active","ping":61},{"user_id":445,"name":"LarryjusttLarry","steam_id":76561198982810452,"connected_time":267000000000,"state":"active","ping":74},{"user_id":81,"name":"lil hog","steam_id":76561199230929836,"connected_time":36876000000000,"state":"active","ping":75},{"user_id":358,"name":"joe","steam_id":76561198045781320,"connected_time":8361000000000,"state":"active","ping":67},{"user_id":421,"name":"Galaxy","steam_id":76561198035134466,"connected_time":2254000000000,"state":"active","ping":78},{"user_id":442,"name":"Lucky","steam_id":76561198418262145,"connected_time":787000000000,"state":"active","ping":116}]},{"server_id":104,"name":"Uncletopia | Atlanta | 2 | All Maps","name_short":"atl-2","host":"atl-1.us.uncletopia.com","port":27025,"enabled":true,"region":"us-east","cc":"us","latitude":33.753746,"longitude":-84.38633,"reserved":0,"last_update":"0001-01-01T00:00:00Z","name_a2s":"Uncletopia | Atlanta | 2 | All Maps","protocol":17,"map":"pl_barnblitz","folder":"tf","game":"Team Fortress","app_id":440,"player_count":24,"max_players":24,"Bots":0,"server_type":"Dedicated","server_os":"Linux","password":true,"vac":true,"version":"7882260","steam_id":85568392924469983,"keywords":["nocrits","nodmgspread","payload","uncletopia"],"game_id":440,"stv_port":27026,"stv_name":"Uncletopia | Atlanta | 2 | All Maps | STV","players":[{"user_id":602,"name":"Box{Fear is for the weak}","steam_id":76561198259097323,"connected_time":645000000000,"state":"active","ping":52},{"user_id":558,"name":"Hanky Panky Nohow","steam_id":76561198143192512,"connected_time":2772000000000,"state":"active","ping":57},{"user_id":578,"name":"crabapples","steam_id":76561198075818655,"connected_time":1805000000000,"state":"active","ping":75},{"user_id":581,"name":"Sorrelyn","steam_id":76561198040851062,"connected_time":1624000000000,"state":"active","ping":46},{"user_id":605,"name":"Malevo","steam_id":76561198148606522,"connected_time":301000000000,"state":"active","ping":81},{"user_id":560,"name":"Koloco","steam_id":76561199022194660,"connected_time":2743000000000,"state":"active","ping":74},{"user_id":597,"name":"JadenMudge?","steam_id":76561199247522068,"connected_time":835000000000,"state":"active","ping":92},{"user_id":592,"name":"frying pan gaming","steam_id":76561199097866312,"connected_time":1053000000000,"state":"active","ping":98},{"user_id":594,"name":"Friendly dispenser scoot","steam_id":76561199130459740,"connected_time":920000000000,"state":"active","ping":48},{"user_id":517,"name":"jej","steam_id":76561198113758135,"connected_time":5114000000000,"state":"active","ping":114},{"user_id":606,"name":"Ekohtwo","steam_id":76561198067994868,"connected_time":261000000000,"state":"active","ping":85},{"user_id":584,"name":"Wormatoid","steam_id":76561199400536796,"connected_time":1549000000000,"state":"active","ping":62},{"user_id":579,"name":"g00bur","steam_id":76561197993622520,"connected_time":1772000000000,"state":"active","ping":68},{"user_id":557,"name":"The Third Degree Enjoyer","steam_id":76561198929936926,"connected_time":3074000000000,"state":"active","ping":66},{"user_id":604,"name":"sophia","steam_id":76561197971448104,"connected_time":623000000000,"state":"active","ping":56},{"user_id":570,"name":"Shrimply The Best","steam_id":76561199234166550,"connected_time":2439000000000,"state":"active","ping":69},{"user_id":575,"name":"Poo","steam_id":76561198265144507,"connected_time":2039000000000,"state":"active","ping":79},{"user_id":589,"name":"Notsocreative","steam_id":76561198236372202,"connected_time":1239000000000,"state":"active","ping":75},{"user_id":591,"name":"Mr Happy","steam_id":76561198067689328,"connected_time":1109000000000,"state":"active","ping":68},{"user_id":585,"name":"FoolproofPrawn9","steam_id":76561198142285416,"connected_time":1543000000000,"state":"active","ping":76},{"user_id":572,"name":"MasterWalrus","steam_id":76561198880164798,"connected_time":2427000000000,"state":"active","ping":76},{"user_id":595,"name":"Osrio","steam_id":76561198083428069,"connected_time":894000000000,"state":"active","ping":88},{"user_id":546,"name":"Ominous Whir","steam_id":76561198002851724,"connected_time":3489000000000,"state":"active","ping":58},{"user_id":599,"name":"izzydex","steam_id":76561199101531034,"connected_time":810000000000,"state":"active","ping":72}]},{"server_id":400,"name":"Uncletopia | Atlanta | 3 | Community","name_short":"atl-3","host":"atl-1.us.uncletopia.com","port":27035,"enabled":true,"region":"us-east","cc":"us","latitude":33.753746,"longitude":-84.38633,"reserved":0,"last_update":"0001-01-01T00:00:00Z","name_a2s":"Uncletopia | Atlanta | 3 | Community","protocol":17,"map":"workshop/koth_ramjam_rc1.ugc459778887","folder":"tf","game":"Team Fortress","app_id":440,"player_count":24,"max_players":24,"Bots":0,"server_type":"Dedicated","server_os":"Linux","password":true,"vac":true,"version":"7882260","steam_id":85568392924515187,"keywords":["cp","nocrits","nodmgspread","uncletopia"],"game_id":440,"stv_port":27036,"stv_name":"Uncletopia | Atlanta | 3 | Community | STV","players":[{"user_id":323,"name":"aoka","steam_id":76561198838294547,"connected_time":3102000000000,"state":"active","ping":98},{"user_id":344,"name":"Glunk-em Lures","steam_id":76561198066172810,"connected_time":1879000000000,"state":"active","ping":74},{"user_id":319,"name":"typhoon","steam_id":76561198165123178,"connected_time":3432000000000,"state":"active","ping":73},{"user_id":346,"name":"pnapl","steam_id":76561198065895995,"connected_time":1873000000000,"state":"active","ping":67},{"user_id":354,"name":"GiraffeMan","steam_id":76561198042104084,"connected_time":1723000000000,"state":"active","ping":62},{"user_id":373,"name":"caberknight tf2  (f2p-ish)","steam_id":76561199273882768,"connected_time":396000000000,"state":"active","ping":67},{"user_id":371,"name":"Linkuser","steam_id":76561198021956509,"connected_time":474000000000,"state":"active","ping":52},{"user_id":350,"name":"ishaboi","steam_id":76561198019246430,"connected_time":1819000000000,"state":"active","ping":83},{"user_id":249,"name":"Mythius","steam_id":76561198401392472,"connected_time":7185000000000,"state":"active","ping":75},{"user_id":359,"name":"I cum when tazed","steam_id":76561198085813708,"connected_time":1253000000000,"state":"active","ping":56},{"user_id":364,"name":"ACrispSlimJim","steam_id":76561198145913920,"connected_time":725000000000,"state":"active","ping":60},{"user_id":368,"name":"Kidzbopsicle","steam_id":76561198047660691,"connected_time":674000000000,"state":"active","ping":60},{"user_id":377,"name":"Halibard","steam_id":76561198011239659,"connected_time":195000000000,"state":"active","ping":97},{"user_id":365,"name":"DJ Absolute Garbage","steam_id":76561198068000747,"connected_time":723000000000,"state":"active","ping":70},{"user_id":378,"name":"adolf tickler","steam_id":76561198163120788,"connected_time":162000000000,"state":"active","ping":85},{"user_id":375,"name":"DR.JONES","steam_id":76561197999709845,"connected_time":277000000000,"state":"active","ping":62},{"user_id":367,"name":"Mediocre Gaming","steam_id":76561199230467980,"connected_time":695000000000,"state":"active","ping":104},{"user_id":263,"name":"★ dane","steam_id":76561198354081121,"connected_time":6673000000000,"state":"active","ping":79},{"user_id":256,"name":"Aegis","steam_id":76561198272052750,"connected_time":7046000000000,"state":"active","ping":74},{"user_id":348,"name":"Derplish","steam_id":76561198831714443,"connected_time":1841000000000,"state":"active","ping":84},{"user_id":374,"name":"THE SUN","steam_id":76561198357428939,"connected_time":396000000000,"state":"active","ping":63},{"user_id":362,"name":"mkl","steam_id":76561197986401685,"connected_time":1193000000000,"state":"active","ping":89},{"user_id":376,"name":"DURIAN","steam_id":76561198357365674,"connected_time":217000000000,"state":"active","ping":112},{"user_id":372,"name":"Hipp-Dip","steam_id":76561199027874633,"connected_time":453000000000,"state":"active","ping":64}]},{"server_id":401,"name":"Uncletopia | Atlanta | 4 | No Payload","name_short":"atl-4","host":"atl-1.us.uncletopia.com","port":27045,"enabled":true,"region":"us-east","cc":"us","latitude":33.753746,"longitude":-84.38633,"reserved":0,"last_update":"0001-01-01T00:00:00Z","name_a2s":"","protocol":0,"map":"","folder":"","game":"","app_id":0,"player_count":0,"max_players":0,"Bots":0,"server_type":"","server_os":"","password":false,"vac":false,"version":"","steam_id":0,"keywords":null,"game_id":0,"stv_port":0,"stv_name":"","players":null},{"server_id":2,"name":"Uncletopia | Chicago | 1 | All Maps","name_short":"chi-1","host":"chi-1.us.uncletopia.com","port":27015,"enabled":true,"region":"us-central","cc":"us","latitude":41.881832,"longitude":-87.62318,"reserved":0,"last_update":"0001-01-01T00:00:00Z","name_a2s":"Uncletopia | Chicago | 1 | All Maps","protocol":17,"map":"pl_snowycoast","folder":"tf","game":"Team Fortress","app_id":440,"player_count":24,"max_players":24,"Bots":0,"server_type":"Dedicated","server_os":"Linux","password":true,"vac":true,"version":"7882260","steam_id":85568392924469984,"keywords":["nocrits","nodmgspread","payload","uncletopia"],"game_id":440,"stv_port":27016,"stv_name":"Uncletopia | Chicago | 1 | All Maps | STV","players":[{"user_id":496,"name":"Ras","steam_id":76561198123546775,"connected_time":9284000000000,"state":"active","ping":60},{"user_id":598,"name":"Renegade","steam_id":76561198066847055,"connected_time":813000000000,"state":"active","ping":55},{"user_id":553,"name":"Astoriae!","steam_id":76561199090168858,"connected_time":4542000000000,"state":"active","ping":66},{"user_id":597,"name":"wiiblob","steam_id":76561198109106242,"connected_time":896000000000,"state":"active","ping":137},{"user_id":578,"name":"Undertime Slopper","steam_id":76561198396789061,"connected_time":2742000000000,"state":"active","ping":78},{"user_id":604,"name":"Salt","steam_id":76561198418001135,"connected_time":215000000000,"state":"active","ping":61},{"user_id":603,"name":"DinkleBerg","steam_id":76561198891626233,"connected_time":331000000000,"state":"active","ping":57},{"user_id":571,"name":"LeadHickory","steam_id":76561198219756521,"connected_time":3330000000000,"state":"active","ping":84},{"user_id":530,"name":"Gay Weed \u003c3","steam_id":76561198158240142,"connected_time":7034000000000,"state":"active","ping":66},{"user_id":601,"name":"Adam (Cursed Confetti Creature)","steam_id":76561198317690197,"connected_time":606000000000,"state":"active","ping":46},{"user_id":567,"name":"bruiseraaron","steam_id":76561198020092380,"connected_time":3790000000000,"state":"active","ping":55},{"user_id":564,"name":"daffodil","steam_id":76561198049480053,"connected_time":4123000000000,"state":"active","ping":58},{"user_id":599,"name":"Gnarly Shark Bite","steam_id":76561198004058342,"connected_time":791000000000,"state":"active","ping":80},{"user_id":566,"name":"Mega","steam_id":76561198235311760,"connected_time":4016000000000,"state":"active","ping":56},{"user_id":606,"name":"badboy6996","steam_id":76561197969386201,"connected_time":156000000000,"state":"active","ping":55},{"user_id":585,"name":"Black Rose Oncore","steam_id":76561198040489960,"connected_time":2575000000000,"state":"active","ping":74},{"user_id":572,"name":"Owen","steam_id":76561198025446908,"connected_time":3324000000000,"state":"active","ping":64},{"user_id":575,"name":"Sone","steam_id":76561198069601032,"connected_time":2910000000000,"state":"active","ping":80},{"user_id":562,"name":"❤[CandySwirl]❤","steam_id":76561198817361963,"connected_time":4398000000000,"state":"active","ping":110},{"user_id":584,"name":"CHEEKY EUNUCH","steam_id":76561198990825232,"connected_time":2587000000000,"state":"active","ping":61},{"user_id":589,"name":"Brown_Dream","steam_id":76561198975766145,"connected_time":2336000000000,"state":"active","ping":79},{"user_id":592,"name":"jubattz","steam_id":76561198044874072,"connected_time":1999000000000,"state":"active","ping":59},{"user_id":551,"name":"StonedGiant","steam_id":76561197984386932,"connected_time":4968000000000,"state":"active","ping":57},{"user_id":593,"name":"Dr_Spek","steam_id":76561198128667701,"connected_time":1999000000000,"state":"active","ping":62}]},{"server_id":106,"name":"Uncletopia | Chicago | 2 | All Maps","name_short":"chi-2","host":"chi-1.us.uncletopia.com","port":27025,"enabled":true,"region":"us-central","cc":"us","latitude":41.881832,"longitude":-87.62318,"reserved":0,"last_update":"0001-01-01T00:00:00Z","name_a2s":"Uncletopia | Chicago | 2 | All Maps","protocol":17,"map":"pl_borneo","folder":"tf","game":"Team Fortress","app_id":440,"player_count":24,"max_players":24,"Bots":0,"server_type":"Dedicated","server_os":"Linux","password":true,"vac":true,"version":"7882260","steam_id":85568392924469985,"keywords":["nocrits","nodmgspread","payload","uncletopia"],"game_id":440,"stv_port":27026,"stv_name":"Uncletopia | Chicago | 2 | All Maps | STV","players":[{"user_id":482,"name":"Also Known As Assteeth","steam_id":76561198049837377,"connected_time":3407000000000,"state":"active","ping":47},{"user_id":490,"name":"Zoddiee","steam_id":76561198042399764,"connected_time":2566000000000,"state":"active","ping":83},{"user_id":516,"name":"cow","steam_id":76561198117331762,"connected_time":932000000000,"state":"active","ping":45},{"user_id":538,"name":"Walla","steam_id":76561198103379757,"connected_time":14000000000,"state":"active","ping":45},{"user_id":529,"name":"doctor sex 3 - the cum chemist","steam_id":76561199079295243,"connected_time":591000000000,"state":"active","ping":78},{"user_id":530,"name":"☆♡ • ° кilleƗƗe ° \ufffd\ufffd","steam_id":76561198002521217,"connected_time":510000000000,"state":"active","ping":71},{"user_id":518,"name":"Brian","steam_id":76561198077756206,"connected_time":827000000000,"state":"active","ping":132},{"user_id":507,"name":"DarthEthanBoy","steam_id":76561198441643581,"connected_time":1644000000000,"state":"active","ping":72},{"user_id":496,"name":"green bean","steam_id":76561198113099204,"connected_time":2495000000000,"state":"active","ping":76},{"user_id":524,"name":"Johnny Lawrence #JohnnyMaxxing","steam_id":76561199367141671,"connected_time":651000000000,"state":"active","ping":60},{"user_id":508,"name":"FWWM","steam_id":76561198387852168,"connected_time":1478000000000,"state":"active","ping":55},{"user_id":503,"name":"WhiteRabbit","steam_id":76561198027579538,"connected_time":2251000000000,"state":"active","ping":99},{"user_id":498,"name":"Johnny McTony","steam_id":76561198450316656,"connected_time":2365000000000,"state":"active","ping":117},{"user_id":536,"name":"Cedric","steam_id":76561198072090580,"connected_time":212000000000,"state":"active","ping":95},{"user_id":487,"name":"griddyhitter72","steam_id":76561198213435803,"connected_time":2751000000000,"state":"active","ping":48},{"user_id":525,"name":"Market Pliers","steam_id":76561199012453799,"connected_time":628000000000,"state":"active","ping":98},{"user_id":475,"name":"Florence Jenkins","steam_id":76561198023894049,"connected_time":3761000000000,"state":"active","ping":98},{"user_id":535,"name":"oxygen user","steam_id":76561199111975528,"connected_time":240000000000,"state":"active","ping":103},{"user_id":509,"name":"THEDINKY","steam_id":76561198190077399,"connected_time":1257000000000,"state":"active","ping":62},{"user_id":489,"name":"Gamnic","steam_id":76561198264963731,"connected_time":2586000000000,"state":"active","ping":73},{"user_id":488,"name":"Grognak","steam_id":76561198044710527,"connected_time":2733000000000,"state":"active","ping":87},{"user_id":500,"name":"DragonHunter994","steam_id":76561199076203907,"connected_time":2356000000000,"state":"active","ping":83},{"user_id":533,"name":"Big Yoshi","steam_id":76561199160576376,"connected_time":356000000000,"state":"active","ping":116},{"user_id":528,"name":"I NEED TWELVE THOUSAND DOLLARS","steam_id":76561198255705632,"connected_time":612000000000,"state":"active","ping":67}]},{"server_id":402,"name":"Uncletopia | Chicago | 3 | All Maps","name_short":"chi-3","host":"chi-1.us.uncletopia.com","port":27035,"enabled":true,"region":"us-central","cc":"us","latitude":41.881832,"longitude":-87.62318,"reserved":0,"last_update":"0001-01-01T00:00:00Z","name_a2s":"Uncletopia | Chicago | 3 | All Maps","protocol":17,"map":"pl_upward","folder":"tf","game":"Team Fortress","app_id":440,"player_count":24,"max_players":24,"Bots":0,"server_type":"Dedicated","server_os":"Linux","password":true,"vac":true,"version":"7882260","steam_id":85568392924515191,"keywords":["nocrits","nodmgspread","payload","uncletopia"],"game_id":440,"stv_port":27036,"stv_name":"Uncletopia | Chicago | 3 | All Maps | STV","players":[{"user_id":492,"name":"Addy \u003c3","steam_id":76561198045819723,"connected_time":1099000000000,"state":"active","ping":85},{"user_id":474,"name":"Rat-ortastic","steam_id":76561198105613110,"connected_time":2094000000000,"state":"active","ping":59},{"user_id":470,"name":"Purple potato","steam_id":76561198932276149,"connected_time":2601000000000,"state":"active","ping":123},{"user_id":497,"name":"Herr Müller","steam_id":76561198064876829,"connected_time":113000000000,"state":"active","ping":98},{"user_id":496,"name":"Coke No Cola","steam_id":76561199083343858,"connected_time":452000000000,"state":"active","ping":86},{"user_id":440,"name":"i did it","steam_id":76561198277163301,"connected_time":4270000000000,"state":"active","ping":76},{"user_id":444,"name":"Nicolas Cage Kisses Mace Windu","steam_id":76561198046127710,"connected_time":3974000000000,"state":"active","ping":59},{"user_id":475,"name":"poopfart420","steam_id":76561198337692867,"connected_time":2071000000000,"state":"active","ping":67},{"user_id":486,"name":"_Lusty_","steam_id":76561198876948142,"connected_time":1494000000000,"state":"active","ping":60},{"user_id":461,"name":"Kitt(eh) ∑:3","steam_id":76561198110858518,"connected_time":3201000000000,"state":"active","ping":59},{"user_id":457,"name":"ATLS 1 | Krissy","steam_id":76561197960848174,"connected_time":3717000000000,"state":"active","ping":67},{"user_id":447,"name":"AveraGeo","steam_id":76561198216949631,"connected_time":3960000000000,"state":"active","ping":82},{"user_id":495,"name":"Reim","steam_id":76561198131572527,"connected_time":477000000000,"state":"active","ping":75},{"user_id":480,"name":"C papi","steam_id":76561198027779564,"connected_time":1849000000000,"state":"active","ping":55},{"user_id":448,"name":"Magister Sexo","steam_id":76561199184659929,"connected_time":3955000000000,"state":"active","ping":152},{"user_id":481,"name":"daemon","steam_id":76561198001541433,"connected_time":1779000000000,"state":"active","ping":60},{"user_id":498,"name":"cheenis","steam_id":76561198053523136,"connected_time":69000000000,"state":"active","ping":62},{"user_id":327,"name":"seldom","steam_id":76561198166193756,"connected_time":13737000000000,"state":"active","ping":55},{"user_id":488,"name":"Ejaculation Zach","steam_id":76561198203765200,"connected_time":1315000000000,"state":"active","ping":57},{"user_id":408,"name":"ratscallion","steam_id":76561198188722751,"connected_time":7575000000000,"state":"active","ping":100},{"user_id":489,"name":"Kelpy G","steam_id":76561198105330587,"connected_time":1253000000000,"state":"active","ping":97},{"user_id":494,"name":"Xx_PR3TTY_R4VE_G!R1_xX","steam_id":76561199059016425,"connected_time":616000000000,"state":"active","ping":74},{"user_id":491,"name":"macroplastics","steam_id":76561198077272494,"connected_time":1217000000000,"state":"active","ping":53},{"user_id":502,"name":"prettysureitschris","steam_id":76561198052648734,"connected_time":21000000000,"state":"spawning","ping":101}]},{"server_id":403,"name":"Uncletopia | Chicago | 4 | All Maps","name_short":"chi-4","host":"chi-1.us.uncletopia.com","port":27045,"enabled":true,"region":"us-central","cc":"us","latitude":41.881832,"longitude":-87.62318,"reserved":0,"last_update":"0001-01-01T00:00:00Z","name_a2s":"Uncletopia | Chicago | 4 | All Maps","protocol":17,"map":"cp_well","folder":"tf","game":"Team Fortress","app_id":440,"player_count":24,"max_players":24,"Bots":0,"server_type":"Dedicated","server_os":"Linux","password":true,"vac":true,"version":"7882260","steam_id":85568392924515193,"keywords":["cp","nocrits","nodmgspread","uncletopia"],"game_id":440,"stv_port":27046,"stv_name":"Uncletopia | Chicago | 4 | All Maps | STV","players":[{"user_id":360,"name":"123","steam_id":76561198116821551,"connected_time":211000000000,"state":"active","ping":59},{"user_id":292,"name":"Gamba","steam_id":76561198069264650,"connected_time":3704000000000,"state":"active","ping":60},{"user_id":244,"name":"gaming elliptical","steam_id":76561198013456569,"connected_time":6531000000000,"state":"active","ping":45},{"user_id":328,"name":"evilstuntman","steam_id":76561198056911537,"connected_time":1424000000000,"state":"active","ping":58},{"user_id":309,"name":"thecal","steam_id":76561198307893384,"connected_time":2543000000000,"state":"active","ping":80},{"user_id":305,"name":"hud_saytext_time 0","steam_id":76561198010327228,"connected_time":3051000000000,"state":"active","ping":180},{"user_id":332,"name":"King Col","steam_id":76561198033384990,"connected_time":940000000000,"state":"active","ping":60},{"user_id":341,"name":"oberon","steam_id":76561198305824514,"connected_time":752000000000,"state":"active","ping":45},{"user_id":320,"name":"goose","steam_id":76561198367551668,"connected_time":2286000000000,"state":"active","ping":50},{"user_id":318,"name":"Tahm Selleck","steam_id":76561198138083134,"connected_time":2365000000000,"state":"active","ping":79},{"user_id":353,"name":"The Law","steam_id":76561198080974454,"connected_time":469000000000,"state":"active","ping":61},{"user_id":343,"name":"Margo_Rae","steam_id":76561198035046430,"connected_time":690000000000,"state":"active","ping":85},{"user_id":351,"name":"Gustavo Fridge","steam_id":76561198114370407,"connected_time":506000000000,"state":"active","ping":103},{"user_id":306,"name":"Fever Dreams","steam_id":76561198116614620,"connected_time":2899000000000,"state":"active","ping":76},{"user_id":344,"name":"xkcd.hoverboard","steam_id":76561199079595193,"connected_time":670000000000,"state":"active","ping":110},{"user_id":347,"name":"Pine","steam_id":76561198165139404,"connected_time":600000000000,"state":"active","ping":112},{"user_id":352,"name":"Seagull","steam_id":76561198882130134,"connected_time":480000000000,"state":"active","ping":70},{"user_id":362,"name":"threethree","steam_id":76561198177354155,"connected_time":201000000000,"state":"active","ping":62},{"user_id":357,"name":"CrossHandedEddy","steam_id":76561198058372984,"connected_time":380000000000,"state":"active","ping":77},{"user_id":356,"name":"Mika","steam_id":76561198057725524,"connected_time":409000000000,"state":"active","ping":151},{"user_id":363,"name":"The Poop Dealer","steam_id":76561198141198352,"connected_time":160000000000,"state":"active","ping":44},{"user_id":303,"name":"Fobby #Savetf2","steam_id":76561198047681469,"connected_time":3255000000000,"state":"active","ping":79},{"user_id":317,"name":"Lost Arachnid","steam_id":76561199012943912,"connected_time":2470000000000,"state":"active","ping":69},{"user_id":330,"name":"Yada #savetf2","steam_id":76561199103981181,"connected_time":1180000000000,"state":"active","ping":74}]},{"server_id":36,"name":"Uncletopia | Chicago | 5 | All Maps","name_short":"chi-5","host":"chi-2.us.uncletopia.com","port":27015,"enabled":true,"region":"us-central","cc":"us","latitude":41.881832,"longitude":-87.62318,"reserved":0,"last_update":"0001-01-01T00:00:00Z","name_a2s":"Uncletopia | Chicago | 5 | All Maps","protocol":17,"map":"pl_badwater","folder":"tf","game":"Team Fortress","app_id":440,"player_count":24,"max_players":24,"Bots":0,"server_type":"Dedicated","server_os":"Linux","password":true,"vac":true,"version":"7882260","steam_id":85568392924866362,"keywords":["nocrits","nodmgspread","payload","uncletopia"],"game_id":440,"stv_port":27016,"stv_name":"Uncletopia | Chicago | 5 | All Maps | STV","players":[{"user_id":624,"name":"Null","steam_id":76561198062791227,"connected_time":1571000000000,"state":"active","ping":61},{"user_id":604,"name":"Gold_S4","steam_id":76561199082435571,"connected_time":3426000000000,"state":"active","ping":90},{"user_id":636,"name":"jrdoran","steam_id":76561197984753094,"connected_time":624000000000,"state":"active","ping":57},{"user_id":610,"name":"Wulf","steam_id":76561198006072568,"connected_time":3063000000000,"state":"active","ping":103},{"user_id":581,"name":"qjkxkcd","steam_id":76561198035922283,"connected_time":4677000000000,"state":"active","ping":67},{"user_id":637,"name":"Soup","steam_id":76561198079000665,"connected_time":609000000000,"state":"active","ping":56},{"user_id":640,"name":"Drilly22","steam_id":76561198068838338,"connected_time":529000000000,"state":"active","ping":88},{"user_id":626,"name":"Priest006","steam_id":76561198835730115,"connected_time":1519000000000,"state":"active","ping":121},{"user_id":627,"name":"Sunvaar","steam_id":76561198852679851,"connected_time":1492000000000,"state":"active","ping":74},{"user_id":628,"name":"Darling","steam_id":76561198127525888,"connected_time":1487000000000,"state":"active","ping":79},{"user_id":619,"name":"MrMan","steam_id":76561198029343598,"connected_time":1829000000000,"state":"active","ping":61},{"user_id":635,"name":"Inkmix(boopberrylover)","steam_id":76561198854070384,"connected_time":800000000000,"state":"active","ping":113},{"user_id":617,"name":"moe","steam_id":76561198929586245,"connected_time":2416000000000,"state":"active","ping":93},{"user_id":629,"name":"BowlOfSoup","steam_id":76561198000849668,"connected_time":1482000000000,"state":"active","ping":87},{"user_id":605,"name":"BoopBerry","steam_id":76561198871571711,"connected_time":3423000000000,"state":"active","ping":62},{"user_id":630,"name":"DextrousMonk743","steam_id":76561199177141396,"connected_time":1480000000000,"state":"active","ping":82},{"user_id":620,"name":"dr peppah chug!","steam_id":76561198068835693,"connected_time":1776000000000,"state":"active","ping":91},{"user_id":609,"name":"i be in situations","steam_id":76561198354473513,"connected_time":3143000000000,"state":"active","ping":53},{"user_id":600,"name":"thepokeyen","steam_id":76561198236847572,"connected_time":3678000000000,"state":"active","ping":64},{"user_id":598,"name":"-","steam_id":76561198057717934,"connected_time":4079000000000,"state":"active","ping":110},{"user_id":615,"name":"HOTA","steam_id":76561199002778841,"connected_time":2754000000000,"state":"active","ping":72},{"user_id":631,"name":"smash2tec","steam_id":76561199171564052,"connected_time":1442000000000,"state":"active","ping":101},{"user_id":632,"name":"Possum Witch","steam_id":76561199119125112,"connected_time":1417000000000,"state":"active","ping":49},{"user_id":638,"name":"codgergubbins","steam_id":76561197972601902,"connected_time":607000000000,"state":"active","ping":88}]},{"server_id":37,"name":"Uncletopia | Chicago | 6 | All Maps","name_short":"chi-6","host":"chi-2.us.uncletopia.com","port":27025,"enabled":true,"region":"us-central","cc":"us","latitude":41.881832,"longitude":-87.62318,"reserved":0,"last_update":"0001-01-01T00:00:00Z","name_a2s":"Uncletopia | Chicago | 6 | All Maps","protocol":17,"map":"koth_viaduct","folder":"tf","game":"Team Fortress","app_id":440,"player_count":24,"max_players":24,"Bots":0,"server_type":"Dedicated","server_os":"Linux","password":true,"vac":true,"version":"7882260","steam_id":85568392924866363,"keywords":["cp","nocrits","nodmgspread","uncletopia"],"game_id":440,"stv_port":27026,"stv_name":"Uncletopia | Chicago | 6 | All Maps | STV","players":[{"user_id":394,"name":"k1tty","steam_id":76561198869348268,"connected_time":105000000000,"state":"active","ping":102},{"user_id":387,"name":"aiming with drawing tablet","steam_id":76561198397662124,"connected_time":1123000000000,"state":"active","ping":80},{"user_id":398,"name":"frank","steam_id":76561198137777483,"connected_time":48000000000,"state":"active","ping":62},{"user_id":401,"name":"jaz","steam_id":76561197960399123,"connected_time":24000000000,"state":"active","ping":135},{"user_id":395,"name":"PowderLinux","steam_id":76561198876653083,"connected_time":83000000000,"state":"active","ping":54},{"user_id":388,"name":"Velvet Reverb","steam_id":76561198017691029,"connected_time":936000000000,"state":"active","ping":59},{"user_id":353,"name":"ror! smoking packs","steam_id":76561198021227843,"connected_time":2933000000000,"state":"active","ping":53},{"user_id":349,"name":"Mecha","steam_id":76561198014927379,"connected_time":3824000000000,"state":"active","ping":71},{"user_id":384,"name":"the nuisance","steam_id":76561198396326793,"connected_time":1265000000000,"state":"active","ping":95},{"user_id":360,"name":"blitzkriiegi","steam_id":76561198200944766,"connected_time":2404000000000,"state":"active","ping":54},{"user_id":392,"name":"BigPimpin","steam_id":76561198119549348,"connected_time":552000000000,"state":"active","ping":76},{"user_id":385,"name":"JellyParrot","steam_id":76561199190990163,"connected_time":1253000000000,"state":"active","ping":70},{"user_id":337,"name":"Menacing Pile of Frogs","steam_id":76561198360134800,"connected_time":4224000000000,"state":"active","ping":72},{"user_id":365,"name":"A Shiny Meat Bicycle","steam_id":76561198358757709,"connected_time":2278000000000,"state":"active","ping":92},{"user_id":390,"name":"Dzhoshua","steam_id":76561198071915251,"connected_time":778000000000,"state":"active","ping":62},{"user_id":348,"name":"Weebmcgee","steam_id":76561198081231557,"connected_time":3858000000000,"state":"active","ping":65},{"user_id":397,"name":"Empty","steam_id":76561198289696924,"connected_time":77000000000,"state":"active","ping":107},{"user_id":366,"name":"BRICKHOUSE BILL","steam_id":76561198799403828,"connected_time":2276000000000,"state":"active","ping":55},{"user_id":399,"name":"Socioeconomic Factors","steam_id":76561197965022076,"connected_time":47000000000,"state":"active","ping":58},{"user_id":383,"name":"AADDAAMM","steam_id":76561198068584852,"connected_time":1287000000000,"state":"active","ping":82},{"user_id":379,"name":"Icnfaun","steam_id":76561198131845361,"connected_time":1638000000000,"state":"active","ping":69},{"user_id":400,"name":"The Bateman","steam_id":76561199130975542,"connected_time":39000000000,"state":"active","ping":60},{"user_id":373,"name":"THGAwesome","steam_id":76561198162847218,"connected_time":2042000000000,"state":"active","ping":92},{"user_id":403,"name":"+","steam_id":76561199389469445,"connected_time":17000000000,"state":"spawning","ping":83}]},{"server_id":38,"name":"Uncletopia | Chicago | 7 | Stopwatch Beta","name_short":"chi-7","host":"chi-2.us.uncletopia.com","port":27035,"enabled":true,"region":"us-central","cc":"us","latitude":41.881832,"longitude":-87.62318,"reserved":0,"last_update":"0001-01-01T00:00:00Z","name_a2s":"Uncletopia | Chicago | 7 | Stopwatch Beta","protocol":17,"map":"pl_borneo","folder":"tf","game":"Team Fortress","app_id":440,"player_count":17,"max_players":24,"Bots":0,"server_type":"Dedicated","server_os":"Linux","password":true,"vac":true,"version":"7882260","steam_id":85568392924866364,"keywords":["nocrits","nodmgspread","payload","uncletopia"],"game_id":440,"stv_port":27036,"stv_name":"Uncletopia | Chicago | 7 | Stopwatch Beta | STV","players":[{"user_id":247,"name":"orionEDM","steam_id":76561198986145301,"connected_time":379000000000,"state":"active","ping":63},{"user_id":223,"name":"Recursive Gamer","steam_id":76561198042102952,"connected_time":1303000000000,"state":"active","ping":59},{"user_id":220,"name":"TechnoFlare","steam_id":76561198067720081,"connected_time":1681000000000,"state":"active","ping":85},{"user_id":225,"name":"thigh enjoyer","steam_id":76561198088003193,"connected_time":1189000000000,"state":"active","ping":120},{"user_id":241,"name":"ASS THROTTLE VAPORIZE","steam_id":76561198132954196,"connected_time":697000000000,"state":"active","ping":56},{"user_id":251,"name":"don't pursue lu bu","steam_id":76561198105515914,"connected_time":36000000000,"state":"active","ping":53},{"user_id":119,"name":"Takyon","steam_id":76561198172075186,"connected_time":8416000000000,"state":"active","ping":165},{"user_id":226,"name":"OverPowered64","steam_id":76561198291027287,"connected_time":1172000000000,"state":"active","ping":79},{"user_id":248,"name":"Bottle","steam_id":76561198044031558,"connected_time":218000000000,"state":"active","ping":61},{"user_id":239,"name":"Paste","steam_id":76561198085388962,"connected_time":765000000000,"state":"active","ping":41},{"user_id":213,"name":"SheppoBeppo","steam_id":76561198133734515,"connected_time":2118000000000,"state":"active","ping":62},{"user_id":122,"name":"Iceman10a","steam_id":76561198171922098,"connected_time":8367000000000,"state":"active","ping":115},{"user_id":244,"name":"Deedestroyer","steam_id":76561197996072506,"connected_time":527000000000,"state":"active","ping":95},{"user_id":230,"name":"Amburrr","steam_id":76561198083407257,"connected_time":1112000000000,"state":"active","ping":82},{"user_id":246,"name":"chiswola","steam_id":76561198046920142,"connected_time":480000000000,"state":"active","ping":73},{"user_id":216,"name":"t","steam_id":76561198175988929,"connected_time":2012000000000,"state":"active","ping":79},{"user_id":242,"name":"nuclear bomb plans (used)","steam_id":76561198849316769,"connected_time":660000000000,"state":"active","ping":44}]},{"server_id":39,"name":"Uncletopia | Chicago | 8 | Community","name_short":"chi-8","host":"chi-2.us.uncletopia.com","port":27045,"enabled":true,"region":"us-central","cc":"us","latitude":41.881832,"longitude":-87.62318,"reserved":0,"last_update":"0001-01-01T00:00:00Z","name_a2s":"Uncletopia | Chicago | 8 | Community","protocol":17,"map":"workshop/pl_highwood_b13.ugc1769496557","folder":"tf","game":"Team Fortress","app_id":440,"player_count":24,"max_players":24,"Bots":0,"server_type":"Dedicated","server_os":"Linux","password":true,"vac":true,"version":"7882260","steam_id":85568392924866365,"keywords":["nocrits","nodmgspread","payload","uncletopia"],"game_id":440,"stv_port":27046,"stv_name":"Uncletopia | Chicago | 8 | Community | STV","players":[{"user_id":288,"name":"That_shroomy_boi","steam_id":76561199107324153,"connected_time":997000000000,"state":"active","ping":84},{"user_id":203,"name":"ZofoJackson","steam_id":76561197998366861,"connected_time":7495000000000,"state":"active","ping":61},{"user_id":284,"name":"Lettuce Dog","steam_id":76561198083606792,"connected_time":1056000000000,"state":"active","ping":101},{"user_id":285,"name":"truezyoungblood","steam_id":76561198044589114,"connected_time":1053000000000,"state":"active","ping":71},{"user_id":289,"name":"craven","steam_id":76561198088191503,"connected_time":994000000000,"state":"active","ping":77},{"user_id":296,"name":"Cow Goes Moo","steam_id":76561199472443729,"connected_time":496000000000,"state":"active","ping":83},{"user_id":298,"name":"PEPSI POWERED MAN","steam_id":76561198362668431,"connected_time":248000000000,"state":"active","ping":115},{"user_id":263,"name":"Zhenaj","steam_id":76561199209016136,"connected_time":2275000000000,"state":"active","ping":48},{"user_id":297,"name":"Mike.Mauro","steam_id":76561198072542619,"connected_time":463000000000,"state":"active","ping":66},{"user_id":276,"name":"cheese72","steam_id":76561198164000601,"connected_time":1546000000000,"state":"active","ping":71},{"user_id":264,"name":"Smoothbrain","steam_id":76561198154518912,"connected_time":2230000000000,"state":"active","ping":73},{"user_id":265,"name":"Joe Biden Buttstalker","steam_id":76561198056331193,"connected_time":2148000000000,"state":"active","ping":107},{"user_id":279,"name":"Honeybunch","steam_id":76561198014850580,"connected_time":1361000000000,"state":"active","ping":87},{"user_id":280,"name":"JimGrimm","steam_id":76561198044573050,"connected_time":1298000000000,"state":"active","ping":79},{"user_id":266,"name":"TheSecretNewbie","steam_id":76561198194671218,"connected_time":2133000000000,"state":"active","ping":59},{"user_id":272,"name":"emily","steam_id":76561198051872256,"connected_time":1798000000000,"state":"active","ping":88},{"user_id":291,"name":"BUSY","steam_id":76561198047532250,"connected_time":971000000000,"state":"active","ping":94},{"user_id":283,"name":"frequent urinator","steam_id":76561198084335030,"connected_time":1089000000000,"state":"active","ping":80},{"user_id":256,"name":"dankman","steam_id":76561198977064186,"connected_time":2789000000000,"state":"active","ping":54},{"user_id":257,"name":"SKForm","steam_id":76561198381500437,"connected_time":2772000000000,"state":"active","ping":61},{"user_id":269,"name":"Token","steam_id":76561198067814426,"connected_time":1927000000000,"state":"active","ping":85},{"user_id":274,"name":"NarcolepticRock","steam_id":76561199123103642,"connected_time":1704000000000,"state":"active","ping":91},{"user_id":290,"name":"86","steam_id":76561198843258044,"connected_time":982000000000,"state":"active","ping":68},{"user_id":292,"name":"WAAAAAAHRIO!!!","steam_id":76561198355576763,"connected_time":914000000000,"state":"active","ping":99}]},{"server_id":8,"name":"Uncletopia | Dallas | 1 | All Maps","name_short":"dal-1","host":"dal-1.us.uncletopia.com","port":27015,"enabled":true,"region":"us-central","cc":"us","latitude":32.779167,"longitude":-96.80889,"reserved":0,"last_update":"0001-01-01T00:00:00Z","name_a2s":"Uncletopia | Dallas | 1 | All Maps","protocol":17,"map":"pl_pier","folder":"tf","game":"Team Fortress","app_id":440,"player_count":24,"max_players":24,"Bots":0,"server_type":"Dedicated","server_os":"Linux","password":true,"vac":true,"version":"7882260","steam_id":85568392924469986,"keywords":["nocrits","nodmgspread","payload","uncletopia"],"game_id":440,"stv_port":27016,"stv_name":"Uncletopia | Dallas | 1 | All Maps | STV","players":[{"user_id":606,"name":"Astro","steam_id":76561198035676106,"connected_time":211000000000,"state":"active","ping":66},{"user_id":594,"name":"A Mexican Guy","steam_id":76561198324944145,"connected_time":1025000000000,"state":"active","ping":72},{"user_id":590,"name":"leopardo123atl","steam_id":76561198872648238,"connected_time":1120000000000,"state":"active","ping":80},{"user_id":591,"name":"Omarmeister","steam_id":76561198088369586,"connected_time":1078000000000,"state":"active","ping":90},{"user_id":575,"name":"milk master","steam_id":76561198127851014,"connected_time":2441000000000,"state":"active","ping":45},{"user_id":395,"name":"Pyrite","steam_id":76561198158817820,"connected_time":17062000000000,"state":"active","ping":70},{"user_id":577,"name":"TECHNONEKO","steam_id":76561198094040998,"connected_time":1887000000000,"state":"active","ping":72},{"user_id":548,"name":"spacetoven","steam_id":76561198115821131,"connected_time":4004000000000,"state":"active","ping":89},{"user_id":570,"name":"GuywithaMic","steam_id":76561198143708529,"connected_time":2723000000000,"state":"active","ping":92},{"user_id":592,"name":"errant","steam_id":76561197961758410,"connected_time":1050000000000,"state":"active","ping":36},{"user_id":607,"name":"golem","steam_id":76561198355040593,"connected_time":193000000000,"state":"active","ping":95},{"user_id":605,"name":"C Sharp Minor","steam_id":76561199185191710,"connected_time":260000000000,"state":"active","ping":137},{"user_id":540,"name":"PerliousFalcon","steam_id":76561198124801907,"connected_time":4529000000000,"state":"active","ping":98},{"user_id":553,"name":"CheeseLikeSubstance","steam_id":76561197977170646,"connected_time":3975000000000,"state":"active","ping":75},{"user_id":542,"name":"Griddy #Hateologist","steam_id":76561199100342013,"connected_time":4487000000000,"state":"active","ping":75},{"user_id":562,"name":"throat_man","steam_id":76561199321657653,"connected_time":3063000000000,"state":"active","ping":75},{"user_id":558,"name":"faka","steam_id":76561199093280815,"connected_time":3443000000000,"state":"active","ping":102},{"user_id":603,"name":"gabaghoulio","steam_id":76561198013650292,"connected_time":368000000000,"state":"active","ping":109},{"user_id":569,"name":"Gelliterate","steam_id":76561198107233070,"connected_time":2771000000000,"state":"active","ping":49},{"user_id":554,"name":"Xraverz","steam_id":76561198008891628,"connected_time":3969000000000,"state":"active","ping":96},{"user_id":600,"name":"Tealim","steam_id":76561198330085713,"connected_time":777000000000,"state":"active","ping":139},{"user_id":598,"name":"Rhutebeer","steam_id":76561198018302761,"connected_time":941000000000,"state":"active","ping":84},{"user_id":609,"name":"Megmopep","steam_id":76561198258202958,"connected_time":152000000000,"state":"active","ping":105},{"user_id":601,"name":"The destroyer of foreskin","steam_id":76561198135275966,"connected_time":617000000000,"state":"active","ping":72}]},{"server_id":108,"name":"Uncletopia | Dallas | 2 | All Maps","name_short":"dal-2","host":"dal-1.us.uncletopia.com","port":27025,"enabled":true,"region":"us-central","cc":"us","latitude":32.779167,"longitude":-96.80889,"reserved":0,"last_update":"0001-01-01T00:00:00Z","name_a2s":"Uncletopia | Dallas | 2 | All Maps","protocol":17,"map":"pl_upward","folder":"tf","game":"Team Fortress","app_id":440,"player_count":24,"max_players":24,"Bots":0,"server_type":"Dedicated","server_os":"Linux","password":true,"vac":true,"version":"7882260","steam_id":85568392924469988,"keywords":["nocrits","nodmgspread","payload","uncletopia"],"game_id":440,"stv_port":27026,"stv_name":"Uncletopia | Dallas | 2 | All Maps | STV","players":[{"user_id":425,"name":"sleepy (Pocket choice)","steam_id":76561199283485895,"connected_time":455000000000,"state":"active","ping":90},{"user_id":415,"name":"whackswilson","steam_id":76561199031785207,"connected_time":1691000000000,"state":"active","ping":74},{"user_id":420,"name":"go touch keyboard","steam_id":76561198197388678,"connected_time":1500000000000,"state":"active","ping":74},{"user_id":324,"name":"Buswolley","steam_id":76561197995205571,"connected_time":9116000000000,"state":"active","ping":85},{"user_id":400,"name":"time has run out","steam_id":76561198066450438,"connected_time":3599000000000,"state":"active","ping":97},{"user_id":367,"name":"hamletespacial","steam_id":76561199084414649,"connected_time":5461000000000,"state":"active","ping":52},{"user_id":410,"name":"Smug","steam_id":76561198448205229,"connected_time":2334000000000,"state":"active","ping":74},{"user_id":421,"name":"2JZ_","steam_id":76561198064027289,"connected_time":1357000000000,"state":"active","ping":70},{"user_id":428,"name":"catfish from toontown","steam_id":76561198060070002,"connected_time":419000000000,"state":"active","ping":61},{"user_id":389,"name":"Pleiades, the Sorceror","steam_id":76561198079590693,"connected_time":4184000000000,"state":"active","ping":67},{"user_id":405,"name":"LooperDooper","steam_id":76561198162464484,"connected_time":3094000000000,"state":"active","ping":99},{"user_id":427,"name":"CrazyDave","steam_id":76561198282269514,"connected_time":437000000000,"state":"active","ping":130},{"user_id":418,"name":"fox news goblin","steam_id":76561198167648580,"connected_time":1650000000000,"state":"active","ping":51},{"user_id":402,"name":"Zeora","steam_id":76561198799145251,"connected_time":3471000000000,"state":"active","ping":83},{"user_id":370,"name":"thedoud1201","steam_id":76561199007734851,"connected_time":5411000000000,"state":"active","ping":83},{"user_id":430,"name":"Kuvorious","steam_id":76561198153729934,"connected_time":183000000000,"state":"active","ping":58},{"user_id":431,"name":"如願","steam_id":76561198038486613,"connected_time":22000000000,"state":"active","ping":94},{"user_id":403,"name":"[Champ] Marssygurl","steam_id":76561198014928241,"connected_time":3447000000000,"state":"active","ping":109},{"user_id":346,"name":"A Can of Arizona Green Tea","steam_id":76561198062481133,"connected_time":7321000000000,"state":"active","ping":79},{"user_id":397,"name":"MoldyCoffee936","steam_id":76561198099061153,"connected_time":3730000000000,"state":"active","ping":74},{"user_id":407,"name":"Diable Blanc","steam_id":76561198090102186,"connected_time":2642000000000,"state":"active","ping":83},{"user_id":424,"name":"Rabamonki","steam_id":76561199009987174,"connected_time":785000000000,"state":"active","ping":78},{"user_id":388,"name":"Ascrekd","steam_id":76561198896710422,"connected_time":4197000000000,"state":"active","ping":74},{"user_id":386,"name":"TechnoBear2099","steam_id":76561198238863596,"connected_time":4380000000000,"state":"active","ping":43}]},{"server_id":5,"name":"Uncletopia | Frankfurt | 1 | All Maps","name_short":"frk-1","host":"frk-1.de.uncletopia.com","port":27015,"enabled":true,"region":"eu","cc":"de","latitude":50.110924,"longitude":8.682127,"reserved":0,"last_update":"0001-01-01T00:00:00Z","name_a2s":"Uncletopia | Frankfurt | 1 | All Maps","protocol":17,"map":"cp_sunshine","folder":"tf","game":"Team Fortress","app_id":440,"player_count":0,"max_players":24,"Bots":0,"server_type":"Dedicated","server_os":"Linux","password":true,"vac":true,"version":"7882260","steam_id":85568392924469989,"keywords":["cp","nocrits","nodmgspread","uncletopia"],"game_id":440,"stv_port":27016,"stv_name":"Uncletopia | Frankfurt | 1 | All Maps | STV","players":null},{"server_id":110,"name":"Uncletopia | Frankfurt | 2 | All Maps","name_short":"frk-2","host":"frk-1.de.uncletopia.com","port":27025,"enabled":true,"region":"eu","cc":"de","latitude":50.110924,"longitude":8.682127,"reserved":0,"last_update":"0001-01-01T00:00:00Z","name_a2s":"Uncletopia | Frankfurt | 2 | All Maps","protocol":17,"map":"pl_pier","folder":"tf","game":"Team Fortress","app_id":440,"player_count":0,"max_players":24,"Bots":0,"server_type":"Dedicated","server_os":"Linux","password":true,"vac":true,"version":"7882260","steam_id":85568392924469990,"keywords":["nocrits","nodmgspread","payload","uncletopia"],"game_id":440,"stv_port":27026,"stv_name":"Uncletopia | Frankfurt | 2 | All Maps | STV","players":null},{"server_id":308,"name":"Uncletopia | Frankfurt | 3 | All Maps","name_short":"frk-3","host":"frk-1.de.uncletopia.com","port":27035,"enabled":true,"region":"eu","cc":"de","latitude":50.110924,"longitude":8.682127,"reserved":0,"last_update":"0001-01-01T00:00:00Z","name_a2s":"Uncletopia | Frankfurt | 3 | All Maps","protocol":17,"map":"cp_dustbowl","folder":"tf","game":"Team Fortress","app_id":440,"player_count":0,"max_players":24,"Bots":0,"server_type":"Dedicated","server_os":"Linux","password":true,"vac":true,"version":"7882260","steam_id":85568392924504274,"keywords":["cp","nocrits","nodmgspread","uncletopia"],"game_id":440,"stv_port":27036,"stv_name":"Uncletopia | Frankfurt | 3 | All Maps | STV","players":null},{"server_id":309,"name":"Uncletopia | Frankfurt | 4 | All Maps","name_short":"frk-4","host":"frk-1.de.uncletopia.com","port":27045,"enabled":true,"region":"eu","cc":"de","latitude":50.110924,"longitude":8.682127,"reserved":0,"last_update":"0001-01-01T00:00:00Z","name_a2s":"Uncletopia | Frankfurt | 4 | All Maps","protocol":17,"map":"koth_suijin","folder":"tf","game":"Team Fortress","app_id":440,"player_count":0,"max_players":24,"Bots":0,"server_type":"Dedicated","server_os":"Linux","password":true,"vac":true,"version":"7882260","steam_id":85568392924504275,"keywords":["cp","nocrits","nodmgspread","uncletopia"],"game_id":440,"stv_port":27046,"stv_name":"Uncletopia | Frankfurt | 4 | All Maps | STV","players":null},{"server_id":310,"name":"Uncletopia | Frankfurt | 5 | All Maps","name_short":"frk-5","host":"frk-1.de.uncletopia.com","port":27055,"enabled":true,"region":"eu","cc":"de","latitude":50.110924,"longitude":8.682127,"reserved":0,"last_update":"0001-01-01T00:00:00Z","name_a2s":"Uncletopia | Frankfurt | 5 | All Maps","protocol":17,"map":"pl_barnblitz","folder":"tf","game":"Team Fortress","app_id":440,"player_count":2,"max_players":24,"Bots":0,"server_type":"Dedicated","server_os":"Linux","password":true,"vac":true,"version":"7882260","steam_id":85568392924504277,"keywords":["nocrits","nodmgspread","payload","uncletopia"],"game_id":440,"stv_port":27056,"stv_name":"Uncletopia | Frankfurt | 5 | All Maps | STV","players":[{"user_id":494,"name":"the entire population of boston","steam_id":76561199006361788,"connected_time":1798000000000,"state":"active","ping":147},{"user_id":495,"name":"NightAngel","steam_id":76561197968457893,"connected_time":1795000000000,"state":"active","ping":164}]},{"server_id":311,"name":"Uncletopia | Frankfurt | 6 | All Maps","name_short":"frk-6","host":"frk-1.de.uncletopia.com","port":27065,"enabled":true,"region":"eu","cc":"de","latitude":50.110924,"longitude":8.682127,"reserved":0,"last_update":"0001-01-01T00:00:00Z","name_a2s":"Uncletopia | Frankfurt | 6 | All Maps","protocol":17,"map":"pl_frontier_final","folder":"tf","game":"Team Fortress","app_id":440,"player_count":0,"max_players":24,"Bots":0,"server_type":"Dedicated","server_os":"Linux","password":true,"vac":true,"version":"7882260","steam_id":85568392924504278,"keywords":["nocrits","nodmgspread","payload","uncletopia"],"game_id":440,"stv_port":27066,"stv_name":"Uncletopia | Frankfurt | 6 | All Maps | STV","players":null},{"server_id":23,"name":"Uncletopia | Frankfurt | 7 | Stopwatch Beta","name_short":"frk-7","host":"frk-1.de.uncletopia.com","port":27075,"enabled":true,"region":"eu","cc":"de","latitude":50.110924,"longitude":8.682127,"reserved":0,"last_update":"0001-01-01T00:00:00Z","name_a2s":"Uncletopia | Frankfurt | 7 | Stopwatch Beta","protocol":17,"map":"pl_upward","folder":"tf","game":"Team Fortress","app_id":440,"player_count":0,"max_players":24,"Bots":0,"server_type":"Dedicated","server_os":"Linux","password":true,"vac":true,"version":"7882260","steam_id":85568392924742827,"keywords":["nocrits","nodmgspread","payload","uncletopia"],"game_id":440,"stv_port":27076,"stv_name":"Uncletopia | Frankfurt | 7 | Stopwatch Beta | STV","players":null},{"server_id":24,"name":"Uncletopia | Frankfurt | 8 | Community","name_short":"frk-8","host":"frk-1.de.uncletopia.com","port":27085,"enabled":true,"region":"eu","cc":"de","latitude":50.110924,"longitude":8.682127,"reserved":0,"last_update":"0001-01-01T00:00:00Z","name_a2s":"Uncletopia | Frankfurt | 8 | Community","protocol":17,"map":"workshop/koth_product_final.ugc454272353","folder":"tf","game":"Team Fortress","app_id":440,"player_count":0,"max_players":24,"Bots":0,"server_type":"Dedicated","server_os":"Linux","password":true,"vac":true,"version":"7882260","steam_id":85568392924742828,"keywords":["cp","nocrits","nodmgspread","uncletopia"],"game_id":440,"stv_port":27086,"stv_name":"Uncletopia | Frankfurt | 8 | Community | STV","players":null},{"server_id":202,"name":"Uncletopia | Hong Kong | 1 | All Maps","name_short":"hgk-1","host":"hgk-1.hk.uncletopia.com","port":27015,"enabled":true,"region":"asia","cc":"hk","latitude":22.302711,"longitude":114.177216,"reserved":0,"last_update":"0001-01-01T00:00:00Z","name_a2s":"Uncletopia | Hong Kong | 1 | All Maps","protocol":17,"map":"koth_cascade","folder":"tf","game":"Team Fortress","app_id":440,"player_count":0,"max_players":24,"Bots":0,"server_type":"Dedicated","server_os":"Linux","password":true,"vac":true,"version":"7882260","steam_id":85568392924494504,"keywords":["cp","nocrits","nodmgspread","uncletopia"],"game_id":440,"stv_port":27016,"stv_name":"Uncletopia | Hong Kong | 1 | All Maps | STV","players":null},{"server_id":1,"name":"Uncletopia | Los Angeles | 1 | All Maps","name_short":"lax-1","host":"lax-1.us.uncletopia.com","port":27015,"enabled":true,"region":"us-west","cc":"us","latitude":33.94279,"longitude":-118.41004,"reserved":0,"last_update":"0001-01-01T00:00:00Z","name_a2s":"Uncletopia | Los Angeles | 1 | All Maps","protocol":17,"map":"pl_badwater","folder":"tf","game":"Team Fortress","app_id":440,"player_count":24,"max_players":24,"Bots":0,"server_type":"Dedicated","server_os":"Linux","password":true,"vac":true,"version":"7882260","steam_id":85568392924469991,"keywords":["nocrits","nodmgspread","payload","uncletopia"],"game_id":440,"stv_port":27016,"stv_name":"Uncletopia | Los Angeles | 1 | All Maps | STV","players":[{"user_id":384,"name":"corbenis","steam_id":76561199012442511,"connected_time":4549000000000,"state":"active","ping":58},{"user_id":416,"name":"KaiserArc","steam_id":76561198201702142,"connected_time":826000000000,"state":"active","ping":53},{"user_id":424,"name":"Grilled Jizo","steam_id":76561199250875340,"connected_time":654000000000,"state":"active","ping":98},{"user_id":397,"name":"Salty.Sam","steam_id":76561198030933901,"connected_time":4007000000000,"state":"active","ping":105},{"user_id":379,"name":"olifur","steam_id":76561198045607732,"connected_time":4761000000000,"state":"active","ping":93},{"user_id":369,"name":"NO FLOCKIN","steam_id":76561198099463706,"connected_time":5573000000000,"state":"active","ping":108},{"user_id":429,"name":"meszaros1293","steam_id":76561198168201600,"connected_time":291000000000,"state":"active","ping":59},{"user_id":414,"name":"skosgo -eg","steam_id":76561197996403345,"connected_time":1099000000000,"state":"active","ping":54},{"user_id":427,"name":"Zelumie","steam_id":76561198147335801,"connected_time":586000000000,"state":"active","ping":107},{"user_id":391,"name":"HAT-WEARING™ Maggot Gamer Cat","steam_id":76561197973992705,"connected_time":4078000000000,"state":"active","ping":70},{"user_id":387,"name":"DoubleX2000","steam_id":76561198164134387,"connected_time":4441000000000,"state":"active","ping":88},{"user_id":370,"name":"Dovy","steam_id":76561198308973032,"connected_time":5573000000000,"state":"active","ping":74},{"user_id":321,"name":"hungry kibten","steam_id":76561198184099558,"connected_time":8584000000000,"state":"active","ping":77},{"user_id":392,"name":"Brain damage squirrel","steam_id":76561198846344452,"connected_time":4065000000000,"state":"active","ping":52},{"user_id":371,"name":"judas' apology video","steam_id":76561198057471868,"connected_time":5566000000000,"state":"active","ping":47},{"user_id":401,"name":"...","steam_id":76561198121508845,"connected_time":2223000000000,"state":"active","ping":64},{"user_id":376,"name":"?","steam_id":76561198077811162,"connected_time":5086000000000,"state":"active","ping":55},{"user_id":244,"name":"coffee enjoyer","steam_id":76561198059900288,"connected_time":12884000000000,"state":"active","ping":90},{"user_id":411,"name":"nori_420 (mute)","steam_id":76561199117134203,"connected_time":1274000000000,"state":"active","ping":56},{"user_id":415,"name":"pat back","steam_id":76561198347225801,"connected_time":1086000000000,"state":"active","ping":83},{"user_id":425,"name":"BucketofIce","steam_id":76561199108563726,"connected_time":627000000000,"state":"active","ping":55},{"user_id":409,"name":"Digitic","steam_id":76561198080295536,"connected_time":1335000000000,"state":"active","ping":132},{"user_id":428,"name":"Cream Pioneer","steam_id":76561198309491596,"connected_time":521000000000,"state":"active","ping":66},{"user_id":383,"name":"GlossyBat","steam_id":76561198929313869,"connected_time":4676000000000,"state":"active","ping":58}]},{"server_id":112,"name":"Uncletopia | Los Angeles | 2 | All Maps","name_short":"lax-2","host":"lax-1.us.uncletopia.com","port":27025,"enabled":true,"region":"us-west","cc":"us","latitude":33.94279,"longitude":-118.41004,"reserved":0,"last_update":"0001-01-01T00:00:00Z","name_a2s":"Uncletopia | Los Angeles | 2 | All Maps","protocol":17,"map":"pl_borneo","folder":"tf","game":"Team Fortress","app_id":440,"player_count":24,"max_players":24,"Bots":0,"server_type":"Dedicated","server_os":"Linux","password":true,"vac":true,"version":"7882260","steam_id":85568392924469992,"keywords":["nocrits","nodmgspread","payload","uncletopia"],"game_id":440,"stv_port":27026,"stv_name":"Uncletopia | Los Angeles | 2 | All Maps | STV","players":[{"user_id":102,"name":"✪ Y V E S","steam_id":76561198299479796,"connected_time":9905000000000,"state":"active","ping":45},{"user_id":224,"name":"jenny possum","steam_id":76561198062879460,"connected_time":409000000000,"state":"active","ping":63},{"user_id":199,"name":"gwy","steam_id":76561198277458653,"connected_time":2616000000000,"state":"active","ping":67},{"user_id":216,"name":"Amateur Glaswegian","steam_id":76561198030851956,"connected_time":1274000000000,"state":"active","ping":74},{"user_id":168,"name":"TwoScore","steam_id":76561198024412148,"connected_time":5743000000000,"state":"active","ping":75},{"user_id":220,"name":"some nerd","steam_id":76561198297272878,"connected_time":571000000000,"state":"active","ping":42},{"user_id":206,"name":"Chicken","steam_id":76561198295408482,"connected_time":2524000000000,"state":"active","ping":87},{"user_id":180,"name":"blue of days","steam_id":76561199113013688,"connected_time":4943000000000,"state":"active","ping":55},{"user_id":201,"name":"Bounce","steam_id":76561198252177154,"connected_time":2599000000000,"state":"active","ping":95},{"user_id":163,"name":"james may","steam_id":76561198043857339,"connected_time":6185000000000,"state":"active","ping":52},{"user_id":217,"name":"restless","steam_id":76561199201045563,"connected_time":622000000000,"state":"active","ping":185},{"user_id":212,"name":"SpinnerSpecial","steam_id":76561198065661869,"connected_time":1459000000000,"state":"active","ping":107},{"user_id":203,"name":"FrozenFireBr","steam_id":76561198357945412,"connected_time":2589000000000,"state":"active","ping":96},{"user_id":192,"name":"Taelaro","steam_id":76561198087562051,"connected_time":3322000000000,"state":"active","ping":93},{"user_id":189,"name":"RapidXenophage","steam_id":76561198175149973,"connected_time":3826000000000,"state":"active","ping":90},{"user_id":191,"name":"❤ Ashley ❤","steam_id":76561198056428303,"connected_time":3669000000000,"state":"active","ping":45},{"user_id":156,"name":"HooDoo","steam_id":76561198088994018,"connected_time":6837000000000,"state":"active","ping":82},{"user_id":50,"name":"A UsedNom","steam_id":76561198402832756,"connected_time":15957000000000,"state":"active","ping":48},{"user_id":214,"name":"Orion","steam_id":76561198000418837,"connected_time":1419000000000,"state":"active","ping":95},{"user_id":221,"name":"Maid 'n' China","steam_id":76561198423392976,"connected_time":507000000000,"state":"active","ping":60},{"user_id":222,"name":"Merekitten","steam_id":76561198066307477,"connected_time":481000000000,"state":"active","ping":57},{"user_id":172,"name":"Jonatello","steam_id":76561198045699189,"connected_time":5628000000000,"state":"active","ping":105},{"user_id":177,"name":"Ice cream sandwich","steam_id":76561198172748357,"connected_time":5333000000000,"state":"active","ping":56},{"user_id":188,"name":"Santa Carl","steam_id":76561198058349172,"connected_time":4191000000000,"state":"active","ping":53}]},{"server_id":324,"name":"Uncletopia | Los Angeles | 3 | All Maps","name_short":"lax-3","host":"lax-1.us.uncletopia.com","port":27035,"enabled":true,"region":"us-west","cc":"us","latitude":33.94279,"longitude":-118.41004,"reserved":0,"last_update":"0001-01-01T00:00:00Z","name_a2s":"Uncletopia | Los Angeles | 3 | All Maps","protocol":17,"map":"pl_borneo","folder":"tf","game":"Team Fortress","app_id":440,"player_count":24,"max_players":24,"Bots":0,"server_type":"Dedicated","server_os":"Linux","password":true,"vac":true,"version":"7882260","steam_id":85568392924510198,"keywords":["nocrits","nodmgspread","payload","uncletopia"],"game_id":440,"stv_port":27036,"stv_name":"Uncletopia | Los Angeles | 3 | All Maps | STV","players":[{"user_id":311,"name":"whiteout","steam_id":76561198049017271,"connected_time":500000000000,"state":"active","ping":51},{"user_id":322,"name":"thundah!","steam_id":76561199159928133,"connected_time":264000000000,"state":"active","ping":111},{"user_id":324,"name":"Risky","steam_id":76561198231029328,"connected_time":111000000000,"state":"active","ping":47},{"user_id":256,"name":"TothBrush","steam_id":76561198028254471,"connected_time":4114000000000,"state":"active","ping":60},{"user_id":279,"name":"clueless","steam_id":76561199068399509,"connected_time":3210000000000,"state":"active","ping":70},{"user_id":265,"name":"mexican pat bev","steam_id":76561198093252989,"connected_time":3586000000000,"state":"active","ping":84},{"user_id":315,"name":"tum","steam_id":76561198084712019,"connected_time":459000000000,"state":"active","ping":55},{"user_id":317,"name":"Magical.Puffin","steam_id":76561198129039275,"connected_time":403000000000,"state":"active","ping":64},{"user_id":210,"name":"Hindmost","steam_id":76561199081837220,"connected_time":7384000000000,"state":"active","ping":102},{"user_id":318,"name":"KevzGotzIt","steam_id":76561197992706947,"connected_time":374000000000,"state":"active","ping":121},{"user_id":303,"name":"Prof. Abedul","steam_id":76561198146171581,"connected_time":1249000000000,"state":"active","ping":98},{"user_id":319,"name":"Fake Chainz","steam_id":76561198312889455,"connected_time":373000000000,"state":"active","ping":103},{"user_id":312,"name":"KaleScrooge","steam_id":76561199229442595,"connected_time":494000000000,"state":"active","ping":193},{"user_id":294,"name":"BoredBunny","steam_id":76561198243610560,"connected_time":1806000000000,"state":"active","ping":92},{"user_id":251,"name":"Averagemicrowavedchickenstick","steam_id":76561199128225865,"connected_time":4567000000000,"state":"active","ping":89},{"user_id":269,"name":"Droidder","steam_id":76561198119484250,"connected_time":3472000000000,"state":"active","ping":70},{"user_id":288,"name":"Spectre1578","steam_id":76561198953243633,"connected_time":2585000000000,"state":"active","ping":66},{"user_id":298,"name":"Timewaves","steam_id":76561198000186054,"connected_time":1726000000000,"state":"active","ping":53},{"user_id":309,"name":"cielael","steam_id":76561198043971956,"connected_time":683000000000,"state":"active","ping":47},{"user_id":291,"name":"Mom","steam_id":76561198207936000,"connected_time":1830000000000,"state":"active","ping":49},{"user_id":286,"name":"momus","steam_id":76561198966979196,"connected_time":2705000000000,"state":"active","ping":49},{"user_id":299,"name":"Rain","steam_id":76561198032318897,"connected_time":1688000000000,"state":"active","ping":74},{"user_id":296,"name":"Drapph","steam_id":76561199384213314,"connected_time":1787000000000,"state":"active","ping":120},{"user_id":320,"name":"CASR","steam_id":76561199122040210,"connected_time":363000000000,"state":"active","ping":139}]},{"server_id":25,"name":"Uncletopia | Los Angeles | 4 | Stopwatch Beta","name_short":"lax-4","host":"lax-1.us.uncletopia.com","port":27045,"enabled":true,"region":"us-west","cc":"us","latitude":33.94279,"longitude":-118.41004,"reserved":0,"last_update":"0001-01-01T00:00:00Z","name_a2s":"Uncletopia | Los Angeles | 4 | Stopwatch Beta","protocol":17,"map":"workshop/pl_barnblitz_pro7.ugc582280235","folder":"tf","game":"Team Fortress","app_id":440,"player_count":0,"max_players":24,"Bots":0,"server_type":"Dedicated","server_os":"Linux","password":true,"vac":true,"version":"7882260","steam_id":85568392924510199,"keywords":["nocrits","nodmgspread","payload","uncletopia"],"game_id":440,"stv_port":27046,"stv_name":"Uncletopia | Los Angeles | 4 | Stopwatch Beta | STV","players":null},{"server_id":11,"name":"Uncletopia | London | 1 | All Maps","name_short":"lon-1","host":"lon-1.uk.uncletopia.com","port":27015,"enabled":true,"region":"eu","cc":"gb","latitude":51.509865,"longitude":-0.118092,"reserved":0,"last_update":"0001-01-01T00:00:00Z","name_a2s":"Uncletopia | London | 1 | All Maps","protocol":17,"map":"pl_badwater","folder":"tf","game":"Team Fortress","app_id":440,"player_count":23,"max_players":24,"Bots":0,"server_type":"Dedicated","server_os":"Linux","password":true,"vac":true,"version":"7882260","steam_id":85568392924367362,"keywords":["nocrits","nodmgspread","payload","uncletopia"],"game_id":440,"stv_port":27016,"stv_name":"Uncletopia | London | 1 | All Maps | STV","players":[{"user_id":1141,"name":"hide on bush","steam_id":76561198149967445,"connected_time":60000000000,"state":"active","ping":29},{"user_id":1043,"name":"teddy","steam_id":76561198007436837,"connected_time":8305000000000,"state":"active","ping":45},{"user_id":1118,"name":"$nØw","steam_id":76561198238781028,"connected_time":2430000000000,"state":"active","ping":104},{"user_id":1112,"name":"✪ qua ✪","steam_id":76561198066408333,"connected_time":3022000000000,"state":"active","ping":74},{"user_id":1075,"name":"Sandshee","steam_id":76561198088574666,"connected_time":5811000000000,"state":"active","ping":43},{"user_id":1136,"name":"Bobo","steam_id":76561198052308399,"connected_time":838000000000,"state":"active","ping":71},{"user_id":1097,"name":"Homebound","steam_id":76561198531978435,"connected_time":4386000000000,"state":"active","ping":68},{"user_id":1117,"name":"blade","steam_id":76561199308850812,"connected_time":2453000000000,"state":"active","ping":44},{"user_id":1140,"name":"MacRoyal","steam_id":76561198282531958,"connected_time":86000000000,"state":"active","ping":64},{"user_id":1116,"name":"congo","steam_id":76561198236836866,"connected_time":2659000000000,"state":"active","ping":85},{"user_id":1139,"name":"mineblast99","steam_id":76561199065648954,"connected_time":226000000000,"state":"active","ping":145},{"user_id":1098,"name":"gerg","steam_id":76561198041663219,"connected_time":4376000000000,"state":"active","ping":57},{"user_id":1121,"name":"Mitrev","steam_id":76561198157124880,"connected_time":2339000000000,"state":"active","ping":68},{"user_id":1130,"name":"Loptater","steam_id":76561198114928860,"connected_time":1705000000000,"state":"active","ping":60},{"user_id":1135,"name":"Vitamin Weee","steam_id":76561199183937747,"connected_time":1018000000000,"state":"active","ping":89},{"user_id":1079,"name":"smile","steam_id":76561198365841841,"connected_time":5722000000000,"state":"active","ping":71},{"user_id":1122,"name":"Steen","steam_id":76561198122992510,"connected_time":2300000000000,"state":"active","ping":45},{"user_id":1032,"name":"♥ aura ♥","steam_id":76561198066258544,"connected_time":9392000000000,"state":"active","ping":60},{"user_id":1107,"name":"tm`","steam_id":76561197993580412,"connected_time":3964000000000,"state":"active","ping":67},{"user_id":1127,"name":"Xx_EpicGaymer_xX","steam_id":76561198846784757,"connected_time":2049000000000,"state":"active","ping":63},{"user_id":1124,"name":"Dr. Mike","steam_id":76561197991205793,"connected_time":2245000000000,"state":"active","ping":84},{"user_id":1129,"name":"SuperBob103","steam_id":76561199175360012,"connected_time":1735000000000,"state":"active","ping":60},{"user_id":1125,"name":"punchmypotatoes","steam_id":76561198091255731,"connected_time":2234000000000,"state":"active","ping":55}]},{"server_id":114,"name":"Uncletopia | London | 2 | All Maps","name_short":"lon-2","host":"lon-1.uk.uncletopia.com","port":27025,"enabled":true,"region":"eu","cc":"gb","latitude":51.509865,"longitude":-0.118092,"reserved":0,"last_update":"0001-01-01T00:00:00Z","name_a2s":"Uncletopia | London | 2 | All Maps","protocol":17,"map":"koth_highpass","folder":"tf","game":"Team Fortress","app_id":440,"player_count":9,"max_players":24,"Bots":0,"server_type":"Dedicated","server_os":"Linux","password":true,"vac":true,"version":"7882260","steam_id":85568392924470941,"keywords":["cp","nocrits","nodmgspread","uncletopia"],"game_id":440,"stv_port":27026,"stv_name":"Uncletopia | London | 2 | All Maps | STV","players":[{"user_id":787,"name":"Cylinder Mann","steam_id":76561198219128033,"connected_time":1726000000000,"state":"active","ping":39},{"user_id":788,"name":"ACG_Dubsy","steam_id":76561198797308565,"connected_time":1687000000000,"state":"active","ping":48},{"user_id":801,"name":"Enigmus","steam_id":76561197994063627,"connected_time":291000000000,"state":"active","ping":99},{"user_id":794,"name":"Stormz","steam_id":76561198197320345,"connected_time":731000000000,"state":"active","ping":65},{"user_id":795,"name":"cute and funny","steam_id":76561198372699365,"connected_time":700000000000,"state":"active","ping":85},{"user_id":800,"name":"gun spy","steam_id":76561198929646112,"connected_time":542000000000,"state":"active","ping":119},{"user_id":798,"name":"Shekelstein","steam_id":76561198874759252,"connected_time":618000000000,"state":"active","ping":71},{"user_id":799,"name":"Disciplinary Clarkson","steam_id":76561198042748864,"connected_time":599000000000,"state":"active","ping":170},{"user_id":802,"name":"ender45","steam_id":76561198840955715,"connected_time":238000000000,"state":"active","ping":35}]},{"server_id":320,"name":"Uncletopia | London | 3 | All Maps","name_short":"lon-3","host":"lon-1.uk.uncletopia.com","port":27035,"enabled":true,"region":"eu","cc":"gb","latitude":51.509865,"longitude":-0.118092,"reserved":0,"last_update":"0001-01-01T00:00:00Z","name_a2s":"Uncletopia | London | 3 | All Maps","protocol":17,"map":"pl_upward","folder":"tf","game":"Team Fortress","app_id":440,"player_count":24,"max_players":24,"Bots":0,"server_type":"Dedicated","server_os":"Linux","password":true,"vac":true,"version":"7882260","steam_id":85568392924510192,"keywords":["nocrits","nodmgspread","payload","uncletopia"],"game_id":440,"stv_port":27036,"stv_name":"Uncletopia | London | 3 | All Maps | STV","players":[{"user_id":732,"name":"Bambi","steam_id":76561198166972711,"connected_time":2409000000000,"state":"active","ping":57},{"user_id":752,"name":"Slifer the Sky Dragon","steam_id":76561198062255803,"connected_time":713000000000,"state":"active","ping":75},{"user_id":705,"name":"Bill Carr","steam_id":76561198110033943,"connected_time":4844000000000,"state":"active","ping":40},{"user_id":685,"name":"Jon :)","steam_id":76561199380849468,"connected_time":7208000000000,"state":"active","ping":63},{"user_id":740,"name":"pingboy","steam_id":76561198040399013,"connected_time":2153000000000,"state":"active","ping":55},{"user_id":723,"name":"etc","steam_id":76561197998394797,"connected_time":3232000000000,"state":"active","ping":57},{"user_id":753,"name":"Captain Scrumpe","steam_id":76561198032206577,"connected_time":657000000000,"state":"active","ping":84},{"user_id":733,"name":"Miya","steam_id":76561198041967141,"connected_time":2353000000000,"state":"active","ping":69},{"user_id":754,"name":"Mingo","steam_id":76561198057377305,"connected_time":642000000000,"state":"active","ping":45},{"user_id":756,"name":"Controller Gaming","steam_id":76561198134805479,"connected_time":542000000000,"state":"active","ping":45},{"user_id":744,"name":"General Petrov","steam_id":76561198027204104,"connected_time":1418000000000,"state":"active","ping":86},{"user_id":698,"name":"nyanezt","steam_id":76561198253734265,"connected_time":5774000000000,"state":"active","ping":90},{"user_id":755,"name":"BartleBay","steam_id":76561198040039289,"connected_time":632000000000,"state":"active","ping":59},{"user_id":757,"name":"The.Real.Genesis","steam_id":76561198999652040,"connected_time":484000000000,"state":"active","ping":59},{"user_id":649,"name":"Risemonger","steam_id":76561198326896596,"connected_time":9359000000000,"state":"active","ping":33},{"user_id":735,"name":"dd","steam_id":76561198257836694,"connected_time":2305000000000,"state":"active","ping":44},{"user_id":743,"name":"2Fort Penguin","steam_id":76561197970114051,"connected_time":1452000000000,"state":"active","ping":45},{"user_id":652,"name":"Krom","steam_id":76561198107896376,"connected_time":9320000000000,"state":"active","ping":119},{"user_id":748,"name":"woople","steam_id":76561198076625889,"connected_time":854000000000,"state":"active","ping":77},{"user_id":749,"name":"Hyppy ja liipasin pohjaan :D","steam_id":76561198080669698,"connected_time":849000000000,"state":"active","ping":87},{"user_id":758,"name":"GoatLord1","steam_id":76561198157964544,"connected_time":352000000000,"state":"active","ping":53},{"user_id":760,"name":"45 Cent","steam_id":76561198048690188,"connected_time":174000000000,"state":"active","ping":120},{"user_id":762,"name":"Lennox","steam_id":76561198069063554,"connected_time":68000000000,"state":"active","ping":57},{"user_id":736,"name":"Sammy","steam_id":76561197977379410,"connected_time":2299000000000,"state":"active","ping":95}]},{"server_id":321,"name":"Uncletopia | London | 4 | All Maps","name_short":"lon-4","host":"lon-1.uk.uncletopia.com","port":27045,"enabled":true,"region":"eu","cc":"gb","latitude":51.509865,"longitude":-0.118092,"reserved":0,"last_update":"0001-01-01T00:00:00Z","name_a2s":"Uncletopia | London | 4 | All Maps","protocol":17,"map":"cp_steel","folder":"tf","game":"Team Fortress","app_id":440,"player_count":18,"max_players":24,"Bots":0,"server_type":"Dedicated","server_os":"Linux","password":true,"vac":true,"version":"7882260","steam_id":85568392924510193,"keywords":["cp","nocrits","nodmgspread","uncletopia"],"game_id":440,"stv_port":27046,"stv_name":"Uncletopia | London | 4 | All Maps | STV","players":[{"user_id":345,"name":"thingmaster_THIS","steam_id":76561199012940985,"connected_time":741000000000,"state":"active","ping":136},{"user_id":349,"name":"hamburger_ball03","steam_id":76561199058257384,"connected_time":45000000000,"state":"active","ping":137},{"user_id":348,"name":"ChezBuggaMan","steam_id":76561198189849110,"connected_time":71000000000,"state":"active","ping":162},{"user_id":328,"name":"Proto-arc","steam_id":76561198012776747,"connected_time":1815000000000,"state":"active","ping":50},{"user_id":338,"name":"Dapper","steam_id":76561198081694974,"connected_time":1375000000000,"state":"active","ping":45},{"user_id":343,"name":"Some White Guy","steam_id":76561198042528726,"connected_time":807000000000,"state":"active","ping":46},{"user_id":350,"name":"[1stA]Zap Rowsdower","steam_id":76561197976656272,"connected_time":37000000000,"state":"active","ping":56},{"user_id":335,"name":"b ull","steam_id":76561199233979726,"connected_time":1491000000000,"state":"active","ping":96},{"user_id":298,"name":"meow (they/them)","steam_id":76561198416657815,"connected_time":2948000000000,"state":"spawning","ping":73},{"user_id":351,"name":"RobTheKid","steam_id":76561198346638308,"connected_time":19000000000,"state":"active","ping":57},{"user_id":283,"name":"tiia","steam_id":76561198046196005,"connected_time":3876000000000,"state":"active","ping":45},{"user_id":326,"name":"sloppy transgirl toppy","steam_id":76561198057092208,"connected_time":1856000000000,"state":"active","ping":64},{"user_id":163,"name":"Nintyuk","steam_id":76561197994176164,"connected_time":13630000000000,"state":"active","ping":33},{"user_id":341,"name":"Limited Slip Dipstick","steam_id":76561198024504847,"connected_time":998000000000,"state":"active","ping":63},{"user_id":273,"name":"It's time","steam_id":76561198061197114,"connected_time":5102000000000,"state":"active","ping":87},{"user_id":316,"name":"1 toke 4 mars bars","steam_id":76561198056460000,"connected_time":2103000000000,"state":"active","ping":45},{"user_id":346,"name":"Girlboy Theenie","steam_id":76561198029025500,"connected_time":667000000000,"state":"active","ping":62},{"user_id":285,"name":"kektuse","steam_id":76561198088426580,"connected_time":3866000000000,"state":"active","ping":61}]},{"server_id":21,"name":"Uncletopia | London | 5 | All Maps","name_short":"lon-5","host":"lon-1.uk.uncletopia.com","port":27055,"enabled":true,"region":"eu","cc":"gb","latitude":51.509865,"longitude":-0.118092,"reserved":0,"last_update":"0001-01-01T00:00:00Z","name_a2s":"Uncletopia | London | 5 | All Maps","protocol":17,"map":"cp_sunshine","folder":"tf","game":"Team Fortress","app_id":440,"player_count":0,"max_players":24,"Bots":0,"server_type":"Dedicated","server_os":"Linux","password":true,"vac":true,"version":"7882260","steam_id":85568392924742829,"keywords":["cp","nocrits","nodmgspread","uncletopia"],"game_id":440,"stv_port":27056,"stv_name":"Uncletopia | London | 5 | All Maps | STV","players":null},{"server_id":22,"name":"Uncletopia | London | 6 | All Maps","name_short":"lon-6","host":"lon-1.uk.uncletopia.com","port":27065,"enabled":true,"region":"eu","cc":"gb","latitude":51.509865,"longitude":-0.118092,"reserved":0,"last_update":"0001-01-01T00:00:00Z","name_a2s":"Uncletopia | London | 6 | All Maps","protocol":17,"map":"cp_coldfront","folder":"tf","game":"Team Fortress","app_id":440,"player_count":0,"max_players":24,"Bots":0,"server_type":"Dedicated","server_os":"Linux","password":true,"vac":true,"version":"7882260","steam_id":85568392924742830,"keywords":["cp","nocrits","nodmgspread","uncletopia"],"game_id":440,"stv_port":27066,"stv_name":"Uncletopia | London | 6 | All Maps | STV","players":null},{"server_id":40,"name":"Uncletopia | London | 7 | No Payload","name_short":"lon-7","host":"lon-1.uk.uncletopia.com","port":27075,"enabled":true,"region":"eu","cc":"gb","latitude":51.509865,"longitude":-0.118092,"reserved":0,"last_update":"0001-01-01T00:00:00Z","name_a2s":"Uncletopia | London | 7 | No Payload","protocol":17,"map":"cp_egypt_final","folder":"tf","game":"Team Fortress","app_id":440,"player_count":0,"max_players":24,"Bots":0,"server_type":"Dedicated","server_os":"Linux","password":true,"vac":true,"version":"7882260","steam_id":85568392924964314,"keywords":["cp","nocrits","nodmgspread","uncletopia"],"game_id":440,"stv_port":27076,"stv_name":"Uncletopia | London | 7 | No Payload | STV","players":null},{"server_id":41,"name":"Uncletopia | London | 8 | Community","name_short":"lon-8","host":"lon-1.uk.uncletopia.com","port":27085,"enabled":true,"region":"eu","cc":"gb","latitude":51.509865,"longitude":-0.118092,"reserved":0,"last_update":"0001-01-01T00:00:00Z","name_a2s":"Uncletopia | London | 8 | Community","protocol":17,"map":"workshop/cp_logjam_rc12.ugc454812035","folder":"tf","game":"Team Fortress","app_id":440,"player_count":0,"max_players":24,"Bots":0,"server_type":"Dedicated","server_os":"Linux","password":true,"vac":true,"version":"7882260","steam_id":85568392924964315,"keywords":["cp","nocrits","nodmgspread","uncletopia"],"game_id":440,"stv_port":27086,"stv_name":"Uncletopia | London | 8 | Community | STV","players":null},{"server_id":300,"name":"Uncletopia | Montréal | 1 | All Maps","name_short":"mtl-1","host":"mtl-1.ca.uncletopia.com","port":27015,"enabled":true,"region":"us-east","cc":"ca","latitude":45.50889,"longitude":-73.56167,"reserved":0,"last_update":"0001-01-01T00:00:00Z","name_a2s":"Uncletopia | Montréal | 1 | All Maps","protocol":17,"map":"cp_steel","folder":"tf","game":"Team Fortress","app_id":440,"player_count":24,"max_players":24,"Bots":0,"server_type":"Dedicated","server_os":"Linux","password":true,"vac":true,"version":"7882260","steam_id":85568392924500087,"keywords":["cp","nocrits","nodmgspread","uncletopia"],"game_id":440,"stv_port":27016,"stv_name":"Uncletopia | Montréal | 1 | All Maps | STV","players":[{"user_id":163,"name":"inphlate","steam_id":76561199016973013,"connected_time":387000000000,"state":"active","ping":83},{"user_id":164,"name":"Spicy Thyme","steam_id":76561198332706067,"connected_time":380000000000,"state":"active","ping":72},{"user_id":172,"name":"MondoDong","steam_id":76561197991400109,"connected_time":308000000000,"state":"active","ping":53},{"user_id":173,"name":"Psychosis","steam_id":76561198078659070,"connected_time":282000000000,"state":"active","ping":74},{"user_id":130,"name":"blobb","steam_id":76561198950448488,"connected_time":3058000000000,"state":"active","ping":47},{"user_id":174,"name":"a hedgehog","steam_id":76561198019010682,"connected_time":9000000000,"state":"active","ping":74},{"user_id":161,"name":"party pooper","steam_id":76561198068760559,"connected_time":638000000000,"state":"active","ping":59},{"user_id":132,"name":"SAD MOSCOVIA","steam_id":76561198101081520,"connected_time":3029000000000,"state":"active","ping":145},{"user_id":127,"name":"canakblasteran","steam_id":76561199472518822,"connected_time":3128000000000,"state":"active","ping":141},{"user_id":166,"name":"Pizza_Pie_","steam_id":76561199018878356,"connected_time":362000000000,"state":"active","ping":67},{"user_id":158,"name":"MooleTheDoole","steam_id":76561199216480625,"connected_time":739000000000,"state":"active","ping":62},{"user_id":167,"name":"carbuzz","steam_id":76561198129361580,"connected_time":354000000000,"state":"active","ping":151},{"user_id":169,"name":"treemonkey","steam_id":76561198088171353,"connected_time":331000000000,"state":"active","ping":44},{"user_id":170,"name":"Mythic","steam_id":76561198028616665,"connected_time":323000000000,"state":"active","ping":64},{"user_id":155,"name":"Bunny of Epicness","steam_id":76561198003897012,"connected_time":1264000000000,"state":"active","ping":85},{"user_id":146,"name":"Hoss Delgado","steam_id":76561197995328504,"connected_time":2138000000000,"state":"active","ping":98},{"user_id":125,"name":"unlucky killer","steam_id":76561199039152146,"connected_time":3403000000000,"state":"active","ping":70},{"user_id":156,"name":"you forgot the sauce","steam_id":76561198387016713,"connected_time":850000000000,"state":"active","ping":56},{"user_id":138,"name":"Normal medic main","steam_id":76561199167176376,"connected_time":2615000000000,"state":"active","ping":129},{"user_id":149,"name":"Artgrenadier","steam_id":76561198063305359,"connected_time":2066000000000,"state":"active","ping":70},{"user_id":171,"name":"too deep for most to understand","steam_id":76561198022636144,"connected_time":317000000000,"state":"active","ping":63},{"user_id":108,"name":"Ghost Mountain","steam_id":76561198273383183,"connected_time":4438000000000,"state":"active","ping":57},{"user_id":112,"name":"tesagi","steam_id":76561198026664629,"connected_time":4155000000000,"state":"active","ping":54}]},{"server_id":301,"name":"Uncletopia | Montréal | 2 | All Maps","name_short":"mtl-2","host":"mtl-1.ca.uncletopia.com","port":27025,"enabled":true,"region":"us-east","cc":"ca","latitude":45.50889,"longitude":-73.56167,"reserved":0,"last_update":"0001-01-01T00:00:00Z","name_a2s":"Uncletopia | Montréal | 2 | All Maps","protocol":17,"map":"koth_highpass","folder":"tf","game":"Team Fortress","app_id":440,"player_count":24,"max_players":24,"Bots":0,"server_type":"Dedicated","server_os":"Linux","password":true,"vac":true,"version":"7882260","steam_id":85568392924500088,"keywords":["cp","nocrits","nodmgspread","uncletopia"],"game_id":440,"stv_port":27026,"stv_name":"Uncletopia | Montréal | 2 | All Maps | STV","players":[{"user_id":195,"name":"NoSauceForYou","steam_id":76561198140584050,"connected_time":308000000000,"state":"active","ping":57},{"user_id":184,"name":"AVVR54S","steam_id":76561198123661577,"connected_time":1117000000000,"state":"active","ping":56},{"user_id":201,"name":"Greenfire","steam_id":76561198966181475,"connected_time":179000000000,"state":"active","ping":76},{"user_id":185,"name":"Fresh0c0","steam_id":76561198271933283,"connected_time":1011000000000,"state":"active","ping":77},{"user_id":193,"name":"Mrs Moth\u003c3 (She/Her)","steam_id":76561198356567287,"connected_time":600000000000,"state":"active","ping":45},{"user_id":196,"name":"reymundo","steam_id":76561197989412830,"connected_time":214000000000,"state":"active","ping":127},{"user_id":162,"name":"WhoIsDst","steam_id":76561199065021451,"connected_time":1901000000000,"state":"active","ping":83},{"user_id":159,"name":"n99k","steam_id":76561198203732449,"connected_time":1944000000000,"state":"active","ping":84},{"user_id":160,"name":"OneMisguidedSlyGuy","steam_id":76561198372243261,"connected_time":1941000000000,"state":"active","ping":119},{"user_id":194,"name":"THE HUMAN MISSILE","steam_id":76561198381199862,"connected_time":502000000000,"state":"active","ping":63},{"user_id":199,"name":"St. Bobson Q Dugnutt III Esq Sr","steam_id":76561197993459985,"connected_time":193000000000,"state":"active","ping":57},{"user_id":139,"name":"HundchenTanque","steam_id":76561198122692754,"connected_time":3250000000000,"state":"active","ping":44},{"user_id":189,"name":"brian.dahlmann","steam_id":76561198360431651,"connected_time":933000000000,"state":"active","ping":91},{"user_id":165,"name":"aunt may kills Batman","steam_id":76561198300250162,"connected_time":1852000000000,"state":"active","ping":52},{"user_id":179,"name":"Dr. Sex, M.D.","steam_id":76561199065406549,"connected_time":1554000000000,"state":"active","ping":132},{"user_id":190,"name":"ONIZUKAAA","steam_id":76561198087229325,"connected_time":866000000000,"state":"active","ping":69},{"user_id":202,"name":"acurlyquote","steam_id":76561198110033420,"connected_time":169000000000,"state":"active","ping":79},{"user_id":203,"name":"craf","steam_id":76561198163535075,"connected_time":132000000000,"state":"active","ping":79},{"user_id":172,"name":"The Abysswalker","steam_id":76561198131301343,"connected_time":1700000000000,"state":"active","ping":59},{"user_id":183,"name":"Boris Johnson","steam_id":76561198405811534,"connected_time":1306000000000,"state":"active","ping":84},{"user_id":191,"name":"Sprucelass","steam_id":76561197998391724,"connected_time":860000000000,"state":"active","ping":52},{"user_id":175,"name":"Rez LeRoux","steam_id":76561198451503538,"connected_time":1643000000000,"state":"active","ping":57},{"user_id":200,"name":"Manlymedic45","steam_id":76561199379376478,"connected_time":192000000000,"state":"active","ping":108},{"user_id":182,"name":"Eldritch Curio.👁","steam_id":76561198044669027,"connected_time":1408000000000,"state":"active","ping":53}]},{"server_id":302,"name":"Uncletopia | Montréal | 3 | All Maps","name_short":"mtl-3","host":"mtl-1.ca.uncletopia.com","port":27035,"enabled":true,"region":"us-east","cc":"ca","latitude":45.50889,"longitude":-73.56167,"reserved":0,"last_update":"0001-01-01T00:00:00Z","name_a2s":"Uncletopia | Montréal | 3 | All Maps","protocol":17,"map":"koth_viaduct","folder":"tf","game":"Team Fortress","app_id":440,"player_count":0,"max_players":24,"Bots":0,"server_type":"Dedicated","server_os":"Linux","password":true,"vac":true,"version":"7882260","steam_id":85568392924500089,"keywords":["cp","nocrits","nodmgspread","uncletopia"],"game_id":440,"stv_port":27036,"stv_name":"Uncletopia | Montréal | 3 | All Maps | STV","players":null},{"server_id":303,"name":"Uncletopia | Montréal | 4 | No Payload","name_short":"mtl-4","host":"mtl-1.ca.uncletopia.com","port":27045,"enabled":true,"region":"us-east","cc":"ca","latitude":45.50889,"longitude":-73.56167,"reserved":0,"last_update":"0001-01-01T00:00:00Z","name_a2s":"Uncletopia | Montréal | 4 | No Payload","protocol":17,"map":"koth_highpass","folder":"tf","game":"Team Fortress","app_id":440,"player_count":0,"max_players":24,"Bots":0,"server_type":"Dedicated","server_os":"Linux","password":true,"vac":true,"version":"7882260","steam_id":85568392924500090,"keywords":["cp","nocrits","nodmgspread","uncletopia"],"game_id":440,"stv_port":27046,"stv_name":"Uncletopia | Montréal | 4 | No Payload | STV","players":null},{"server_id":13,"name":"Uncletopia | New York City | 1 | All Maps","name_short":"nyc-1","host":"nyc-1.us.uncletopia.com","port":27015,"enabled":true,"region":"us-east","cc":"us","latitude":40.73061,"longitude":-73.93524,"reserved":0,"last_update":"0001-01-01T00:00:00Z","name_a2s":"Uncletopia | New York City | 1 | All Maps","protocol":17,"map":"pl_swiftwater_final1","folder":"tf","game":"Team Fortress","app_id":440,"player_count":24,"max_players":24,"Bots":0,"server_type":"Dedicated","server_os":"Linux","password":true,"vac":true,"version":"7882260","steam_id":85568392924469993,"keywords":["nocrits","nodmgspread","payload","uncletopia"],"game_id":440,"stv_port":27016,"stv_name":"Uncletopia | New York City | 1 | All Maps | STV","players":[{"user_id":491,"name":"ThePresidentOf","steam_id":76561198327439910,"connected_time":850000000000,"state":"active","ping":87},{"user_id":435,"name":"Jasmine Rice","steam_id":76561198163163590,"connected_time":5098000000000,"state":"active","ping":85},{"user_id":481,"name":"Fizz","steam_id":76561197985230931,"connected_time":1403000000000,"state":"active","ping":60},{"user_id":501,"name":"InsertNameHere","steam_id":76561199084629331,"connected_time":45000000000,"state":"active","ping":70},{"user_id":490,"name":"Fredrick","steam_id":76561197981419964,"connected_time":942000000000,"state":"active","ping":54},{"user_id":483,"name":"Pib","steam_id":76561197994926573,"connected_time":1095000000000,"state":"active","ping":75},{"user_id":478,"name":"How does he","steam_id":76561199101373436,"connected_time":1787000000000,"state":"active","ping":74},{"user_id":479,"name":"val","steam_id":76561198177716494,"connected_time":1584000000000,"state":"active","ping":45},{"user_id":495,"name":"saib","steam_id":76561198966980576,"connected_time":307000000000,"state":"active","ping":54},{"user_id":493,"name":"Ash_Follow3","steam_id":76561199150479264,"connected_time":450000000000,"state":"active","ping":75},{"user_id":453,"name":"Meh","steam_id":76561198078187920,"connected_time":3894000000000,"state":"active","ping":96},{"user_id":497,"name":"Cigtar","steam_id":76561198079842818,"connected_time":174000000000,"state":"active","ping":67},{"user_id":462,"name":"Frank the Atomic Green Been","steam_id":76561198147300992,"connected_time":3030000000000,"state":"active","ping":68},{"user_id":484,"name":"Pixeled","steam_id":76561198088917077,"connected_time":1063000000000,"state":"active","ping":83},{"user_id":463,"name":"kursed","steam_id":76561198992371495,"connected_time":3002000000000,"state":"active","ping":42},{"user_id":486,"name":"Blue","steam_id":76561199093604072,"connected_time":1060000000000,"state":"active","ping":75},{"user_id":487,"name":"vandeer","steam_id":76561198120124007,"connected_time":1056000000000,"state":"active","ping":88},{"user_id":499,"name":"DragoDuck","steam_id":76561198385685683,"connected_time":115000000000,"state":"active","ping":115},{"user_id":500,"name":"Porcupine's Revenge!","steam_id":76561199121615234,"connected_time":114000000000,"state":"active","ping":45},{"user_id":485,"name":"Effie","steam_id":76561198261842068,"connected_time":1063000000000,"state":"active","ping":63},{"user_id":488,"name":"pabbott123110","steam_id":76561199231739796,"connected_time":1044000000000,"state":"active","ping":74},{"user_id":489,"name":"gmaay","steam_id":76561199104911185,"connected_time":982000000000,"state":"active","ping":61},{"user_id":480,"name":"ft. Mitk","steam_id":76561199109203558,"connected_time":1515000000000,"state":"active","ping":72},{"user_id":477,"name":"Kirbs","steam_id":76561198970654800,"connected_time":1910000000000,"state":"active","ping":46}]},{"server_id":14,"name":"Uncletopia | New York City | 2 | All Maps","name_short":"nyc-2","host":"nyc-1.us.uncletopia.com","port":27025,"enabled":true,"region":"us-east","cc":"us","latitude":40.73061,"longitude":-73.93524,"reserved":0,"last_update":"0001-01-01T00:00:00Z","name_a2s":"Uncletopia | New York City | 2 | All Maps","protocol":17,"map":"pl_badwater","folder":"tf","game":"Team Fortress","app_id":440,"player_count":24,"max_players":24,"Bots":0,"server_type":"Dedicated","server_os":"Linux","password":true,"vac":true,"version":"7882260","steam_id":85568392924469994,"keywords":["nocrits","nodmgspread","payload","uncletopia"],"game_id":440,"stv_port":27026,"stv_name":"Uncletopia | New York City | 2 | All Maps | STV","players":[{"user_id":607,"name":"minly","steam_id":76561199078991134,"connected_time":1536000000000,"state":"active","ping":77},{"user_id":561,"name":"Joy #savetf2","steam_id":76561198073690173,"connected_time":4503000000000,"state":"active","ping":54},{"user_id":598,"name":"MasKingDark","steam_id":76561198820069625,"connected_time":1969000000000,"state":"active","ping":90},{"user_id":581,"name":"TheGrassMan (He/Him)","steam_id":76561198118984048,"connected_time":3174000000000,"state":"active","ping":66},{"user_id":601,"name":"Sigiferd","steam_id":76561198148788110,"connected_time":1862000000000,"state":"active","ping":122},{"user_id":591,"name":"nav","steam_id":76561198872608266,"connected_time":2649000000000,"state":"active","ping":71},{"user_id":612,"name":"Raskell","steam_id":76561198064617950,"connected_time":560000000000,"state":"active","ping":66},{"user_id":608,"name":"Whole Wheat Lemon","steam_id":76561199025265182,"connected_time":1413000000000,"state":"active","ping":61},{"user_id":558,"name":"Pika","steam_id":76561198080395122,"connected_time":4910000000000,"state":"active","ping":112},{"user_id":609,"name":"Fish","steam_id":76561199258053772,"connected_time":1332000000000,"state":"active","ping":74},{"user_id":535,"name":"you are loved","steam_id":76561198108524571,"connected_time":6005000000000,"state":"active","ping":60},{"user_id":495,"name":"kairOs.fk","steam_id":76561197972421260,"connected_time":9247000000000,"state":"active","ping":44},{"user_id":481,"name":"Voidbane","steam_id":76561198060591741,"connected_time":9696000000000,"state":"active","ping":86},{"user_id":515,"name":"Bootes","steam_id":76561197968255551,"connected_time":7943000000000,"state":"active","ping":58},{"user_id":575,"name":"tokyo","steam_id":76561199013458589,"connected_time":3789000000000,"state":"active","ping":60},{"user_id":610,"name":"Squilly","steam_id":76561198084059258,"connected_time":1244000000000,"state":"active","ping":66},{"user_id":611,"name":"BisKit","steam_id":76561198140624153,"connected_time":1234000000000,"state":"active","ping":94},{"user_id":590,"name":"Yucatán Peninsula","steam_id":76561198025759222,"connected_time":2724000000000,"state":"active","ping":56},{"user_id":613,"name":"judesro","steam_id":76561198352244888,"connected_time":295000000000,"state":"active","ping":69},{"user_id":614,"name":"cactus eater","steam_id":76561199107499844,"connected_time":176000000000,"state":"active","ping":133},{"user_id":594,"name":"Yabberdabber","steam_id":76561198388436131,"connected_time":2168000000000,"state":"active","ping":74},{"user_id":602,"name":"cass","steam_id":76561198074502046,"connected_time":1851000000000,"state":"active","ping":86},{"user_id":603,"name":"PAFFsTastyPudding","steam_id":76561199002203593,"connected_time":1769000000000,"state":"active","ping":155},{"user_id":604,"name":"waltuh","steam_id":76561198363541736,"connected_time":1631000000000,"state":"active","ping":128}]},{"server_id":15,"name":"Uncletopia | New York City | 3 | Stopwatch Beta","name_short":"nyc-3","host":"nyc-1.us.uncletopia.com","port":27035,"enabled":true,"region":"us-east","cc":"us","latitude":40.73061,"longitude":-73.93524,"reserved":0,"last_update":"0001-01-01T00:00:00Z","name_a2s":"Uncletopia | New York City | 3 | Stopwatch Beta","protocol":17,"map":"workshop/koth_product_final.ugc454272353","folder":"tf","game":"Team Fortress","app_id":440,"player_count":0,"max_players":24,"Bots":0,"server_type":"Dedicated","server_os":"Linux","password":true,"vac":true,"version":"7882260","steam_id":85568392924742820,"keywords":["cp","nocrits","nodmgspread","uncletopia"],"game_id":440,"stv_port":27036,"stv_name":"Uncletopia | New York City | 3 | Stopwatch Beta | STV","players":null},{"server_id":16,"name":"Uncletopia | New York City | 4 | Community","name_short":"nyc-4","host":"nyc-1.us.uncletopia.com","port":27045,"enabled":true,"region":"us-east","cc":"us","latitude":40.73061,"longitude":-73.93524,"reserved":0,"last_update":"0001-01-01T00:00:00Z","name_a2s":"Uncletopia | New York City | 4 | Community","protocol":17,"map":"workshop/cp_kalinka_rc6a.ugc1272700588","folder":"tf","game":"Team Fortress","app_id":440,"player_count":24,"max_players":24,"Bots":0,"server_type":"Dedicated","server_os":"Linux","password":true,"vac":true,"version":"7882260","steam_id":85568392924742821,"keywords":["cp","nocrits","nodmgspread","uncletopia"],"game_id":440,"stv_port":27046,"stv_name":"Uncletopia | New York City | 4 | Community | STV","players":[{"user_id":140,"name":"Green_GarBear","steam_id":76561199468912415,"connected_time":136000000000,"state":"active","ping":132},{"user_id":109,"name":"EmotreX","steam_id":76561198366518989,"connected_time":2926000000000,"state":"active","ping":84},{"user_id":119,"name":"Shadow WIZARD MoneyGang","steam_id":76561197986051713,"connected_time":2635000000000,"state":"active","ping":87},{"user_id":108,"name":"Soda Drink Shartblast","steam_id":76561198134187113,"connected_time":2929000000000,"state":"active","ping":89},{"user_id":133,"name":"Colin102004","steam_id":76561198202384334,"connected_time":1029000000000,"state":"active","ping":39},{"user_id":130,"name":"Glowie Gus","steam_id":76561198047809106,"connected_time":1438000000000,"state":"active","ping":96},{"user_id":137,"name":"chrischrischris3018@yahoo.com","steam_id":76561198137316053,"connected_time":567000000000,"state":"active","ping":60},{"user_id":127,"name":"2ap","steam_id":76561199151171033,"connected_time":1590000000000,"state":"active","ping":60},{"user_id":107,"name":"Squiliam Fancyson","steam_id":76561199029458936,"connected_time":2941000000000,"state":"active","ping":78},{"user_id":136,"name":"arii","steam_id":76561198247905096,"connected_time":770000000000,"state":"active","ping":81},{"user_id":87,"name":"Zerwee","steam_id":76561198181368101,"connected_time":4548000000000,"state":"active","ping":139},{"user_id":95,"name":"canid","steam_id":76561198103496593,"connected_time":3980000000000,"state":"active","ping":71},{"user_id":60,"name":"Bullwinkle J. Moose","steam_id":76561198075977196,"connected_time":5922000000000,"state":"active","ping":106},{"user_id":132,"name":"Stick","steam_id":76561198001509374,"connected_time":1130000000000,"state":"active","ping":89},{"user_id":72,"name":"Merganser","steam_id":76561198044550447,"connected_time":5201000000000,"state":"active","ping":154},{"user_id":98,"name":"Zoawsome","steam_id":76561198018758753,"connected_time":3603000000000,"state":"active","ping":68},{"user_id":131,"name":"Kars","steam_id":76561198845612670,"connected_time":1141000000000,"state":"active","ping":104},{"user_id":125,"name":"Ritzy","steam_id":76561198381955342,"connected_time":2391000000000,"state":"active","ping":132},{"user_id":122,"name":"Aeonspassed","steam_id":76561198014016451,"connected_time":2521000000000,"state":"active","ping":76},{"user_id":139,"name":"Senator_Armstronger","steam_id":76561199230272326,"connected_time":438000000000,"state":"active","ping":85},{"user_id":123,"name":"teaf","steam_id":76561198406252824,"connected_time":2455000000000,"state":"active","ping":122},{"user_id":112,"name":"Protato","steam_id":76561198061182563,"connected_time":2879000000000,"state":"active","ping":63},{"user_id":128,"name":"Shuu","steam_id":76561199199180558,"connected_time":1579000000000,"state":"active","ping":57},{"user_id":129,"name":"Tomcouger","steam_id":76561198022866923,"connected_time":1460000000000,"state":"active","ping":161}]},{"server_id":142,"name":"Uncletopia | São Paulo | 1 | All Maps","name_short":"sao-1","host":"sao-1.br.uncletopia.com","port":27015,"enabled":true,"region":"sa","cc":"br","latitude":-23.533773,"longitude":-46.62529,"reserved":0,"last_update":"0001-01-01T00:00:00Z","name_a2s":"Uncletopia | São Paulo | 1 | All Maps","protocol":17,"map":"koth_highpass","folder":"tf","game":"Team Fortress","app_id":440,"player_count":2,"max_players":24,"Bots":0,"server_type":"Dedicated","server_os":"Linux","password":true,"vac":true,"version":"7882260","steam_id":85568392924469996,"keywords":["cp","nocrits","nodmgspread","uncletopia"],"game_id":440,"stv_port":27016,"stv_name":"Uncletopia | São Paulo | 1 | All Maps | STV","players":[{"user_id":32,"name":"guarda-chuva","steam_id":76561198078694330,"connected_time":1083000000000,"state":"active","ping":56},{"user_id":33,"name":"Tert_14","steam_id":76561198185952289,"connected_time":1075000000000,"state":"active","ping":67}]},{"server_id":143,"name":"Uncletopia | São Paulo | 2 | All Maps","name_short":"sao-2","host":"sao-2.br.uncletopia.com","port":27015,"enabled":true,"region":"sa","cc":"br","latitude":-23.533773,"longitude":-46.62529,"reserved":0,"last_update":"0001-01-01T00:00:00Z","name_a2s":"Uncletopia | São Paulo | 2 | All Maps","protocol":17,"map":"pl_borneo","folder":"tf","game":"Team Fortress","app_id":440,"player_count":23,"max_players":24,"Bots":0,"server_type":"Dedicated","server_os":"Linux","password":true,"vac":true,"version":"7882260","steam_id":85568392924485349,"keywords":["nocrits","nodmgspread","payload","uncletopia"],"game_id":440,"stv_port":27016,"stv_name":"Uncletopia | São Paulo | 2 | All Maps | STV","players":[{"user_id":437,"name":"Tyrone","steam_id":76561198977849688,"connected_time":455000000000,"state":"active","ping":47},{"user_id":442,"name":"Fuma Fuma","steam_id":76561198327833399,"connected_time":338000000000,"state":"active","ping":39},{"user_id":444,"name":"Gótica Rabuda ⛧","steam_id":76561198068184006,"connected_time":172000000000,"state":"active","ping":38},{"user_id":329,"name":"Derretimento Geral 2017","steam_id":76561198194300069,"connected_time":5140000000000,"state":"active","ping":39},{"user_id":441,"name":"Torna-te Sábio.","steam_id":76561198078377030,"connected_time":376000000000,"state":"active","ping":114},{"user_id":447,"name":"raldite","steam_id":76561198074152931,"connected_time":62000000000,"state":"active","ping":49},{"user_id":426,"name":"Gigi","steam_id":76561198348971878,"connected_time":898000000000,"state":"active","ping":62},{"user_id":360,"name":"flamingo","steam_id":76561198854099251,"connected_time":3543000000000,"state":"active","ping":83},{"user_id":418,"name":"Mavericko","steam_id":76561198100473065,"connected_time":1107000000000,"state":"active","ping":45},{"user_id":432,"name":"Link","steam_id":76561198000294279,"connected_time":591000000000,"state":"active","ping":49},{"user_id":428,"name":"maknae","steam_id":76561199304706896,"connected_time":666000000000,"state":"active","ping":72},{"user_id":443,"name":"♥ Eslayder ♥","steam_id":76561198068505052,"connected_time":286000000000,"state":"active","ping":52},{"user_id":395,"name":"JuJiNs","steam_id":76561198088600138,"connected_time":2130000000000,"state":"active","ping":46},{"user_id":397,"name":"Carnip","steam_id":76561198130005329,"connected_time":1955000000000,"state":"active","ping":46},{"user_id":440,"name":"j0t4","steam_id":76561198858300559,"connected_time":425000000000,"state":"active","ping":45},{"user_id":445,"name":"SC0rp","steam_id":76561198983920816,"connected_time":93000000000,"state":"active","ping":115},{"user_id":335,"name":"Tamboril Comunista","steam_id":76561198437417461,"connected_time":4999000000000,"state":"active","ping":47},{"user_id":413,"name":"rami","steam_id":76561198187565346,"connected_time":1211000000000,"state":"active","ping":81},{"user_id":324,"name":"Rândrey","steam_id":76561198302119344,"connected_time":5354000000000,"state":"active","ping":96},{"user_id":446,"name":"SilverRain","steam_id":76561198046686195,"connected_time":85000000000,"state":"active","ping":58},{"user_id":403,"name":"Evanbrs","steam_id":76561198041508327,"connected_time":1831000000000,"state":"active","ping":75},{"user_id":370,"name":"Cara da Old Spice(Old Spice Guy","steam_id":76561198081925177,"connected_time":3127000000000,"state":"active","ping":65},{"user_id":412,"name":"Komuna","steam_id":76561199405330162,"connected_time":1374000000000,"state":"active","ping":57}]},{"server_id":7,"name":"Uncletopia | Seattle | 1 | All Maps","name_short":"sea-1","host":"sea-1.us.uncletopia.com","port":27015,"enabled":true,"region":"us-west","cc":"us","latitude":47.608013,"longitude":-122.33517,"reserved":0,"last_update":"0001-01-01T00:00:00Z","name_a2s":"Uncletopia | Seattle | 1 | All Maps","protocol":17,"map":"pl_upward","folder":"tf","game":"Team Fortress","app_id":440,"player_count":24,"max_players":24,"Bots":0,"server_type":"Dedicated","server_os":"Linux","password":true,"vac":true,"version":"7882260","steam_id":85568392924469997,"keywords":["nocrits","nodmgspread","payload","uncletopia"],"game_id":440,"stv_port":27016,"stv_name":"Uncletopia | Seattle | 1 | All Maps | STV","players":[{"user_id":506,"name":"Neptune *:･ﾟ✧*:･ﾟ","steam_id":76561199054203198,"connected_time":1676000000000,"state":"active","ping":122},{"user_id":524,"name":"brobtlcehc","steam_id":76561198043558709,"connected_time":303000000000,"state":"active","ping":45},{"user_id":525,"name":"iphone 7 plus","steam_id":76561198335836405,"connected_time":301000000000,"state":"active","ping":73},{"user_id":529,"name":"Lane","steam_id":76561197965828506,"connected_time":135000000000,"state":"active","ping":89},{"user_id":509,"name":"Ad3ptus","steam_id":76561198272045750,"connected_time":1642000000000,"state":"active","ping":39},{"user_id":497,"name":"Alltrex","steam_id":76561198202254225,"connected_time":2413000000000,"state":"active","ping":46},{"user_id":519,"name":"kyepka yobane","steam_id":76561198078626283,"connected_time":506000000000,"state":"active","ping":40},{"user_id":526,"name":"RainboomCrash","steam_id":76561198065612273,"connected_time":288000000000,"state":"active","ping":54},{"user_id":513,"name":"🎄AndreaJingling🎄","steam_id":76561198198658783,"connected_time":1067000000000,"state":"active","ping":77},{"user_id":507,"name":"MCman","steam_id":76561198412110305,"connected_time":1675000000000,"state":"active","ping":76},{"user_id":477,"name":"Femboi Fox","steam_id":76561198915758702,"connected_time":3749000000000,"state":"active","ping":56},{"user_id":389,"name":"oo","steam_id":76561198119626492,"connected_time":11151000000000,"state":"active","ping":76},{"user_id":520,"name":"Tazzz","steam_id":76561198280897107,"connected_time":483000000000,"state":"active","ping":41},{"user_id":479,"name":"dirty30","steam_id":76561198021226566,"connected_time":3730000000000,"state":"active","ping":51},{"user_id":501,"name":"Arsonist Goose","steam_id":76561198147441830,"connected_time":1831000000000,"state":"active","ping":69},{"user_id":498,"name":"Spaceman","steam_id":76561198349305249,"connected_time":2210000000000,"state":"active","ping":64},{"user_id":510,"name":"Smellbow McArmpit","steam_id":76561198109445099,"connected_time":1587000000000,"state":"active","ping":48},{"user_id":499,"name":"SCOTLAND FOREVER","steam_id":76561199151371479,"connected_time":2101000000000,"state":"active","ping":122},{"user_id":455,"name":"Alpdhuez [✚]","steam_id":76561198013808837,"connected_time":5120000000000,"state":"active","ping":64},{"user_id":476,"name":"Kc","steam_id":76561198210734407,"connected_time":3752000000000,"state":"active","ping":120},{"user_id":516,"name":"NEBULA","steam_id":76561198086878595,"connected_time":697000000000,"state":"active","ping":77},{"user_id":465,"name":"Sadistic Dentist","steam_id":76561198103189993,"connected_time":4689000000000,"state":"active","ping":87},{"user_id":521,"name":"Sadodere Grimace","steam_id":76561198008332028,"connected_time":483000000000,"state":"active","ping":94},{"user_id":522,"name":"toilet mafia","steam_id":76561198844273999,"connected_time":483000000000,"state":"active","ping":47}]},{"server_id":119,"name":"Uncletopia | Seattle | 2 | All Maps","name_short":"sea-2","host":"sea-1.us.uncletopia.com","port":27025,"enabled":true,"region":"us-west","cc":"us","latitude":47.608013,"longitude":-122.33517,"reserved":0,"last_update":"0001-01-01T00:00:00Z","name_a2s":"Uncletopia | Seattle | 2 | All Maps","protocol":17,"map":"pl_borneo","folder":"tf","game":"Team Fortress","app_id":440,"player_count":24,"max_players":24,"Bots":0,"server_type":"Dedicated","server_os":"Linux","password":true,"vac":true,"version":"7882260","steam_id":85568392924469998,"keywords":["nocrits","nodmgspread","payload","uncletopia"],"game_id":440,"stv_port":27026,"stv_name":"Uncletopia | Seattle | 2 | All Maps | STV","players":[{"user_id":431,"name":"dimpled","steam_id":76561197983120236,"connected_time":2390000000000,"state":"active","ping":55},{"user_id":457,"name":"C^a^L","steam_id":76561198241124222,"connected_time":194000000000,"state":"active","ping":63},{"user_id":441,"name":"Tea","steam_id":76561198004133638,"connected_time":2020000000000,"state":"active","ping":78},{"user_id":451,"name":"420blzItM8","steam_id":76561198137983285,"connected_time":804000000000,"state":"active","ping":91},{"user_id":454,"name":"Incredible Donk","steam_id":76561198427360423,"connected_time":282000000000,"state":"active","ping":87},{"user_id":459,"name":"McSpazatron","steam_id":76561198955942148,"connected_time":9000000000,"state":"spawning","ping":95},{"user_id":414,"name":"Banzai","steam_id":76561198196503877,"connected_time":3478000000000,"state":"active","ping":50},{"user_id":419,"name":"KonJac","steam_id":76561198027812652,"connected_time":3215000000000,"state":"active","ping":73},{"user_id":452,"name":"Tibetan Pop Star","steam_id":76561198844903984,"connected_time":352000000000,"state":"active","ping":85},{"user_id":389,"name":"Baker","steam_id":76561198055196430,"connected_time":5961000000000,"state":"active","ping":114},{"user_id":455,"name":"Weeb2400","steam_id":76561199078930696,"connected_time":228000000000,"state":"active","ping":87},{"user_id":453,"name":"COOL master_9","steam_id":76561198073041151,"connected_time":306000000000,"state":"active","ping":101},{"user_id":456,"name":"PvZ Enthusiast","steam_id":76561199089562026,"connected_time":211000000000,"state":"active","ping":53},{"user_id":458,"name":"Gunpowder","steam_id":76561199089023124,"connected_time":184000000000,"state":"active","ping":109},{"user_id":446,"name":"johnman gooberguy","steam_id":76561199014859764,"connected_time":1517000000000,"state":"active","ping":77},{"user_id":421,"name":"damageinc86","steam_id":76561198058325130,"connected_time":3065000000000,"state":"active","ping":63},{"user_id":447,"name":"poole party","steam_id":76561198099234665,"connected_time":1463000000000,"state":"active","ping":66},{"user_id":425,"name":"MS Paint Gamer","steam_id":76561198964527916,"connected_time":2734000000000,"state":"active","ping":40},{"user_id":219,"name":"Els","steam_id":76561198354718934,"connected_time":18211000000000,"state":"active","ping":75},{"user_id":411,"name":"Lonestar827","steam_id":76561198035533639,"connected_time":3780000000000,"state":"active","ping":57},{"user_id":442,"name":"certified play-doh devourer","steam_id":76561199229848770,"connected_time":1870000000000,"state":"active","ping":53},{"user_id":423,"name":"Your kinky Onee-san","steam_id":76561199146582356,"connected_time":2787000000000,"state":"active","ping":57},{"user_id":436,"name":"Glar","steam_id":76561198341907150,"connected_time":2251000000000,"state":"active","ping":42},{"user_id":449,"name":"Elfy","steam_id":76561199166448617,"connected_time":1387000000000,"state":"active","ping":57}]},{"server_id":406,"name":"Uncletopia | Seattle | 3 | Stopwatch Beta","name_short":"sea-3","host":"sea-1.us.uncletopia.com","port":27035,"enabled":true,"region":"us-west","cc":"us","latitude":47.608013,"longitude":-122.33517,"reserved":0,"last_update":"0001-01-01T00:00:00Z","name_a2s":"Uncletopia | Seattle | 3 | Stopwatch Beta","protocol":17,"map":"cp_gullywash_final1","folder":"tf","game":"Team Fortress","app_id":440,"player_count":22,"max_players":24,"Bots":0,"server_type":"Dedicated","server_os":"Linux","password":true,"vac":true,"version":"7882260","steam_id":85568392924515217,"keywords":["cp","nocrits","nodmgspread","uncletopia"],"game_id":440,"stv_port":27036,"stv_name":"Uncletopia | Seattle | 3 | Stopwatch Beta | STV","players":[{"user_id":89,"name":"Sploonbabagoosecooties","steam_id":76561198139972201,"connected_time":1710000000000,"state":"active","ping":55},{"user_id":64,"name":"Retard","steam_id":76561199241541416,"connected_time":2672000000000,"state":"active","ping":75},{"user_id":113,"name":"Young Sandwich","steam_id":76561198180908482,"connected_time":154000000000,"state":"active","ping":101},{"user_id":114,"name":"Semeka","steam_id":76561198405404117,"connected_time":115000000000,"state":"active","ping":44},{"user_id":98,"name":"Arkus","steam_id":76561199092478198,"connected_time":835000000000,"state":"active","ping":46},{"user_id":78,"name":"MegaBron James","steam_id":76561198066091050,"connected_time":2464000000000,"state":"active","ping":49},{"user_id":65,"name":"Tom Crúaich","steam_id":76561197999439911,"connected_time":2672000000000,"state":"active","ping":59},{"user_id":100,"name":"RaixaR","steam_id":76561198025289430,"connected_time":648000000000,"state":"active","ping":102},{"user_id":99,"name":"Super crak 202 9","steam_id":76561199176207530,"connected_time":829000000000,"state":"active","ping":93},{"user_id":72,"name":"TheMrDudeManGuyFella","steam_id":76561198011204414,"connected_time":2591000000000,"state":"active","ping":70},{"user_id":79,"name":"checkswing","steam_id":76561198999816132,"connected_time":2445000000000,"state":"active","ping":125},{"user_id":61,"name":"ghostFireGloom","steam_id":76561198385231745,"connected_time":2899000000000,"state":"active","ping":51},{"user_id":97,"name":"greens beans","steam_id":76561198153611491,"connected_time":974000000000,"state":"active","ping":36},{"user_id":104,"name":"shark kid","steam_id":76561198055660354,"connected_time":479000000000,"state":"active","ping":128},{"user_id":105,"name":"jams","steam_id":76561198131701290,"connected_time":453000000000,"state":"active","ping":80},{"user_id":67,"name":"dudescore","steam_id":76561199091453555,"connected_time":2668000000000,"state":"active","ping":71},{"user_id":106,"name":":3","steam_id":76561198008599033,"connected_time":447000000000,"state":"active","ping":92},{"user_id":110,"name":"BillyTheButt-Plumber","steam_id":76561198021183555,"connected_time":344000000000,"state":"active","ping":66},{"user_id":70,"name":"Reaper","steam_id":76561198435826103,"connected_time":2631000000000,"state":"active","ping":120},{"user_id":86,"name":"old birb man","steam_id":76561199410269097,"connected_time":2183000000000,"state":"active","ping":157},{"user_id":60,"name":"Boyaredeen","steam_id":76561198880492636,"connected_time":3074000000000,"state":"active","ping":55},{"user_id":108,"name":"Five","steam_id":76561198026640473,"connected_time":436000000000,"state":"active","ping":53}]},{"server_id":17,"name":"Uncletopia | San Francisco | 1 | All Maps","name_short":"sfo-1","host":"sfo-1.us.uncletopia.com","port":27015,"enabled":true,"region":"us-west","cc":"us","latitude":37.77397,"longitude":-122.4313,"reserved":0,"last_update":"0001-01-01T00:00:00Z","name_a2s":"Uncletopia | San Francisco | 1 | All Maps","protocol":17,"map":"cp_process_final","folder":"tf","game":"Team Fortress","app_id":440,"player_count":0,"max_players":24,"Bots":0,"server_type":"Dedicated","server_os":"Linux","password":true,"vac":true,"version":"7757534","steam_id":85568392924469999,"keywords":["cp","nocrits","nodmgspread","uncletopia"],"game_id":440,"stv_port":27016,"stv_name":"Uncletopia | San Francisco | 1 | All Maps | STV","players":null},{"server_id":18,"name":"Uncletopia | San Francisco | 2 | All Maps","name_short":"sfo-2","host":"sfo-1.us.uncletopia.com","port":27025,"enabled":true,"region":"us-west","cc":"us","latitude":37.77397,"longitude":-122.4313,"reserved":0,"last_update":"0001-01-01T00:00:00Z","name_a2s":"Uncletopia | San Francisco | 2 | All Maps","protocol":17,"map":"koth_highpass","folder":"tf","game":"Team Fortress","app_id":440,"player_count":0,"max_players":24,"Bots":0,"server_type":"Dedicated","server_os":"Linux","password":true,"vac":true,"version":"7757534","steam_id":85568392924470000,"keywords":["cp","nocrits","nodmgspread","uncletopia"],"game_id":440,"stv_port":27026,"stv_name":"Uncletopia | San Francisco | 2 | All Maps | STV","players":null},{"server_id":19,"name":"Uncletopia | San Francisco | 3 | Stopwatch Beta","name_short":"sfo-3","host":"sfo-1.us.uncletopia.com","port":27035,"enabled":true,"region":"us-west","cc":"us","latitude":37.77397,"longitude":-122.4313,"reserved":0,"last_update":"0001-01-01T00:00:00Z","name_a2s":"Uncletopia | San Francisco | 3 | Stopwatch Beta","protocol":17,"map":"koth_lakeside_final","folder":"tf","game":"Team Fortress","app_id":440,"player_count":0,"max_players":24,"Bots":0,"server_type":"Dedicated","server_os":"Linux","password":true,"vac":true,"version":"7757534","steam_id":85568392924742824,"keywords":["cp","nocrits","nodmgspread","uncletopia"],"game_id":440,"stv_port":27036,"stv_name":"Uncletopia | San Francisco | 3 | Stopwatch Beta | STV","players":null},{"server_id":20,"name":"Uncletopia | San Francisco | 4 | Community","name_short":"sfo-4","host":"sfo-1.us.uncletopia.com","port":27045,"enabled":true,"region":"us-west","cc":"us","latitude":37.77397,"longitude":-122.4313,"reserved":0,"last_update":"0001-01-01T00:00:00Z","name_a2s":"Uncletopia | San Francisco | 4 | Community","protocol":17,"map":"cp_altitude","folder":"tf","game":"Team Fortress","app_id":440,"player_count":0,"max_players":24,"Bots":0,"server_type":"Dedicated","server_os":"Linux","password":true,"vac":true,"version":"7757534","steam_id":85568392924742826,"keywords":["cp","nocrits","nodmgspread","uncletopia"],"game_id":440,"stv_port":27046,"stv_name":"Uncletopia | San Francisco | 4 | Community | STV","players":null},{"server_id":141,"name":"Uncletopia | Sydney | 1 | All Maps","name_short":"syd-1","host":"syd-1.au.uncletopia.com","port":27015,"enabled":true,"region":"au","cc":"au","latitude":-33.865143,"longitude":151.2099,"reserved":0,"last_update":"0001-01-01T00:00:00Z","name_a2s":"Uncletopia | Sydney | 1 | All Maps","protocol":17,"map":"koth_viaduct","folder":"tf","game":"Team Fortress","app_id":440,"player_count":18,"max_players":24,"Bots":0,"server_type":"Dedicated","server_os":"Linux","password":true,"vac":true,"version":"7882260","steam_id":85568392924470001,"keywords":["cp","nocrits","nodmgspread","uncletopia"],"game_id":440,"stv_port":27016,"stv_name":"Uncletopia | Sydney | 1 | All Maps | STV","players":[{"user_id":4,"name":"beamerfork","steam_id":76561199013115354,"connected_time":2066000000000,"state":"active","ping":78},{"user_id":5,"name":"sweeps","steam_id":76561199162600919,"connected_time":2034000000000,"state":"active","ping":66},{"user_id":6,"name":"Plasmite [HF]","steam_id":76561198333681834,"connected_time":1849000000000,"state":"active","ping":46},{"user_id":7,"name":"speed bomb","steam_id":76561198277363788,"connected_time":1831000000000,"state":"active","ping":69},{"user_id":30,"name":"Traps aren't gay","steam_id":76561199122119805,"connected_time":2000000000,"state":"spawning","ping":275},{"user_id":10,"name":"wlfgrl","steam_id":76561199082845518,"connected_time":1312000000000,"state":"active","ping":54},{"user_id":11,"name":"shakti","steam_id":76561198309142768,"connected_time":1016000000000,"state":"active","ping":55},{"user_id":12,"name":"Yeat","steam_id":76561198202555552,"connected_time":1012000000000,"state":"active","ping":43},{"user_id":13,"name":"mc.sleek","steam_id":76561198057602720,"connected_time":995000000000,"state":"active","ping":70},{"user_id":18,"name":"DKC","steam_id":76561198313578155,"connected_time":428000000000,"state":"active","ping":43},{"user_id":15,"name":"Rizeo","steam_id":76561198147901488,"connected_time":598000000000,"state":"active","ping":68},{"user_id":29,"name":"limitspartan","steam_id":76561199166622021,"connected_time":58000000000,"state":"active","ping":273},{"user_id":20,"name":"็็ ็็","steam_id":76561198241303512,"connected_time":309000000000,"state":"active","ping":57},{"user_id":27,"name":"No Scrubs","steam_id":76561197969619053,"connected_time":157000000000,"state":"active","ping":73},{"user_id":22,"name":"Tasman","steam_id":76561198041224384,"connected_time":292000000000,"state":"active","ping":42},{"user_id":24,"name":"cakey","steam_id":76561198173746761,"connected_time":189000000000,"state":"active","ping":46},{"user_id":25,"name":"FireballOfManliness","steam_id":76561198097664941,"connected_time":184000000000,"state":"active","ping":85},{"user_id":26,"name":"DropBearWarrior","steam_id":76561198352774039,"connected_time":173000000000,"state":"active","ping":77}]},{"server_id":123,"name":"Uncletopia | Sydney | 2 | All Maps","name_short":"syd-2","host":"syd-1.au.uncletopia.com","port":27025,"enabled":true,"region":"au","cc":"au","latitude":-33.865143,"longitude":151.2099,"reserved":0,"last_update":"0001-01-01T00:00:00Z","name_a2s":"Uncletopia | Sydney | 2 | All Maps","protocol":17,"map":"pl_barnblitz","folder":"tf","game":"Team Fortress","app_id":440,"player_count":0,"max_players":24,"Bots":0,"server_type":"Dedicated","server_os":"Linux","password":true,"vac":true,"version":"7882260","steam_id":85568392924470002,"keywords":["nocrits","nodmgspread","payload","uncletopia"],"game_id":440,"stv_port":27026,"stv_name":"Uncletopia | Sydney | 2 | All Maps | STV","players":null},{"server_id":395,"name":"Uncletopia | Sydney | 3 | All Maps","name_short":"syd-3","host":"syd-1.au.uncletopia.com","port":27035,"enabled":true,"region":"au","cc":"au","latitude":-33.865143,"longitude":151.2099,"reserved":0,"last_update":"0001-01-01T00:00:00Z","name_a2s":"Uncletopia | Sydney | 3 | All Maps","protocol":17,"map":"pl_upward","folder":"tf","game":"Team Fortress","app_id":440,"player_count":0,"max_players":24,"Bots":0,"server_type":"Dedicated","server_os":"Linux","password":true,"vac":true,"version":"7882260","steam_id":85568392925194467,"keywords":["nocrits","nodmgspread","payload","uncletopia"],"game_id":440,"stv_port":27036,"stv_name":"Uncletopia | Sydney | 3 | All Maps | STV","players":null},{"server_id":396,"name":"Uncletopia | Sydney | 4 | All Maps","name_short":"syd-4","host":"syd-1.au.uncletopia.com","port":27045,"enabled":true,"region":"au","cc":"au","latitude":-33.865143,"longitude":151.2099,"reserved":0,"last_update":"0001-01-01T00:00:00Z","name_a2s":"Uncletopia | Sydney | 4 | All Maps","protocol":17,"map":"cp_dustbowl","folder":"tf","game":"Team Fortress","app_id":440,"player_count":0,"max_players":24,"Bots":0,"server_type":"Dedicated","server_os":"Linux","password":true,"vac":true,"version":"7882260","steam_id":85568392925397958,"keywords":["cp","nocrits","nodmgspread","uncletopia"],"game_id":440,"stv_port":27046,"stv_name":"Uncletopia | Sydney | 4 | All Maps | STV","players":null},{"server_id":58,"name":"Uncletopia | Sydney | 5 | Stopwatch Beta","name_short":"syd-5","host":"syd-1.au.uncletopia.com","port":27055,"enabled":true,"region":"au","cc":"au","latitude":-33.865143,"longitude":151.2099,"reserved":0,"last_update":"0001-01-01T00:00:00Z","name_a2s":"Uncletopia | Sydney | 5 | Stopwatch Beta","protocol":17,"map":"workshop/pl_vigil_rc9.ugc1266210012","folder":"tf","game":"Team Fortress","app_id":440,"player_count":0,"max_players":24,"Bots":0,"server_type":"Dedicated","server_os":"Linux","password":true,"vac":true,"version":"7882260","steam_id":85568392925397959,"keywords":["nocrits","nodmgspread","payload","uncletopia"],"game_id":440,"stv_port":27056,"stv_name":"Uncletopia | Sydney | 5 | Stopwatch Beta | STV","players":null},{"server_id":59,"name":"Uncletopia | Sydney | 6 | Community","name_short":"syd-6","host":"syd-1.au.uncletopia.com","port":27065,"enabled":true,"region":"au","cc":"au","latitude":-33.865143,"longitude":151.2099,"reserved":0,"last_update":"0001-01-01T00:00:00Z","name_a2s":"Uncletopia | Sydney | 6 | Community","protocol":17,"map":"workshop/pl_badwater_pro_v12.ugc2142942074","folder":"tf","game":"Team Fortress","app_id":440,"player_count":0,"max_players":24,"Bots":0,"server_type":"Dedicated","server_os":"Linux","password":true,"vac":true,"version":"7882260","steam_id":85568392925397960,"keywords":["nocrits","nodmgspread","payload","uncletopia"],"game_id":440,"stv_port":27066,"stv_name":"Uncletopia | Sydney | 6 | Community | STV","players":null},{"server_id":49,"name":"Uncletopia | Warsaw | 1 | All Maps","name_short":"waw-1","host":"waw-1.pl.uncletopia.com","port":27015,"enabled":true,"region":"eu","cc":"pl","latitude":52.2297,"longitude":21.017532,"reserved":0,"last_update":"0001-01-01T00:00:00Z","name_a2s":"","protocol":0,"map":"","folder":"","game":"","app_id":0,"player_count":0,"max_players":0,"Bots":0,"server_type":"","server_os":"","password":false,"vac":false,"version":"","steam_id":0,"keywords":null,"game_id":0,"stv_port":0,"stv_name":"","players":null},{"server_id":50,"name":"Uncletopia | Warsaw | 2 | All Maps","name_short":"waw-2","host":"waw-1.pl.uncletopia.com","port":27025,"enabled":true,"region":"eu","cc":"pl","latitude":52.2297,"longitude":21.017532,"reserved":0,"last_update":"0001-01-01T00:00:00Z","name_a2s":"Uncletopia | Warsaw | 2 | All Maps","protocol":17,"map":"cp_dustbowl","folder":"tf","game":"Team Fortress","app_id":440,"player_count":0,"max_players":24,"Bots":0,"server_type":"Dedicated","server_os":"Linux","password":true,"vac":true,"version":"7882260","steam_id":85568392925397851,"keywords":["cp","nocrits","nodmgspread","uncletopia"],"game_id":440,"stv_port":27026,"stv_name":"Uncletopia | Warsaw | 2 | All Maps | STV","players":null},{"server_id":51,"name":"Uncletopia | Warsaw | 3 | All Maps","name_short":"waw-3","host":"waw-1.pl.uncletopia.com","port":27035,"enabled":true,"region":"eu","cc":"pl","latitude":52.2297,"longitude":21.017532,"reserved":0,"last_update":"0001-01-01T00:00:00Z","name_a2s":"Uncletopia | Warsaw | 3 | All Maps","protocol":17,"map":"pl_badwater","folder":"tf","game":"Team Fortress","app_id":440,"player_count":0,"max_players":24,"Bots":0,"server_type":"Dedicated","server_os":"Linux","password":true,"vac":true,"version":"7882260","steam_id":85568392925397852,"keywords":["nocrits","nodmgspread","payload","uncletopia"],"game_id":440,"stv_port":27036,"stv_name":"Uncletopia | Warsaw | 3 | All Maps | STV","players":null},{"server_id":52,"name":"Uncletopia | Warsaw | 4 | All Maps","name_short":"waw-4","host":"waw-1.pl.uncletopia.com","port":27045,"enabled":true,"region":"eu","cc":"pl","latitude":52.2297,"longitude":21.017532,"reserved":0,"last_update":"0001-01-01T00:00:00Z","name_a2s":"Uncletopia | Warsaw | 4 | All Maps","protocol":17,"map":"koth_cascade","folder":"tf","game":"Team Fortress","app_id":440,"player_count":0,"max_players":24,"Bots":0,"server_type":"Dedicated","server_os":"Linux","password":true,"vac":true,"version":"7882260","steam_id":85568392925397853,"keywords":["cp","nocrits","nodmgspread","uncletopia"],"game_id":440,"stv_port":27046,"stv_name":"Uncletopia | Warsaw | 4 | All Maps | STV","players":null},{"server_id":53,"name":"Uncletopia | Warsaw | 5 | Stopwatch Beta","name_short":"waw-5","host":"waw-1.pl.uncletopia.com","port":27055,"enabled":true,"region":"eu","cc":"pl","latitude":52.2297,"longitude":21.017532,"reserved":0,"last_update":"0001-01-01T00:00:00Z","name_a2s":"Uncletopia | Warsaw | 5 | Stopwatch Beta","protocol":17,"map":"pl_swiftwater_final1","folder":"tf","game":"Team Fortress","app_id":440,"player_count":0,"max_players":24,"Bots":0,"server_type":"Dedicated","server_os":"Linux","password":true,"vac":true,"version":"7882260","steam_id":85568392925397854,"keywords":["nocrits","nodmgspread","payload","uncletopia"],"game_id":440,"stv_port":27056,"stv_name":"Uncletopia | Warsaw | 5 | Stopwatch Beta | STV","players":null},{"server_id":54,"name":"Uncletopia | Warsaw | 6 | Community","name_short":"waw-6","host":"waw-1.pl.uncletopia.com","port":27065,"enabled":true,"region":"eu","cc":"pl","latitude":52.2297,"longitude":21.017532,"reserved":0,"last_update":"0001-01-01T00:00:00Z","name_a2s":"Uncletopia | Warsaw | 6 | Community","protocol":17,"map":"koth_viaduct","folder":"tf","game":"Team Fortress","app_id":440,"player_count":0,"max_players":24,"Bots":0,"server_type":"Dedicated","server_os":"Linux","password":true,"vac":true,"version":"7882260","steam_id":85568392925397856,"keywords":["cp","nocrits","nodmgspread","uncletopia"],"game_id":440,"stv_port":27066,"stv_name":"Uncletopia | Warsaw | 6 | Community | STV","players":null}]}