{"status":true,"message":"","result":[{"server_id":9,"name":"Uncletopia | Atlanta | 1 | All Maps","name_short":"atl-1","host":"atl-1.us.uncletopia.com","port":27015,"enabled":true,"region":"us-east","cc":"us","latitude":33.753746,"longitude":-84.38633,"reserved":0,"last_update":"0001-01-01T00:00:00Z","name_a2s":"Uncletopia | Atlanta | 1 | All Maps","protocol":17,"map":"koth_highpass","folder":"tf","game":"Team Fortress","app_id":440,"player_count":0,"max_players":24,"Bots":0,"server_type":"Dedicated","server_os":"Linux","password":true,"vac":true,"version":"7961495","steam_id":85568392924469982,"keywords":["nocrits","nodmgspread","payload","uncletopia"],"game_id":440,"stv_port":27016,"stv_name":"Uncletopia | Atlanta | 1 | All Maps | STV","players":null},{"server_id":104,"name":"Uncletopia | Atlanta | 2 | All Maps","name_short":"atl-2","host":"atl-1.us.uncletopia.com","port":27025,"enabled":true,"region":"us-east","cc":"us","latitude":33.753746,"longitude":-84.38633,"reserved":0,"last_update":"0001-01-01T00:00:00Z","name_a2s":"Uncletopia | Atlanta | 2 | All Maps","protocol":17,"map":"pl_borneo","folder":"tf","game":"Team Fortress","app_id":440,"player_count":24,"max_players":24,"Bots":0,"server_type":"Dedicated","server_os":"Linux","password":true,"vac":true,"version":"7961495","steam_id":85568392924469983,"keywords":["nocrits","nodmgspread","payload","uncletopia"],"game_id":440,"stv_port":27026,"stv_name":"Uncletopia | Atlanta | 2 | All Maps | STV","players":[{"user_id":849,"name":"Real","steam_id":76561198119315680,"connected_time":3098000000000,"state":"active","ping":84},{"user_id":836,"name":"Snezzy","steam_id":76561199236465377,"connected_time":3840000000000,"state":"active","ping":67},{"user_id":885,"name":"(TPT) Ghost","steam_id":76561198123262873,"connected_time":802000000000,"state":"active","ping":128},{"user_id":866,"name":"J0hN","steam_id":76561198055972894,"connected_time":2553000000000,"state":"active","ping":105},{"user_id":873,"name":"29palms","steam_id":76561198095104925,"connected_time":2154000000000,"state":"active","ping":90},{"user_id":893,"name":"Smooth, Refreshing Bleach‚Ñ¢","steam_id":76561197981060504,"connected_time":127000000000,"state":"active","ping":60},{"user_id":842,"name":"baunter","steam_id":76561198024311871,"connected_time":3622000000000,"state":"active","ping":98},{"user_id":843,"name":"Thequirka","steam_id":76561198968058652,"connected_time":3588000000000,"state":"active","ping":106},{"user_id":878,"name":"Velocircopter","steam_id":76561198847582048,"connected_time":1717000000000,"state":"active","ping":111},{"user_id":845,"name":"Bryan","steam_id":76561199372894183,"connected_time":3484000000000,"state":"active","ping":139},{"user_id":879,"name":"Squigly","steam_id":76561198084811625,"connected_time":1671000000000,"state":"active","ping":90},{"user_id":887,"name":"RAWRWAFL","steam_id":76561198032118386,"connected_time":752000000000,"state":"active","ping":83},{"user_id":888,"name":"Five","steam_id":76561198026640473,"connected_time":714000000000,"state":"active","ping":100},{"user_id":883,"name":"TheGamingLime0","steam_id":76561198306090796,"connected_time":1560000000000,"state":"active","ping":112},{"user_id":854,"name":"mort the chicken gaming","steam_id":76561198170591115,"connected_time":2968000000000,"state":"active","ping":69},{"user_id":855,"name":"merio","steam_id":76561198045513352,"connected_time":2968000000000,"state":"active","ping":69},{"user_id":856,"name":"Mr__Pickle","steam_id":76561198071869052,"connected_time":2964000000000,"state":"active","ping":55},{"user_id":857,"name":"urmom","steam_id":76561198044474683,"connected_time":2949000000000,"state":"active","ping":65},{"user_id":889,"name":"Scoops M'Gooch","steam_id":76561198048423812,"connected_time":710000000000,"state":"active","ping":128},{"user_id":859,"name":"Perenn","steam_id":76561198034314407,"connected_time":2914000000000,"state":"active","ping":77},{"user_id":860,"name":"Burny Sanders","steam_id":76561197961879048,"connected_time":2882000000000,"state":"active","ping":59},{"user_id":861,"name":"Satori Komeiji","steam_id":76561198158211423,"connected_time":2872000000000,"state":"active","ping":98},{"user_id":890,"name":"XIV ‚ôÇ I R O N ‚ôÇ M I K E ‚ôÇ","steam_id":76561199405378993,"connected_time":625000000000,"state":"active","ping":90},{"user_id":865,"name":"John","steam_id":76561198070700732,"connected_time":2828000000000,"state":"active","ping":80}]},{"server_id":400,"name":"Uncletopia | Atlanta | 3 | Stopwatch","name_short":"atl-3","host":"atl-1.us.uncletopia.com","port":27035,"enabled":true,"region":"us-east","cc":"us","latitude":33.753746,"longitude":-84.38633,"reserved":0,"last_update":"0001-01-01T00:00:00Z","name_a2s":"Uncletopia | Atlanta | 3 | Stopwatch","protocol":17,"map":"cp_process_final","folder":"tf","game":"Team Fortress","app_id":440,"player_count":0,"max_players":24,"Bots":0,"server_type":"Dedicated","server_os":"Linux","password":true,"vac":true,"version":"7961495","steam_id":85568392924515187,"keywords":["cp","nocrits","nodmgspread","uncletopia"],"game_id":440,"stv_port":27036,"stv_name":"Uncletopia | Atlanta | 3 | Stopwatch | STV","players":null},{"server_id":401,"name":"Uncletopia | Atlanta | 4 | Community","name_short":"atl-4","host":"atl-1.us.uncletopia.com","port":27045,"enabled":true,"region":"us-east","cc":"us","latitude":33.753746,"longitude":-84.38633,"reserved":0,"last_update":"0001-01-01T00:00:00Z","name_a2s":"Uncletopia | Atlanta | 4 | Community","protocol":17,"map":"workshop/pl_shoreleave_rc2.ugc1238849347","folder":"tf","game":"Team Fortress","app_id":440,"player_count":0,"max_players":24,"Bots":0,"server_type":"Dedicated","server_os":"Linux","password":true,"vac":true,"version":"7961495","steam_id":85568392924515188,"keywords":["nocrits","nodmgspread","payload","uncletopia"],"game_id":440,"stv_port":27046,"stv_name":"Uncletopia | Atlanta | 4 | Community | STV","players":null},{"server_id":2,"name":"Uncletopia | Chicago | 1 | All Maps","name_short":"chi-1","host":"chi-1.us.uncletopia.com","port":27015,"enabled":true,"region":"us-central","cc":"us","latitude":41.881832,"longitude":-87.62318,"reserved":0,"last_update":"0001-01-01T00:00:00Z","name_a2s":"Uncletopia | Chicago | 1 | All Maps","protocol":17,"map":"pl_swiftwater_final1","folder":"tf","game":"Team Fortress","app_id":440,"player_count":8,"max_players":24,"Bots":0,"server_type":"Dedicated","server_os":"Linux","password":true,"vac":true,"version":"7961495","steam_id":85568392924469984,"keywords":["nocrits","nodmgspread","payload","uncletopia"],"game_id":440,"stv_port":27016,"stv_name":"Uncletopia | Chicago | 1 | All Maps | STV","players":[{"user_id":773,"name":"9gon Danmar33","steam_id":76561198056453091,"connected_time":1108000000000,"state":"active","ping":45},{"user_id":786,"name":"Luna","steam_id":76561198020696265,"connected_time":286000000000,"state":"active","ping":48},{"user_id":776,"name":"ERR://23¬§Y/","steam_id":76561197991015780,"connected_time":996000000000,"state":"active","ping":61},{"user_id":789,"name":"yuumi...! ‚ô°","steam_id":76561198084708100,"connected_time":233000000000,"state":"active","ping":86},{"user_id":782,"name":"Muselk, but mexican","steam_id":76561199289676387,"connected_time":598000000000,"state":"active","ping":80},{"user_id":783,"name":"Papa Smoke","steam_id":76561198181348206,"connected_time":503000000000,"state":"active","ping":54},{"user_id":763,"name":"chill good dm","steam_id":76561199061380038,"connected_time":1938000000000,"state":"active","ping":60},{"user_id":792,"name":"tome123","steam_id":76561198078206722,"connected_time":204000000000,"state":"active","ping":98}]},{"server_id":106,"name":"Uncletopia | Chicago | 2 | All Maps","name_short":"chi-2","host":"chi-1.us.uncletopia.com","port":27025,"enabled":true,"region":"us-central","cc":"us","latitude":41.881832,"longitude":-87.62318,"reserved":0,"last_update":"0001-01-01T00:00:00Z","name_a2s":"Uncletopia | Chicago | 2 | All Maps","protocol":17,"map":"pl_pier","folder":"tf","game":"Team Fortress","app_id":440,"player_count":24,"max_players":24,"Bots":0,"server_type":"Dedicated","server_os":"Linux","password":true,"vac":true,"version":"7961495","steam_id":85568392924469985,"keywords":["nocrits","nodmgspread","payload","uncletopia"],"game_id":440,"stv_port":27026,"stv_name":"Uncletopia | Chicago | 2 | All Maps | STV","players":[{"user_id":348,"name":"ohohaye","steam_id":76561198043911164,"connected_time":5018000000000,"state":"active","ping":99},{"user_id":407,"name":"Cairna ‚ô•","steam_id":76561198035418464,"connected_time":81000000000,"state":"active","ping":70},{"user_id":349,"name":"Escapism","steam_id":76561198045302512,"connected_time":4992000000000,"state":"active","ping":106},{"user_id":398,"name":"Stunner","steam_id":76561198063197896,"connected_time":484000000000,"state":"active","ping":104},{"user_id":404,"name":"LacedJobs","steam_id":76561198162886912,"connected_time":149000000000,"state":"active","ping":75},{"user_id":313,"name":"Lost","steam_id":76561198025933206,"connected_time":7514000000000,"state":"active","ping":56},{"user_id":399,"name":"voidby ‚ô¶","steam_id":76561198146697462,"connected_time":421000000000,"state":"active","ping":92},{"user_id":391,"name":"TPScout","steam_id":76561198353808504,"connected_time":666000000000,"state":"active","ping":68},{"user_id":402,"name":"Queen ‚ô°","steam_id":76561198065603277,"connected_time":305000000000,"state":"active","ping":95},{"user_id":394,"name":"snail from ear (cochlea)","steam_id":76561198184900753,"connected_time":589000000000,"state":"active","ping":50},{"user_id":332,"name":"kaputon","steam_id":76561198146299782,"connected_time":5873000000000,"state":"active","ping":61},{"user_id":376,"name":"Tobo","steam_id":76561198085846393,"connected_time":2578000000000,"state":"active","ping":79},{"user_id":361,"name":"human barbarian","steam_id":76561198051310816,"connected_time":4120000000000,"state":"active","ping":74},{"user_id":405,"name":"Ghostmeal","steam_id":76561198042380299,"connected_time":145000000000,"state":"active","ping":75},{"user_id":403,"name":"Raccoon Wizard","steam_id":76561198072562591,"connected_time":299000000000,"state":"active","ping":103},{"user_id":387,"name":"Emporat","steam_id":76561198171325750,"connected_time":989000000000,"state":"active","ping":114},{"user_id":371,"name":"Witch Doctor Waka","steam_id":76561198028507980,"connected_time":3502000000000,"state":"active","ping":60},{"user_id":374,"name":"Gene Takovic","steam_id":76561198881039861,"connected_time":2971000000000,"state":"active","ping":48},{"user_id":377,"name":"Space Killer Ultimate Jesus","steam_id":76561198015737831,"connected_time":2415000000000,"state":"active","ping":63},{"user_id":357,"name":"tf2 noob vs pro","steam_id":76561198120973162,"connected_time":4511000000000,"state":"active","ping":74},{"user_id":396,"name":"PikaGEMER","steam_id":76561198409850176,"connected_time":555000000000,"state":"active","ping":98},{"user_id":397,"name":"Granny from Hoodwinked","steam_id":76561198116389072,"connected_time":551000000000,"state":"active","ping":115},{"user_id":400,"name":"Gorrilla ‚úû","steam_id":76561198284260587,"connected_time":405000000000,"state":"active","ping":96},{"user_id":406,"name":"jesse pinkman (Aaron paul)","steam_id":76561198135283443,"connected_time":126000000000,"state":"active","ping":81}]},{"server_id":402,"name":"Uncletopia | Chicago | 3 | All Maps","name_short":"chi-3","host":"chi-1.us.uncletopia.com","port":27035,"enabled":true,"region":"us-central","cc":"us","latitude":41.881832,"longitude":-87.62318,"reserved":0,"last_update":"0001-01-01T00:00:00Z","name_a2s":"Uncletopia | Chicago | 3 | All Maps","protocol":17,"map":"cp_process_final","folder":"tf","game":"Team Fortress","app_id":440,"player_count":0,"max_players":24,"Bots":0,"server_type":"Dedicated","server_os":"Linux","password":true,"vac":true,"version":"7961495","steam_id":85568392924515191,"keywords":["cp","nocrits","nodmgspread","uncletopia"],"game_id":440,"stv_port":27036,"stv_name":"Uncletopia | Chicago | 3 | All Maps | STV","players":null},{"server_id":403,"name":"Uncletopia | Chicago | 4 | All Maps","name_short":"chi-4","host":"chi-1.us.uncletopia.com","port":27045,"enabled":true,"region":"us-central","cc":"us","latitude":41.881832,"longitude":-87.62318,"reserved":0,"last_update":"0001-01-01T00:00:00Z","name_a2s":"Uncletopia | Chicago | 4 | All Maps","protocol":17,"map":"pl_pier","folder":"tf","game":"Team Fortress","app_id":440,"player_count":16,"max_players":24,"Bots":0,"server_type":"Dedicated","server_os":"Linux","password":true,"vac":true,"version":"7961495","steam_id":85568392924515193,"keywords":["nocrits","nodmgspread","payload","uncletopia"],"game_id":440,"stv_port":27046,"stv_name":"Uncletopia | Chicago | 4 | All Maps | STV","players":[{"user_id":639,"name":"XIV twinblock","steam_id":76561198157414556,"connected_time":1282000000000,"state":"spawning","ping":297},{"user_id":586,"name":"Phee","steam_id":76561198014317211,"connected_time":8271000000000,"state":"active","ping":148},{"user_id":646,"name":"Sleggie","steam_id":76561198027878872,"connected_time":1058000000000,"state":"active","ping":62},{"user_id":637,"name":"The Pissman","steam_id":76561198202031250,"connected_time":1509000000000,"state":"active","ping":57},{"user_id":647,"name":"Lemonty","steam_id":76561198163812778,"connected_time":832000000000,"state":"active","ping":76},{"user_id":648,"name":"Smoeker","steam_id":76561198166723053,"connected_time":810000000000,"state":"active","ping":68},{"user_id":603,"name":"sir eepington","steam_id":76561198299094088,"connected_time":5489000000000,"state":"active","ping":69},{"user_id":630,"name":"VOLCON","steam_id":76561198116023052,"connected_time":2383000000000,"state":"spawning","ping":71},{"user_id":642,"name":"Barrel of Garbage","steam_id":76561198800026610,"connected_time":1217000000000,"state":"active","ping":61},{"user_id":650,"name":"Lad","steam_id":76561197990645296,"connected_time":43000000000,"state":"active","ping":84},{"user_id":625,"name":"AkimboAoki","steam_id":76561198158323058,"connected_time":3370000000000,"state":"spawning","ping":384},{"user_id":643,"name":"captainspatklz","steam_id":76561198432167270,"connected_time":1216000000000,"state":"spawning","ping":65},{"user_id":640,"name":"Monsterjessy","steam_id":76561198035630985,"connected_time":1262000000000,"state":"active","ping":57},{"user_id":620,"name":"zakbox30x","steam_id":76561198077580212,"connected_time":4155000000000,"state":"active","ping":253},{"user_id":560,"name":"Metal Witch","steam_id":76561198138560080,"connected_time":10563000000000,"state":"active","ping":82},{"user_id":649,"name":"The Pootis'd Berd","steam_id":76561198141903490,"connected_time":102000000000,"state":"active","ping":100}]},{"server_id":36,"name":"Uncletopia | Chicago | 5 | All Maps","name_short":"chi-5","host":"chi-2.us.uncletopia.com","port":27015,"enabled":true,"region":"us-central","cc":"us","latitude":41.881832,"longitude":-87.62318,"reserved":0,"last_update":"0001-01-01T00:00:00Z","name_a2s":"Uncletopia | Chicago | 5 | All Maps","protocol":17,"map":"pl_barnblitz","folder":"tf","game":"Team Fortress","app_id":440,"player_count":0,"max_players":24,"Bots":0,"server_type":"Dedicated","server_os":"Linux","password":true,"vac":true,"version":"7961495","steam_id":85568392924866362,"keywords":["nocrits","nodmgspread","payload","uncletopia"],"game_id":440,"stv_port":27016,"stv_name":"Uncletopia | Chicago | 5 | All Maps | STV","players":null},{"server_id":37,"name":"Uncletopia | Chicago | 6 | All Maps","name_short":"chi-6","host":"chi-2.us.uncletopia.com","port":27025,"enabled":true,"region":"us-central","cc":"us","latitude":41.881832,"longitude":-87.62318,"reserved":0,"last_update":"0001-01-01T00:00:00Z","name_a2s":"Uncletopia | Chicago | 6 | All Maps","protocol":17,"map":"koth_highpass","folder":"tf","game":"Team Fortress","app_id":440,"player_count":0,"max_players":24,"Bots":0,"server_type":"Dedicated","server_os":"Linux","password":true,"vac":true,"version":"7961495","steam_id":85568392924866363,"keywords":["cp","nocrits","nodmgspread","uncletopia"],"game_id":440,"stv_port":27026,"stv_name":"Uncletopia | Chicago | 6 | All Maps | STV","players":null},{"server_id":38,"name":"Uncletopia | Chicago | 7 | Stopwatch","name_short":"chi-7","host":"chi-2.us.uncletopia.com","port":27035,"enabled":true,"region":"us-central","cc":"us","latitude":41.881832,"longitude":-87.62318,"reserved":0,"last_update":"0001-01-01T00:00:00Z","name_a2s":"Uncletopia | Chicago | 7 | Stopwatch","protocol":17,"map":"pl_badwater","folder":"tf","game":"Team Fortress","app_id":440,"player_count":0,"max_players":24,"Bots":0,"server_type":"Dedicated","server_os":"Linux","password":true,"vac":true,"version":"7961495","steam_id":85568392924866364,"keywords":["nocrits","nodmgspread","payload","uncletopia"],"game_id":440,"stv_port":27036,"stv_name":"Uncletopia | Chicago | 7 | Stopwatch | STV","players":null},{"server_id":39,"name":"Uncletopia | Chicago | 8 | Community","name_short":"chi-8","host":"chi-2.us.uncletopia.com","port":27045,"enabled":true,"region":"us-central","cc":"us","latitude":41.881832,"longitude":-87.62318,"reserved":0,"last_update":"0001-01-01T00:00:00Z","name_a2s":"Uncletopia | Chicago | 8 | Community","protocol":17,"map":"workshop/cp_coilblaze_rc7.ugc1272700588","folder":"tf","game":"Team Fortress","app_id":440,"player_count":0,"max_players":24,"Bots":0,"server_type":"Dedicated","server_os":"Linux","password":true,"vac":true,"version":"7961495","steam_id":85568392924866365,"keywords":["cp","nocrits","nodmgspread","uncletopia"],"game_id":440,"stv_port":27046,"stv_name":"Uncletopia | Chicago | 8 | Community | STV","players":null},{"server_id":8,"name":"Uncletopia | Dallas | 1 | All Maps","name_short":"dal-1","host":"dal-1.us.uncletopia.com","port":27015,"enabled":true,"region":"us-central","cc":"us","latitude":32.779167,"longitude":-96.80889,"reserved":0,"last_update":"0001-01-01T00:00:00Z","name_a2s":"Uncletopia | Dallas | 1 | All Maps","protocol":17,"map":"pl_pier","folder":"tf","game":"Team Fortress","app_id":440,"player_count":22,"max_players":24,"Bots":0,"server_type":"Dedicated","server_os":"Linux","password":true,"vac":true,"version":"7961495","steam_id":85568392924469986,"keywords":["nocrits","nodmgspread","payload","uncletopia"],"game_id":440,"stv_port":27016,"stv_name":"Uncletopia | Dallas | 1 | All Maps | STV","players":[{"user_id":569,"name":"LEGO¬Æ Indiana Jones","steam_id":76561198091266742,"connected_time":2583000000000,"state":"active","ping":107},{"user_id":560,"name":"`o2","steam_id":76561197992030936,"connected_time":4188000000000,"state":"active","ping":78},{"user_id":587,"name":"for the king","steam_id":76561197973488858,"connected_time":1564000000000,"state":"active","ping":75},{"user_id":580,"name":"w a o w","steam_id":76561198060769385,"connected_time":1917000000000,"state":"active","ping":89},{"user_id":592,"name":"Capit√°n √Ñxis-Flores Kuroki","steam_id":76561198353865006,"connected_time":1368000000000,"state":"active","ping":79},{"user_id":543,"name":"‚ú©BONGO‚ú©","steam_id":76561198018040930,"connected_time":5162000000000,"state":"active","ping":42},{"user_id":572,"name":"Captain Space.","steam_id":76561198115254818,"connected_time":2559000000000,"state":"active","ping":77},{"user_id":602,"name":"fish","steam_id":76561198182052198,"connected_time":135000000000,"state":"active","ping":104},{"user_id":555,"name":"üê∫-Iwky-ü¶ä","steam_id":76561198185616311,"connected_time":4246000000000,"state":"active","ping":76},{"user_id":564,"name":"meggie","steam_id":76561198038291026,"connected_time":4037000000000,"state":"active","ping":42},{"user_id":586,"name":"allahsdroptop (Bag/Chaser)","steam_id":76561198133195238,"connected_time":1589000000000,"state":"active","ping":96},{"user_id":589,"name":"story","steam_id":76561199088496817,"connected_time":1530000000000,"state":"active","ping":60},{"user_id":590,"name":"waycoolriotgirlHQfan","steam_id":76561198215559840,"connected_time":1527000000000,"state":"active","ping":70},{"user_id":582,"name":"MINI CRIT!999","steam_id":76561198027649268,"connected_time":1881000000000,"state":"active","ping":84},{"user_id":594,"name":"ekgooby","steam_id":76561198043678479,"connected_time":1048000000000,"state":"active","ping":73},{"user_id":597,"name":"wetto","steam_id":76561198224811504,"connected_time":989000000000,"state":"active","ping":60},{"user_id":595,"name":"Charlie","steam_id":76561199098209171,"connected_time":1044000000000,"state":"active","ping":77},{"user_id":583,"name":"TeriyakiDynamite","steam_id":76561198050049346,"connected_time":1864000000000,"state":"active","ping":97},{"user_id":563,"name":"Monte","steam_id":76561198097499917,"connected_time":4123000000000,"state":"active","ping":75},{"user_id":454,"name":"cold glass of water at 3am","steam_id":76561198418172095,"connected_time":11797000000000,"state":"active","ping":94},{"user_id":591,"name":"Dongus","steam_id":76561197979056451,"connected_time":1517000000000,"state":"active","ping":103},{"user_id":600,"name":"Punished Shitster","steam_id":76561198150452857,"connected_time":857000000000,"state":"active","ping":51}]},{"server_id":108,"name":"Uncletopia | Dallas | 2 | All Maps","name_short":"dal-2","host":"dal-1.us.uncletopia.com","port":27025,"enabled":true,"region":"us-central","cc":"us","latitude":32.779167,"longitude":-96.80889,"reserved":0,"last_update":"0001-01-01T00:00:00Z","name_a2s":"Uncletopia | Dallas | 2 | All Maps","protocol":17,"map":"pl_snowycoast","folder":"tf","game":"Team Fortress","app_id":440,"player_count":24,"max_players":24,"Bots":0,"server_type":"Dedicated","server_os":"Linux","password":true,"vac":true,"version":"7961495","steam_id":85568392924469988,"keywords":["nocrits","nodmgspread","payload","uncletopia"],"game_id":440,"stv_port":27026,"stv_name":"Uncletopia | Dallas | 2 | All Maps | STV","players":[{"user_id":764,"name":"STR Cyan","steam_id":76561198051888147,"connected_time":1944000000000,"state":"active","ping":74},{"user_id":747,"name":"Frontier Psychiatrist","steam_id":76561198038689088,"connected_time":2815000000000,"state":"active","ping":92},{"user_id":784,"name":"Solan iler","steam_id":76561198809720926,"connected_time":142000000000,"state":"active","ping":60},{"user_id":771,"name":"The Caretaker","steam_id":76561198125241411,"connected_time":967000000000,"state":"active","ping":95},{"user_id":772,"name":"EnragedWaters","steam_id":76561198317135757,"connected_time":950000000000,"state":"active","ping":85},{"user_id":610,"name":"Leon","steam_id":76561198950938712,"connected_time":10808000000000,"state":"active","ping":112},{"user_id":776,"name":"Spooks","steam_id":76561198360959776,"connected_time":602000000000,"state":"active","ping":99},{"user_id":645,"name":"raccocooon","steam_id":76561199138602425,"connected_time":7799000000000,"state":"active","ping":84},{"user_id":773,"name":"Deryn Sharp","steam_id":76561198047017346,"connected_time":663000000000,"state":"active","ping":80},{"user_id":759,"name":"ChoccyMiltank","steam_id":76561198981474284,"connected_time":2548000000000,"state":"active","ping":82},{"user_id":774,"name":"Killerfish360","steam_id":76561198115029584,"connected_time":638000000000,"state":"active","ping":73},{"user_id":749,"name":"blue duck the 2nd","steam_id":76561198263142765,"connected_time":2789000000000,"state":"active","ping":134},{"user_id":775,"name":"SaaxoM","steam_id":76561198208256603,"connected_time":618000000000,"state":"active","ping":103},{"user_id":750,"name":"None of that $9.99 bullshit","steam_id":76561198116169903,"connected_time":2765000000000,"state":"active","ping":67},{"user_id":783,"name":"Olitude","steam_id":76561199238964574,"connected_time":360000000000,"state":"active","ping":80},{"user_id":751,"name":"NiŒªiwiŒªi, ‚ñºiscount of ‚ñºio","steam_id":76561198009193777,"connected_time":2749000000000,"state":"active","ping":89},{"user_id":768,"name":"37 septillion tapeworms","steam_id":76561198186128723,"connected_time":1638000000000,"state":"active","ping":46},{"user_id":778,"name":"Melonfrog","steam_id":76561198389885427,"connected_time":516000000000,"state":"active","ping":83},{"user_id":779,"name":"beans","steam_id":76561198061673313,"connected_time":495000000000,"state":"active","ping":62},{"user_id":753,"name":"beats you say it's a good thing","steam_id":76561199245717718,"connected_time":2731000000000,"state":"active","ping":74},{"user_id":780,"name":"Sakio","steam_id":76561198327087049,"connected_time":495000000000,"state":"active","ping":98},{"user_id":781,"name":"penzfan","steam_id":76561198230422640,"connected_time":489000000000,"state":"active","ping":71},{"user_id":697,"name":"+","steam_id":76561198262422184,"connected_time":6657000000000,"state":"active","ping":49},{"user_id":782,"name":"Pescado Juegos","steam_id":76561198798161131,"connected_time":478000000000,"state":"active","ping":107}]},{"server_id":404,"name":"Uncletopia | Dallas | 3 | All Maps","name_short":"dal-3","host":"dal-1.us.uncletopia.com","port":27035,"enabled":true,"region":"us-central","cc":"us","latitude":32.779167,"longitude":-96.80889,"reserved":0,"last_update":"0001-01-01T00:00:00Z","name_a2s":"Uncletopia | Dallas | 3 | All Maps","protocol":17,"map":"pl_borneo","folder":"tf","game":"Team Fortress","app_id":440,"player_count":0,"max_players":24,"Bots":0,"server_type":"Dedicated","server_os":"Linux","password":true,"vac":true,"version":"7961495","steam_id":85568392924515219,"keywords":["nocrits","nodmgspread","payload","uncletopia"],"game_id":440,"stv_port":27036,"stv_name":"Uncletopia | Dallas | 3 | All Maps | STV","players":null},{"server_id":405,"name":"Uncletopia | Dallas | 4 | Community","name_short":"dal-4","host":"dal-1.us.uncletopia.com","port":27045,"enabled":true,"region":"us-central","cc":"us","latitude":32.779167,"longitude":-96.80889,"reserved":0,"last_update":"0001-01-01T00:00:00Z","name_a2s":"Uncletopia | Dallas | 4 | Community","protocol":17,"map":"workshop/pl_divulgence_b4b.ugc2884808746","folder":"tf","game":"Team Fortress","app_id":440,"player_count":0,"max_players":24,"Bots":0,"server_type":"Dedicated","server_os":"Linux","password":true,"vac":true,"version":"7961495","steam_id":85568392924515220,"keywords":["nocrits","nodmgspread","payload","uncletopia"],"game_id":440,"stv_port":27046,"stv_name":"Uncletopia | Dallas | 4 | Community | STV","players":null},{"server_id":5,"name":"Uncletopia | Frankfurt | 1 | All Maps","name_short":"frk-1","host":"frk-1.de.uncletopia.com","port":27015,"enabled":true,"region":"eu","cc":"de","latitude":50.110924,"longitude":8.682127,"reserved":0,"last_update":"0001-01-01T00:00:00Z","name_a2s":"Uncletopia | Frankfurt | 1 | All Maps","protocol":17,"map":"koth_highpass","folder":"tf","game":"Team Fortress","app_id":440,"player_count":0,"max_players":24,"Bots":0,"server_type":"Dedicated","server_os":"Linux","password":true,"vac":true,"version":"7961495","steam_id":85568392924469989,"keywords":["cp","nocrits","nodmgspread","uncletopia"],"game_id":440,"stv_port":27016,"stv_name":"Uncletopia | Frankfurt | 1 | All Maps | STV","players":null},{"server_id":110,"name":"Uncletopia | Frankfurt | 2 | All Maps","name_short":"frk-2","host":"frk-1.de.uncletopia.com","port":27025,"enabled":true,"region":"eu","cc":"de","latitude":50.110924,"longitude":8.682127,"reserved":0,"last_update":"0001-01-01T00:00:00Z","name_a2s":"Uncletopia | Frankfurt | 2 | All Maps","protocol":17,"map":"cp_dustbowl","folder":"tf","game":"Team Fortress","app_id":440,"player_count":0,"max_players":24,"Bots":0,"server_type":"Dedicated","server_os":"Linux","password":true,"vac":true,"version":"7961495","steam_id":85568392924469990,"keywords":["cp","nocrits","nodmgspread","uncletopia"],"game_id":440,"stv_port":27026,"stv_name":"Uncletopia | Frankfurt | 2 | All Maps | STV","players":null},{"server_id":308,"name":"Uncletopia | Frankfurt | 3 | All Maps","name_short":"frk-3","host":"frk-1.de.uncletopia.com","port":27035,"enabled":true,"region":"eu","cc":"de","latitude":50.110924,"longitude":8.682127,"reserved":0,"last_update":"0001-01-01T00:00:00Z","name_a2s":"Uncletopia | Frankfurt | 3 | All Maps","protocol":17,"map":"pl_barnblitz","folder":"tf","game":"Team Fortress","app_id":440,"player_count":0,"max_players":24,"Bots":0,"server_type":"Dedicated","server_os":"Linux","password":true,"vac":true,"version":"7961495","steam_id":85568392924504274,"keywords":["nocrits","nodmgspread","payload","uncletopia"],"game_id":440,"stv_port":27036,"stv_name":"Uncletopia | Frankfurt | 3 | All Maps | STV","players":null},{"server_id":309,"name":"Uncletopia | Frankfurt | 4 | All Maps","name_short":"frk-4","host":"frk-1.de.uncletopia.com","port":27045,"enabled":true,"region":"eu","cc":"de","latitude":50.110924,"longitude":8.682127,"reserved":0,"last_update":"0001-01-01T00:00:00Z","name_a2s":"Uncletopia | Frankfurt | 4 | All Maps","protocol":17,"map":"koth_highpass","folder":"tf","game":"Team Fortress","app_id":440,"player_count":0,"max_players":24,"Bots":0,"server_type":"Dedicated","server_os":"Linux","password":true,"vac":true,"version":"7961495","steam_id":85568392924504275,"keywords":["cp","nocrits","nodmgspread","uncletopia"],"game_id":440,"stv_port":27046,"stv_name":"Uncletopia | Frankfurt | 4 | All Maps | STV","players":null},{"server_id":310,"name":"Uncletopia | Frankfurt | 5 | All Maps","name_short":"frk-5","host":"frk-1.de.uncletopia.com","port":27055,"enabled":true,"region":"eu","cc":"de","latitude":50.110924,"longitude":8.682127,"reserved":0,"last_update":"0001-01-01T00:00:00Z","name_a2s":"Uncletopia | Frankfurt | 5 | All Maps","protocol":17,"map":"pl_badwater","folder":"tf","game":"Team Fortress","app_id":440,"player_count":0,"max_players":24,"Bots":0,"server_type":"Dedicated","server_os":"Linux","password":true,"vac":true,"version":"7961495","steam_id":85568392924504277,"keywords":["nocrits","nodmgspread","payload","uncletopia"],"game_id":440,"stv_port":27056,"stv_name":"Uncletopia | Frankfurt | 5 | All Maps | STV","players":null},{"server_id":311,"name":"Uncletopia | Frankfurt | 6 | All Maps","name_short":"frk-6","host":"frk-1.de.uncletopia.com","port":27065,"enabled":true,"region":"eu","cc":"de","latitude":50.110924,"longitude":8.682127,"reserved":0,"last_update":"0001-01-01T00:00:00Z","name_a2s":"Uncletopia | Frankfurt | 6 | All Maps","protocol":17,"map":"cp_altitude","folder":"tf","game":"Team Fortress","app_id":440,"player_count":0,"max_players":24,"Bots":0,"server_type":"Dedicated","server_os":"Linux","password":true,"vac":true,"version":"7961495","steam_id":85568392924504278,"keywords":["cp","nocrits","nodmgspread","uncletopia"],"game_id":440,"stv_port":27066,"stv_name":"Uncletopia | Frankfurt | 6 | All Maps | STV","players":null},{"server_id":23,"name":"Uncletopia | Frankfurt | 7 | Stopwatch","name_short":"frk-7","host":"frk-1.de.uncletopia.com","port":27075,"enabled":true,"region":"eu","cc":"de","latitude":50.110924,"longitude":8.682127,"reserved":0,"last_update":"0001-01-01T00:00:00Z","name_a2s":"Uncletopia | Frankfurt | 7 | Stopwatch","protocol":17,"map":"pl_frontier_final","folder":"tf","game":"Team Fortress","app_id":440,"player_count":0,"max_players":24,"Bots":0,"server_type":"Dedicated","server_os":"Linux","password":true,"vac":true,"version":"7961495","steam_id":85568392924742827,"keywords":["nocrits","nodmgspread","payload","uncletopia"],"game_id":440,"stv_port":27076,"stv_name":"Uncletopia | Frankfurt | 7 | Stopwatch | STV","players":null},{"server_id":24,"name":"Uncletopia | Frankfurt | 8 | Community","name_short":"frk-8","host":"frk-1.de.uncletopia.com","port":27085,"enabled":true,"region":"eu","cc":"de","latitude":50.110924,"longitude":8.682127,"reserved":0,"last_update":"0001-01-01T00:00:00Z","name_a2s":"Uncletopia | Frankfurt | 8 | Community","protocol":17,"map":"cp_mountainlab","folder":"tf","game":"Team Fortress","app_id":440,"player_count":0,"max_players":24,"Bots":0,"server_type":"Dedicated","server_os":"Linux","password":true,"vac":true,"version":"7961495","steam_id":85568392924742828,"keywords":["cp","nocrits","nodmgspread","uncletopia"],"game_id":440,"stv_port":27086,"stv_name":"Uncletopia | Frankfurt | 8 | Community | STV","players":null},{"server_id":202,"name":"Uncletopia | Hong Kong | 1 | All Maps","name_short":"hgk-1","host":"hgk-1.hk.uncletopia.com","port":27015,"enabled":true,"region":"asia","cc":"hk","latitude":22.302711,"longitude":114.177216,"reserved":0,"last_update":"0001-01-01T00:00:00Z","name_a2s":"Uncletopia | Hong Kong | 1 | All Maps","protocol":17,"map":"koth_viaduct","folder":"tf","game":"Team Fortress","app_id":440,"player_count":1,"max_players":24,"Bots":0,"server_type":"Dedicated","server_os":"Linux","password":true,"vac":true,"version":"7961495","steam_id":85568392924494504,"keywords":["cp","nocrits","nodmgspread","uncletopia"],"game_id":440,"stv_port":27016,"stv_name":"Uncletopia | Hong Kong | 1 | All Maps | STV","players":[{"user_id":22,"name":"DaBoi","steam_id":76561199235171429,"connected_time":27000000000,"state":"active","ping":111}]},{"server_id":1,"name":"Uncletopia | Los Angeles | 1 | All Maps","name_short":"lax-1","host":"lax-1.us.uncletopia.com","port":27015,"enabled":true,"region":"us-west","cc":"us","latitude":33.94279,"longitude":-118.41004,"reserved":0,"last_update":"0001-01-01T00:00:00Z","name_a2s":"Uncletopia | Los Angeles | 1 | All Maps","protocol":17,"map":"koth_nucleus","folder":"tf","game":"Team Fortress","app_id":440,"player_count":24,"max_players":24,"Bots":0,"server_type":"Dedicated","server_os":"Linux","password":true,"vac":true,"version":"7961495","steam_id":85568392924469991,"keywords":["cp","nocrits","nodmgspread","uncletopia"],"game_id":440,"stv_port":27016,"stv_name":"Uncletopia | Los Angeles | 1 | All Maps | STV","players":[{"user_id":166,"name":"Keamy","steam_id":76561199471434875,"connected_time":71000000000,"state":"active","ping":75},{"user_id":160,"name":"Mr.Rogers","steam_id":76561198043878683,"connected_time":686000000000,"state":"active","ping":57},{"user_id":168,"name":"defbigsonicsbff","steam_id":76561199388617281,"connected_time":52000000000,"state":"active","ping":51},{"user_id":130,"name":"Obersteuermann","steam_id":76561198044468707,"connected_time":2591000000000,"state":"active","ping":75},{"user_id":137,"name":"roach :3","steam_id":76561198354811369,"connected_time":2201000000000,"state":"active","ping":62},{"user_id":127,"name":"squart guy","steam_id":76561199411560141,"connected_time":2727000000000,"state":"active","ping":71},{"user_id":169,"name":"Adolf The Toast Jesus‚Ñ¢","steam_id":76561198024553767,"connected_time":51000000000,"state":"active","ping":101},{"user_id":125,"name":"Flinkerdoodle","steam_id":76561198052111706,"connected_time":2754000000000,"state":"active","ping":88},{"user_id":152,"name":"XaZ Martinet ‚ö£","steam_id":76561197999221455,"connected_time":1363000000000,"state":"active","ping":116},{"user_id":149,"name":"Mighty Morphin Flower Arrangers","steam_id":76561198133158032,"connected_time":1738000000000,"state":"active","ping":48},{"user_id":138,"name":"Neato!","steam_id":76561198043548668,"connected_time":2201000000000,"state":"active","ping":89},{"user_id":139,"name":"Government Plates","steam_id":76561198140866252,"connected_time":2200000000000,"state":"active","ping":104},{"user_id":126,"name":"Delsym Sipper","steam_id":76561198206177593,"connected_time":2750000000000,"state":"active","ping":41},{"user_id":140,"name":"Chris Daisy","steam_id":76561198332145126,"connected_time":2193000000000,"state":"active","ping":118},{"user_id":163,"name":"Mahiru Koizumi","steam_id":76561198164782653,"connected_time":92000000000,"state":"active","ping":110},{"user_id":162,"name":"Jomdac","steam_id":76561198150447896,"connected_time":446000000000,"state":"active","ping":45},{"user_id":134,"name":"nella","steam_id":76561198079349621,"connected_time":2425000000000,"state":"active","ping":49},{"user_id":165,"name":"Socks707","steam_id":76561198796744845,"connected_time":82000000000,"state":"active","ping":76},{"user_id":158,"name":"standing here,","steam_id":76561198066315453,"connected_time":965000000000,"state":"active","ping":57},{"user_id":144,"name":"rat","steam_id":76561198451812135,"connected_time":2062000000000,"state":"active","ping":100},{"user_id":148,"name":"retaxed","steam_id":76561198380713242,"connected_time":1895000000000,"state":"active","ping":45},{"user_id":159,"name":"Scorpion","steam_id":76561198325651066,"connected_time":963000000000,"state":"active","ping":70},{"user_id":170,"name":"social distance warrior","steam_id":76561198128992994,"connected_time":29000000000,"state":"active","ping":76},{"user_id":164,"name":"gerg","steam_id":76561197997127387,"connected_time":89000000000,"state":"active","ping":58}]},{"server_id":112,"name":"Uncletopia | Los Angeles | 2 | All Maps","name_short":"lax-2","host":"lax-1.us.uncletopia.com","port":27025,"enabled":true,"region":"us-west","cc":"us","latitude":33.94279,"longitude":-118.41004,"reserved":0,"last_update":"0001-01-01T00:00:00Z","name_a2s":"Uncletopia | Los Angeles | 2 | All Maps","protocol":17,"map":"pl_badwater","folder":"tf","game":"Team Fortress","app_id":440,"player_count":0,"max_players":24,"Bots":0,"server_type":"Dedicated","server_os":"Linux","password":true,"vac":true,"version":"7961495","steam_id":85568392924469992,"keywords":["nocrits","nodmgspread","payload","uncletopia"],"game_id":440,"stv_port":27026,"stv_name":"Uncletopia | Los Angeles | 2 | All Maps | STV","players":null},{"server_id":324,"name":"Uncletopia | Los Angeles | 3 | All Maps","name_short":"lax-3","host":"lax-1.us.uncletopia.com","port":27035,"enabled":true,"region":"us-west","cc":"us","latitude":33.94279,"longitude":-118.41004,"reserved":0,"last_update":"0001-01-01T00:00:00Z","name_a2s":"Uncletopia | Los Angeles | 3 | All Maps","protocol":17,"map":"koth_viaduct","folder":"tf","game":"Team Fortress","app_id":440,"player_count":0,"max_players":24,"Bots":0,"server_type":"Dedicated","server_os":"Linux","password":true,"vac":true,"version":"7961495","steam_id":85568392924510198,"keywords":["cp","nocrits","nodmgspread","uncletopia"],"game_id":440,"stv_port":27036,"stv_name":"Uncletopia | Los Angeles | 3 | All Maps | STV","players":null},{"server_id":25,"name":"Uncletopia | Los Angeles | 4 | Stopwatch","name_short":"lax-4","host":"lax-1.us.uncletopia.com","port":27045,"enabled":true,"region":"us-west","cc":"us","latitude":33.94279,"longitude":-118.41004,"reserved":0,"last_update":"0001-01-01T00:00:00Z","name_a2s":"Uncletopia | Los Angeles | 4 | Stopwatch","protocol":17,"map":"cp_metalworks","folder":"tf","game":"Team Fortress","app_id":440,"player_count":0,"max_players":24,"Bots":0,"server_type":"Dedicated","server_os":"Linux","password":true,"vac":true,"version":"7961495","steam_id":85568392924510199,"keywords":["cp","nocrits","nodmgspread","uncletopia"],"game_id":440,"stv_port":27046,"stv_name":"Uncletopia | Los Angeles | 4 | Stopwatch | STV","players":null},{"server_id":11,"name":"Uncletopia | London | 1 | All Maps","name_short":"lon-1","host":"lon-1.uk.uncletopia.com","port":27015,"enabled":true,"region":"eu","cc":"gb","latitude":51.509865,"longitude":-0.118092,"reserved":0,"last_update":"0001-01-01T00:00:00Z","name_a2s":"Uncletopia | London | 1 | All Maps","protocol":17,"map":"koth_harvest_final","folder":"tf","game":"Team Fortress","app_id":440,"player_count":15,"max_players":24,"Bots":0,"server_type":"Dedicated","server_os":"Linux","password":true,"vac":true,"version":"7961495","steam_id":85568392924367362,"keywords":["cp","nocrits","nodmgspread","uncletopia"],"game_id":440,"stv_port":27016,"stv_name":"Uncletopia | London | 1 | All Maps | STV","players":[{"user_id":35,"name":"Scoundrel","steam_id":76561198056672372,"connected_time":2043000000000,"state":"active","ping":130},{"user_id":42,"name":"63756d","steam_id":76561198808699024,"connected_time":1335000000000,"state":"active","ping":70},{"user_id":43,"name":"Œ∂ŒæŒ∂ Œπ Œ∂ŒæŒ∂","steam_id":76561198801490317,"connected_time":1088000000000,"state":"active","ping":103},{"user_id":8,"name":"Sonnakai","steam_id":76561198051688749,"connected_time":4902000000000,"state":"active","ping":37},{"user_id":31,"name":"joojeh_tiqi","steam_id":76561199350323521,"connected_time":2675000000000,"state":"active","ping":184},{"user_id":32,"name":"RAT BASTARD","steam_id":76561199195985387,"connected_time":2537000000000,"state":"active","ping":76},{"user_id":38,"name":"Fatmagic Mukbang ASMR","steam_id":76561198063492110,"connected_time":1737000000000,"state":"active","ping":72},{"user_id":44,"name":"skelebin","steam_id":76561199480942903,"connected_time":1078000000000,"state":"active","ping":74},{"user_id":40,"name":"Emmaru","steam_id":76561198255979573,"connected_time":1596000000000,"state":"active","ping":71},{"user_id":45,"name":"1 \u003c3 MEN","steam_id":76561198372169031,"connected_time":910000000000,"state":"active","ping":67},{"user_id":46,"name":"Marcus","steam_id":76561198205027963,"connected_time":852000000000,"state":"active","ping":66},{"user_id":52,"name":"GreadTheOriginal","steam_id":76561198860064764,"connected_time":374000000000,"state":"active","ping":82},{"user_id":53,"name":"Obama gaming","steam_id":76561199158771111,"connected_time":355000000000,"state":"active","ping":149},{"user_id":51,"name":"katana on the trains","steam_id":76561198202464032,"connected_time":525000000000,"state":"active","ping":54},{"user_id":54,"name":"Lanzer","steam_id":76561198049983016,"connected_time":317000000000,"state":"active","ping":104}]},{"server_id":114,"name":"Uncletopia | London | 2 | All Maps","name_short":"lon-2","host":"lon-1.uk.uncletopia.com","port":27025,"enabled":true,"region":"eu","cc":"gb","latitude":51.509865,"longitude":-0.118092,"reserved":0,"last_update":"0001-01-01T00:00:00Z","name_a2s":"Uncletopia | London | 2 | All Maps","protocol":17,"map":"pl_borneo","folder":"tf","game":"Team Fortress","app_id":440,"player_count":0,"max_players":24,"Bots":0,"server_type":"Dedicated","server_os":"Linux","password":true,"vac":true,"version":"7961495","steam_id":85568392924470941,"keywords":["nocrits","nodmgspread","payload","uncletopia"],"game_id":440,"stv_port":27026,"stv_name":"Uncletopia | London | 2 | All Maps | STV","players":null},{"server_id":320,"name":"Uncletopia | London | 3 | All Maps","name_short":"lon-3","host":"lon-1.uk.uncletopia.com","port":27035,"enabled":true,"region":"eu","cc":"gb","latitude":51.509865,"longitude":-0.118092,"reserved":0,"last_update":"0001-01-01T00:00:00Z","name_a2s":"Uncletopia | London | 3 | All Maps","protocol":17,"map":"cp_process_final","folder":"tf","game":"Team Fortress","app_id":440,"player_count":0,"max_players":24,"Bots":0,"server_type":"Dedicated","server_os":"Linux","password":true,"vac":true,"version":"7961495","steam_id":85568392924510192,"keywords":["cp","nocrits","nodmgspread","uncletopia"],"game_id":440,"stv_port":27036,"stv_name":"Uncletopia | London | 3 | All Maps | STV","players":null},{"server_id":321,"name":"Uncletopia | London | 4 | All Maps","name_short":"lon-4","host":"lon-1.uk.uncletopia.com","port":27045,"enabled":true,"region":"eu","cc":"gb","latitude":51.509865,"longitude":-0.118092,"reserved":0,"last_update":"0001-01-01T00:00:00Z","name_a2s":"Uncletopia | London | 4 | All Maps","protocol":17,"map":"koth_cascade","folder":"tf","game":"Team Fortress","app_id":440,"player_count":0,"max_players":24,"Bots":0,"server_type":"Dedicated","server_os":"Linux","password":true,"vac":true,"version":"7961495","steam_id":85568392924510193,"keywords":["cp","nocrits","nodmgspread","uncletopia"],"game_id":440,"stv_port":27046,"stv_name":"Uncletopia | London | 4 | All Maps | STV","players":null},{"server_id":21,"name":"Uncletopia | London | 5 | All Maps","name_short":"lon-5","host":"lon-1.uk.uncletopia.com","port":27055,"enabled":true,"region":"eu","cc":"gb","latitude":51.509865,"longitude":-0.118092,"reserved":0,"last_update":"0001-01-01T00:00:00Z","name_a2s":"Uncletopia | London | 5 | All Maps","protocol":17,"map":"koth_lakeside_final","folder":"tf","game":"Team Fortress","app_id":440,"player_count":0,"max_players":24,"Bots":0,"server_type":"Dedicated","server_os":"Linux","password":true,"vac":true,"version":"7961495","steam_id":85568392924742829,"keywords":["cp","nocrits","nodmgspread","uncletopia"],"game_id":440,"stv_port":27056,"stv_name":"Uncletopia | London | 5 | All Maps | STV","players":null},{"server_id":22,"name":"Uncletopia | London | 6 | All Maps","name_short":"lon-6","host":"lon-1.uk.uncletopia.com","port":27065,"enabled":true,"region":"eu","cc":"gb","latitude":51.509865,"longitude":-0.118092,"reserved":0,"last_update":"0001-01-01T00:00:00Z","name_a2s":"Uncletopia | London | 6 | All Maps","protocol":17,"map":"cp_dustbowl","folder":"tf","game":"Team Fortress","app_id":440,"player_count":0,"max_players":24,"Bots":0,"server_type":"Dedicated","server_os":"Linux","password":true,"vac":true,"version":"7961495","steam_id":85568392924742830,"keywords":["cp","nocrits","nodmgspread","uncletopia"],"game_id":440,"stv_port":27066,"stv_name":"Uncletopia | London | 6 | All Maps | STV","players":null},{"server_id":40,"name":"Uncletopia | London | 7 | Stopwatch","name_short":"lon-7","host":"lon-1.uk.uncletopia.com","port":27075,"enabled":true,"region":"eu","cc":"gb","latitude":51.509865,"longitude":-0.118092,"reserved":0,"last_update":"0001-01-01T00:00:00Z","name_a2s":"Uncletopia | London | 7 | Stopwatch","protocol":17,"map":"koth_lakeside_final","folder":"tf","game":"Team Fortress","app_id":440,"player_count":0,"max_players":24,"Bots":0,"server_type":"Dedicated","server_os":"Linux","password":true,"vac":true,"version":"7961495","steam_id":85568392924964314,"keywords":["cp","nocrits","nodmgspread","uncletopia"],"game_id":440,"stv_port":27076,"stv_name":"Uncletopia | London | 7 | Stopwatch | STV","players":null},{"server_id":41,"name":"Uncletopia | London | 8 | Community","name_short":"lon-8","host":"lon-1.uk.uncletopia.com","port":27085,"enabled":true,"region":"eu","cc":"gb","latitude":51.509865,"longitude":-0.118092,"reserved":0,"last_update":"0001-01-01T00:00:00Z","name_a2s":"Uncletopia | London | 8 | Community","protocol":17,"map":"cp_snakewater_final1","folder":"tf","game":"Team Fortress","app_id":440,"player_count":0,"max_players":24,"Bots":0,"server_type":"Dedicated","server_os":"Linux","password":true,"vac":true,"version":"7961495","steam_id":85568392924964315,"keywords":["cp","nocrits","nodmgspread","uncletopia"],"game_id":440,"stv_port":27086,"stv_name":"Uncletopia | London | 8 | Community | STV","players":null},{"server_id":300,"name":"Uncletopia | Montr√©al | 1 | One Thousand Uncles","name_short":"mtl-1","host":"mtl-1.ca.uncletopia.com","port":27015,"enabled":true,"region":"us-east","cc":"ca","latitude":45.50889,"longitude":-73.56167,"reserved":0,"last_update":"0001-01-01T00:00:00Z","name_a2s":"","protocol":0,"map":"","folder":"","game":"","app_id":0,"player_count":0,"max_players":0,"Bots":0,"server_type":"","server_os":"","password":false,"vac":false,"version":"","steam_id":0,"keywords":null,"game_id":0,"stv_port":0,"stv_name":"","players":null},{"server_id":301,"name":"Uncletopia | Montr√©al | 2 | One Thousand Uncles","name_short":"mtl-2","host":"mtl-1.ca.uncletopia.com","port":27025,"enabled":true,"region":"us-east","cc":"ca","latitude":45.50889,"longitude":-73.56167,"reserved":0,"last_update":"0001-01-01T00:00:00Z","name_a2s":"","protocol":0,"map":"","folder":"","game":"","app_id":0,"player_count":0,"max_players":0,"Bots":0,"server_type":"","server_os":"","password":false,"vac":false,"version":"","steam_id":0,"keywords":null,"game_id":0,"stv_port":0,"stv_name":"","players":null},{"server_id":302,"name":"Uncletopia | Montr√©al | 3 | One Thousand Uncles","name_short":"mtl-3","host":"mtl-1.ca.uncletopia.com","port":27035,"enabled":true,"region":"us-east","cc":"ca","latitude":45.50889,"longitude":-73.56167,"reserved":0,"last_update":"0001-01-01T00:00:00Z","name_a2s":"","protocol":0,"map":"","folder":"","game":"","app_id":0,"player_count":0,"max_players":0,"Bots":0,"server_type":"","server_os":"","password":false,"vac":false,"version":"","steam_id":0,"keywords":null,"game_id":0,"stv_port":0,"stv_name":"","players":null},{"server_id":13,"name":"Uncletopia | New York City | 1 | All Maps","name_short":"nyc-1","host":"nyc-1.us.uncletopia.com","port":27015,"enabled":true,"region":"us-east","cc":"us","latitude":40.73061,"longitude":-73.93524,"reserved":0,"last_update":"0001-01-01T00:00:00Z","name_a2s":"Uncletopia | New York City | 1 | All Maps","protocol":17,"map":"cp_process_final","folder":"tf","game":"Team Fortress","app_id":440,"player_count":15,"max_players":24,"Bots":0,"server_type":"Dedicated","server_os":"Linux","password":true,"vac":true,"version":"7961495","steam_id":85568392924469993,"keywords":["cp","nocrits","nodmgspread","uncletopia"],"game_id":440,"stv_port":27016,"stv_name":"Uncletopia | New York City | 1 | All Maps | STV","players":[{"user_id":575,"name":"Cooldog","steam_id":76561198080548713,"connected_time":332000000000,"state":"active","ping":60},{"user_id":572,"name":"Tym","steam_id":76561198128655264,"connected_time":661000000000,"state":"active","ping":88},{"user_id":563,"name":"_copkilla.B1G$L1M‚Ç¨.zaddY_","steam_id":76561198283687382,"connected_time":1494000000000,"state":"active","ping":94},{"user_id":569,"name":"Rock Kickass","steam_id":76561198450510841,"connected_time":736000000000,"state":"active","ping":131},{"user_id":565,"name":"lalman","steam_id":76561198196605887,"connected_time":1204000000000,"state":"active","ping":48},{"user_id":570,"name":"HunnyBon","steam_id":76561198135752184,"connected_time":726000000000,"state":"active","ping":71},{"user_id":571,"name":"TheSolitaryGamer","steam_id":76561198045055602,"connected_time":705000000000,"state":"active","ping":72},{"user_id":568,"name":"a 1930s robber","steam_id":76561198125237406,"connected_time":1016000000000,"state":"active","ping":60},{"user_id":574,"name":"thundah #newmoose","steam_id":76561199159928133,"connected_time":470000000000,"state":"active","ping":60},{"user_id":576,"name":"GatorAIDS","steam_id":76561198043220092,"connected_time":305000000000,"state":"active","ping":78},{"user_id":581,"name":"‚à∞","steam_id":76561198064424202,"connected_time":10000000000,"state":"spawning","ping":27},{"user_id":578,"name":"The janitor(El coyote)","steam_id":76561198414300607,"connected_time":215000000000,"state":"active","ping":118},{"user_id":503,"name":"Yoshimelon","steam_id":76561198253054325,"connected_time":6912000000000,"state":"active","ping":75},{"user_id":557,"name":"Pepsi","steam_id":76561198401918732,"connected_time":2093000000000,"state":"active","ping":68},{"user_id":579,"name":"EmVixen","steam_id":76561198094622997,"connected_time":86000000000,"state":"active","ping":160}]},{"server_id":14,"name":"Uncletopia | New York City | 2 | All Maps","name_short":"nyc-2","host":"nyc-1.us.uncletopia.com","port":27025,"enabled":true,"region":"us-east","cc":"us","latitude":40.73061,"longitude":-73.93524,"reserved":0,"last_update":"0001-01-01T00:00:00Z","name_a2s":"Uncletopia | New York City | 2 | All Maps","protocol":17,"map":"pl_borneo","folder":"tf","game":"Team Fortress","app_id":440,"player_count":23,"max_players":24,"Bots":0,"server_type":"Dedicated","server_os":"Linux","password":true,"vac":true,"version":"7961495","steam_id":85568392924469994,"keywords":["nocrits","nodmgspread","payload","uncletopia"],"game_id":440,"stv_port":27026,"stv_name":"Uncletopia | New York City | 2 | All Maps | STV","players":[{"user_id":561,"name":"AttyFox","steam_id":76561198063160037,"connected_time":413000000000,"state":"active","ping":119},{"user_id":565,"name":"[BTM]Texas","steam_id":76561198043460554,"connected_time":99000000000,"state":"active","ping":70},{"user_id":558,"name":"Indigolake","steam_id":76561198202215807,"connected_time":682000000000,"state":"active","ping":64},{"user_id":526,"name":"Always Here for You","steam_id":76561198219252313,"connected_time":3353000000000,"state":"active","ping":75},{"user_id":562,"name":"Minin","steam_id":76561198018819047,"connected_time":362000000000,"state":"active","ping":100},{"user_id":553,"name":"kikikikoboy","steam_id":76561198073380271,"connected_time":1377000000000,"state":"active","ping":70},{"user_id":559,"name":"Nathan Yeet","steam_id":76561198883966591,"connected_time":553000000000,"state":"active","ping":70},{"user_id":535,"name":"Poopisviel Von Einzbern","steam_id":76561198259260433,"connected_time":3165000000000,"state":"active","ping":76},{"user_id":560,"name":"Stabby","steam_id":76561198038180931,"connected_time":492000000000,"state":"active","ping":61},{"user_id":552,"name":"EvilPi99let","steam_id":76561197987243470,"connected_time":1419000000000,"state":"active","ping":73},{"user_id":543,"name":"Wang of Wall St","steam_id":76561198047460598,"connected_time":1908000000000,"state":"active","ping":62},{"user_id":529,"name":"SUM_TING_WONG","steam_id":76561198351938341,"connected_time":3289000000000,"state":"active","ping":41},{"user_id":519,"name":"Jango","steam_id":76561198084589742,"connected_time":4015000000000,"state":"active","ping":75},{"user_id":566,"name":"there is cum in my ramen","steam_id":76561198059815894,"connected_time":95000000000,"state":"active","ping":61},{"user_id":512,"name":"_Pai","steam_id":76561198108196753,"connected_time":4483000000000,"state":"active","ping":108},{"user_id":530,"name":"Tobias Rieper","steam_id":76561198026504998,"connected_time":3281000000000,"state":"active","ping":99},{"user_id":531,"name":"Bunni","steam_id":76561198065169997,"connected_time":3271000000000,"state":"active","ping":72},{"user_id":563,"name":"ColdMetalFinger","steam_id":76561198286559023,"connected_time":326000000000,"state":"active","ping":52},{"user_id":544,"name":"That's So Raven! [Dexgod]","steam_id":76561198017130786,"connected_time":1884000000000,"state":"active","ping":68},{"user_id":548,"name":"Brendan","steam_id":76561198041079914,"connected_time":1666000000000,"state":"active","ping":46},{"user_id":547,"name":"Shang","steam_id":76561198298637817,"connected_time":1701000000000,"state":"active","ping":60},{"user_id":564,"name":"ninety9dragonfly","steam_id":76561198363406983,"connected_time":319000000000,"state":"active","ping":132},{"user_id":538,"name":"Dylanxp300","steam_id":76561198271974937,"connected_time":3066000000000,"state":"active","ping":56}]},{"server_id":15,"name":"Uncletopia | New York City | 3 | Stopwatch","name_short":"nyc-3","host":"nyc-1.us.uncletopia.com","port":27035,"enabled":true,"region":"us-east","cc":"us","latitude":40.73061,"longitude":-73.93524,"reserved":0,"last_update":"0001-01-01T00:00:00Z","name_a2s":"Uncletopia | New York City | 3 | Stopwatch","protocol":17,"map":"workshop/koth_ramjam_rc1.ugc459778887","folder":"tf","game":"Team Fortress","app_id":440,"player_count":0,"max_players":24,"Bots":0,"server_type":"Dedicated","server_os":"Linux","password":true,"vac":true,"version":"7961495","steam_id":85568392924742820,"keywords":["cp","nocrits","nodmgspread","uncletopia"],"game_id":440,"stv_port":27036,"stv_name":"Uncletopia | New York City | 3 | Stopwatch | STV","players":null},{"server_id":16,"name":"Uncletopia | New York City | 4 | Community","name_short":"nyc-4","host":"nyc-1.us.uncletopia.com","port":27045,"enabled":true,"region":"us-east","cc":"us","latitude":40.73061,"longitude":-73.93524,"reserved":0,"last_update":"0001-01-01T00:00:00Z","name_a2s":"Uncletopia | New York City | 4 | Community","protocol":17,"map":"workshop/koth_product_final.ugc454272353","folder":"tf","game":"Team Fortress","app_id":440,"player_count":0,"max_players":24,"Bots":0,"server_type":"Dedicated","server_os":"Linux","password":true,"vac":true,"version":"7961495","steam_id":85568392924742821,"keywords":["cp","nocrits","nodmgspread","uncletopia"],"game_id":440,"stv_port":27046,"stv_name":"Uncletopia | New York City | 4 | Community | STV","players":null},{"server_id":142,"name":"Uncletopia | S√£o Paulo | 1 | All Maps","name_short":"sao-1","host":"sao-1.br.uncletopia.com","port":27015,"enabled":true,"region":"sa","cc":"br","latitude":-23.533773,"longitude":-46.62529,"reserved":0,"last_update":"0001-01-01T00:00:00Z","name_a2s":"Uncletopia | S√£o Paulo | 1 | All Maps","protocol":17,"map":"pl_frontier_final","folder":"tf","game":"Team Fortress","app_id":440,"player_count":0,"max_players":24,"Bots":0,"server_type":"Dedicated","server_os":"Linux","password":true,"vac":true,"version":"7961495","steam_id":85568392924469996,"keywords":["nocrits","nodmgspread","payload","uncletopia"],"game_id":440,"stv_port":27016,"stv_name":"Uncletopia | S√£o Paulo | 1 | All Maps | STV","players":null},{"server_id":143,"name":"Uncletopia | S√£o Paulo | 2 | Community","name_short":"sao-2","host":"sao-2.br.uncletopia.com","port":27015,"enabled":true,"region":"sa","cc":"br","latitude":-23.533773,"longitude":-46.62529,"reserved":0,"last_update":"0001-01-01T00:00:00Z","name_a2s":"Uncletopia | S√£o Paulo | 2 | Community","protocol":17,"map":"workshop/koth_kemptown_rc1.ugc767410655","folder":"tf","game":"Team Fortress","app_id":440,"player_count":0,"max_players":24,"Bots":0,"server_type":"Dedicated","server_os":"Linux","password":true,"vac":true,"version":"7961495","steam_id":85568392924485349,"keywords":["cp","nocrits","nodmgspread","uncletopia"],"game_id":440,"stv_port":27016,"stv_name":"Uncletopia | S√£o Paulo | 2 | Community | STV","players":null},{"server_id":7,"name":"Uncletopia | Seattle | 1 | All Maps","name_short":"sea-1","host":"sea-1.us.uncletopia.com","port":27015,"enabled":true,"region":"us-west","cc":"us","latitude":47.608013,"longitude":-122.33517,"reserved":0,"last_update":"0001-01-01T00:00:00Z","name_a2s":"Uncletopia | Seattle | 1 | All Maps","protocol":17,"map":"koth_harvest_final","folder":"tf","game":"Team Fortress","app_id":440,"player_count":24,"max_players":24,"Bots":0,"server_type":"Dedicated","server_os":"Linux","password":true,"vac":true,"version":"7961495","steam_id":85568392924469997,"keywords":["cp","nocrits","nodmgspread","uncletopia"],"game_id":440,"stv_port":27016,"stv_name":"Uncletopia | Seattle | 1 | All Maps | STV","players":[{"user_id":465,"name":"lukamine","steam_id":76561198166827208,"connected_time":4529000000000,"state":"active","ping":43},{"user_id":564,"name":"Daz","steam_id":76561198041431938,"connected_time":1566000000000,"state":"active","ping":49},{"user_id":560,"name":"The King of Piss World","steam_id":76561198082806956,"connected_time":1822000000000,"state":"active","ping":108},{"user_id":526,"name":"smeasly","steam_id":76561198028718812,"connected_time":3540000000000,"state":"active","ping":35},{"user_id":573,"name":"Father","steam_id":76561198055542054,"connected_time":107000000000,"state":"active","ping":34},{"user_id":572,"name":"waggyaggy (it/she)","steam_id":76561197998241407,"connected_time":123000000000,"state":"active","ping":75},{"user_id":569,"name":"hazel","steam_id":76561198037292232,"connected_time":364000000000,"state":"active","ping":120},{"user_id":555,"name":"kill me","steam_id":76561198032625036,"connected_time":2275000000000,"state":"active","ping":50},{"user_id":551,"name":"a","steam_id":76561198074209737,"connected_time":2988000000000,"state":"active","ping":90},{"user_id":487,"name":"Sniff","steam_id":76561198010270922,"connected_time":4328000000000,"state":"active","ping":73},{"user_id":554,"name":"Just a Good Friend","steam_id":76561198140052403,"connected_time":2468000000000,"state":"active","ping":61},{"user_id":567,"name":"Henchie!","steam_id":76561198047567464,"connected_time":1268000000000,"state":"active","ping":80},{"user_id":575,"name":"[TrC] Nosy","steam_id":76561197978859310,"connected_time":55000000000,"state":"active","ping":52},{"user_id":449,"name":"rat gets the cheese","steam_id":76561198031234032,"connected_time":5602000000000,"state":"active","ping":93},{"user_id":566,"name":"Darkgigglemonster","steam_id":76561198870649125,"connected_time":1274000000000,"state":"active","ping":85},{"user_id":549,"name":"Melly","steam_id":76561198045867175,"connected_time":3258000000000,"state":"active","ping":60},{"user_id":500,"name":"pat","steam_id":76561198040595468,"connected_time":4034000000000,"state":"active","ping":84},{"user_id":557,"name":"lavender","steam_id":76561199069518286,"connected_time":2231000000000,"state":"active","ping":70},{"user_id":565,"name":"Dog","steam_id":76561198041841128,"connected_time":1511000000000,"state":"active","ping":77},{"user_id":563,"name":"Cam","steam_id":76561198285054047,"connected_time":1760000000000,"state":"active","ping":61},{"user_id":570,"name":"Ayayayayayayayayayayayayahuasca","steam_id":76561199002906056,"connected_time":166000000000,"state":"active","ping":51},{"user_id":574,"name":"luc","steam_id":76561198093883448,"connected_time":107000000000,"state":"active","ping":50},{"user_id":477,"name":"[TrC] Dackstrus","steam_id":76561197973518509,"connected_time":4452000000000,"state":"active","ping":54},{"user_id":531,"name":"Sweets","steam_id":76561198998446307,"connected_time":3509000000000,"state":"active","ping":62}]},{"server_id":119,"name":"Uncletopia | Seattle | 2 | All Maps","name_short":"sea-2","host":"sea-1.us.uncletopia.com","port":27025,"enabled":true,"region":"us-west","cc":"us","latitude":47.608013,"longitude":-122.33517,"reserved":0,"last_update":"0001-01-01T00:00:00Z","name_a2s":"Uncletopia | Seattle | 2 | All Maps","protocol":17,"map":"cp_dustbowl","folder":"tf","game":"Team Fortress","app_id":440,"player_count":21,"max_players":24,"Bots":0,"server_type":"Dedicated","server_os":"Linux","password":true,"vac":true,"version":"7961495","steam_id":85568392924469998,"keywords":["cp","nocrits","nodmgspread","uncletopia"],"game_id":440,"stv_port":27026,"stv_name":"Uncletopia | Seattle | 2 | All Maps | STV","players":[{"user_id":240,"name":"netoc6","steam_id":76561199065312168,"connected_time":326000000000,"state":"active","ping":96},{"user_id":244,"name":"hart","steam_id":76561198046073848,"connected_time":109000000000,"state":"active","ping":45},{"user_id":245,"name":"2 Point Tom","steam_id":76561198087617008,"connected_time":98000000000,"state":"active","ping":50},{"user_id":233,"name":"Robogineer","steam_id":76561198026994739,"connected_time":1193000000000,"state":"active","ping":75},{"user_id":177,"name":"conner","steam_id":76561198052911241,"connected_time":5982000000000,"state":"active","ping":125},{"user_id":227,"name":"Que-sus-dilla","steam_id":76561198125712564,"connected_time":1212000000000,"state":"active","ping":75},{"user_id":158,"name":"fishtank.live","steam_id":76561198280085840,"connected_time":7148000000000,"state":"active","ping":71},{"user_id":223,"name":"stevennmoore","steam_id":76561198080080115,"connected_time":1443000000000,"state":"active","ping":73},{"user_id":229,"name":"jasus","steam_id":76561198088035919,"connected_time":1204000000000,"state":"active","ping":45},{"user_id":215,"name":"fragadelphia","steam_id":76561198066116363,"connected_time":1942000000000,"state":"active","ping":49},{"user_id":246,"name":"johnny","steam_id":76561198050225055,"connected_time":76000000000,"state":"active","ping":75},{"user_id":247,"name":"paj","steam_id":76561198080026026,"connected_time":61000000000,"state":"active","ping":79},{"user_id":231,"name":"Thexx ‚ù§","steam_id":76561198113823050,"connected_time":1200000000000,"state":"active","ping":47},{"user_id":248,"name":"Mom","steam_id":76561198207936000,"connected_time":53000000000,"state":"active","ping":58},{"user_id":242,"name":"Grill Skills","steam_id":76561198053575147,"connected_time":172000000000,"state":"active","ping":46},{"user_id":249,"name":"Root beer color nipples","steam_id":76561197999413622,"connected_time":9000000000,"state":"active","ping":78},{"user_id":54,"name":"Nick","steam_id":76561198329096986,"connected_time":13356000000000,"state":"active","ping":90},{"user_id":239,"name":"Sploonbabagoosecooties","steam_id":76561198139972201,"connected_time":894000000000,"state":"active","ping":44},{"user_id":237,"name":"Irony is pretty cringy","steam_id":76561198120391460,"connected_time":1095000000000,"state":"active","ping":76},{"user_id":192,"name":":(){ :|:\u0026 };:","steam_id":76561198115242460,"connected_time":4509000000000,"state":"active","ping":58},{"user_id":186,"name":"Synergy","steam_id":76561198098630198,"connected_time":5165000000000,"state":"active","ping":44}]},{"server_id":406,"name":"Uncletopia | Seattle | 3 | Stopwatch","name_short":"sea-3","host":"sea-1.us.uncletopia.com","port":27035,"enabled":true,"region":"us-west","cc":"us","latitude":47.608013,"longitude":-122.33517,"reserved":0,"last_update":"0001-01-01T00:00:00Z","name_a2s":"Uncletopia | Seattle | 3 | Stopwatch","protocol":17,"map":"pl_borneo","folder":"tf","game":"Team Fortress","app_id":440,"player_count":0,"max_players":24,"Bots":0,"server_type":"Dedicated","server_os":"Linux","password":true,"vac":true,"version":"7961495","steam_id":85568392924515217,"keywords":["nocrits","nodmgspread","payload","uncletopia"],"game_id":440,"stv_port":27036,"stv_name":"Uncletopia | Seattle | 3 | Stopwatch | STV","players":null},{"server_id":17,"name":"Uncletopia | San Francisco | 1 | All Maps","name_short":"sfo-1","host":"sfo-1.us.uncletopia.com","port":27015,"enabled":true,"region":"us-west","cc":"us","latitude":37.77397,"longitude":-122.4313,"reserved":0,"last_update":"0001-01-01T00:00:00Z","name_a2s":"Uncletopia | San Francisco | 1 | All Maps","protocol":17,"map":"koth_viaduct","folder":"tf","game":"Team Fortress","app_id":440,"player_count":0,"max_players":24,"Bots":0,"server_type":"Dedicated","server_os":"Linux","password":true,"vac":true,"version":"7961495","steam_id":85568392924469999,"keywords":["cp","nocrits","nodmgspread","uncletopia"],"game_id":440,"stv_port":27016,"stv_name":"Uncletopia | San Francisco | 1 | All Maps | STV","players":null},{"server_id":18,"name":"Uncletopia | San Francisco | 2 | All Maps","name_short":"sfo-2","host":"sfo-1.us.uncletopia.com","port":27025,"enabled":true,"region":"us-west","cc":"us","latitude":37.77397,"longitude":-122.4313,"reserved":0,"last_update":"0001-01-01T00:00:00Z","name_a2s":"Uncletopia | San Francisco | 2 | All Maps","protocol":17,"map":"cp_process_final","folder":"tf","game":"Team Fortress","app_id":440,"player_count":25,"max_players":24,"Bots":0,"server_type":"Dedicated","server_os":"Linux","password":true,"vac":true,"version":"7961495","steam_id":85568392924470000,"keywords":["cp","nocrits","nodmgspread","uncletopia"],"game_id":440,"stv_port":27026,"stv_name":"Uncletopia | San Francisco | 2 | All Maps | STV","players":[{"user_id":656,"name":"Blue Shell Man Guy","steam_id":76561198157985901,"connected_time":3822000000000,"state":"active","ping":79},{"user_id":699,"name":"TheUrgeWithin","steam_id":76561198033385972,"connected_time":902000000000,"state":"active","ping":90},{"user_id":688,"name":"Toastered","steam_id":76561198178459042,"connected_time":1591000000000,"state":"active","ping":56},{"user_id":681,"name":"Papa Slim","steam_id":76561198072256119,"connected_time":2107000000000,"state":"active","ping":66},{"user_id":623,"name":"Throws Before BrosÛ†Ä°","steam_id":76561197992905530,"connected_time":5588000000000,"state":"active","ping":53},{"user_id":710,"name":"HungryHippo","steam_id":76561198047615363,"connected_time":61000000000,"state":"active","ping":50},{"user_id":701,"name":"fitotutus","steam_id":76561197974993253,"connected_time":768000000000,"state":"active","ping":131},{"user_id":700,"name":"Axelfreeze14","steam_id":76561198436383913,"connected_time":789000000000,"state":"active","ping":48},{"user_id":677,"name":"NASA PEEPO","steam_id":76561198024982267,"connected_time":2525000000000,"state":"active","ping":60},{"user_id":709,"name":"Mihaly","steam_id":76561198076645019,"connected_time":65000000000,"state":"active","ping":87},{"user_id":705,"name":"dunk lft","steam_id":76561198066114874,"connected_time":679000000000,"state":"active","ping":75},{"user_id":690,"name":"Khrono691","steam_id":76561198246227600,"connected_time":1550000000000,"state":"active","ping":72},{"user_id":698,"name":"Data_on_Acid","steam_id":76561198017657660,"connected_time":996000000000,"state":"active","ping":60},{"user_id":674,"name":"Dreamzapp","steam_id":76561199084936632,"connected_time":2862000000000,"state":"active","ping":70},{"user_id":684,"name":"Phoenix","steam_id":76561198068722818,"connected_time":1903000000000,"state":"active","ping":121},{"user_id":704,"name":"gyat","steam_id":76561198043684960,"connected_time":734000000000,"state":"active","ping":93},{"user_id":683,"name":"pepsi","steam_id":76561198114655857,"connected_time":1945000000000,"state":"active","ping":75},{"user_id":711,"name":"torb loves you","steam_id":76561198386268453,"connected_time":6000000000,"state":"spawning","ping":55},{"user_id":706,"name":"Gardangle","steam_id":76561198394173831,"connected_time":666000000000,"state":"active","ping":54},{"user_id":708,"name":"sludge_wizard","steam_id":76561198054482500,"connected_time":97000000000,"state":"active","ping":126},{"user_id":678,"name":"Daddy Topps","steam_id":76561198203594332,"connected_time":2516000000000,"state":"active","ping":64},{"user_id":693,"name":"TheBrocklobster","steam_id":76561198039682984,"connected_time":1536000000000,"state":"active","ping":76},{"user_id":686,"name":"Brando","steam_id":76561198078306678,"connected_time":1736000000000,"state":"active","ping":83},{"user_id":694,"name":"Slope115117","steam_id":76561199028794627,"connected_time":1524000000000,"state":"active","ping":83},{"user_id":671,"name":"Your Gay Dad","steam_id":76561198271926877,"connected_time":3092000000000,"state":"active","ping":84}]},{"server_id":19,"name":"Uncletopia | San Francisco | 3 | Stopwatch","name_short":"sfo-3","host":"sfo-1.us.uncletopia.com","port":27035,"enabled":true,"region":"us-west","cc":"us","latitude":37.77397,"longitude":-122.4313,"reserved":0,"last_update":"0001-01-01T00:00:00Z","name_a2s":"Uncletopia | San Francisco | 3 | Stopwatch","protocol":17,"map":"pl_borneo","folder":"tf","game":"Team Fortress","app_id":440,"player_count":0,"max_players":24,"Bots":0,"server_type":"Dedicated","server_os":"Linux","password":true,"vac":true,"version":"7961495","steam_id":85568392924742824,"keywords":["nocrits","nodmgspread","payload","uncletopia"],"game_id":440,"stv_port":27036,"stv_name":"Uncletopia | San Francisco | 3 | Stopwatch | STV","players":null},{"server_id":20,"name":"Uncletopia | San Francisco | 4 | Community","name_short":"sfo-4","host":"sfo-1.us.uncletopia.com","port":27045,"enabled":true,"region":"us-west","cc":"us","latitude":37.77397,"longitude":-122.4313,"reserved":0,"last_update":"0001-01-01T00:00:00Z","name_a2s":"Uncletopia | San Francisco | 4 | Community","protocol":17,"map":"workshop/koth_slaughter_rc1.ugc1712845210","folder":"tf","game":"Team Fortress","app_id":440,"player_count":0,"max_players":24,"Bots":0,"server_type":"Dedicated","server_os":"Linux","password":true,"vac":true,"version":"7961495","steam_id":85568392924742826,"keywords":["cp","nocrits","nodmgspread","uncletopia"],"game_id":440,"stv_port":27046,"stv_name":"Uncletopia | San Francisco | 4 | Community | STV","players":null},{"server_id":141,"name":"Uncletopia | Sydney | 1 | All Maps","name_short":"syd-1","host":"syd-1.au.uncletopia.com","port":27015,"enabled":true,"region":"au","cc":"au","latitude":-33.865143,"longitude":151.2099,"reserved":0,"last_update":"0001-01-01T00:00:00Z","name_a2s":"Uncletopia | Sydney | 1 | All Maps","protocol":17,"map":"pl_badwater","folder":"tf","game":"Team Fortress","app_id":440,"player_count":24,"max_players":24,"Bots":0,"server_type":"Dedicated","server_os":"Linux","password":true,"vac":true,"version":"7961495","steam_id":85568392924470001,"keywords":["nocrits","nodmgspread","payload","uncletopia"],"game_id":440,"stv_port":27016,"stv_name":"Uncletopia | Sydney | 1 | All Maps | STV","players":[{"user_id":39,"name":"CypressFluff (she/her)","steam_id":76561198174667818,"connected_time":1898000000000,"state":"active","ping":64},{"user_id":48,"name":"beef","steam_id":76561198405899260,"connected_time":1394000000000,"state":"active","ping":58},{"user_id":25,"name":"lugig","steam_id":76561198264839805,"connected_time":3176000000000,"state":"active","ping":58},{"user_id":26,"name":"Mario","steam_id":76561198828095685,"connected_time":3075000000000,"state":"active","ping":74},{"user_id":29,"name":"plr_jack","steam_id":76561199124321542,"connected_time":2529000000000,"state":"active","ping":70},{"user_id":31,"name":"Two Fortress Enjoyer","steam_id":76561198039845750,"connected_time":2246000000000,"state":"active","ping":59},{"user_id":46,"name":"cakey","steam_id":76561198173746761,"connected_time":1510000000000,"state":"active","ping":45},{"user_id":33,"name":"alex","steam_id":76561198199008741,"connected_time":2188000000000,"state":"active","ping":61},{"user_id":49,"name":"Arn0tt","steam_id":76561198027007279,"connected_time":1203000000000,"state":"active","ping":99},{"user_id":64,"name":"ArcticDolphin","steam_id":76561198203626319,"connected_time":215000000000,"state":"active","ping":175},{"user_id":37,"name":"Tzeentch","steam_id":76561198040935557,"connected_time":2074000000000,"state":"active","ping":68},{"user_id":69,"name":"da fox in da box","steam_id":76561199190532952,"connected_time":76000000000,"state":"active","ping":63},{"user_id":56,"name":"LeoJoeD","steam_id":76561198161848749,"connected_time":595000000000,"state":"active","ping":43},{"user_id":61,"name":"Glockenspe (She/Her)","steam_id":76561199184115241,"connected_time":318000000000,"state":"active","ping":53},{"user_id":57,"name":"LightningBlock","steam_id":76561198289997742,"connected_time":513000000000,"state":"active","ping":41},{"user_id":62,"name":"See Saw user","steam_id":76561199234725456,"connected_time":309000000000,"state":"active","ping":60},{"user_id":59,"name":"julz_mt","steam_id":76561198125576468,"connected_time":486000000000,"state":"active","ping":68},{"user_id":60,"name":"sonny","steam_id":76561199247528516,"connected_time":399000000000,"state":"active","ping":31},{"user_id":63,"name":"Chooka","steam_id":76561197992307814,"connected_time":305000000000,"state":"active","ping":69},{"user_id":66,"name":"Dot","steam_id":76561198064534661,"connected_time":171000000000,"state":"active","ping":54},{"user_id":70,"name":"P1nned","steam_id":76561199122412618,"connected_time":71000000000,"state":"active","ping":38},{"user_id":71,"name":"seriousface095","steam_id":76561199034191663,"connected_time":65000000000,"state":"active","ping":225},{"user_id":72,"name":"HSmileyFace","steam_id":76561198062385882,"connected_time":59000000000,"state":"active","ping":99},{"user_id":73,"name":"Lord Piss","steam_id":76561198118845669,"connected_time":41000000000,"state":"active","ping":166}]},{"server_id":123,"name":"Uncletopia | Sydney | 2 | All Maps","name_short":"syd-2","host":"syd-1.au.uncletopia.com","port":27025,"enabled":true,"region":"au","cc":"au","latitude":-33.865143,"longitude":151.2099,"reserved":0,"last_update":"0001-01-01T00:00:00Z","name_a2s":"Uncletopia | Sydney | 2 | All Maps","protocol":17,"map":"koth_lakeside_final","folder":"tf","game":"Team Fortress","app_id":440,"player_count":1,"max_players":24,"Bots":0,"server_type":"Dedicated","server_os":"Linux","password":true,"vac":true,"version":"7961495","steam_id":85568392924470002,"keywords":["cp","nocrits","nodmgspread","uncletopia"],"game_id":440,"stv_port":27026,"stv_name":"Uncletopia | Sydney | 2 | All Maps | STV","players":[{"user_id":6,"name":"Wombon","steam_id":76561198071323879,"connected_time":31000000000,"state":"active","ping":73}]},{"server_id":395,"name":"Uncletopia | Sydney | 3 | All Maps","name_short":"syd-3","host":"syd-1.au.uncletopia.com","port":27035,"enabled":true,"region":"au","cc":"au","latitude":-33.865143,"longitude":151.2099,"reserved":0,"last_update":"0001-01-01T00:00:00Z","name_a2s":"Uncletopia | Sydney | 3 | All Maps","protocol":17,"map":"pl_upward","folder":"tf","game":"Team Fortress","app_id":440,"player_count":0,"max_players":24,"Bots":0,"server_type":"Dedicated","server_os":"Linux","password":true,"vac":true,"version":"7961495","steam_id":85568392925194467,"keywords":["nocrits","nodmgspread","payload","uncletopia"],"game_id":440,"stv_port":27036,"stv_name":"Uncletopia | Sydney | 3 | All Maps | STV","players":null},{"server_id":396,"name":"Uncletopia | Sydney | 4 | All Maps","name_short":"syd-4","host":"syd-1.au.uncletopia.com","port":27045,"enabled":true,"region":"au","cc":"au","latitude":-33.865143,"longitude":151.2099,"reserved":0,"last_update":"0001-01-01T00:00:00Z","name_a2s":"Uncletopia | Sydney | 4 | All Maps","protocol":17,"map":"cp_process_final","folder":"tf","game":"Team Fortress","app_id":440,"player_count":0,"max_players":24,"Bots":0,"server_type":"Dedicated","server_os":"Linux","password":true,"vac":true,"version":"7961495","steam_id":85568392925397958,"keywords":["cp","nocrits","nodmgspread","uncletopia"],"game_id":440,"stv_port":27046,"stv_name":"Uncletopia | Sydney | 4 | All Maps | STV","players":null},{"server_id":58,"name":"Uncletopia | Sydney | 5 | Stopwatch","name_short":"syd-5","host":"syd-1.au.uncletopia.com","port":27055,"enabled":true,"region":"au","cc":"au","latitude":-33.865143,"longitude":151.2099,"reserved":0,"last_update":"0001-01-01T00:00:00Z","name_a2s":"Uncletopia | Sydney | 5 | Stopwatch","protocol":17,"map":"pl_frontier_final","folder":"tf","game":"Team Fortress","app_id":440,"player_count":0,"max_players":24,"Bots":0,"server_type":"Dedicated","server_os":"Linux","password":true,"vac":true,"version":"7961495","steam_id":85568392925397959,"keywords":["nocrits","nodmgspread","payload","uncletopia"],"game_id":440,"stv_port":27056,"stv_name":"Uncletopia | Sydney | 5 | Stopwatch | STV","players":null},{"server_id":59,"name":"Uncletopia | Sydney | 6 | Community","name_short":"syd-6","host":"syd-1.au.uncletopia.com","port":27065,"enabled":true,"region":"au","cc":"au","latitude":-33.865143,"longitude":151.2099,"reserved":0,"last_update":"0001-01-01T00:00:00Z","name_a2s":"Uncletopia | Sydney | 6 | Community","protocol":17,"map":"cp_sunshine","folder":"tf","game":"Team Fortress","app_id":440,"player_count":0,"max_players":24,"Bots":0,"server_type":"Dedicated","server_os":"Linux","password":true,"vac":true,"version":"7961495","steam_id":85568392925397960,"keywords":["cp","nocrits","nodmgspread","uncletopia"],"game_id":440,"stv_port":27066,"stv_name":"Uncletopia | Sydney | 6 | Community | STV","players":null},{"server_id":49,"name":"Uncletopia | Warsaw | 1 | One Thousand Uncles","name_short":"waw-1","host":"waw-1.pl.uncletopia.com","port":27015,"enabled":true,"region":"eu","cc":"pl","latitude":52.2297,"longitude":21.017532,"reserved":0,"last_update":"0001-01-01T00:00:00Z","name_a2s":"Uncletopia | Warsaw | 1 | One Thousand Uncles","protocol":17,"map":"pl_upward","folder":"tf","game":"Team Fortress","app_id":440,"player_count":28,"max_players":32,"Bots":16,"server_type":"Dedicated","server_os":"Linux","password":true,"vac":true,"version":"7961495","steam_id":85568392925397850,"keywords":["alltalk","bots","danepve","increased_maxplayers","nocrits","norespawntime","payload","uncletopia"],"game_id":440,"stv_port":0,"stv_name":"","players":[{"user_id":56,"name":"Lewylow","steam_id":76561198005425686,"connected_time":3598000000000,"state":"active","ping":82},{"user_id":91,"name":"Thrawn1","steam_id":76561197972621859,"connected_time":2048000000000,"state":"active","ping":126},{"user_id":102,"name":"Dabfaceprothanos111","steam_id":76561199349224220,"connected_time":458000000000,"state":"active","ping":294},{"user_id":57,"name":"danik.botanik","steam_id":76561198978744585,"connected_time":3549000000000,"state":"active","ping":58},{"user_id":71,"name":"Max717","steam_id":76561199173648449,"connected_time":2595000000000,"state":"active","ping":305},{"user_id":92,"name":"Arcaisen","steam_id":76561199011773598,"connected_time":1935000000000,"state":"active","ping":307},{"user_id":106,"name":"Ahmed_gat","steam_id":76561199372506552,"connected_time":122000000000,"state":"active","ping":132},{"user_id":58,"name":"Enigmus","steam_id":76561197994063627,"connected_time":3311000000000,"state":"active","ping":95},{"user_id":89,"name":"Vitax TF2EASY.COM","steam_id":76561198965197758,"connected_time":2313000000000,"state":"active","ping":43},{"user_id":94,"name":"Its yah monke","steam_id":76561198323869587,"connected_time":1715000000000,"state":"active","ping":72},{"user_id":105,"name":"generic blue proto","steam_id":76561199000149623,"connected_time":305000000000,"state":"active","ping":186},{"user_id":64,"name":"goop","steam_id":76561198190073005,"connected_time":3044000000000,"state":"active","ping":74}]},{"server_id":50,"name":"Uncletopia | Warsaw | 2 | One Thousand Uncles","name_short":"waw-2","host":"waw-1.pl.uncletopia.com","port":27025,"enabled":true,"region":"eu","cc":"pl","latitude":52.2297,"longitude":21.017532,"reserved":0,"last_update":"0001-01-01T00:00:00Z","name_a2s":"Uncletopia | Warsaw | 2 | One Thousand Uncles","protocol":17,"map":"pl_goldrush","folder":"tf","game":"Team Fortress","app_id":440,"player_count":0,"max_players":32,"Bots":0,"server_type":"Dedicated","server_os":"Linux","password":true,"vac":true,"version":"7961495","steam_id":85568392925397851,"keywords":["alltalk","danepve","increased_maxplayers","nocrits","norespawntime","payload","uncletopia"],"game_id":440,"stv_port":0,"stv_name":"","players":null},{"server_id":51,"name":"Uncletopia | Warsaw | 3 | All Maps","name_short":"waw-3","host":"waw-1.pl.uncletopia.com","port":27035,"enabled":true,"region":"eu","cc":"pl","latitude":52.2297,"longitude":21.017532,"reserved":0,"last_update":"0001-01-01T00:00:00Z","name_a2s":"Uncletopia | Warsaw | 3 | All Maps","protocol":17,"map":"plr_pipeline","folder":"tf","game":"Team Fortress","app_id":440,"player_count":0,"max_players":24,"Bots":0,"server_type":"Dedicated","server_os":"Linux","password":true,"vac":true,"version":"7961495","steam_id":85568392925397852,"keywords":["nocrits","nodmgspread","payload","uncletopia"],"game_id":440,"stv_port":27036,"stv_name":"Uncletopia | Warsaw | 3 | All Maps | STV","players":null},{"server_id":52,"name":"Uncletopia | Warsaw | 4 | All Maps","name_short":"waw-4","host":"waw-1.pl.uncletopia.com","port":27045,"enabled":true,"region":"eu","cc":"pl","latitude":52.2297,"longitude":21.017532,"reserved":0,"last_update":"0001-01-01T00:00:00Z","name_a2s":"Uncletopia | Warsaw | 4 | All Maps","protocol":17,"map":"cp_coldfront","folder":"tf","game":"Team Fortress","app_id":440,"player_count":0,"max_players":24,"Bots":0,"server_type":"Dedicated","server_os":"Linux","password":true,"vac":true,"version":"7961495","steam_id":85568392925397853,"keywords":["cp","nocrits","nodmgspread","uncletopia"],"game_id":440,"stv_port":27046,"stv_name":"Uncletopia | Warsaw | 4 | All Maps | STV","players":null},{"server_id":53,"name":"Uncletopia | Warsaw | 5 | Stopwatch","name_short":"waw-5","host":"waw-1.pl.uncletopia.com","port":27055,"enabled":true,"region":"eu","cc":"pl","latitude":52.2297,"longitude":21.017532,"reserved":0,"last_update":"0001-01-01T00:00:00Z","name_a2s":"Uncletopia | Warsaw | 5 | Stopwatch","protocol":17,"map":"workshop/koth_bagel_rc6.ugc2514036946","folder":"tf","game":"Team Fortress","app_id":440,"player_count":0,"max_players":24,"Bots":0,"server_type":"Dedicated","server_os":"Linux","password":true,"vac":true,"version":"7961495","steam_id":85568392925397854,"keywords":["cp","nocrits","nodmgspread","uncletopia"],"game_id":440,"stv_port":27056,"stv_name":"Uncletopia | Warsaw | 5 | Stopwatch | STV","players":null},{"server_id":54,"name":"Uncletopia | Warsaw | 6 | Community","name_short":"waw-6","host":"waw-1.pl.uncletopia.com","port":27065,"enabled":true,"region":"eu","cc":"pl","latitude":52.2297,"longitude":21.017532,"reserved":0,"last_update":"0001-01-01T00:00:00Z","name_a2s":"Uncletopia | Warsaw | 6 | Community","protocol":17,"map":"workshop/pl_badwater_pro_v12.ugc2142942074","folder":"tf","game":"Team Fortress","app_id":440,"player_count":0,"max_players":24,"Bots":0,"server_type":"Dedicated","server_os":"Linux","password":true,"vac":true,"version":"7961495","steam_id":85568392925397856,"keywords":["nocrits","nodmgspread","payload","uncletopia"],"game_id":440,"stv_port":27066,"stv_name":"Uncletopia | Warsaw | 6 | Community | STV","players":null}]}