{"status":true,"message":"","result":[{"server_id":9,"name":"Uncletopia | Atlanta | 1 | All Maps","name_short":"atl-1","host":"atl-1.us.uncletopia.com","port":27015,"enabled":true,"region":"us-east","cc":"us","latitude":33.753746,"longitude":-84.38633,"reserved":0,"last_update":"0001-01-01T00:00:00Z","name_a2s":"Uncletopia | Atlanta | 1 | All Maps","protocol":17,"map":"cp_steel","folder":"tf","game":"Team Fortress","app_id":440,"player_count":24,"max_players":24,"Bots":0,"server_type":"Dedicated","server_os":"Linux","password":true,"vac":true,"version":"7757534","steam_id":85568392924469982,"keywords":["cp","nocrits","nodmgspread","uncletopia"],"game_id":440,"stv_port":27016,"stv_name":"Uncletopia | Atlanta | 1 | All Maps | STV","players":[{"user_id":125,"name":"trilobita","steam_id":76561198428215606,"connected_time":4001000000000,"state":"active","ping":66},{"user_id":153,"name":"Wrench","steam_id":76561198055879094,"connected_time":2152000000000,"state":"active","ping":71},{"user_id":182,"name":"citrus","steam_id":76561198294606679,"connected_time":203000000000,"state":"active","ping":74},{"user_id":68,"name":"ShredMaan","steam_id":76561198429982138,"connected_time":8081000000000,"state":"active","ping":116},{"user_id":121,"name":"iceman","steam_id":76561198135397441,"connected_time":4034000000000,"state":"active","ping":73},{"user_id":70,"name":"MSIBoys","steam_id":76561198213692935,"connected_time":8075000000000,"state":"active","ping":116},{"user_id":139,"name":"Ankliosumos","steam_id":76561198106443757,"connected_time":3562000000000,"state":"active","ping":50},{"user_id":138,"name":"AquaEclipse","steam_id":76561198225964744,"connected_time":3662000000000,"state":"active","ping":77},{"user_id":168,"name":"ATL1 | Kramer","steam_id":76561198083595936,"connected_time":515000000000,"state":"active","ping":85},{"user_id":174,"name":"lu","steam_id":76561198080731872,"connected_time":359000000000,"state":"active","ping":74},{"user_id":163,"name":"i will salt your canker sores","steam_id":76561198067994868,"connected_time":1575000000000,"state":"active","ping":86},{"user_id":154,"name":"SyberBunn","steam_id":76561198287851222,"connected_time":2077000000000,"state":"active","ping":69},{"user_id":176,"name":"NovaSc6ut","steam_id":76561198277163301,"connected_time":299000000000,"state":"active","ping":89},{"user_id":183,"name":"Frаnk","steam_id":76561198150754556,"connected_time":138000000000,"state":"active","ping":60},{"user_id":122,"name":"Scrumlet","steam_id":76561198339806643,"connected_time":4032000000000,"state":"active","ping":75},{"user_id":185,"name":"HARRY","steam_id":76561198842067238,"connected_time":36000000000,"state":"active","ping":63},{"user_id":171,"name":"HarryjusttHarry","steam_id":76561198982810452,"connected_time":410000000000,"state":"active","ping":79},{"user_id":155,"name":"melancholy","steam_id":76561198024301465,"connected_time":2069000000000,"state":"active","ping":42},{"user_id":180,"name":"AkaDoggo","steam_id":76561198968291063,"connected_time":252000000000,"state":"active","ping":71},{"user_id":132,"name":"Colin102004","steam_id":76561198202384334,"connected_time":3772000000000,"state":"active","ping":59},{"user_id":184,"name":"Rockhead","steam_id":76561197995196535,"connected_time":61000000000,"state":"active","ping":86},{"user_id":172,"name":"BLU1 | Flint","steam_id":76561198066547582,"connected_time":410000000000,"state":"active","ping":114},{"user_id":181,"name":"ATL1 | LuckyZero-_-","steam_id":76561198139891051,"connected_time":246000000000,"state":"active","ping":72},{"user_id":105,"name":"Genetic Komodo","steam_id":76561198174806758,"connected_time":5540000000000,"state":"active","ping":59}]},{"server_id":400,"name":"Uncletopia | Atlanta | 3 | Stopwatch Beta","name_short":"atl-3","host":"atl-1.us.uncletopia.com","port":27035,"enabled":true,"region":"us-east","cc":"us","latitude":33.753746,"longitude":-84.38633,"reserved":0,"last_update":"0001-01-01T00:00:00Z","name_a2s":"Uncletopia | Atlanta | 3 | Stopwatch Beta","protocol":17,"map":"pl_upward","folder":"tf","game":"Team Fortress","app_id":440,"player_count":0,"max_players":24,"Bots":0,"server_type":"Dedicated","server_os":"Linux","password":true,"vac":true,"version":"7757534","steam_id":85568392924515187,"keywords":["nocrits","nodmgspread","payload","uncletopia"],"game_id":440,"stv_port":27036,"stv_name":"Uncletopia | Atlanta | 3 | Stopwatch Beta | STV","players":null},{"server_id":401,"name":"Uncletopia | Atlanta | 4 | No Payload","name_short":"atl-4","host":"atl-1.us.uncletopia.com","port":27045,"enabled":true,"region":"us-east","cc":"us","latitude":33.753746,"longitude":-84.38633,"reserved":0,"last_update":"0001-01-01T00:00:00Z","name_a2s":"Uncletopia | Atlanta | 4 | No Payload","protocol":17,"map":"pl_pier","folder":"tf","game":"Team Fortress","app_id":440,"player_count":0,"max_players":24,"Bots":0,"server_type":"Dedicated","server_os":"Linux","password":true,"vac":true,"version":"7723704","steam_id":85568392924515188,"keywords":["nocrits","nodmgspread","payload","uncletopia"],"game_id":440,"stv_port":27046,"stv_name":"Uncletopia | Atlanta | 4 | No Payload | STV","players":null},{"server_id":2,"name":"Uncletopia | Chicago | 1 | All Maps","name_short":"chi-1","host":"chi-1.us.uncletopia.com","port":27015,"enabled":true,"region":"us-central","cc":"us","latitude":41.881832,"longitude":-87.62318,"reserved":0,"last_update":"0001-01-01T00:00:00Z","name_a2s":"Uncletopia | Chicago | 1 | All Maps","protocol":17,"map":"pl_snowycoast","folder":"tf","game":"Team Fortress","app_id":440,"player_count":24,"max_players":24,"Bots":0,"server_type":"Dedicated","server_os":"Linux","password":true,"vac":true,"version":"7757534","steam_id":85568392924469984,"keywords":["nocrits","nodmgspread","payload","uncletopia"],"game_id":440,"stv_port":27016,"stv_name":"Uncletopia | Chicago | 1 | All Maps | STV","players":[{"user_id":313,"name":"Bee","steam_id":76561198074681324,"connected_time":475000000000,"state":"active","ping":65},{"user_id":322,"name":"Strigby","steam_id":76561198004116353,"connected_time":388000000000,"state":"active","ping":46},{"user_id":326,"name":"Regi","steam_id":76561198271508598,"connected_time":276000000000,"state":"active","ping":57},{"user_id":321,"name":"Duelist","steam_id":76561198415159702,"connected_time":414000000000,"state":"active","ping":62},{"user_id":306,"name":"T.w² | 2 Hours of Sleep","steam_id":76561198128489595,"connected_time":1740000000000,"state":"active","ping":85},{"user_id":255,"name":"Kubloo","steam_id":76561198067391168,"connected_time":6504000000000,"state":"active","ping":64},{"user_id":307,"name":"elyk37","steam_id":76561198124135253,"connected_time":1720000000000,"state":"active","ping":74},{"user_id":329,"name":"MoanfulMilk","steam_id":76561199229169396,"connected_time":57000000000,"state":"active","ping":72},{"user_id":316,"name":"Room","steam_id":76561199174579733,"connected_time":451000000000,"state":"active","ping":71},{"user_id":240,"name":"THRILLHO","steam_id":76561198371663047,"connected_time":8378000000000,"state":"active","ping":62},{"user_id":273,"name":"theancientnut","steam_id":76561199396708880,"connected_time":5139000000000,"state":"active","ping":57},{"user_id":325,"name":"TheAntiSocialButterfly","steam_id":76561198045505509,"connected_time":349000000000,"state":"active","ping":63},{"user_id":267,"name":"Astoriae!","steam_id":76561199090168858,"connected_time":5923000000000,"state":"active","ping":73},{"user_id":308,"name":"superdude83","steam_id":76561198119727829,"connected_time":1666000000000,"state":"active","ping":61},{"user_id":298,"name":"Slime-san","steam_id":76561198886509660,"connected_time":2939000000000,"state":"active","ping":81},{"user_id":310,"name":"beta central","steam_id":76561198301876831,"connected_time":1187000000000,"state":"active","ping":60},{"user_id":317,"name":"Snazzi","steam_id":76561198085208276,"connected_time":447000000000,"state":"active","ping":83},{"user_id":319,"name":"CoodleDoodle","steam_id":76561198113387068,"connected_time":435000000000,"state":"active","ping":85},{"user_id":283,"name":"Lennu","steam_id":76561198060730154,"connected_time":3903000000000,"state":"active","ping":76},{"user_id":320,"name":"guess","steam_id":76561198140846580,"connected_time":429000000000,"state":"active","ping":62},{"user_id":304,"name":"TeeTree","steam_id":76561198862307874,"connected_time":2025000000000,"state":"active","ping":60},{"user_id":284,"name":"MEDIC!","steam_id":76561198149344029,"connected_time":3900000000000,"state":"active","ping":78},{"user_id":324,"name":"Goober","steam_id":76561198988863807,"connected_time":371000000000,"state":"active","ping":82},{"user_id":312,"name":"Crab Rangoon","steam_id":76561198059310510,"connected_time":558000000000,"state":"active","ping":75}]},{"server_id":106,"name":"Uncletopia | Chicago | 2 | All Maps","name_short":"chi-2","host":"chi-1.us.uncletopia.com","port":27025,"enabled":true,"region":"us-central","cc":"us","latitude":41.881832,"longitude":-87.62318,"reserved":0,"last_update":"0001-01-01T00:00:00Z","name_a2s":"Uncletopia | Chicago | 2 | All Maps","protocol":17,"map":"pl_upward","folder":"tf","game":"Team Fortress","app_id":440,"player_count":23,"max_players":24,"Bots":0,"server_type":"Dedicated","server_os":"Linux","password":true,"vac":true,"version":"7757534","steam_id":85568392924469985,"keywords":["nocrits","nodmgspread","payload","uncletopia"],"game_id":440,"stv_port":27026,"stv_name":"Uncletopia | Chicago | 2 | All Maps | STV","players":[{"user_id":533,"name":"Sloppy Joe (Extra Sauce)","steam_id":76561198118993897,"connected_time":208000000000,"state":"active","ping":67},{"user_id":506,"name":"Not_Douglas","steam_id":76561199024184136,"connected_time":3097000000000,"state":"active","ping":60},{"user_id":495,"name":"Everglade","steam_id":76561198068654532,"connected_time":3364000000000,"state":"active","ping":74},{"user_id":525,"name":"Im totally a hacker","steam_id":76561198888005736,"connected_time":1201000000000,"state":"active","ping":69},{"user_id":488,"name":"Lost","steam_id":76561198025933206,"connected_time":4097000000000,"state":"active","ping":60},{"user_id":519,"name":"Berries","steam_id":76561198109312962,"connected_time":1433000000000,"state":"active","ping":81},{"user_id":528,"name":"The Land Admiral","steam_id":76561198159356609,"connected_time":1065000000000,"state":"active","ping":76},{"user_id":529,"name":"dtnk","steam_id":76561199007189876,"connected_time":1036000000000,"state":"active","ping":49},{"user_id":496,"name":"Thog","steam_id":76561198093699060,"connected_time":3348000000000,"state":"active","ping":68},{"user_id":494,"name":"Cat_Gaben","steam_id":76561198308094558,"connected_time":3672000000000,"state":"active","ping":68},{"user_id":532,"name":"hummus in my tummus","steam_id":76561199438698036,"connected_time":235000000000,"state":"active","ping":72},{"user_id":509,"name":"McDamage","steam_id":76561198140571306,"connected_time":2604000000000,"state":"active","ping":68},{"user_id":530,"name":"e","steam_id":76561198131245396,"connected_time":765000000000,"state":"active","ping":47},{"user_id":515,"name":"Matella","steam_id":76561198097427947,"connected_time":1456000000000,"state":"active","ping":147},{"user_id":514,"name":"TallBit","steam_id":76561199059748976,"connected_time":1912000000000,"state":"active","ping":53},{"user_id":478,"name":"BuhByeFalecia","steam_id":76561198364710587,"connected_time":4644000000000,"state":"active","ping":90},{"user_id":520,"name":"Fobby #Savetf2","steam_id":76561198047681469,"connected_time":1403000000000,"state":"active","ping":78},{"user_id":536,"name":"[chef] iron","steam_id":76561197970888616,"connected_time":26000000000,"state":"active","ping":47},{"user_id":534,"name":"i hate 2fort","steam_id":76561199241619967,"connected_time":202000000000,"state":"active","ping":70},{"user_id":516,"name":"trasho","steam_id":76561198066867150,"connected_time":1454000000000,"state":"active","ping":62},{"user_id":507,"name":"Tyrone","steam_id":76561198189429665,"connected_time":3028000000000,"state":"active","ping":75},{"user_id":510,"name":"David Davidson","steam_id":76561199058337415,"connected_time":2590000000000,"state":"active","ping":97},{"user_id":526,"name":"Ojen","steam_id":76561197998414482,"connected_time":1201000000000,"state":"active","ping":80}]},{"server_id":402,"name":"Uncletopia | Chicago | 3 | All Maps","name_short":"chi-3","host":"chi-1.us.uncletopia.com","port":27035,"enabled":true,"region":"us-central","cc":"us","latitude":41.881832,"longitude":-87.62318,"reserved":0,"last_update":"0001-01-01T00:00:00Z","name_a2s":"Uncletopia | Chicago | 3 | All Maps","protocol":17,"map":"koth_viaduct","folder":"tf","game":"Team Fortress","app_id":440,"player_count":0,"max_players":24,"Bots":0,"server_type":"Dedicated","server_os":"Linux","password":true,"vac":true,"version":"7757534","steam_id":85568392924515191,"keywords":["cp","nocrits","nodmgspread","uncletopia"],"game_id":440,"stv_port":27036,"stv_name":"Uncletopia | Chicago | 3 | All Maps | STV","players":null},{"server_id":403,"name":"Uncletopia | Chicago | 4 | All Maps","name_short":"chi-4","host":"chi-1.us.uncletopia.com","port":27045,"enabled":true,"region":"us-central","cc":"us","latitude":41.881832,"longitude":-87.62318,"reserved":0,"last_update":"0001-01-01T00:00:00Z","name_a2s":"Uncletopia | Chicago | 4 | All Maps","protocol":17,"map":"pl_snowycoast","folder":"tf","game":"Team Fortress","app_id":440,"player_count":24,"max_players":24,"Bots":0,"server_type":"Dedicated","server_os":"Linux","password":true,"vac":true,"version":"7757534","steam_id":85568392924515193,"keywords":["nocrits","nodmgspread","payload","uncletopia"],"game_id":440,"stv_port":27046,"stv_name":"Uncletopia | Chicago | 4 | All Maps | STV","players":[{"user_id":61,"name":"Tommy Pickles (Very Cool)","steam_id":76561198391261463,"connected_time":4857000000000,"state":"active","ping":68},{"user_id":114,"name":"Wwaz","steam_id":76561198000240092,"connected_time":842000000000,"state":"active","ping":47},{"user_id":116,"name":"DJ Pierce","steam_id":76561198394241466,"connected_time":529000000000,"state":"active","ping":70},{"user_id":105,"name":"W.Crow","steam_id":76561198074183597,"connected_time":1636000000000,"state":"active","ping":120},{"user_id":83,"name":"Atlas","steam_id":76561198127975050,"connected_time":3552000000000,"state":"active","ping":75},{"user_id":97,"name":"crs22","steam_id":76561198120149196,"connected_time":2205000000000,"state":"active","ping":59},{"user_id":119,"name":"lil bro","steam_id":76561198031675881,"connected_time":50000000000,"state":"active","ping":55},{"user_id":99,"name":"Savaqa","steam_id":76561198158016688,"connected_time":2125000000000,"state":"active","ping":105},{"user_id":78,"name":"Bnyds","steam_id":76561199206410653,"connected_time":3572000000000,"state":"active","ping":72},{"user_id":81,"name":"Spoonastic","steam_id":76561198343838009,"connected_time":3568000000000,"state":"active","ping":103},{"user_id":117,"name":"Rat Bastard","steam_id":76561198153443658,"connected_time":377000000000,"state":"active","ping":85},{"user_id":118,"name":"Marketable Plushie","steam_id":76561198901074112,"connected_time":301000000000,"state":"active","ping":85},{"user_id":68,"name":"phranklin","steam_id":76561198161385870,"connected_time":4566000000000,"state":"active","ping":93},{"user_id":64,"name":"Red_Hatkins","steam_id":76561198214004105,"connected_time":4798000000000,"state":"active","ping":87},{"user_id":95,"name":"shokie","steam_id":76561197997961542,"connected_time":2301000000000,"state":"active","ping":75},{"user_id":90,"name":"Remzy","steam_id":76561198272401170,"connected_time":2967000000000,"state":"active","ping":108},{"user_id":112,"name":"JustAfan","steam_id":76561198294262674,"connected_time":1210000000000,"state":"active","ping":58},{"user_id":102,"name":"Overduecat","steam_id":76561198092452824,"connected_time":1853000000000,"state":"active","ping":72},{"user_id":110,"name":"Unfunny","steam_id":76561198336411847,"connected_time":1527000000000,"state":"active","ping":72},{"user_id":108,"name":"guyinatophat51","steam_id":76561198180230694,"connected_time":1553000000000,"state":"active","ping":78},{"user_id":67,"name":"POWER!!!!!!!!!!!!!!!!!!!!!!!!!!","steam_id":76561198112388117,"connected_time":4780000000000,"state":"active","ping":78},{"user_id":55,"name":"Bozanimal","steam_id":76561198044096897,"connected_time":5346000000000,"state":"active","ping":57},{"user_id":111,"name":"Pi Guy","steam_id":76561199071784224,"connected_time":1225000000000,"state":"active","ping":71},{"user_id":87,"name":"soyelaua","steam_id":76561199055798939,"connected_time":3524000000000,"state":"active","ping":135}]},{"server_id":36,"name":"Uncletopia | Chicago | 5 | All Maps","name_short":"chi-5","host":"chi-2.us.uncletopia.com","port":27015,"enabled":true,"region":"us-central","cc":"us","latitude":41.881832,"longitude":-87.62318,"reserved":0,"last_update":"0001-01-01T00:00:00Z","name_a2s":"Uncletopia | Chicago | 5 | All Maps","protocol":17,"map":"koth_cascade","folder":"tf","game":"Team Fortress","app_id":440,"player_count":0,"max_players":24,"Bots":0,"server_type":"Dedicated","server_os":"Linux","password":true,"vac":true,"version":"7757534","steam_id":85568392924866362,"keywords":["cp","nocrits","nodmgspread","uncletopia"],"game_id":440,"stv_port":27016,"stv_name":"Uncletopia | Chicago | 5 | All Maps | STV","players":null},{"server_id":37,"name":"Uncletopia | Chicago | 6 | All Maps","name_short":"chi-6","host":"chi-2.us.uncletopia.com","port":27025,"enabled":true,"region":"us-central","cc":"us","latitude":41.881832,"longitude":-87.62318,"reserved":0,"last_update":"0001-01-01T00:00:00Z","name_a2s":"Uncletopia | Chicago | 6 | All Maps","protocol":17,"map":"pl_barnblitz","folder":"tf","game":"Team Fortress","app_id":440,"player_count":24,"max_players":24,"Bots":0,"server_type":"Dedicated","server_os":"Linux","password":true,"vac":true,"version":"7757534","steam_id":85568392924866363,"keywords":["nocrits","nodmgspread","payload","uncletopia"],"game_id":440,"stv_port":27026,"stv_name":"Uncletopia | Chicago | 6 | All Maps | STV","players":[{"user_id":106,"name":"Dilly Pickles","steam_id":76561198312068499,"connected_time":4862000000000,"state":"active","ping":91},{"user_id":146,"name":"Viokik","steam_id":76561198408846602,"connected_time":1895000000000,"state":"active","ping":68},{"user_id":170,"name":"Kaluka","steam_id":76561198036861445,"connected_time":149000000000,"state":"active","ping":74},{"user_id":152,"name":"matchstick","steam_id":76561198190100027,"connected_time":1131000000000,"state":"active","ping":57},{"user_id":176,"name":"Joey","steam_id":76561198211826573,"connected_time":38000000000,"state":"active","ping":64},{"user_id":169,"name":"flappyflap2","steam_id":76561198285048973,"connected_time":194000000000,"state":"active","ping":71},{"user_id":156,"name":"puffle fanatic","steam_id":76561198094030685,"connected_time":1054000000000,"state":"active","ping":75},{"user_id":154,"name":"Fred McFrizzle","steam_id":76561198085117424,"connected_time":1093000000000,"state":"active","ping":66},{"user_id":171,"name":"majorbobfunction","steam_id":76561198042464632,"connected_time":136000000000,"state":"active","ping":47},{"user_id":161,"name":"jturner1nm","steam_id":76561198344493652,"connected_time":1014000000000,"state":"active","ping":110},{"user_id":157,"name":"pencilneck","steam_id":76561198865971290,"connected_time":1053000000000,"state":"active","ping":96},{"user_id":158,"name":"white ray","steam_id":76561198026664629,"connected_time":1042000000000,"state":"active","ping":59},{"user_id":111,"name":"Sublime","steam_id":76561198018268623,"connected_time":4456000000000,"state":"active","ping":152},{"user_id":150,"name":"Mouth Tea","steam_id":76561198285054047,"connected_time":1316000000000,"state":"active","ping":74},{"user_id":172,"name":"Pancreas Enjoyer","steam_id":76561199438598904,"connected_time":134000000000,"state":"active","ping":103},{"user_id":165,"name":"weewa","steam_id":76561198064876090,"connected_time":834000000000,"state":"active","ping":72},{"user_id":147,"name":"Pancetta's vore window","steam_id":76561198428086758,"connected_time":1878000000000,"state":"active","ping":85},{"user_id":160,"name":"sssnark","steam_id":76561198848439515,"connected_time":1040000000000,"state":"active","ping":94},{"user_id":167,"name":"original name","steam_id":76561199186288763,"connected_time":361000000000,"state":"active","ping":115},{"user_id":173,"name":"cyclops","steam_id":76561197970370198,"connected_time":126000000000,"state":"active","ping":60},{"user_id":137,"name":"SuperFresh","steam_id":76561198200723198,"connected_time":3069000000000,"state":"active","ping":44},{"user_id":174,"name":"TimTam","steam_id":76561198080434949,"connected_time":116000000000,"state":"active","ping":72},{"user_id":175,"name":"skate","steam_id":76561198322312114,"connected_time":112000000000,"state":"active","ping":88},{"user_id":164,"name":"pablo","steam_id":76561199190247198,"connected_time":949000000000,"state":"active","ping":120}]},{"server_id":38,"name":"Uncletopia | Chicago | 7 | Stopwatch Beta","name_short":"chi-7","host":"chi-2.us.uncletopia.com","port":27035,"enabled":true,"region":"us-central","cc":"us","latitude":41.881832,"longitude":-87.62318,"reserved":0,"last_update":"0001-01-01T00:00:00Z","name_a2s":"Uncletopia | Chicago | 7 | Stopwatch Beta","protocol":17,"map":"pl_borneo","folder":"tf","game":"Team Fortress","app_id":440,"player_count":0,"max_players":24,"Bots":0,"server_type":"Dedicated","server_os":"Linux","password":true,"vac":true,"version":"7757534","steam_id":85568392924866364,"keywords":["nocrits","nodmgspread","payload","uncletopia"],"game_id":440,"stv_port":27036,"stv_name":"Uncletopia | Chicago | 7 | Stopwatch Beta | STV","players":null},{"server_id":39,"name":"Uncletopia | Chicago | 8 | Community","name_short":"chi-8","host":"chi-2.us.uncletopia.com","port":27045,"enabled":true,"region":"us-central","cc":"us","latitude":41.881832,"longitude":-87.62318,"reserved":0,"last_update":"0001-01-01T00:00:00Z","name_a2s":"Uncletopia | Chicago | 8 | Community","protocol":17,"map":"workshop/koth_product_final.ugc454272353","folder":"tf","game":"Team Fortress","app_id":440,"player_count":6,"max_players":24,"Bots":0,"server_type":"Dedicated","server_os":"Linux","password":true,"vac":true,"version":"7757534","steam_id":85568392924866365,"keywords":["cp","nocrits","nodmgspread","uncletopia"],"game_id":440,"stv_port":27046,"stv_name":"Uncletopia | Chicago | 8 | Community | STV","players":[{"user_id":16,"name":"♥ ー VioletInferno ー ♥","steam_id":76561199096964288,"connected_time":1234000000000,"state":"active","ping":38},{"user_id":17,"name":"zanealcannon","steam_id":76561198409950668,"connected_time":1067000000000,"state":"active","ping":68},{"user_id":18,"name":"Crazy face","steam_id":76561198035251337,"connected_time":274000000000,"state":"active","ping":75},{"user_id":19,"name":"YekkuUwU","steam_id":76561199349215012,"connected_time":216000000000,"state":"active","ping":178},{"user_id":21,"name":"Screw and Wrench Rob","steam_id":76561198407166710,"connected_time":178000000000,"state":"active","ping":69},{"user_id":22,"name":"gotta answer the damn phone","steam_id":76561199029189825,"connected_time":80000000000,"state":"active","ping":82}]},{"server_id":8,"name":"Uncletopia | Dallas | 1 | All Maps","name_short":"dal-1","host":"dal-1.us.uncletopia.com","port":27015,"enabled":true,"region":"us-central","cc":"us","latitude":32.779167,"longitude":-96.80889,"reserved":0,"last_update":"0001-01-01T00:00:00Z","name_a2s":"Uncletopia | Dallas | 1 | All Maps","protocol":17,"map":"pl_borneo","folder":"tf","game":"Team Fortress","app_id":440,"player_count":24,"max_players":24,"Bots":0,"server_type":"Dedicated","server_os":"Linux","password":true,"vac":true,"version":"7757534","steam_id":85568392924469986,"keywords":["nocrits","nodmgspread","payload","uncletopia"],"game_id":440,"stv_port":27016,"stv_name":"Uncletopia | Dallas | 1 | All Maps | STV","players":[{"user_id":228,"name":"Shovel","steam_id":76561198082922382,"connected_time":122000000000,"state":"active","ping":75},{"user_id":223,"name":"Insurance Frog","steam_id":76561198067556825,"connected_time":453000000000,"state":"active","ping":119},{"user_id":230,"name":"Koishi","steam_id":76561198054541054,"connected_time":92000000000,"state":"active","ping":75},{"user_id":225,"name":"high","steam_id":76561198241434712,"connected_time":400000000000,"state":"active","ping":59},{"user_id":229,"name":"Wizard","steam_id":76561199020241769,"connected_time":107000000000,"state":"active","ping":131},{"user_id":197,"name":"Bloodrayne","steam_id":76561198116808497,"connected_time":2330000000000,"state":"active","ping":86},{"user_id":184,"name":"miraakz420","steam_id":76561199013850154,"connected_time":3370000000000,"state":"active","ping":73},{"user_id":219,"name":"DrBenjas","steam_id":76561198345883103,"connected_time":809000000000,"state":"active","ping":94},{"user_id":205,"name":"sollarious101","steam_id":76561199086649385,"connected_time":2055000000000,"state":"active","ping":34},{"user_id":150,"name":"Foomfa","steam_id":76561198007033616,"connected_time":4915000000000,"state":"active","ping":73},{"user_id":194,"name":"XinPing","steam_id":76561198174498174,"connected_time":2638000000000,"state":"active","ping":105},{"user_id":216,"name":"Kvbev","steam_id":76561197983324869,"connected_time":1136000000000,"state":"active","ping":74},{"user_id":217,"name":"ice cream (冰淇淋)","steam_id":76561198976530881,"connected_time":1120000000000,"state":"active","ping":60},{"user_id":209,"name":"Onyx","steam_id":76561198275349640,"connected_time":1925000000000,"state":"active","ping":60},{"user_id":187,"name":"Sixrow","steam_id":76561198269289716,"connected_time":2969000000000,"state":"active","ping":44},{"user_id":186,"name":"bo scrungulus","steam_id":76561198038036122,"connected_time":3290000000000,"state":"active","ping":60},{"user_id":222,"name":"chanoc","steam_id":76561198026734746,"connected_time":736000000000,"state":"active","ping":90},{"user_id":214,"name":"The Squid Gamer™","steam_id":76561198340621517,"connected_time":1245000000000,"state":"active","ping":101},{"user_id":227,"name":"11 INCH TGIRL SCHLONG","steam_id":76561198122059018,"connected_time":247000000000,"state":"active","ping":83},{"user_id":231,"name":"ミジンコ","steam_id":76561198083430437,"connected_time":89000000000,"state":"active","ping":54},{"user_id":232,"name":"Huggle","steam_id":76561198141491662,"connected_time":75000000000,"state":"active","ping":37},{"user_id":204,"name":"femmescout","steam_id":76561198250928638,"connected_time":2209000000000,"state":"active","ping":74},{"user_id":224,"name":"redrider1456","steam_id":76561198135104053,"connected_time":425000000000,"state":"active","ping":105},{"user_id":226,"name":"cAssBlaster","steam_id":76561198138488101,"connected_time":399000000000,"state":"active","ping":62}]},{"server_id":108,"name":"Uncletopia | Dallas | 2 | All Maps","name_short":"dal-2","host":"dal-1.us.uncletopia.com","port":27025,"enabled":true,"region":"us-central","cc":"us","latitude":32.779167,"longitude":-96.80889,"reserved":0,"last_update":"0001-01-01T00:00:00Z","name_a2s":"Uncletopia | Dallas | 2 | All Maps","protocol":17,"map":"pl_badwater","folder":"tf","game":"Team Fortress","app_id":440,"player_count":23,"max_players":24,"Bots":0,"server_type":"Dedicated","server_os":"Linux","password":true,"vac":true,"version":"7757534","steam_id":85568392924469988,"keywords":["nocrits","nodmgspread","payload","uncletopia"],"game_id":440,"stv_port":27026,"stv_name":"Uncletopia | Dallas | 2 | All Maps | STV","players":[{"user_id":15,"name":"Robomandude","steam_id":76561198043909566,"connected_time":2763000000000,"state":"active","ping":57},{"user_id":19,"name":"Pile of Spinach","steam_id":76561198043068841,"connected_time":1716000000000,"state":"active","ping":60},{"user_id":21,"name":"pudl","steam_id":76561198043726592,"connected_time":1322000000000,"state":"active","ping":43},{"user_id":22,"name":"Potassium_","steam_id":76561199085021046,"connected_time":905000000000,"state":"active","ping":82},{"user_id":42,"name":"maArk","steam_id":76561198200380143,"connected_time":71000000000,"state":"active","ping":190},{"user_id":24,"name":"Yoyo","steam_id":76561199122577289,"connected_time":674000000000,"state":"active","ping":85},{"user_id":29,"name":"McNamJam","steam_id":76561198028128686,"connected_time":498000000000,"state":"active","ping":89},{"user_id":27,"name":"leumas","steam_id":76561198240408540,"connected_time":542000000000,"state":"active","ping":84},{"user_id":34,"name":"radiation","steam_id":76561198001157602,"connected_time":314000000000,"state":"active","ping":71},{"user_id":31,"name":"yeyoi","steam_id":76561198069821885,"connected_time":386000000000,"state":"active","ping":40},{"user_id":32,"name":"felix the grand","steam_id":76561198838822605,"connected_time":354000000000,"state":"active","ping":179},{"user_id":33,"name":"Shmiel","steam_id":76561198175734166,"connected_time":334000000000,"state":"active","ping":70},{"user_id":35,"name":"astron","steam_id":76561198058546328,"connected_time":309000000000,"state":"active","ping":84},{"user_id":36,"name":"spooky","steam_id":76561198122964663,"connected_time":303000000000,"state":"active","ping":65},{"user_id":37,"name":"Icaruss","steam_id":76561199087157705,"connected_time":289000000000,"state":"active","ping":100},{"user_id":38,"name":"differentElk","steam_id":76561199167985720,"connected_time":263000000000,"state":"active","ping":99},{"user_id":39,"name":"JerlBays","steam_id":76561198096773292,"connected_time":240000000000,"state":"active","ping":73},{"user_id":41,"name":"Jaydyn","steam_id":76561198140326797,"connected_time":129000000000,"state":"active","ping":101},{"user_id":43,"name":"Squid","steam_id":76561198197045587,"connected_time":64000000000,"state":"active","ping":106},{"user_id":44,"name":"Morphy_02","steam_id":76561199066220458,"connected_time":53000000000,"state":"active","ping":153},{"user_id":45,"name":"lilcool100","steam_id":76561198093927437,"connected_time":47000000000,"state":"active","ping":76},{"user_id":46,"name":"Salmon","steam_id":76561198285883040,"connected_time":42000000000,"state":"active","ping":107},{"user_id":47,"name":"RandomPixels","steam_id":76561198844646074,"connected_time":39000000000,"state":"spawning","ping":70}]},{"server_id":5,"name":"Uncletopia | Frankfurt | 1 | All Maps","name_short":"frk-1","host":"frk-1.de.uncletopia.com","port":27015,"enabled":true,"region":"eu","cc":"de","latitude":50.110924,"longitude":8.682127,"reserved":0,"last_update":"0001-01-01T00:00:00Z","name_a2s":"Uncletopia | Frankfurt | 1 | All Maps","protocol":17,"map":"cp_process_final","folder":"tf","game":"Team Fortress","app_id":440,"player_count":24,"max_players":24,"Bots":0,"server_type":"Dedicated","server_os":"Linux","password":true,"vac":true,"version":"7757534","steam_id":85568392924469989,"keywords":["cp","nocrits","nodmgspread","uncletopia"],"game_id":440,"stv_port":27016,"stv_name":"Uncletopia | Frankfurt | 1 | All Maps | STV","players":[{"user_id":473,"name":"DiracDeltaFunction","steam_id":76561199201624841,"connected_time":769000000000,"state":"active","ping":102},{"user_id":479,"name":"MAJAX","steam_id":76561198254828632,"connected_time":724000000000,"state":"active","ping":45},{"user_id":471,"name":"Zero (Orbital Gear Mastermind)","steam_id":76561198017416816,"connected_time":1167000000000,"state":"active","ping":60},{"user_id":467,"name":"Rops","steam_id":76561198031608011,"connected_time":1334000000000,"state":"active","ping":78},{"user_id":445,"name":"PrivatePengu","steam_id":76561198100112667,"connected_time":4391000000000,"state":"active","ping":55},{"user_id":439,"name":"mohemmedmokhter2005","steam_id":76561199197650506,"connected_time":5252000000000,"state":"active","ping":105},{"user_id":483,"name":"Steven AssMaster","steam_id":76561198083489951,"connected_time":578000000000,"state":"active","ping":66},{"user_id":465,"name":"fallingpencil","steam_id":76561199230233148,"connected_time":2240000000000,"state":"active","ping":70},{"user_id":477,"name":"cinny","steam_id":76561198832112629,"connected_time":737000000000,"state":"active","ping":77},{"user_id":392,"name":"Albino Jellyfish","steam_id":76561198208561097,"connected_time":8540000000000,"state":"active","ping":135},{"user_id":371,"name":"Fat Pigeon","steam_id":76561198817940142,"connected_time":9875000000000,"state":"active","ping":50},{"user_id":433,"name":"Udinese Dion","steam_id":76561198067931573,"connected_time":5856000000000,"state":"active","ping":39},{"user_id":487,"name":"KIMI","steam_id":76561198272839627,"connected_time":329000000000,"state":"active","ping":88},{"user_id":484,"name":"Fujiye","steam_id":76561198097713633,"connected_time":568000000000,"state":"active","ping":70},{"user_id":440,"name":"CRWND","steam_id":76561198329810027,"connected_time":5246000000000,"state":"active","ping":52},{"user_id":485,"name":"friendly + happy Babs","steam_id":76561198314919758,"connected_time":537000000000,"state":"active","ping":70},{"user_id":488,"name":"Sarah | BNKR","steam_id":76561198282866752,"connected_time":326000000000,"state":"active","ping":115},{"user_id":463,"name":"Senior_Pablo","steam_id":76561199254031480,"connected_time":2307000000000,"state":"active","ping":66},{"user_id":456,"name":"nedilya","steam_id":76561198039692077,"connected_time":3537000000000,"state":"active","ping":57},{"user_id":480,"name":"Bl_ue2th","steam_id":76561198804551869,"connected_time":721000000000,"state":"active","ping":103},{"user_id":489,"name":"DarthPaul8181","steam_id":76561198373050455,"connected_time":267000000000,"state":"active","ping":57},{"user_id":482,"name":"Mondy","steam_id":76561198081196528,"connected_time":611000000000,"state":"active","ping":57},{"user_id":474,"name":"medick","steam_id":76561199380849468,"connected_time":767000000000,"state":"active","ping":60},{"user_id":490,"name":"Der Australische Hühnerwürger","steam_id":76561198042614289,"connected_time":230000000000,"state":"active","ping":59}]},{"server_id":110,"name":"Uncletopia | Frankfurt | 2 | All Maps","name_short":"frk-2","host":"frk-1.de.uncletopia.com","port":27025,"enabled":true,"region":"eu","cc":"de","latitude":50.110924,"longitude":8.682127,"reserved":0,"last_update":"0001-01-01T00:00:00Z","name_a2s":"Uncletopia | Frankfurt | 2 | All Maps","protocol":17,"map":"pl_pier","folder":"tf","game":"Team Fortress","app_id":440,"player_count":24,"max_players":24,"Bots":0,"server_type":"Dedicated","server_os":"Linux","password":true,"vac":true,"version":"7757534","steam_id":85568392924469990,"keywords":["nocrits","nodmgspread","payload","uncletopia"],"game_id":440,"stv_port":27026,"stv_name":"Uncletopia | Frankfurt | 2 | All Maps | STV","players":[{"user_id":447,"name":"Cosmetic brain","steam_id":76561198055936410,"connected_time":591000000000,"state":"active","ping":86},{"user_id":314,"name":"kuroblakka","steam_id":76561198260700096,"connected_time":9008000000000,"state":"active","ping":91},{"user_id":445,"name":"ike","steam_id":76561198039573338,"connected_time":691000000000,"state":"active","ping":70},{"user_id":400,"name":"Negative Rodger","steam_id":76561198030956814,"connected_time":3417000000000,"state":"active","ping":89},{"user_id":460,"name":"Kiska D","steam_id":76561198261377744,"connected_time":156000000000,"state":"active","ping":104},{"user_id":444,"name":"XeniasPimp","steam_id":76561198126398022,"connected_time":726000000000,"state":"active","ping":70},{"user_id":458,"name":"Bilaterial Newt","steam_id":76561198074655679,"connected_time":218000000000,"state":"active","ping":76},{"user_id":402,"name":"Old Man Winter","steam_id":76561198007653168,"connected_time":3410000000000,"state":"active","ping":69},{"user_id":455,"name":"Lignis","steam_id":76561198363052240,"connected_time":352000000000,"state":"active","ping":77},{"user_id":457,"name":"Banana Dispenser","steam_id":76561198446549451,"connected_time":302000000000,"state":"active","ping":72},{"user_id":404,"name":"Master of tiktok","steam_id":76561199379233899,"connected_time":3351000000000,"state":"active","ping":87},{"user_id":451,"name":"Brainlet","steam_id":76561198862617163,"connected_time":547000000000,"state":"active","ping":67},{"user_id":452,"name":"Insain Bolt!","steam_id":76561198025687726,"connected_time":526000000000,"state":"active","ping":61},{"user_id":413,"name":"Oolongcat","steam_id":76561198027033783,"connected_time":3094000000000,"state":"active","ping":44},{"user_id":379,"name":"hello kitty gaming","steam_id":76561197972008326,"connected_time":4320000000000,"state":"active","ping":76},{"user_id":443,"name":"KoSioR","steam_id":76561198189832210,"connected_time":973000000000,"state":"active","ping":69},{"user_id":426,"name":"paguro","steam_id":76561198119560871,"connected_time":1844000000000,"state":"active","ping":73},{"user_id":439,"name":"SaltyCupcakes","steam_id":76561198256386417,"connected_time":1217000000000,"state":"active","ping":56},{"user_id":427,"name":"Spieller","steam_id":76561198057197847,"connected_time":1751000000000,"state":"active","ping":73},{"user_id":431,"name":"Hildreth","steam_id":76561197995254867,"connected_time":1621000000000,"state":"active","ping":60},{"user_id":453,"name":"Cocoa","steam_id":76561198078438879,"connected_time":519000000000,"state":"active","ping":60},{"user_id":428,"name":"SuntanPikachu","steam_id":76561198121242476,"connected_time":1751000000000,"state":"active","ping":80},{"user_id":454,"name":"Cheyaoshi","steam_id":76561198141121996,"connected_time":488000000000,"state":"active","ping":53},{"user_id":430,"name":"restloud","steam_id":76561198265722644,"connected_time":1690000000000,"state":"active","ping":91}]},{"server_id":308,"name":"Uncletopia | Frankfurt | 3 | All Maps","name_short":"frk-3","host":"frk-1.de.uncletopia.com","port":27035,"enabled":true,"region":"eu","cc":"de","latitude":50.110924,"longitude":8.682127,"reserved":0,"last_update":"0001-01-01T00:00:00Z","name_a2s":"Uncletopia | Frankfurt | 3 | All Maps","protocol":17,"map":"pl_frontier_final","folder":"tf","game":"Team Fortress","app_id":440,"player_count":22,"max_players":24,"Bots":0,"server_type":"Dedicated","server_os":"Linux","password":true,"vac":true,"version":"7757534","steam_id":85568392924504274,"keywords":["nocrits","nodmgspread","payload","uncletopia"],"game_id":440,"stv_port":27036,"stv_name":"Uncletopia | Frankfurt | 3 | All Maps | STV","players":[{"user_id":370,"name":"thussu","steam_id":76561198890409949,"connected_time":1294000000000,"state":"active","ping":84},{"user_id":384,"name":"Chinese Kharp","steam_id":76561199383220023,"connected_time":72000000000,"state":"active","ping":81},{"user_id":366,"name":"Gilob","steam_id":76561198392490566,"connected_time":1670000000000,"state":"active","ping":83},{"user_id":349,"name":"Truck-Sama's Victim","steam_id":76561198826861582,"connected_time":3292000000000,"state":"active","ping":83},{"user_id":371,"name":"CommanderX","steam_id":76561197991425069,"connected_time":1209000000000,"state":"active","ping":65},{"user_id":350,"name":"Umberto Bossi","steam_id":76561198136150267,"connected_time":3248000000000,"state":"active","ping":55},{"user_id":351,"name":"Djingis Khan","steam_id":76561197967864460,"connected_time":3239000000000,"state":"active","ping":46},{"user_id":385,"name":"核nucleoneツ","steam_id":76561198099372569,"connected_time":36000000000,"state":"active","ping":61},{"user_id":375,"name":"STiNGHAN","steam_id":76561198023989090,"connected_time":469000000000,"state":"active","ping":85},{"user_id":344,"name":"gOnzaLOXX2005","steam_id":76561198056744152,"connected_time":3583000000000,"state":"active","ping":97},{"user_id":352,"name":"Banal Destroyer","steam_id":76561198299570372,"connected_time":3232000000000,"state":"active","ping":61},{"user_id":364,"name":"jo","steam_id":76561198109074418,"connected_time":1924000000000,"state":"active","ping":61},{"user_id":379,"name":"Kep","steam_id":76561199215126029,"connected_time":280000000000,"state":"active","ping":165},{"user_id":367,"name":"Tlad2","steam_id":76561198854897667,"connected_time":1599000000000,"state":"active","ping":76},{"user_id":380,"name":"basiL","steam_id":76561197961768272,"connected_time":197000000000,"state":"active","ping":70},{"user_id":322,"name":"MagicTITIKAKA","steam_id":76561198129509548,"connected_time":5047000000000,"state":"active","ping":109},{"user_id":305,"name":"Fogic yo!","steam_id":76561198084624833,"connected_time":6079000000000,"state":"active","ping":71},{"user_id":381,"name":"born to shit forced to wipe","steam_id":76561198053116096,"connected_time":189000000000,"state":"active","ping":85},{"user_id":361,"name":"$b","steam_id":76561198118412910,"connected_time":2014000000000,"state":"active","ping":68},{"user_id":383,"name":"ceeblues","steam_id":76561198197203519,"connected_time":102000000000,"state":"active","ping":96},{"user_id":306,"name":"Boonir","steam_id":76561198049172108,"connected_time":6065000000000,"state":"active","ping":103},{"user_id":360,"name":"GogsCrunchyNuts","steam_id":76561198150599213,"connected_time":2568000000000,"state":"active","ping":111}]},{"server_id":309,"name":"Uncletopia | Frankfurt | 4 | All Maps","name_short":"frk-4","host":"frk-1.de.uncletopia.com","port":27045,"enabled":true,"region":"eu","cc":"de","latitude":50.110924,"longitude":8.682127,"reserved":0,"last_update":"0001-01-01T00:00:00Z","name_a2s":"Uncletopia | Frankfurt | 4 | All Maps","protocol":17,"map":"cp_dustbowl","folder":"tf","game":"Team Fortress","app_id":440,"player_count":0,"max_players":24,"Bots":0,"server_type":"Dedicated","server_os":"Linux","password":true,"vac":true,"version":"7757534","steam_id":85568392924504275,"keywords":["cp","nocrits","nodmgspread","uncletopia"],"game_id":440,"stv_port":27046,"stv_name":"Uncletopia | Frankfurt | 4 | All Maps | STV","players":null},{"server_id":310,"name":"Uncletopia | Frankfurt | 5 | All Maps","name_short":"frk-5","host":"frk-1.de.uncletopia.com","port":27055,"enabled":true,"region":"eu","cc":"de","latitude":50.110924,"longitude":8.682127,"reserved":0,"last_update":"0001-01-01T00:00:00Z","name_a2s":"Uncletopia | Frankfurt | 5 | All Maps","protocol":17,"map":"cp_snakewater_final1","folder":"tf","game":"Team Fortress","app_id":440,"player_count":24,"max_players":24,"Bots":0,"server_type":"Dedicated","server_os":"Linux","password":true,"vac":true,"version":"7757534","steam_id":85568392924504277,"keywords":["cp","nocrits","nodmgspread","uncletopia"],"game_id":440,"stv_port":27056,"stv_name":"Uncletopia | Frankfurt | 5 | All Maps | STV","players":[{"user_id":273,"name":"NRC","steam_id":76561198136403335,"connected_time":942000000000,"state":"active","ping":69},{"user_id":281,"name":"Emil420m","steam_id":76561198241894374,"connected_time":679000000000,"state":"active","ping":59},{"user_id":270,"name":"you now breathe by manual","steam_id":76561198808819694,"connected_time":1063000000000,"state":"active","ping":47},{"user_id":288,"name":"I'm high on crack","steam_id":76561198175433731,"connected_time":65000000000,"state":"active","ping":75},{"user_id":225,"name":"Pachakamakk","steam_id":76561197989010401,"connected_time":3617000000000,"state":"active","ping":63},{"user_id":185,"name":"Nyoelle","steam_id":76561198041717890,"connected_time":7330000000000,"state":"active","ping":71},{"user_id":260,"name":"Volcyy","steam_id":76561198063979124,"connected_time":1277000000000,"state":"active","ping":40},{"user_id":272,"name":"Bruski","steam_id":76561198053589119,"connected_time":1044000000000,"state":"active","ping":90},{"user_id":282,"name":"Daza_3s","steam_id":76561198796443584,"connected_time":634000000000,"state":"active","ping":43},{"user_id":277,"name":"fizik2703","steam_id":76561198134203031,"connected_time":788000000000,"state":"active","ping":59},{"user_id":286,"name":"KLAMA  ❤","steam_id":76561198351549661,"connected_time":462000000000,"state":"active","ping":74},{"user_id":278,"name":"TheAsianMate","steam_id":76561198116111669,"connected_time":782000000000,"state":"active","ping":80},{"user_id":261,"name":"HOI","steam_id":76561198061182117,"connected_time":1252000000000,"state":"active","ping":60},{"user_id":279,"name":"Chimera","steam_id":76561198079575986,"connected_time":776000000000,"state":"active","ping":61},{"user_id":283,"name":"Il y a","steam_id":76561198100943482,"connected_time":569000000000,"state":"active","ping":79},{"user_id":280,"name":"Manekrit","steam_id":76561198269497846,"connected_time":773000000000,"state":"active","ping":74},{"user_id":267,"name":"poy","steam_id":76561198114063534,"connected_time":1199000000000,"state":"active","ping":53},{"user_id":264,"name":"Kron Krian","steam_id":76561198122541754,"connected_time":1231000000000,"state":"active","ping":67},{"user_id":287,"name":"rez777ka","steam_id":76561198107605938,"connected_time":345000000000,"state":"active","ping":90},{"user_id":265,"name":"robitamoft","steam_id":76561198315903156,"connected_time":1227000000000,"state":"active","ping":85},{"user_id":240,"name":"simn","steam_id":76561198159182269,"connected_time":2287000000000,"state":"active","ping":56},{"user_id":181,"name":"Simoh The Swoob","steam_id":76561198058078322,"connected_time":7551000000000,"state":"active","ping":81},{"user_id":256,"name":"Vitun Jonne","steam_id":76561198401737380,"connected_time":1319000000000,"state":"active","ping":61},{"user_id":289,"name":"Chargles","steam_id":76561198205386247,"connected_time":58000000000,"state":"active","ping":101}]},{"server_id":311,"name":"Uncletopia | Frankfurt | 6 | All Maps","name_short":"frk-6","host":"frk-1.de.uncletopia.com","port":27065,"enabled":true,"region":"eu","cc":"de","latitude":50.110924,"longitude":8.682127,"reserved":0,"last_update":"0001-01-01T00:00:00Z","name_a2s":"Uncletopia | Frankfurt | 6 | All Maps","protocol":17,"map":"pl_swiftwater_final1","folder":"tf","game":"Team Fortress","app_id":440,"player_count":24,"max_players":24,"Bots":0,"server_type":"Dedicated","server_os":"Linux","password":true,"vac":true,"version":"7757534","steam_id":85568392924504278,"keywords":["nocrits","nodmgspread","payload","uncletopia"],"game_id":440,"stv_port":27066,"stv_name":"Uncletopia | Frankfurt | 6 | All Maps | STV","players":[{"user_id":297,"name":"Thors","steam_id":76561197968739075,"connected_time":342000000000,"state":"active","ping":45},{"user_id":258,"name":"LinkOfAsgard","steam_id":76561198845682529,"connected_time":3498000000000,"state":"active","ping":86},{"user_id":246,"name":"lazoboy","steam_id":76561199074095198,"connected_time":3737000000000,"state":"active","ping":121},{"user_id":288,"name":"PuttePossu","steam_id":76561198350078793,"connected_time":997000000000,"state":"active","ping":92},{"user_id":248,"name":"decriminalise goblins","steam_id":76561198048257605,"connected_time":3684000000000,"state":"active","ping":73},{"user_id":273,"name":"crsld","steam_id":76561198281682473,"connected_time":2639000000000,"state":"active","ping":129},{"user_id":249,"name":"scharque","steam_id":76561198071227039,"connected_time":3680000000000,"state":"active","ping":79},{"user_id":274,"name":"❀snorlax","steam_id":76561198051629288,"connected_time":2630000000000,"state":"active","ping":73},{"user_id":283,"name":"trite","steam_id":76561197983765323,"connected_time":1136000000000,"state":"active","ping":64},{"user_id":298,"name":"x3o","steam_id":76561198335302319,"connected_time":263000000000,"state":"active","ping":124},{"user_id":256,"name":"ciaraaxox","steam_id":76561198273912610,"connected_time":3536000000000,"state":"active","ping":83},{"user_id":290,"name":"a black bishop from chess","steam_id":76561199226943577,"connected_time":925000000000,"state":"active","ping":72},{"user_id":254,"name":"Danger Noodle","steam_id":76561198874093656,"connected_time":3562000000000,"state":"active","ping":70},{"user_id":255,"name":"McGov","steam_id":76561198211361463,"connected_time":3542000000000,"state":"active","ping":73},{"user_id":277,"name":"fucking vargas","steam_id":76561198012652176,"connected_time":2110000000000,"state":"active","ping":74},{"user_id":281,"name":"Deckard","steam_id":76561198004704647,"connected_time":1768000000000,"state":"active","ping":77},{"user_id":300,"name":"Mega Saturn","steam_id":76561198024750500,"connected_time":27000000000,"state":"active","ping":102},{"user_id":292,"name":"ULTIMATE_GORDON","steam_id":76561198044470038,"connected_time":645000000000,"state":"active","ping":49},{"user_id":285,"name":"donk","steam_id":76561198162676648,"connected_time":1111000000000,"state":"active","ping":71},{"user_id":299,"name":"DesmondTheBear","steam_id":76561198038847568,"connected_time":81000000000,"state":"active","ping":61},{"user_id":293,"name":"Zembis","steam_id":76561198008017918,"connected_time":637000000000,"state":"active","ping":102},{"user_id":287,"name":"☣Strale☣","steam_id":76561198026578820,"connected_time":1094000000000,"state":"active","ping":73},{"user_id":265,"name":"goodguydragg","steam_id":76561198305104891,"connected_time":3420000000000,"state":"active","ping":64},{"user_id":294,"name":"ムGeRmAn |×UA×ム","steam_id":76561199044754898,"connected_time":591000000000,"state":"active","ping":68}]},{"server_id":23,"name":"Uncletopia | Frankfurt | 7 | Stopwatch Beta","name_short":"frk-7","host":"frk-1.de.uncletopia.com","port":27075,"enabled":true,"region":"eu","cc":"de","latitude":50.110924,"longitude":8.682127,"reserved":0,"last_update":"0001-01-01T00:00:00Z","name_a2s":"Uncletopia | Frankfurt | 7 | Stopwatch Beta","protocol":17,"map":"pl_borneo","folder":"tf","game":"Team Fortress","app_id":440,"player_count":0,"max_players":24,"Bots":0,"server_type":"Dedicated","server_os":"Linux","password":true,"vac":true,"version":"7757534","steam_id":85568392924742827,"keywords":["nocrits","nodmgspread","payload","uncletopia"],"game_id":440,"stv_port":27076,"stv_name":"Uncletopia | Frankfurt | 7 | Stopwatch Beta | STV","players":null},{"server_id":24,"name":"Uncletopia | Frankfurt | 8 | Community","name_short":"frk-8","host":"frk-1.de.uncletopia.com","port":27085,"enabled":true,"region":"eu","cc":"de","latitude":50.110924,"longitude":8.682127,"reserved":0,"last_update":"0001-01-01T00:00:00Z","name_a2s":"Uncletopia | Frankfurt | 8 | Community","protocol":17,"map":"workshop/koth_bagel_rc5.ugc2514036946","folder":"tf","game":"Team Fortress","app_id":440,"player_count":0,"max_players":24,"Bots":0,"server_type":"Dedicated","server_os":"Linux","password":true,"vac":true,"version":"7757534","steam_id":85568392924742828,"keywords":["cp","nocrits","nodmgspread","uncletopia"],"game_id":440,"stv_port":27086,"stv_name":"Uncletopia | Frankfurt | 8 | Community | STV","players":null},{"server_id":202,"name":"Uncletopia | Hong Kong | 1 | All Maps","name_short":"hgk-1","host":"hgk-1.hk.uncletopia.com","port":27015,"enabled":true,"region":"asia","cc":"hk","latitude":22.302711,"longitude":114.177216,"reserved":0,"last_update":"0001-01-01T00:00:00Z","name_a2s":"Uncletopia | Hong Kong | 1 | All Maps","protocol":17,"map":"koth_viaduct","folder":"tf","game":"Team Fortress","app_id":440,"player_count":0,"max_players":24,"Bots":0,"server_type":"Dedicated","server_os":"Linux","password":true,"vac":true,"version":"7757534","steam_id":85568392924494504,"keywords":["cp","nocrits","nodmgspread","uncletopia"],"game_id":440,"stv_port":27016,"stv_name":"Uncletopia | Hong Kong | 1 | All Maps | STV","players":null},{"server_id":1,"name":"Uncletopia | Los Angeles | 1 | All Maps","name_short":"lax-1","host":"lax-1.us.uncletopia.com","port":27015,"enabled":true,"region":"us-west","cc":"us","latitude":33.94279,"longitude":-118.41004,"reserved":0,"last_update":"0001-01-01T00:00:00Z","name_a2s":"Uncletopia | Los Angeles | 1 | All Maps","protocol":17,"map":"cp_mountainlab","folder":"tf","game":"Team Fortress","app_id":440,"player_count":0,"max_players":24,"Bots":0,"server_type":"Dedicated","server_os":"Linux","password":true,"vac":true,"version":"7757534","steam_id":85568392924469991,"keywords":["cp","nocrits","nodmgspread","uncletopia"],"game_id":440,"stv_port":27016,"stv_name":"Uncletopia | Los Angeles | 1 | All Maps | STV","players":null},{"server_id":112,"name":"Uncletopia | Los Angeles | 2 | All Maps","name_short":"lax-2","host":"lax-1.us.uncletopia.com","port":27025,"enabled":true,"region":"us-west","cc":"us","latitude":33.94279,"longitude":-118.41004,"reserved":0,"last_update":"0001-01-01T00:00:00Z","name_a2s":"Uncletopia | Los Angeles | 2 | All Maps","protocol":17,"map":"koth_cascade","folder":"tf","game":"Team Fortress","app_id":440,"player_count":0,"max_players":24,"Bots":0,"server_type":"Dedicated","server_os":"Linux","password":true,"vac":true,"version":"7757534","steam_id":85568392924469992,"keywords":["cp","nocrits","nodmgspread","uncletopia"],"game_id":440,"stv_port":27026,"stv_name":"Uncletopia | Los Angeles | 2 | All Maps | STV","players":null},{"server_id":324,"name":"Uncletopia | Los Angeles | 3 | All Maps","name_short":"lax-3","host":"lax-1.us.uncletopia.com","port":27035,"enabled":true,"region":"us-west","cc":"us","latitude":33.94279,"longitude":-118.41004,"reserved":0,"last_update":"0001-01-01T00:00:00Z","name_a2s":"Uncletopia | Los Angeles | 3 | All Maps","protocol":17,"map":"koth_highpass","folder":"tf","game":"Team Fortress","app_id":440,"player_count":0,"max_players":24,"Bots":0,"server_type":"Dedicated","server_os":"Linux","password":true,"vac":true,"version":"7757534","steam_id":85568392924510198,"keywords":["cp","nocrits","nodmgspread","uncletopia"],"game_id":440,"stv_port":27036,"stv_name":"Uncletopia | Los Angeles | 3 | All Maps | STV","players":null},{"server_id":25,"name":"Uncletopia | Los Angeles | 4 | Stopwatch Beta","name_short":"lax-4","host":"lax-1.us.uncletopia.com","port":27045,"enabled":true,"region":"us-west","cc":"us","latitude":33.94279,"longitude":-118.41004,"reserved":0,"last_update":"0001-01-01T00:00:00Z","name_a2s":"Uncletopia | Los Angeles | 4 | Stopwatch Beta","protocol":17,"map":"koth_viaduct","folder":"tf","game":"Team Fortress","app_id":440,"player_count":0,"max_players":24,"Bots":0,"server_type":"Dedicated","server_os":"Linux","password":true,"vac":true,"version":"7757534","steam_id":85568392924510199,"keywords":["cp","nocrits","nodmgspread","uncletopia"],"game_id":440,"stv_port":27046,"stv_name":"Uncletopia | Los Angeles | 4 | Stopwatch Beta | STV","players":null},{"server_id":11,"name":"Uncletopia | London | 1 | All Maps","name_short":"lon-1","host":"lon-1.uk.uncletopia.com","port":27015,"enabled":true,"region":"eu","cc":"gb","latitude":51.509865,"longitude":-0.118092,"reserved":0,"last_update":"0001-01-01T00:00:00Z","name_a2s":"Uncletopia | London | 1 | All Maps","protocol":17,"map":"koth_lakeside_final","folder":"tf","game":"Team Fortress","app_id":440,"player_count":24,"max_players":24,"Bots":0,"server_type":"Dedicated","server_os":"Linux","password":true,"vac":true,"version":"7757534","steam_id":85568392924367362,"keywords":["cp","nocrits","nodmgspread","uncletopia"],"game_id":440,"stv_port":27016,"stv_name":"Uncletopia | London | 1 | All Maps | STV","players":[{"user_id":368,"name":"Cum Mentalist Mikuri","steam_id":76561198298576765,"connected_time":195000000000,"state":"active","ping":76},{"user_id":355,"name":"When Life gives you Lemons","steam_id":76561198318290663,"connected_time":1245000000000,"state":"active","ping":57},{"user_id":331,"name":"Garfield Gaming","steam_id":76561198254539791,"connected_time":2967000000000,"state":"active","ping":47},{"user_id":359,"name":"✪ Danny","steam_id":76561198104483241,"connected_time":728000000000,"state":"active","ping":53},{"user_id":343,"name":"tmac","steam_id":76561198047685716,"connected_time":2268000000000,"state":"active","ping":46},{"user_id":356,"name":"Juiceydough","steam_id":76561197997323419,"connected_time":981000000000,"state":"active","ping":78},{"user_id":321,"name":"Chaz","steam_id":76561198077292814,"connected_time":3212000000000,"state":"active","ping":64},{"user_id":363,"name":"No Status","steam_id":76561198119526557,"connected_time":412000000000,"state":"active","ping":40},{"user_id":361,"name":"Videogamer","steam_id":76561198106012909,"connected_time":712000000000,"state":"active","ping":73},{"user_id":349,"name":"Wolfy","steam_id":76561198077232111,"connected_time":1284000000000,"state":"active","ping":100},{"user_id":365,"name":"Pringles","steam_id":76561198042667407,"connected_time":402000000000,"state":"active","ping":82},{"user_id":250,"name":"Sub.","steam_id":76561198009660168,"connected_time":7875000000000,"state":"active","ping":56},{"user_id":347,"name":"sora","steam_id":76561198096547662,"connected_time":1985000000000,"state":"active","ping":49},{"user_id":320,"name":"IceDreamer","steam_id":76561197997569989,"connected_time":3252000000000,"state":"active","ping":41},{"user_id":344,"name":"HIYA","steam_id":76561198047544122,"connected_time":2262000000000,"state":"active","ping":77},{"user_id":280,"name":"teddy","steam_id":76561198007436837,"connected_time":5716000000000,"state":"active","ping":45},{"user_id":306,"name":"Posho","steam_id":76561198062396436,"connected_time":4182000000000,"state":"active","ping":45},{"user_id":327,"name":"Bounter","steam_id":76561198072614188,"connected_time":3017000000000,"state":"active","ping":73},{"user_id":309,"name":"Celtins","steam_id":76561198839837475,"connected_time":3773000000000,"state":"active","ping":73},{"user_id":366,"name":"Lethal","steam_id":76561198452042648,"connected_time":396000000000,"state":"active","ping":74},{"user_id":342,"name":"Dom.","steam_id":76561199065917088,"connected_time":2376000000000,"state":"active","ping":63},{"user_id":351,"name":"Pinkchup","steam_id":76561198106802803,"connected_time":1281000000000,"state":"active","ping":76},{"user_id":362,"name":"poopoocum","steam_id":76561198180641206,"connected_time":654000000000,"state":"active","ping":60},{"user_id":367,"name":"Lolipop120","steam_id":76561199001403237,"connected_time":339000000000,"state":"active","ping":61}]},{"server_id":114,"name":"Uncletopia | London | 2 | All Maps","name_short":"lon-2","host":"lon-1.uk.uncletopia.com","port":27025,"enabled":true,"region":"eu","cc":"gb","latitude":51.509865,"longitude":-0.118092,"reserved":0,"last_update":"0001-01-01T00:00:00Z","name_a2s":"Uncletopia | London | 2 | All Maps","protocol":17,"map":"pl_borneo","folder":"tf","game":"Team Fortress","app_id":440,"player_count":24,"max_players":24,"Bots":0,"server_type":"Dedicated","server_os":"Linux","password":true,"vac":true,"version":"7757534","steam_id":85568392924470941,"keywords":["nocrits","nodmgspread","payload","uncletopia"],"game_id":440,"stv_port":27026,"stv_name":"Uncletopia | London | 2 | All Maps | STV","players":[{"user_id":338,"name":"G6 sherlock","steam_id":76561198802967796,"connected_time":343000000000,"state":"active","ping":119},{"user_id":326,"name":"Reast","steam_id":76561198022796927,"connected_time":937000000000,"state":"active","ping":101},{"user_id":327,"name":"Sigmar's Weakest Soldier","steam_id":76561198320506848,"connected_time":935000000000,"state":"active","ping":45},{"user_id":268,"name":"Combat Wombat","steam_id":76561197994720068,"connected_time":6247000000000,"state":"active","ping":67},{"user_id":291,"name":"Choruptian","steam_id":76561198017686366,"connected_time":3809000000000,"state":"active","ping":70},{"user_id":288,"name":"0","steam_id":76561198267909207,"connected_time":4159000000000,"state":"active","ping":103},{"user_id":317,"name":"RoXeUr-KaMiKaZe","steam_id":76561197998204782,"connected_time":2099000000000,"state":"active","ping":55},{"user_id":319,"name":"Sam","steam_id":76561198203070687,"connected_time":1548000000000,"state":"active","ping":57},{"user_id":301,"name":"Carrot Arc","steam_id":76561198164957006,"connected_time":3367000000000,"state":"active","ping":83},{"user_id":309,"name":"Elisko246","steam_id":76561198070377333,"connected_time":2987000000000,"state":"active","ping":90},{"user_id":337,"name":"iuSDIB8+ ň7","steam_id":76561198363768590,"connected_time":360000000000,"state":"active","ping":114},{"user_id":302,"name":"big al","steam_id":76561198800662675,"connected_time":3365000000000,"state":"active","ping":57},{"user_id":316,"name":"√(-Wolf)","steam_id":76561198024769704,"connected_time":2145000000000,"state":"active","ping":101},{"user_id":305,"name":"✪ m_br3","steam_id":76561198044981990,"connected_time":3210000000000,"state":"active","ping":76},{"user_id":328,"name":"KlevukaS™","steam_id":76561198312867604,"connected_time":926000000000,"state":"active","ping":92},{"user_id":278,"name":"PrimaryComet","steam_id":76561198085505932,"connected_time":5006000000000,"state":"active","ping":55},{"user_id":311,"name":"fregaropa","steam_id":76561198150806166,"connected_time":2902000000000,"state":"active","ping":73},{"user_id":335,"name":"MyFirstTimeeeeelel","steam_id":76561199235376543,"connected_time":467000000000,"state":"active","ping":78},{"user_id":296,"name":"Dachowiec","steam_id":76561198195408281,"connected_time":3749000000000,"state":"active","ping":66},{"user_id":330,"name":"walidov","steam_id":76561198079965605,"connected_time":916000000000,"state":"active","ping":178},{"user_id":280,"name":"mercedes ben","steam_id":76561198000147423,"connected_time":5003000000000,"state":"active","ping":45},{"user_id":331,"name":"❄ Kami ❄","steam_id":76561198158209651,"connected_time":845000000000,"state":"active","ping":60},{"user_id":332,"name":"homeinvasion$","steam_id":76561199111905021,"connected_time":840000000000,"state":"active","ping":144},{"user_id":324,"name":"TrevorLaRata","steam_id":76561198090874778,"connected_time":1105000000000,"state":"active","ping":55}]},{"server_id":320,"name":"Uncletopia | London | 3 | All Maps","name_short":"lon-3","host":"lon-1.uk.uncletopia.com","port":27035,"enabled":true,"region":"eu","cc":"gb","latitude":51.509865,"longitude":-0.118092,"reserved":0,"last_update":"0001-01-01T00:00:00Z","name_a2s":"Uncletopia | London | 3 | All Maps","protocol":17,"map":"pl_pier","folder":"tf","game":"Team Fortress","app_id":440,"player_count":24,"max_players":24,"Bots":0,"server_type":"Dedicated","server_os":"Linux","password":true,"vac":true,"version":"7757534","steam_id":85568392924510192,"keywords":["nocrits","nodmgspread","payload","uncletopia"],"game_id":440,"stv_port":27036,"stv_name":"Uncletopia | London | 3 | All Maps | STV","players":[{"user_id":204,"name":"snake9544","steam_id":76561198083076205,"connected_time":2741000000000,"state":"active","ping":85},{"user_id":230,"name":"Rolprev","steam_id":76561198047275939,"connected_time":322000000000,"state":"active","ping":87},{"user_id":217,"name":"wynq my singing monsters","steam_id":76561198448537553,"connected_time":963000000000,"state":"active","ping":92},{"user_id":222,"name":"Raulca25","steam_id":76561199068256964,"connected_time":736000000000,"state":"active","ping":77},{"user_id":219,"name":"pierre.de.leone","steam_id":76561199034499666,"connected_time":912000000000,"state":"active","ping":110},{"user_id":223,"name":"Benzo Fury","steam_id":76561198025259336,"connected_time":681000000000,"state":"active","ping":42},{"user_id":224,"name":"Junko","steam_id":76561198248239796,"connected_time":678000000000,"state":"active","ping":52},{"user_id":200,"name":"Jonas Destark","steam_id":76561198030327441,"connected_time":2945000000000,"state":"active","ping":66},{"user_id":225,"name":"Rocadinis","steam_id":76561198095910616,"connected_time":641000000000,"state":"active","ping":107},{"user_id":175,"name":"Arturias","steam_id":76561198188720263,"connected_time":4868000000000,"state":"active","ping":60},{"user_id":226,"name":"_zipfile","steam_id":76561198066133808,"connected_time":463000000000,"state":"active","ping":70},{"user_id":207,"name":"tactical783","steam_id":76561199051688560,"connected_time":2350000000000,"state":"active","ping":69},{"user_id":227,"name":"Ninkazai Learning stick","steam_id":76561198297107931,"connected_time":426000000000,"state":"active","ping":45},{"user_id":228,"name":"иван","steam_id":76561198072730591,"connected_time":415000000000,"state":"active","ping":70},{"user_id":229,"name":"AMBATUKAM","steam_id":76561198051861583,"connected_time":407000000000,"state":"active","ping":43},{"user_id":232,"name":"Borat","steam_id":76561198122226417,"connected_time":117000000000,"state":"active","ping":44},{"user_id":233,"name":"RIFT","steam_id":76561198991622379,"connected_time":106000000000,"state":"active","ping":45},{"user_id":237,"name":"Sneikijs","steam_id":76561198052549308,"connected_time":84000000000,"state":"active","ping":46},{"user_id":235,"name":"Tort","steam_id":76561198329646769,"connected_time":90000000000,"state":"active","ping":165},{"user_id":236,"name":"nynon","steam_id":76561197998432126,"connected_time":85000000000,"state":"active","ping":99},{"user_id":241,"name":"systematic aim","steam_id":76561198141744030,"connected_time":47000000000,"state":"active","ping":61},{"user_id":240,"name":"Demonstrate","steam_id":76561198198581079,"connected_time":58000000000,"state":"active","ping":89},{"user_id":242,"name":"torn","steam_id":76561198223003236,"connected_time":47000000000,"state":"active","ping":56},{"user_id":243,"name":"risco1bolota","steam_id":76561198323074603,"connected_time":42000000000,"state":"active","ping":86}]},{"server_id":321,"name":"Uncletopia | London | 4 | All Maps","name_short":"lon-4","host":"lon-1.uk.uncletopia.com","port":27045,"enabled":true,"region":"eu","cc":"gb","latitude":51.509865,"longitude":-0.118092,"reserved":0,"last_update":"0001-01-01T00:00:00Z","name_a2s":"Uncletopia | London | 4 | All Maps","protocol":17,"map":"pl_borneo","folder":"tf","game":"Team Fortress","app_id":440,"player_count":24,"max_players":24,"Bots":0,"server_type":"Dedicated","server_os":"Linux","password":true,"vac":true,"version":"7757534","steam_id":85568392924510193,"keywords":["nocrits","nodmgspread","payload","uncletopia"],"game_id":440,"stv_port":27046,"stv_name":"Uncletopia | London | 4 | All Maps | STV","players":[{"user_id":691,"name":"Christmas Ham","steam_id":76561198119601623,"connected_time":3851000000000,"state":"active","ping":54},{"user_id":752,"name":"Craig Crusade","steam_id":76561199225918086,"connected_time":283000000000,"state":"active","ping":71},{"user_id":738,"name":"MAKENTAKEN","steam_id":76561199127359587,"connected_time":712000000000,"state":"active","ping":99},{"user_id":748,"name":"rummy","steam_id":76561197997573379,"connected_time":438000000000,"state":"active","ping":45},{"user_id":733,"name":"manKe","steam_id":76561198008564860,"connected_time":1170000000000,"state":"active","ping":53},{"user_id":718,"name":"c2b","steam_id":76561197998883653,"connected_time":1928000000000,"state":"active","ping":70},{"user_id":735,"name":"jt7","steam_id":76561198073655162,"connected_time":1064000000000,"state":"active","ping":83},{"user_id":700,"name":"Hotgamerdad","steam_id":76561198085940613,"connected_time":3474000000000,"state":"active","ping":64},{"user_id":729,"name":"Lessoz","steam_id":76561199211572036,"connected_time":1308000000000,"state":"active","ping":87},{"user_id":685,"name":"Neo Testament","steam_id":76561199049633351,"connected_time":4411000000000,"state":"active","ping":79},{"user_id":701,"name":"The Bean Man","steam_id":76561198046932811,"connected_time":3472000000000,"state":"active","ping":58},{"user_id":730,"name":"Alegz","steam_id":76561198287810139,"connected_time":1301000000000,"state":"active","ping":85},{"user_id":753,"name":"Bentley","steam_id":76561197978252169,"connected_time":267000000000,"state":"active","ping":61},{"user_id":443,"name":"Brass beast heavy","steam_id":76561198274197623,"connected_time":22118000000000,"state":"active","ping":60},{"user_id":749,"name":"let me cook","steam_id":76561198010380786,"connected_time":429000000000,"state":"active","ping":45},{"user_id":539,"name":"FELHEEE","steam_id":76561197987151150,"connected_time":15350000000000,"state":"active","ping":83},{"user_id":715,"name":"DooWooD","steam_id":76561198335810106,"connected_time":2307000000000,"state":"active","ping":74},{"user_id":750,"name":"★ sat1ra","steam_id":76561198011382701,"connected_time":428000000000,"state":"active","ping":83},{"user_id":734,"name":"triangle","steam_id":76561198046838168,"connected_time":1140000000000,"state":"active","ping":60},{"user_id":736,"name":"The Proclaimers","steam_id":76561198934886665,"connected_time":808000000000,"state":"active","ping":91},{"user_id":751,"name":"0xdeadbeef | riegls","steam_id":76561198845572553,"connected_time":427000000000,"state":"active","ping":101},{"user_id":704,"name":"joe","steam_id":76561198026484403,"connected_time":3405000000000,"state":"active","ping":59},{"user_id":731,"name":"DREADNAWGHT","steam_id":76561198000973506,"connected_time":1265000000000,"state":"active","ping":68},{"user_id":743,"name":"Qosmo","steam_id":76561197980806182,"connected_time":519000000000,"state":"active","ping":71}]},{"server_id":21,"name":"Uncletopia | London | 5 | All Maps","name_short":"lon-5","host":"lon-1.uk.uncletopia.com","port":27055,"enabled":true,"region":"eu","cc":"gb","latitude":51.509865,"longitude":-0.118092,"reserved":0,"last_update":"0001-01-01T00:00:00Z","name_a2s":"Uncletopia | London | 5 | All Maps","protocol":17,"map":"cp_snakewater_final1","folder":"tf","game":"Team Fortress","app_id":440,"player_count":0,"max_players":24,"Bots":0,"server_type":"Dedicated","server_os":"Linux","password":true,"vac":true,"version":"7757534","steam_id":85568392924742829,"keywords":["cp","nocrits","nodmgspread","uncletopia"],"game_id":440,"stv_port":27056,"stv_name":"Uncletopia | London | 5 | All Maps | STV","players":null},{"server_id":22,"name":"Uncletopia | London | 6 | All Maps","name_short":"lon-6","host":"lon-1.uk.uncletopia.com","port":27065,"enabled":true,"region":"eu","cc":"gb","latitude":51.509865,"longitude":-0.118092,"reserved":0,"last_update":"0001-01-01T00:00:00Z","name_a2s":"Uncletopia | London | 6 | All Maps","protocol":17,"map":"cp_process_final","folder":"tf","game":"Team Fortress","app_id":440,"player_count":24,"max_players":24,"Bots":0,"server_type":"Dedicated","server_os":"Linux","password":true,"vac":true,"version":"7757534","steam_id":85568392924742830,"keywords":["cp","nocrits","nodmgspread","uncletopia"],"game_id":440,"stv_port":27066,"stv_name":"Uncletopia | London | 6 | All Maps | STV","players":[{"user_id":128,"name":"8 Ball","steam_id":76561197960988736,"connected_time":1147000000000,"state":"active","ping":45},{"user_id":77,"name":"AFerociousTeddyBearSlayer","steam_id":76561198247447256,"connected_time":4149000000000,"state":"active","ping":49},{"user_id":100,"name":"Crimea a bridge","steam_id":76561198030898371,"connected_time":2775000000000,"state":"active","ping":93},{"user_id":102,"name":"shadowhunter","steam_id":76561198247456394,"connected_time":2696000000000,"state":"active","ping":44},{"user_id":95,"name":"TMC","steam_id":76561198077956157,"connected_time":3211000000000,"state":"active","ping":38},{"user_id":137,"name":"Hu Yuu Hai Ding","steam_id":76561198254210743,"connected_time":115000000000,"state":"active","ping":50},{"user_id":120,"name":"R A S M U S","steam_id":76561198279799226,"connected_time":1474000000000,"state":"active","ping":80},{"user_id":134,"name":"Soly","steam_id":76561199031605745,"connected_time":538000000000,"state":"active","ping":55},{"user_id":127,"name":"Baguette","steam_id":76561199069435825,"connected_time":1344000000000,"state":"active","ping":46},{"user_id":111,"name":"BSantos57","steam_id":76561198000597094,"connected_time":2506000000000,"state":"active","ping":89},{"user_id":136,"name":"sleepyskull","steam_id":76561198269491159,"connected_time":412000000000,"state":"active","ping":51},{"user_id":56,"name":"KillerQueen (he/they/she)","steam_id":76561199019399725,"connected_time":4838000000000,"state":"active","ping":48},{"user_id":121,"name":"Pingutaro","steam_id":76561198112803718,"connected_time":1441000000000,"state":"active","ping":58},{"user_id":122,"name":"coreymccraw2410","steam_id":76561198142901091,"connected_time":1438000000000,"state":"active","ping":65},{"user_id":132,"name":"Rek-9","steam_id":76561198070344910,"connected_time":843000000000,"state":"active","ping":53},{"user_id":62,"name":"d u k k i","steam_id":76561198071807437,"connected_time":4666000000000,"state":"active","ping":90},{"user_id":115,"name":"Mr.Man","steam_id":76561199175688390,"connected_time":2073000000000,"state":"active","ping":89},{"user_id":85,"name":"Blade the vampire (bisexual)","steam_id":76561198074097655,"connected_time":3981000000000,"state":"active","ping":36},{"user_id":135,"name":"Pancakes","steam_id":76561198196259989,"connected_time":444000000000,"state":"active","ping":50},{"user_id":66,"name":"s a i","steam_id":76561197970379754,"connected_time":4629000000000,"state":"active","ping":66},{"user_id":86,"name":"JoelTheMoel","steam_id":76561198326357465,"connected_time":3975000000000,"state":"active","ping":55},{"user_id":124,"name":"Luuk","steam_id":76561198088266026,"connected_time":1428000000000,"state":"active","ping":33},{"user_id":123,"name":"Explosive_kink","steam_id":76561198998702838,"connected_time":1431000000000,"state":"active","ping":55},{"user_id":133,"name":"Leonor Bolek","steam_id":76561198295052334,"connected_time":679000000000,"state":"active","ping":83}]},{"server_id":40,"name":"Uncletopia | London | 7 | No Payload","name_short":"lon-7","host":"lon-1.uk.uncletopia.com","port":27075,"enabled":true,"region":"eu","cc":"gb","latitude":51.509865,"longitude":-0.118092,"reserved":0,"last_update":"0001-01-01T00:00:00Z","name_a2s":"Uncletopia | London | 7 | No Payload","protocol":17,"map":"cp_granary","folder":"tf","game":"Team Fortress","app_id":440,"player_count":0,"max_players":24,"Bots":0,"server_type":"Dedicated","server_os":"Linux","password":true,"vac":true,"version":"7757534","steam_id":85568392924964314,"keywords":["cp","nocrits","nodmgspread","uncletopia"],"game_id":440,"stv_port":27076,"stv_name":"Uncletopia | London | 7 | No Payload | STV","players":null},{"server_id":41,"name":"Uncletopia | London | 8 | Community","name_short":"lon-8","host":"lon-1.uk.uncletopia.com","port":27085,"enabled":true,"region":"eu","cc":"gb","latitude":51.509865,"longitude":-0.118092,"reserved":0,"last_update":"0001-01-01T00:00:00Z","name_a2s":"Uncletopia | London | 8 | Community","protocol":17,"map":"workshop/koth_synthetic_rc6a.ugc1549817316","folder":"tf","game":"Team Fortress","app_id":440,"player_count":0,"max_players":24,"Bots":0,"server_type":"Dedicated","server_os":"Linux","password":true,"vac":true,"version":"7757534","steam_id":85568392924964315,"keywords":["cp","nocrits","nodmgspread","uncletopia"],"game_id":440,"stv_port":27086,"stv_name":"Uncletopia | London | 8 | Community | STV","players":null},{"server_id":300,"name":"Uncletopia | Montréal | 1 | All Maps","name_short":"mtl-1","host":"mtl-1.ca.uncletopia.com","port":27015,"enabled":true,"region":"us-east","cc":"ca","latitude":45.50889,"longitude":-73.56167,"reserved":0,"last_update":"0001-01-01T00:00:00Z","name_a2s":"Uncletopia | Montréal | 1 | All Maps","protocol":17,"map":"koth_cascade","folder":"tf","game":"Team Fortress","app_id":440,"player_count":0,"max_players":24,"Bots":0,"server_type":"Dedicated","server_os":"Linux","password":true,"vac":true,"version":"7757534","steam_id":85568392924500087,"keywords":["cp","nocrits","nodmgspread","uncletopia"],"game_id":440,"stv_port":27016,"stv_name":"Uncletopia | Montréal | 1 | All Maps | STV","players":null},{"server_id":301,"name":"Uncletopia | Montréal | 2 | All Maps","name_short":"mtl-2","host":"mtl-1.ca.uncletopia.com","port":27025,"enabled":true,"region":"us-east","cc":"ca","latitude":45.50889,"longitude":-73.56167,"reserved":0,"last_update":"0001-01-01T00:00:00Z","name_a2s":"Uncletopia | Montréal | 2 | All Maps","protocol":17,"map":"pl_borneo","folder":"tf","game":"Team Fortress","app_id":440,"player_count":0,"max_players":24,"Bots":0,"server_type":"Dedicated","server_os":"Linux","password":true,"vac":true,"version":"7757534","steam_id":85568392924500088,"keywords":["nocrits","nodmgspread","payload","uncletopia"],"game_id":440,"stv_port":27026,"stv_name":"Uncletopia | Montréal | 2 | All Maps | STV","players":null},{"server_id":302,"name":"Uncletopia | Montréal | 3 | All Maps","name_short":"mtl-3","host":"mtl-1.ca.uncletopia.com","port":27035,"enabled":true,"region":"us-east","cc":"ca","latitude":45.50889,"longitude":-73.56167,"reserved":0,"last_update":"0001-01-01T00:00:00Z","name_a2s":"Uncletopia | Montréal | 3 | All Maps","protocol":17,"map":"koth_viaduct","folder":"tf","game":"Team Fortress","app_id":440,"player_count":0,"max_players":24,"Bots":0,"server_type":"Dedicated","server_os":"Linux","password":true,"vac":true,"version":"7757534","steam_id":85568392924500089,"keywords":["cp","nocrits","nodmgspread","uncletopia"],"game_id":440,"stv_port":27036,"stv_name":"Uncletopia | Montréal | 3 | All Maps | STV","players":null},{"server_id":303,"name":"Uncletopia | Montréal | 4 | No Payload","name_short":"mtl-4","host":"mtl-1.ca.uncletopia.com","port":27045,"enabled":true,"region":"us-east","cc":"ca","latitude":45.50889,"longitude":-73.56167,"reserved":0,"last_update":"0001-01-01T00:00:00Z","name_a2s":"Uncletopia | Montréal | 4 | No Payload","protocol":17,"map":"koth_lakeside_final","folder":"tf","game":"Team Fortress","app_id":440,"player_count":0,"max_players":24,"Bots":0,"server_type":"Dedicated","server_os":"Linux","password":true,"vac":true,"version":"7757534","steam_id":85568392924500090,"keywords":["cp","nocrits","nodmgspread","uncletopia"],"game_id":440,"stv_port":27046,"stv_name":"Uncletopia | Montréal | 4 | No Payload | STV","players":null},{"server_id":13,"name":"Uncletopia | New York City | 1 | All Maps","name_short":"nyc-1","host":"nyc-1.us.uncletopia.com","port":27015,"enabled":true,"region":"us-east","cc":"us","latitude":40.73061,"longitude":-73.93524,"reserved":0,"last_update":"0001-01-01T00:00:00Z","name_a2s":"Uncletopia | New York City | 1 | All Maps","protocol":17,"map":"koth_harvest_final","folder":"tf","game":"Team Fortress","app_id":440,"player_count":19,"max_players":24,"Bots":0,"server_type":"Dedicated","server_os":"Linux","password":true,"vac":true,"version":"7757534","steam_id":85568392924469993,"keywords":["cp","nocrits","nodmgspread","uncletopia"],"game_id":440,"stv_port":27016,"stv_name":"Uncletopia | New York City | 1 | All Maps | STV","players":[{"user_id":277,"name":"EmeraldCola","steam_id":76561198066663687,"connected_time":1317000000000,"state":"spawning","ping":67},{"user_id":293,"name":"Minjisku","steam_id":76561198019534474,"connected_time":49000000000,"state":"spawning","ping":59},{"user_id":278,"name":"Nolan (Femboy)","steam_id":76561198082534795,"connected_time":1315000000000,"state":"active","ping":167},{"user_id":286,"name":"Congcrab","steam_id":76561198078687685,"connected_time":388000000000,"state":"spawning","ping":92},{"user_id":287,"name":"GiraffeMan","steam_id":76561198042104084,"connected_time":387000000000,"state":"active","ping":108},{"user_id":295,"name":"A Puppy","steam_id":76561198828184456,"connected_time":32000000000,"state":"active","ping":90},{"user_id":289,"name":"trippingbull419","steam_id":76561199111639935,"connected_time":323000000000,"state":"active","ping":114},{"user_id":279,"name":"Toygar","steam_id":76561198023679830,"connected_time":1030000000000,"state":"active","ping":186},{"user_id":275,"name":"fast, speed even","steam_id":76561198311704368,"connected_time":1562000000000,"state":"spawning","ping":38},{"user_id":284,"name":"Kritzburgh","steam_id":76561198149466938,"connected_time":509000000000,"state":"spawning","ping":48},{"user_id":282,"name":"silly guy","steam_id":76561198159339442,"connected_time":551000000000,"state":"spawning","ping":301},{"user_id":251,"name":"Ironfyn","steam_id":76561198256850182,"connected_time":2757000000000,"state":"spawning","ping":53},{"user_id":288,"name":"JimmySquid","steam_id":76561198254242530,"connected_time":359000000000,"state":"spawning","ping":72},{"user_id":291,"name":"The Horselords and Animal Gods","steam_id":76561197975094050,"connected_time":303000000000,"state":"active","ping":169},{"user_id":256,"name":"ndvr","steam_id":76561199379200102,"connected_time":2710000000000,"state":"active","ping":44},{"user_id":217,"name":"Seru","steam_id":76561199219827214,"connected_time":5015000000000,"state":"active","ping":141},{"user_id":260,"name":"vintage","steam_id":76561198253382579,"connected_time":2643000000000,"state":"spawning","ping":204},{"user_id":225,"name":"mcslam","steam_id":76561198056261882,"connected_time":4546000000000,"state":"spawning","ping":40},{"user_id":294,"name":"bobdragon27","steam_id":76561198065833387,"connected_time":48000000000,"state":"active","ping":65}]},{"server_id":14,"name":"Uncletopia | New York City | 2 | All Maps","name_short":"nyc-2","host":"nyc-1.us.uncletopia.com","port":27025,"enabled":true,"region":"us-east","cc":"us","latitude":40.73061,"longitude":-73.93524,"reserved":0,"last_update":"0001-01-01T00:00:00Z","name_a2s":"Uncletopia | New York City | 2 | All Maps","protocol":17,"map":"cp_process_final","folder":"tf","game":"Team Fortress","app_id":440,"player_count":0,"max_players":24,"Bots":0,"server_type":"Dedicated","server_os":"Linux","password":true,"vac":true,"version":"7757534","steam_id":85568392924469994,"keywords":["cp","nocrits","nodmgspread","uncletopia"],"game_id":440,"stv_port":27026,"stv_name":"Uncletopia | New York City | 2 | All Maps | STV","players":null},{"server_id":15,"name":"Uncletopia | New York City | 3 | Stopwatch Beta","name_short":"nyc-3","host":"nyc-1.us.uncletopia.com","port":27035,"enabled":true,"region":"us-east","cc":"us","latitude":40.73061,"longitude":-73.93524,"reserved":0,"last_update":"0001-01-01T00:00:00Z","name_a2s":"Uncletopia | New York City | 3 | Stopwatch Beta","protocol":17,"map":"koth_lakeside_final","folder":"tf","game":"Team Fortress","app_id":440,"player_count":0,"max_players":24,"Bots":0,"server_type":"Dedicated","server_os":"Linux","password":true,"vac":true,"version":"7757534","steam_id":85568392924742820,"keywords":["cp","nocrits","nodmgspread","uncletopia"],"game_id":440,"stv_port":27036,"stv_name":"Uncletopia | New York City | 3 | Stopwatch Beta | STV","players":null},{"server_id":16,"name":"Uncletopia | New York City | 4 | Community","name_short":"nyc-4","host":"nyc-1.us.uncletopia.com","port":27045,"enabled":true,"region":"us-east","cc":"us","latitude":40.73061,"longitude":-73.93524,"reserved":0,"last_update":"0001-01-01T00:00:00Z","name_a2s":"Uncletopia | New York City | 4 | Community","protocol":17,"map":"workshop/pl_vigil_rc9.ugc1266210012","folder":"tf","game":"Team Fortress","app_id":440,"player_count":0,"max_players":24,"Bots":0,"server_type":"Dedicated","server_os":"Linux","password":true,"vac":true,"version":"7757534","steam_id":85568392924742821,"keywords":["nocrits","nodmgspread","payload","uncletopia"],"game_id":440,"stv_port":27046,"stv_name":"Uncletopia | New York City | 4 | Community | STV","players":null},{"server_id":142,"name":"Uncletopia | São Paulo | 1 | All Maps","name_short":"sao-1","host":"sao-1.br.uncletopia.com","port":27015,"enabled":true,"region":"sa","cc":"br","latitude":-23.533773,"longitude":-46.62529,"reserved":0,"last_update":"0001-01-01T00:00:00Z","name_a2s":"Uncletopia | São Paulo | 1 | All Maps","protocol":17,"map":"cp_altitude","folder":"tf","game":"Team Fortress","app_id":440,"player_count":0,"max_players":24,"Bots":0,"server_type":"Dedicated","server_os":"Linux","password":true,"vac":true,"version":"7757534","steam_id":85568392924469996,"keywords":["cp","nocrits","nodmgspread","uncletopia"],"game_id":440,"stv_port":27016,"stv_name":"Uncletopia | São Paulo | 1 | All Maps | STV","players":null},{"server_id":143,"name":"Uncletopia | São Paulo | 2 | All Maps","name_short":"sao-2","host":"sao-2.br.uncletopia.com","port":27015,"enabled":true,"region":"sa","cc":"br","latitude":-23.533773,"longitude":-46.62529,"reserved":0,"last_update":"0001-01-01T00:00:00Z","name_a2s":"Uncletopia | São Paulo | 2 | All Maps","protocol":17,"map":"pl_upward","folder":"tf","game":"Team Fortress","app_id":440,"player_count":0,"max_players":24,"Bots":0,"server_type":"Dedicated","server_os":"Linux","password":true,"vac":true,"version":"7757534","steam_id":85568392924485349,"keywords":["nocrits","nodmgspread","payload","uncletopia"],"game_id":440,"stv_port":27016,"stv_name":"Uncletopia | São Paulo | 2 | All Maps | STV","players":null},{"server_id":7,"name":"Uncletopia | Seattle | 1 | All Maps","name_short":"sea-1","host":"sea-1.us.uncletopia.com","port":27015,"enabled":true,"region":"us-west","cc":"us","latitude":47.608013,"longitude":-122.33517,"reserved":0,"last_update":"0001-01-01T00:00:00Z","name_a2s":"Uncletopia | Seattle | 1 | All Maps","protocol":17,"map":"pl_badwater","folder":"tf","game":"Team Fortress","app_id":440,"player_count":24,"max_players":24,"Bots":0,"server_type":"Dedicated","server_os":"Linux","password":true,"vac":true,"version":"7757534","steam_id":85568392924469997,"keywords":["nocrits","nodmgspread","payload","uncletopia"],"game_id":440,"stv_port":27016,"stv_name":"Uncletopia | Seattle | 1 | All Maps | STV","players":[{"user_id":317,"name":"AAAAAAAAAAAAAAAAAAAAAAAAAAAAAAA","steam_id":76561198817866879,"connected_time":3231000000000,"state":"active","ping":139},{"user_id":294,"name":"BangusHonkle","steam_id":76561198218887511,"connected_time":4824000000000,"state":"active","ping":139},{"user_id":332,"name":"[TrC] Dackstrus","steam_id":76561197973518509,"connected_time":1424000000000,"state":"active","ping":56},{"user_id":340,"name":"T","steam_id":76561198065709361,"connected_time":509000000000,"state":"active","ping":55},{"user_id":318,"name":"A Man Named Pancho","steam_id":76561197984895522,"connected_time":3053000000000,"state":"active","ping":68},{"user_id":330,"name":"Bonk my Balls","steam_id":76561198070154445,"connected_time":1929000000000,"state":"active","ping":131},{"user_id":311,"name":"yup","steam_id":76561199190800520,"connected_time":3679000000000,"state":"active","ping":41},{"user_id":305,"name":"Classic Muzz","steam_id":76561198835514043,"connected_time":4608000000000,"state":"active","ping":79},{"user_id":322,"name":"Jon Snuh","steam_id":76561198075298635,"connected_time":2485000000000,"state":"active","ping":109},{"user_id":339,"name":"pelt","steam_id":76561197993593754,"connected_time":1252000000000,"state":"active","ping":97},{"user_id":320,"name":"bronk","steam_id":76561198181109553,"connected_time":2743000000000,"state":"active","ping":75},{"user_id":342,"name":"LordMorphesus","steam_id":76561198026995104,"connected_time":424000000000,"state":"active","ping":52},{"user_id":263,"name":"TheMagicMrWaffle","steam_id":76561198104357256,"connected_time":8025000000000,"state":"active","ping":74},{"user_id":336,"name":"Blink","steam_id":76561197996051178,"connected_time":1354000000000,"state":"active","ping":54},{"user_id":298,"name":"Cob","steam_id":76561198042518365,"connected_time":4714000000000,"state":"active","ping":62},{"user_id":299,"name":"hart","steam_id":76561198046073848,"connected_time":4710000000000,"state":"active","ping":49},{"user_id":345,"name":"Naeole1","steam_id":76561198240378926,"connected_time":129000000000,"state":"active","ping":121},{"user_id":331,"name":"Igrium","steam_id":76561198119549811,"connected_time":1651000000000,"state":"active","ping":72},{"user_id":46,"name":"THE NUT","steam_id":76561198067813626,"connected_time":24233000000000,"state":"active","ping":50},{"user_id":282,"name":"Deku Scrublord","steam_id":76561198036602402,"connected_time":5475000000000,"state":"active","ping":103},{"user_id":344,"name":"Alice Hiiragi","steam_id":76561198094078478,"connected_time":324000000000,"state":"active","ping":83},{"user_id":341,"name":"Danny Fentanyl","steam_id":76561197970791798,"connected_time":488000000000,"state":"active","ping":43},{"user_id":337,"name":"Psychic","steam_id":76561198086675590,"connected_time":1352000000000,"state":"active","ping":84},{"user_id":304,"name":"pipe","steam_id":76561198115269587,"connected_time":4638000000000,"state":"active","ping":115}]},{"server_id":119,"name":"Uncletopia | Seattle | 2 | All Maps","name_short":"sea-2","host":"sea-1.us.uncletopia.com","port":27025,"enabled":true,"region":"us-west","cc":"us","latitude":47.608013,"longitude":-122.33517,"reserved":0,"last_update":"0001-01-01T00:00:00Z","name_a2s":"Uncletopia | Seattle | 2 | All Maps","protocol":17,"map":"pl_swiftwater_final1","folder":"tf","game":"Team Fortress","app_id":440,"player_count":0,"max_players":24,"Bots":0,"server_type":"Dedicated","server_os":"Linux","password":true,"vac":true,"version":"7757534","steam_id":85568392924469998,"keywords":["nocrits","nodmgspread","payload","uncletopia"],"game_id":440,"stv_port":27026,"stv_name":"Uncletopia | Seattle | 2 | All Maps | STV","players":null},{"server_id":406,"name":"Uncletopia | Seattle | 3 | Stopwatch Beta","name_short":"sea-3","host":"sea-1.us.uncletopia.com","port":27035,"enabled":true,"region":"us-west","cc":"us","latitude":47.608013,"longitude":-122.33517,"reserved":0,"last_update":"0001-01-01T00:00:00Z","name_a2s":"Uncletopia | Seattle | 3 | Stopwatch Beta","protocol":17,"map":"workshop/pl_summercoast_rc8e.ugc1761528829","folder":"tf","game":"Team Fortress","app_id":440,"player_count":0,"max_players":24,"Bots":0,"server_type":"Dedicated","server_os":"Linux","password":true,"vac":true,"version":"7757534","steam_id":85568392924515217,"keywords":["nocrits","nodmgspread","payload","uncletopia"],"game_id":440,"stv_port":27036,"stv_name":"Uncletopia | Seattle | 3 | Stopwatch Beta | STV","players":null},{"server_id":17,"name":"Uncletopia | San Francisco | 1 | All Maps","name_short":"sfo-1","host":"sfo-1.us.uncletopia.com","port":27015,"enabled":true,"region":"us-west","cc":"us","latitude":37.77397,"longitude":-122.4313,"reserved":0,"last_update":"0001-01-01T00:00:00Z","name_a2s":"Uncletopia | San Francisco | 1 | All Maps","protocol":17,"map":"pl_pier","folder":"tf","game":"Team Fortress","app_id":440,"player_count":0,"max_players":24,"Bots":0,"server_type":"Dedicated","server_os":"Linux","password":true,"vac":true,"version":"7757534","steam_id":85568392924469999,"keywords":["nocrits","nodmgspread","payload","uncletopia"],"game_id":440,"stv_port":27016,"stv_name":"Uncletopia | San Francisco | 1 | All Maps | STV","players":null},{"server_id":18,"name":"Uncletopia | San Francisco | 2 | All Maps","name_short":"sfo-2","host":"sfo-1.us.uncletopia.com","port":27025,"enabled":true,"region":"us-west","cc":"us","latitude":37.77397,"longitude":-122.4313,"reserved":0,"last_update":"0001-01-01T00:00:00Z","name_a2s":"Uncletopia | San Francisco | 2 | All Maps","protocol":17,"map":"cp_mountainlab","folder":"tf","game":"Team Fortress","app_id":440,"player_count":0,"max_players":24,"Bots":0,"server_type":"Dedicated","server_os":"Linux","password":true,"vac":true,"version":"7757534","steam_id":85568392924470000,"keywords":["cp","nocrits","nodmgspread","uncletopia"],"game_id":440,"stv_port":27026,"stv_name":"Uncletopia | San Francisco | 2 | All Maps | STV","players":null},{"server_id":19,"name":"Uncletopia | San Francisco | 3 | Stopwatch Beta","name_short":"sfo-3","host":"sfo-1.us.uncletopia.com","port":27035,"enabled":true,"region":"us-west","cc":"us","latitude":37.77397,"longitude":-122.4313,"reserved":0,"last_update":"0001-01-01T00:00:00Z","name_a2s":"Uncletopia | San Francisco | 3 | Stopwatch Beta","protocol":17,"map":"koth_viaduct","folder":"tf","game":"Team Fortress","app_id":440,"player_count":0,"max_players":24,"Bots":0,"server_type":"Dedicated","server_os":"Linux","password":true,"vac":true,"version":"7757534","steam_id":85568392924742824,"keywords":["cp","nocrits","nodmgspread","uncletopia"],"game_id":440,"stv_port":27036,"stv_name":"Uncletopia | San Francisco | 3 | Stopwatch Beta | STV","players":null},{"server_id":20,"name":"Uncletopia | San Francisco | 4 | Community","name_short":"sfo-4","host":"sfo-1.us.uncletopia.com","port":27045,"enabled":true,"region":"us-west","cc":"us","latitude":37.77397,"longitude":-122.4313,"reserved":0,"last_update":"0001-01-01T00:00:00Z","name_a2s":"Uncletopia | San Francisco | 4 | Community","protocol":17,"map":"pl_borneo","folder":"tf","game":"Team Fortress","app_id":440,"player_count":0,"max_players":24,"Bots":0,"server_type":"Dedicated","server_os":"Linux","password":true,"vac":true,"version":"7757534","steam_id":85568392924742826,"keywords":["nocrits","nodmgspread","payload","uncletopia"],"game_id":440,"stv_port":27046,"stv_name":"Uncletopia | San Francisco | 4 | Community | STV","players":null},{"server_id":141,"name":"Uncletopia | Sydney | 1 | All Maps","name_short":"syd-1","host":"syd-1.au.uncletopia.com","port":27015,"enabled":true,"region":"au","cc":"au","latitude":-33.865143,"longitude":151.2099,"reserved":0,"last_update":"0001-01-01T00:00:00Z","name_a2s":"Uncletopia | Sydney | 1 | All Maps","protocol":17,"map":"koth_lakeside_final","folder":"tf","game":"Team Fortress","app_id":440,"player_count":0,"max_players":24,"Bots":0,"server_type":"Dedicated","server_os":"Linux","password":true,"vac":true,"version":"7757534","steam_id":85568392924470001,"keywords":["cp","nocrits","nodmgspread","uncletopia"],"game_id":440,"stv_port":27016,"stv_name":"Uncletopia | Sydney | 1 | All Maps | STV","players":null},{"server_id":123,"name":"Uncletopia | Sydney | 2 | All Maps","name_short":"syd-2","host":"syd-1.au.uncletopia.com","port":27025,"enabled":true,"region":"au","cc":"au","latitude":-33.865143,"longitude":151.2099,"reserved":0,"last_update":"0001-01-01T00:00:00Z","name_a2s":"Uncletopia | Sydney | 2 | All Maps","protocol":17,"map":"koth_viaduct","folder":"tf","game":"Team Fortress","app_id":440,"player_count":0,"max_players":24,"Bots":0,"server_type":"Dedicated","server_os":"Linux","password":true,"vac":true,"version":"7757534","steam_id":85568392924470002,"keywords":["cp","nocrits","nodmgspread","uncletopia"],"game_id":440,"stv_port":27026,"stv_name":"Uncletopia | Sydney | 2 | All Maps | STV","players":null},{"server_id":395,"name":"Uncletopia | Sydney | 3 | All Maps","name_short":"syd-3","host":"syd-1.au.uncletopia.com","port":27035,"enabled":true,"region":"au","cc":"au","latitude":-33.865143,"longitude":151.2099,"reserved":0,"last_update":"0001-01-01T00:00:00Z","name_a2s":"Uncletopia | Sydney | 3 | All Maps","protocol":17,"map":"koth_viaduct","folder":"tf","game":"Team Fortress","app_id":440,"player_count":0,"max_players":24,"Bots":0,"server_type":"Dedicated","server_os":"Linux","password":true,"vac":true,"version":"7757534","steam_id":85568392925194467,"keywords":["cp","nocrits","nodmgspread","uncletopia"],"game_id":440,"stv_port":27036,"stv_name":"Uncletopia | Sydney | 3 | All Maps | STV","players":null},{"server_id":396,"name":"Uncletopia | Sydney | 4 | All Maps","name_short":"syd-4","host":"syd-1.au.uncletopia.com","port":27045,"enabled":true,"region":"au","cc":"au","latitude":-33.865143,"longitude":151.2099,"reserved":0,"last_update":"0001-01-01T00:00:00Z","name_a2s":"Uncletopia | Sydney | 4 | All Maps","protocol":17,"map":"koth_lakeside_final","folder":"tf","game":"Team Fortress","app_id":440,"player_count":0,"max_players":24,"Bots":0,"server_type":"Dedicated","server_os":"Linux","password":true,"vac":true,"version":"7757534","steam_id":85568392925397958,"keywords":["cp","nocrits","nodmgspread","uncletopia"],"game_id":440,"stv_port":27046,"stv_name":"Uncletopia | Sydney | 4 | All Maps | STV","players":null},{"server_id":58,"name":"Uncletopia | Sydney | 5 | Stopwatch Beta","name_short":"syd-5","host":"syd-1.au.uncletopia.com","port":27055,"enabled":true,"region":"au","cc":"au","latitude":-33.865143,"longitude":151.2099,"reserved":0,"last_update":"0001-01-01T00:00:00Z","name_a2s":"Uncletopia | Sydney | 5 | Stopwatch Beta","protocol":17,"map":"pl_barnblitz","folder":"tf","game":"Team Fortress","app_id":440,"player_count":0,"max_players":24,"Bots":0,"server_type":"Dedicated","server_os":"Linux","password":true,"vac":true,"version":"7757534","steam_id":85568392925397959,"keywords":["nocrits","nodmgspread","payload","uncletopia"],"game_id":440,"stv_port":27056,"stv_name":"Uncletopia | Sydney | 5 | Stopwatch Beta | STV","players":null},{"server_id":59,"name":"Uncletopia | Sydney | 6 | Community","name_short":"syd-6","host":"syd-1.au.uncletopia.com","port":27065,"enabled":true,"region":"au","cc":"au","latitude":-33.865143,"longitude":151.2099,"reserved":0,"last_update":"0001-01-01T00:00:00Z","name_a2s":"Uncletopia | Sydney | 6 | Community","protocol":17,"map":"cp_mountainlab","folder":"tf","game":"Team Fortress","app_id":440,"player_count":0,"max_players":24,"Bots":0,"server_type":"Dedicated","server_os":"Linux","password":true,"vac":true,"version":"7757534","steam_id":85568392925397960,"keywords":["cp","nocrits","nodmgspread","uncletopia"],"game_id":440,"stv_port":27066,"stv_name":"Uncletopia | Sydney | 6 | Community | STV","players":null},{"server_id":49,"name":"Uncletopia | Warsaw | 1 | All Maps","name_short":"waw-1","host":"waw-1.pl.uncletopia.com","port":27015,"enabled":true,"region":"eu","cc":"pl","latitude":52.2297,"longitude":21.017532,"reserved":0,"last_update":"0001-01-01T00:00:00Z","name_a2s":"","protocol":0,"map":"","folder":"","game":"","app_id":0,"player_count":0,"max_players":0,"Bots":0,"server_type":"","server_os":"","password":false,"vac":false,"version":"","steam_id":0,"keywords":null,"game_id":0,"stv_port":0,"stv_name":"","players":null},{"server_id":50,"name":"Uncletopia | Warsaw | 2 | All Maps","name_short":"waw-2","host":"waw-1.pl.uncletopia.com","port":27025,"enabled":true,"region":"eu","cc":"pl","latitude":52.2297,"longitude":21.017532,"reserved":0,"last_update":"0001-01-01T00:00:00Z","name_a2s":"Uncletopia | Warsaw | 2 | All Maps","protocol":17,"map":"koth_highpass","folder":"tf","game":"Team Fortress","app_id":440,"player_count":0,"max_players":24,"Bots":0,"server_type":"Dedicated","server_os":"Linux","password":true,"vac":true,"version":"7757534","steam_id":85568392925397851,"keywords":["cp","nocrits","nodmgspread","uncletopia"],"game_id":440,"stv_port":27026,"stv_name":"Uncletopia | Warsaw | 2 | All Maps | STV","players":null},{"server_id":51,"name":"Uncletopia | Warsaw | 3 | All Maps","name_short":"waw-3","host":"waw-1.pl.uncletopia.com","port":27035,"enabled":true,"region":"eu","cc":"pl","latitude":52.2297,"longitude":21.017532,"reserved":0,"last_update":"0001-01-01T00:00:00Z","name_a2s":"Uncletopia | Warsaw | 3 | All Maps","protocol":17,"map":"cp_metalworks","folder":"tf","game":"Team Fortress","app_id":440,"player_count":10,"max_players":24,"Bots":0,"server_type":"Dedicated","server_os":"Linux","password":true,"vac":true,"version":"7757534","steam_id":85568392925397852,"keywords":["cp","nocrits","nodmgspread","uncletopia"],"game_id":440,"stv_port":27036,"stv_name":"Uncletopia | Warsaw | 3 | All Maps | STV","players":[{"user_id":455,"name":"Jim Milton","steam_id":76561198055788070,"connected_time":400000000000,"state":"active","ping":75},{"user_id":457,"name":"janelane2784","steam_id":76561199163835522,"connected_time":340000000000,"state":"active","ping":82},{"user_id":458,"name":"haze","steam_id":76561198107626214,"connected_time":309000000000,"state":"active","ping":97},{"user_id":418,"name":"Laxslow","steam_id":76561198065361846,"connected_time":3622000000000,"state":"active","ping":75},{"user_id":421,"name":"TrueDeadPool","steam_id":76561198060378867,"connected_time":3069000000000,"state":"active","ping":87},{"user_id":438,"name":"full power heart attack","steam_id":76561199196568965,"connected_time":1319000000000,"state":"active","ping":108},{"user_id":441,"name":"MR.BLOTTO","steam_id":76561198067920111,"connected_time":1170000000000,"state":"active","ping":60},{"user_id":444,"name":"the real lancer from deltarune","steam_id":76561199078505144,"connected_time":990000000000,"state":"active","ping":89},{"user_id":415,"name":"HakugemY","steam_id":76561198152132299,"connected_time":3914000000000,"state":"active","ping":92},{"user_id":416,"name":"NeoCrest","steam_id":76561198800175929,"connected_time":3889000000000,"state":"active","ping":77}]},{"server_id":52,"name":"Uncletopia | Warsaw | 4 | All Maps","name_short":"waw-4","host":"waw-1.pl.uncletopia.com","port":27045,"enabled":true,"region":"eu","cc":"pl","latitude":52.2297,"longitude":21.017532,"reserved":0,"last_update":"0001-01-01T00:00:00Z","name_a2s":"Uncletopia | Warsaw | 4 | All Maps","protocol":17,"map":"koth_lakeside_final","folder":"tf","game":"Team Fortress","app_id":440,"player_count":0,"max_players":24,"Bots":0,"server_type":"Dedicated","server_os":"Linux","password":true,"vac":true,"version":"7757534","steam_id":85568392925397853,"keywords":["cp","nocrits","nodmgspread","uncletopia"],"game_id":440,"stv_port":27046,"stv_name":"Uncletopia | Warsaw | 4 | All Maps | STV","players":null},{"server_id":53,"name":"Uncletopia | Warsaw | 5 | Stopwatch Beta","name_short":"waw-5","host":"waw-1.pl.uncletopia.com","port":27055,"enabled":true,"region":"eu","cc":"pl","latitude":52.2297,"longitude":21.017532,"reserved":0,"last_update":"0001-01-01T00:00:00Z","name_a2s":"Uncletopia | Warsaw | 5 | Stopwatch Beta","protocol":17,"map":"pl_upward","folder":"tf","game":"Team Fortress","app_id":440,"player_count":0,"max_players":24,"Bots":0,"server_type":"Dedicated","server_os":"Linux","password":true,"vac":true,"version":"7757534","steam_id":85568392925397854,"keywords":["nocrits","nodmgspread","payload","uncletopia"],"game_id":440,"stv_port":27056,"stv_name":"Uncletopia | Warsaw | 5 | Stopwatch Beta | STV","players":null},{"server_id":54,"name":"Uncletopia | Warsaw | 6 | Community","name_short":"waw-6","host":"waw-1.pl.uncletopia.com","port":27065,"enabled":true,"region":"eu","cc":"pl","latitude":52.2297,"longitude":21.017532,"reserved":0,"last_update":"0001-01-01T00:00:00Z","name_a2s":"Uncletopia | Warsaw | 6 | Community","protocol":17,"map":"workshop/cp_overgrown_rc7b.ugc503939302","folder":"tf","game":"Team Fortress","app_id":440,"player_count":0,"max_players":24,"Bots":0,"server_type":"Dedicated","server_os":"Linux","password":true,"vac":true,"version":"7757534","steam_id":85568392925397856,"keywords":["cp","nocrits","nodmgspread","uncletopia"],"game_id":440,"stv_port":27066,"stv_name":"Uncletopia | Warsaw | 6 | Community | STV","players":null}]}