{"status":true,"message":"","result":[{"server_id":9,"name":"Uncletopia | Atlanta | 1 | All Maps","name_short":"atl-1","host":"atl-1.us.uncletopia.com","port":27015,"enabled":true,"region":"us-east","cc":"us","latitude":33.753746,"longitude":-84.38633,"reserved":0,"last_update":"0001-01-01T00:00:00Z","name_a2s":"Uncletopia | Atlanta | 1 | All Maps","protocol":17,"map":"pl_badwater","folder":"tf","game":"Team Fortress","app_id":440,"player_count":24,"max_players":24,"Bots":0,"server_type":"Dedicated","server_os":"Linux","password":true,"vac":true,"version":"7757534","steam_id":85568392924469982,"keywords":["nocrits","nodmgspread","payload","uncletopia"],"game_id":440,"stv_port":27016,"stv_name":"Uncletopia | Atlanta | 1 | All Maps | STV","players":[{"user_id":299,"name":"Karma","steam_id":76561198030565234,"connected_time":24257000000000,"state":"active","ping":71},{"user_id":510,"name":"lost in the sauce","steam_id":76561199043827112,"connected_time":2957000000000,"state":"active","ping":81},{"user_id":550,"name":"RED1 | vid_","steam_id":76561198065159053,"connected_time":485000000000,"state":"active","ping":49},{"user_id":523,"name":"FairHeadcrab","steam_id":76561197999148535,"connected_time":2299000000000,"state":"active","ping":66},{"user_id":557,"name":"the meat man","steam_id":76561198037921140,"connected_time":65000000000,"state":"active","ping":95},{"user_id":484,"name":"BLU1 | cola","steam_id":76561198374390458,"connected_time":5049000000000,"state":"active","ping":59},{"user_id":549,"name":"pencilneck","steam_id":76561198865971290,"connected_time":998000000000,"state":"active","ping":99},{"user_id":544,"name":"50,372 european wheat farmers","steam_id":76561198297326065,"connected_time":1470000000000,"state":"active","ping":106},{"user_id":519,"name":"Frontier Psychiatrist","steam_id":76561198038689088,"connected_time":2680000000000,"state":"active","ping":90},{"user_id":513,"name":"WanderingGenji","steam_id":76561198965812987,"connected_time":2937000000000,"state":"active","ping":69},{"user_id":556,"name":"jim","steam_id":76561198069740698,"connected_time":356000000000,"state":"active","ping":72},{"user_id":536,"name":"melancholy","steam_id":76561198024301465,"connected_time":1643000000000,"state":"active","ping":49},{"user_id":534,"name":"ATLS1 | SparkStorm","steam_id":76561198095817025,"connected_time":1673000000000,"state":"active","ping":36},{"user_id":546,"name":"Al'","steam_id":76561198105420574,"connected_time":1351000000000,"state":"active","ping":73},{"user_id":482,"name":"jandajanda","steam_id":76561198235722476,"connected_time":5296000000000,"state":"active","ping":55},{"user_id":553,"name":"LOREMASTER","steam_id":76561197996733255,"connected_time":409000000000,"state":"active","ping":56},{"user_id":454,"name":"Mickey","steam_id":76561197976868960,"connected_time":7771000000000,"state":"active","ping":165},{"user_id":532,"name":"Mycelion","steam_id":76561198024999530,"connected_time":1684000000000,"state":"active","ping":83},{"user_id":476,"name":"SCATTER","steam_id":76561198405168492,"connected_time":6175000000000,"state":"active","ping":91},{"user_id":554,"name":"merge without looking","steam_id":76561198056702628,"connected_time":406000000000,"state":"active","ping":59},{"user_id":548,"name":"The Spy from TF2","steam_id":76561199121276474,"connected_time":1030000000000,"state":"active","ping":93},{"user_id":555,"name":"totally not a pile of beans","steam_id":76561198119851931,"connected_time":400000000000,"state":"active","ping":141},{"user_id":541,"name":"A Fruit","steam_id":76561198951830050,"connected_time":1568000000000,"state":"active","ping":60},{"user_id":527,"name":"Shocking, Isnt It","steam_id":76561198115074394,"connected_time":2073000000000,"state":"active","ping":68}]},{"server_id":400,"name":"Uncletopia | Atlanta | 3 | Stopwatch Beta","name_short":"atl-3","host":"atl-1.us.uncletopia.com","port":27035,"enabled":true,"region":"us-east","cc":"us","latitude":33.753746,"longitude":-84.38633,"reserved":0,"last_update":"0001-01-01T00:00:00Z","name_a2s":"Uncletopia | Atlanta | 3 | Stopwatch Beta","protocol":17,"map":"cp_process_final","folder":"tf","game":"Team Fortress","app_id":440,"player_count":3,"max_players":24,"Bots":0,"server_type":"Dedicated","server_os":"Linux","password":true,"vac":true,"version":"7757534","steam_id":85568392924515187,"keywords":["cp","nocrits","nodmgspread","uncletopia"],"game_id":440,"stv_port":27036,"stv_name":"Uncletopia | Atlanta | 3 | Stopwatch Beta | STV","players":[{"user_id":119,"name":"ansoonii","steam_id":76561198092494136,"connected_time":579000000000,"state":"active","ping":60},{"user_id":120,"name":"LilithKiwi","steam_id":76561198044680107,"connected_time":529000000000,"state":"active","ping":69},{"user_id":121,"name":"Tythrin","steam_id":76561198073174497,"connected_time":151000000000,"state":"active","ping":63}]},{"server_id":401,"name":"Uncletopia | Atlanta | 4 | No Payload","name_short":"atl-4","host":"atl-1.us.uncletopia.com","port":27045,"enabled":true,"region":"us-east","cc":"us","latitude":33.753746,"longitude":-84.38633,"reserved":0,"last_update":"0001-01-01T00:00:00Z","name_a2s":"Uncletopia | Atlanta | 4 | No Payload","protocol":17,"map":"pl_pier","folder":"tf","game":"Team Fortress","app_id":440,"player_count":0,"max_players":24,"Bots":0,"server_type":"Dedicated","server_os":"Linux","password":true,"vac":true,"version":"7723704","steam_id":85568392924515188,"keywords":["nocrits","nodmgspread","payload","uncletopia"],"game_id":440,"stv_port":27046,"stv_name":"Uncletopia | Atlanta | 4 | No Payload | STV","players":null},{"server_id":2,"name":"Uncletopia | Chicago | 1 | All Maps","name_short":"chi-1","host":"chi-1.us.uncletopia.com","port":27015,"enabled":true,"region":"us-central","cc":"us","latitude":41.881832,"longitude":-87.62318,"reserved":0,"last_update":"0001-01-01T00:00:00Z","name_a2s":"Uncletopia | Chicago | 1 | All Maps","protocol":17,"map":"pl_snowycoast","folder":"tf","game":"Team Fortress","app_id":440,"player_count":24,"max_players":24,"Bots":0,"server_type":"Dedicated","server_os":"Linux","password":true,"vac":true,"version":"7757534","steam_id":85568392924469984,"keywords":["nocrits","nodmgspread","payload","uncletopia"],"game_id":440,"stv_port":27016,"stv_name":"Uncletopia | Chicago | 1 | All Maps | STV","players":[{"user_id":900,"name":"white ray","steam_id":76561198026664629,"connected_time":201000000000,"state":"active","ping":53},{"user_id":853,"name":"Mixomin","steam_id":76561198295061570,"connected_time":4333000000000,"state":"active","ping":55},{"user_id":899,"name":"Irontothecore","steam_id":76561198387384844,"connected_time":251000000000,"state":"active","ping":60},{"user_id":901,"name":"SuperCeleste❤️Trans Rights","steam_id":76561198167207053,"connected_time":201000000000,"state":"active","ping":76},{"user_id":872,"name":"WAKEUP!","steam_id":76561198254479725,"connected_time":3279000000000,"state":"active","ping":45},{"user_id":895,"name":"dudedudealot","steam_id":76561198335601171,"connected_time":821000000000,"state":"active","ping":54},{"user_id":904,"name":"Dovid65","steam_id":76561199277530814,"connected_time":168000000000,"state":"active","ping":113},{"user_id":912,"name":"warrior","steam_id":76561198361999761,"connected_time":20000000000,"state":"spawning","ping":103},{"user_id":905,"name":"*****setget","steam_id":76561198118824188,"connected_time":167000000000,"state":"active","ping":116},{"user_id":896,"name":"Mr. Idiot Man","steam_id":76561197996697009,"connected_time":793000000000,"state":"active","ping":78},{"user_id":913,"name":"Coupon","steam_id":76561198111947598,"connected_time":15000000000,"state":"spawning","ping":86},{"user_id":874,"name":"blob","steam_id":76561198122375328,"connected_time":2988000000000,"state":"active","ping":65},{"user_id":888,"name":"Daksuki","steam_id":76561198084127751,"connected_time":1768000000000,"state":"active","ping":73},{"user_id":892,"name":"lil bro","steam_id":76561198031675881,"connected_time":1137000000000,"state":"active","ping":47},{"user_id":880,"name":"Poyo Boyo","steam_id":76561198010201227,"connected_time":2558000000000,"state":"active","ping":76},{"user_id":906,"name":"kritik","steam_id":76561198075216115,"connected_time":160000000000,"state":"active","ping":151},{"user_id":907,"name":"crs22","steam_id":76561198120149196,"connected_time":160000000000,"state":"active","ping":59},{"user_id":908,"name":"Mifee","steam_id":76561198069991093,"connected_time":152000000000,"state":"active","ping":75},{"user_id":909,"name":"Atomic Waffles","steam_id":76561197970935570,"connected_time":143000000000,"state":"active","ping":67},{"user_id":851,"name":"Joeyd2129 #saveTF2","steam_id":76561198238471088,"connected_time":4412000000000,"state":"active","ping":100},{"user_id":910,"name":"Nani?","steam_id":76561198130982692,"connected_time":127000000000,"state":"active","ping":58},{"user_id":911,"name":"Horse Messiah","steam_id":76561198354612722,"connected_time":106000000000,"state":"active","ping":116},{"user_id":868,"name":"The Juice","steam_id":76561198065307144,"connected_time":3757000000000,"state":"active","ping":88},{"user_id":894,"name":"Skuntle Bingoid","steam_id":76561198046942778,"connected_time":1007000000000,"state":"active","ping":77}]},{"server_id":106,"name":"Uncletopia | Chicago | 2 | All Maps","name_short":"chi-2","host":"chi-1.us.uncletopia.com","port":27025,"enabled":true,"region":"us-central","cc":"us","latitude":41.881832,"longitude":-87.62318,"reserved":0,"last_update":"0001-01-01T00:00:00Z","name_a2s":"Uncletopia | Chicago | 2 | All Maps","protocol":17,"map":"pl_upward","folder":"tf","game":"Team Fortress","app_id":440,"player_count":18,"max_players":24,"Bots":0,"server_type":"Dedicated","server_os":"Linux","password":true,"vac":true,"version":"7757534","steam_id":85568392924469985,"keywords":["nocrits","nodmgspread","payload","uncletopia"],"game_id":440,"stv_port":27026,"stv_name":"Uncletopia | Chicago | 2 | All Maps | STV","players":[{"user_id":752,"name":"Bullwinkle J. Moose","steam_id":76561198075977196,"connected_time":3783000000000,"state":"active","ping":76},{"user_id":772,"name":"Raccoon.Of.Waffle.House","steam_id":76561199018770554,"connected_time":2469000000000,"state":"active","ping":73},{"user_id":804,"name":"grate_fiter-232","steam_id":76561198073424589,"connected_time":52000000000,"state":"active","ping":76},{"user_id":806,"name":"KABOOM","steam_id":76561198083607304,"connected_time":32000000000,"state":"active","ping":63},{"user_id":803,"name":"wheresgeorge","steam_id":76561198986281248,"connected_time":321000000000,"state":"active","ping":83},{"user_id":761,"name":"icarly","steam_id":76561198161199653,"connected_time":3119000000000,"state":"active","ping":63},{"user_id":775,"name":"the","steam_id":76561198311446636,"connected_time":1916000000000,"state":"active","ping":56},{"user_id":796,"name":"gyozaking","steam_id":76561197972312696,"connected_time":1187000000000,"state":"active","ping":35},{"user_id":753,"name":"oxoras","steam_id":76561198255172558,"connected_time":3605000000000,"state":"active","ping":43},{"user_id":787,"name":"Big whest","steam_id":76561198147749990,"connected_time":1519000000000,"state":"active","ping":101},{"user_id":779,"name":"Open Mailbox","steam_id":76561198051933580,"connected_time":1857000000000,"state":"active","ping":86},{"user_id":797,"name":"CJDGuy","steam_id":76561198213009545,"connected_time":898000000000,"state":"active","ping":78},{"user_id":762,"name":"Do Moose go Moo?","steam_id":76561198073550620,"connected_time":3103000000000,"state":"active","ping":40},{"user_id":792,"name":"NOM NOM","steam_id":76561199059006203,"connected_time":1441000000000,"state":"active","ping":70},{"user_id":789,"name":"Retro Nicotine","steam_id":76561198140069004,"connected_time":1500000000000,"state":"active","ping":51},{"user_id":795,"name":"three three","steam_id":76561198177354155,"connected_time":1352000000000,"state":"active","ping":72},{"user_id":791,"name":"walkspine","steam_id":76561198030343569,"connected_time":1474000000000,"state":"active","ping":126},{"user_id":800,"name":"A Cardboard Bag","steam_id":76561198321643360,"connected_time":804000000000,"state":"active","ping":58}]},{"server_id":402,"name":"Uncletopia | Chicago | 3 | All Maps","name_short":"chi-3","host":"chi-1.us.uncletopia.com","port":27035,"enabled":true,"region":"us-central","cc":"us","latitude":41.881832,"longitude":-87.62318,"reserved":0,"last_update":"0001-01-01T00:00:00Z","name_a2s":"Uncletopia | Chicago | 3 | All Maps","protocol":17,"map":"pl_upward","folder":"tf","game":"Team Fortress","app_id":440,"player_count":24,"max_players":24,"Bots":0,"server_type":"Dedicated","server_os":"Linux","password":true,"vac":true,"version":"7757534","steam_id":85568392924515191,"keywords":["nocrits","nodmgspread","payload","uncletopia"],"game_id":440,"stv_port":27036,"stv_name":"Uncletopia | Chicago | 3 | All Maps | STV","players":[{"user_id":469,"name":"Unchained Zeity","steam_id":76561198414129606,"connected_time":328000000000,"state":"active","ping":177},{"user_id":468,"name":"Sprucelass","steam_id":76561197998391724,"connected_time":329000000000,"state":"active","ping":45},{"user_id":476,"name":"A Rope, for big pits","steam_id":76561198068044782,"connected_time":19000000000,"state":"active","ping":66},{"user_id":452,"name":"Vinchâu","steam_id":76561198169289662,"connected_time":1239000000000,"state":"active","ping":61},{"user_id":453,"name":"JasonMsadd","steam_id":76561198318976047,"connected_time":1212000000000,"state":"active","ping":51},{"user_id":454,"name":"Rex","steam_id":76561198138365053,"connected_time":1201000000000,"state":"active","ping":126},{"user_id":422,"name":"FruitSnacks69","steam_id":76561198012537238,"connected_time":3097000000000,"state":"active","ping":70},{"user_id":425,"name":"Moofins","steam_id":76561198050291949,"connected_time":2911000000000,"state":"active","ping":84},{"user_id":471,"name":"JohhnyFromCali :7","steam_id":76561198044015725,"connected_time":319000000000,"state":"active","ping":79},{"user_id":477,"name":"SneakyRocks","steam_id":76561198201694213,"connected_time":14000000000,"state":"spawning","ping":90},{"user_id":431,"name":"BetoelAff es","steam_id":76561198377842585,"connected_time":2806000000000,"state":"active","ping":119},{"user_id":455,"name":"SilentFootba11","steam_id":76561199006570947,"connected_time":1177000000000,"state":"active","ping":67},{"user_id":473,"name":"Beary Adorable","steam_id":76561198023815802,"connected_time":299000000000,"state":"active","ping":105},{"user_id":456,"name":"MCHolden","steam_id":76561199142512034,"connected_time":1170000000000,"state":"active","ping":68},{"user_id":474,"name":"Volute","steam_id":76561198081928565,"connected_time":282000000000,"state":"active","ping":109},{"user_id":433,"name":"dinnerboy","steam_id":76561198236966240,"connected_time":2773000000000,"state":"active","ping":51},{"user_id":465,"name":"DRPIELZ","steam_id":76561198816135253,"connected_time":634000000000,"state":"active","ping":119},{"user_id":466,"name":"-","steam_id":76561198057717934,"connected_time":377000000000,"state":"active","ping":45},{"user_id":475,"name":"Samsiel","steam_id":76561198094134951,"connected_time":169000000000,"state":"active","ping":99},{"user_id":415,"name":"Pepsi-Man","steam_id":76561198052061790,"connected_time":3427000000000,"state":"active","ping":79},{"user_id":449,"name":"Wilhelmktx","steam_id":76561198158102295,"connected_time":1299000000000,"state":"active","ping":54},{"user_id":459,"name":"TreyWarnerTheDestoryer","steam_id":76561198428598043,"connected_time":1128000000000,"state":"active","ping":70},{"user_id":460,"name":"Green Eggs \u0026 Ham","steam_id":76561198879570186,"connected_time":1095000000000,"state":"active","ping":44},{"user_id":464,"name":"golf (backspin edition)","steam_id":76561198007464245,"connected_time":832000000000,"state":"active","ping":77}]},{"server_id":403,"name":"Uncletopia | Chicago | 4 | All Maps","name_short":"chi-4","host":"chi-1.us.uncletopia.com","port":27045,"enabled":true,"region":"us-central","cc":"us","latitude":41.881832,"longitude":-87.62318,"reserved":0,"last_update":"0001-01-01T00:00:00Z","name_a2s":"Uncletopia | Chicago | 4 | All Maps","protocol":17,"map":"pl_frontier_final","folder":"tf","game":"Team Fortress","app_id":440,"player_count":23,"max_players":24,"Bots":0,"server_type":"Dedicated","server_os":"Linux","password":true,"vac":true,"version":"7757534","steam_id":85568392924515193,"keywords":["nocrits","nodmgspread","payload","uncletopia"],"game_id":440,"stv_port":27046,"stv_name":"Uncletopia | Chicago | 4 | All Maps | STV","players":[{"user_id":655,"name":"Kdash","steam_id":76561198043829155,"connected_time":1561000000000,"state":"active","ping":72},{"user_id":638,"name":"myo0mity","steam_id":76561199018184096,"connected_time":3101000000000,"state":"active","ping":116},{"user_id":656,"name":"Moe the lawn \u003c3","steam_id":76561198195620945,"connected_time":1554000000000,"state":"active","ping":73},{"user_id":601,"name":"daemon","steam_id":76561198001541433,"connected_time":7439000000000,"state":"active","ping":56},{"user_id":611,"name":"C papi","steam_id":76561198027779564,"connected_time":5999000000000,"state":"active","ping":52},{"user_id":657,"name":"player.additem 0000000F 1000000","steam_id":76561198081220016,"connected_time":1547000000000,"state":"active","ping":47},{"user_id":651,"name":"Murrdogg","steam_id":76561198210491188,"connected_time":1760000000000,"state":"active","ping":60},{"user_id":658,"name":"Viokik","steam_id":76561198408846602,"connected_time":1503000000000,"state":"active","ping":67},{"user_id":633,"name":"Lennu","steam_id":76561198060730154,"connected_time":3210000000000,"state":"active","ping":76},{"user_id":659,"name":"Aristotle Voulton","steam_id":76561198100174923,"connected_time":1485000000000,"state":"active","ping":84},{"user_id":631,"name":"trappy","steam_id":76561198402801140,"connected_time":3257000000000,"state":"active","ping":65},{"user_id":660,"name":"mom","steam_id":76561198333370104,"connected_time":1481000000000,"state":"active","ping":79},{"user_id":665,"name":"Poison Ivy","steam_id":76561198072384574,"connected_time":1289000000000,"state":"active","ping":57},{"user_id":670,"name":"chanoc","steam_id":76561198026734746,"connected_time":89000000000,"state":"active","ping":103},{"user_id":668,"name":"Chrisscar","steam_id":76561198086298130,"connected_time":700000000000,"state":"active","ping":104},{"user_id":612,"name":"Λlxium","steam_id":76561198131272900,"connected_time":4964000000000,"state":"active","ping":55},{"user_id":620,"name":"Squid121","steam_id":76561198038832034,"connected_time":4841000000000,"state":"active","ping":104},{"user_id":669,"name":"rayn","steam_id":76561198147701239,"connected_time":692000000000,"state":"active","ping":62},{"user_id":654,"name":"Rein","steam_id":76561198300340427,"connected_time":1600000000000,"state":"active","ping":63},{"user_id":613,"name":"redwater skooma","steam_id":76561198058013470,"connected_time":4962000000000,"state":"active","ping":76},{"user_id":603,"name":"Scrumlet","steam_id":76561198339806643,"connected_time":6966000000000,"state":"active","ping":86},{"user_id":662,"name":"substance","steam_id":76561198050103868,"connected_time":1467000000000,"state":"active","ping":121},{"user_id":578,"name":"new years hooters","steam_id":76561198068022595,"connected_time":9174000000000,"state":"active","ping":63}]},{"server_id":36,"name":"Uncletopia | Chicago | 5 | All Maps","name_short":"chi-5","host":"chi-2.us.uncletopia.com","port":27015,"enabled":true,"region":"us-central","cc":"us","latitude":41.881832,"longitude":-87.62318,"reserved":0,"last_update":"0001-01-01T00:00:00Z","name_a2s":"Uncletopia | Chicago | 5 | All Maps","protocol":17,"map":"pl_pier","folder":"tf","game":"Team Fortress","app_id":440,"player_count":23,"max_players":24,"Bots":0,"server_type":"Dedicated","server_os":"Linux","password":true,"vac":true,"version":"7757534","steam_id":85568392924866362,"keywords":["nocrits","nodmgspread","payload","uncletopia"],"game_id":440,"stv_port":27016,"stv_name":"Uncletopia | Chicago | 5 | All Maps | STV","players":[{"user_id":477,"name":"Barely","steam_id":76561198121326917,"connected_time":2157000000000,"state":"active","ping":61},{"user_id":496,"name":"Penrose42","steam_id":76561198288577396,"connected_time":44000000000,"state":"active","ping":83},{"user_id":465,"name":"primordialheath","steam_id":76561199386942638,"connected_time":2591000000000,"state":"active","ping":67},{"user_id":483,"name":"Koishi","steam_id":76561198054541054,"connected_time":1455000000000,"state":"active","ping":51},{"user_id":491,"name":"Hifumi Togo","steam_id":76561198074930636,"connected_time":668000000000,"state":"active","ping":40},{"user_id":462,"name":"JHorse","steam_id":76561198106418032,"connected_time":2945000000000,"state":"active","ping":86},{"user_id":487,"name":"asf","steam_id":76561198994761483,"connected_time":724000000000,"state":"active","ping":96},{"user_id":488,"name":"dramboney","steam_id":76561199068500959,"connected_time":699000000000,"state":"active","ping":69},{"user_id":489,"name":"Deep Peepus","steam_id":76561198205395757,"connected_time":689000000000,"state":"active","ping":122},{"user_id":482,"name":"Cloudman","steam_id":76561198041389138,"connected_time":1514000000000,"state":"active","ping":80},{"user_id":431,"name":"Snarkel","steam_id":76561198070688550,"connected_time":5196000000000,"state":"active","ping":64},{"user_id":459,"name":"Peepster","steam_id":76561198297854733,"connected_time":3187000000000,"state":"active","ping":74},{"user_id":479,"name":"MR.meeseeks","steam_id":76561198294943420,"connected_time":1833000000000,"state":"active","ping":67},{"user_id":497,"name":"Alley_YAMBO","steam_id":76561198055651850,"connected_time":30000000000,"state":"active","ping":110},{"user_id":480,"name":"Phillip Jeffries","steam_id":76561198064052174,"connected_time":1746000000000,"state":"active","ping":62},{"user_id":490,"name":"TÖZI","steam_id":76561198045268695,"connected_time":685000000000,"state":"active","ping":63},{"user_id":495,"name":"Bee","steam_id":76561198074681324,"connected_time":525000000000,"state":"active","ping":53},{"user_id":473,"name":"Pyrovision Enthusiast","steam_id":76561198211892779,"connected_time":2482000000000,"state":"active","ping":68},{"user_id":485,"name":"burger","steam_id":76561198058209703,"connected_time":1245000000000,"state":"active","ping":53},{"user_id":463,"name":"Inkspoot","steam_id":76561199047361730,"connected_time":2938000000000,"state":"active","ping":55},{"user_id":474,"name":"Evil_Lover_1989","steam_id":76561199011841575,"connected_time":2475000000000,"state":"active","ping":67},{"user_id":494,"name":"Room","steam_id":76561199174579733,"connected_time":628000000000,"state":"active","ping":77},{"user_id":493,"name":"zuna","steam_id":76561199038981515,"connected_time":651000000000,"state":"active","ping":109}]},{"server_id":37,"name":"Uncletopia | Chicago | 6 | All Maps","name_short":"chi-6","host":"chi-2.us.uncletopia.com","port":27025,"enabled":true,"region":"us-central","cc":"us","latitude":41.881832,"longitude":-87.62318,"reserved":0,"last_update":"0001-01-01T00:00:00Z","name_a2s":"Uncletopia | Chicago | 6 | All Maps","protocol":17,"map":"koth_cascade","folder":"tf","game":"Team Fortress","app_id":440,"player_count":24,"max_players":24,"Bots":0,"server_type":"Dedicated","server_os":"Linux","password":true,"vac":true,"version":"7757534","steam_id":85568392924866363,"keywords":["cp","nocrits","nodmgspread","uncletopia"],"game_id":440,"stv_port":27026,"stv_name":"Uncletopia | Chicago | 6 | All Maps | STV","players":[{"user_id":714,"name":"Enward","steam_id":76561198246080174,"connected_time":2651000000000,"state":"active","ping":132},{"user_id":715,"name":"Zeora","steam_id":76561198799145251,"connected_time":2641000000000,"state":"active","ping":92},{"user_id":717,"name":"mahgad","steam_id":76561198797828475,"connected_time":2261000000000,"state":"active","ping":91},{"user_id":758,"name":"octanyl","steam_id":76561199239926014,"connected_time":617000000000,"state":"active","ping":105},{"user_id":709,"name":"JacobonPC™","steam_id":76561198221619936,"connected_time":2893000000000,"state":"active","ping":80},{"user_id":766,"name":"Smuggs","steam_id":76561197999456003,"connected_time":280000000000,"state":"active","ping":126},{"user_id":774,"name":"tA.CHRONIC","steam_id":76561197960760990,"connected_time":35000000000,"state":"active","ping":56},{"user_id":723,"name":"AventureroDelInternet","steam_id":76561198799670164,"connected_time":2209000000000,"state":"active","ping":234},{"user_id":754,"name":"squid game","steam_id":76561199248960166,"connected_time":865000000000,"state":"active","ping":95},{"user_id":755,"name":"meow meow meow meow meow meow m","steam_id":76561198161043251,"connected_time":773000000000,"state":"active","ping":98},{"user_id":710,"name":"Justis","steam_id":76561197963835016,"connected_time":2887000000000,"state":"active","ping":72},{"user_id":726,"name":"Yoru","steam_id":76561198119698950,"connected_time":2133000000000,"state":"active","ping":119},{"user_id":748,"name":"dgray59","steam_id":76561198240908764,"connected_time":1109000000000,"state":"active","ping":83},{"user_id":728,"name":"Ikanboken","steam_id":76561198026926934,"connected_time":1996000000000,"state":"active","ping":68},{"user_id":757,"name":"Love Being an Owl","steam_id":76561198293422282,"connected_time":658000000000,"state":"active","ping":158},{"user_id":752,"name":"WannaSeeA","steam_id":76561198097701042,"connected_time":964000000000,"state":"active","ping":77},{"user_id":753,"name":"Slime-san","steam_id":76561198886509660,"connected_time":921000000000,"state":"active","ping":79},{"user_id":731,"name":"him wakefield","steam_id":76561198084221595,"connected_time":1921000000000,"state":"active","ping":157},{"user_id":732,"name":"CC","steam_id":76561198071226149,"connected_time":1917000000000,"state":"active","ping":76},{"user_id":733,"name":"waltnut","steam_id":76561198056186750,"connected_time":1881000000000,"state":"active","ping":55},{"user_id":759,"name":".9 lg","steam_id":76561198092238353,"connected_time":525000000000,"state":"active","ping":74},{"user_id":734,"name":"Kuyumiester","steam_id":76561198126835302,"connected_time":1809000000000,"state":"active","ping":66},{"user_id":735,"name":"Dunkachino","steam_id":76561198061791637,"connected_time":1797000000000,"state":"active","ping":70},{"user_id":764,"name":"[chef] iron","steam_id":76561197970888616,"connected_time":387000000000,"state":"active","ping":44}]},{"server_id":38,"name":"Uncletopia | Chicago | 7 | Stopwatch Beta","name_short":"chi-7","host":"chi-2.us.uncletopia.com","port":27035,"enabled":true,"region":"us-central","cc":"us","latitude":41.881832,"longitude":-87.62318,"reserved":0,"last_update":"0001-01-01T00:00:00Z","name_a2s":"Uncletopia | Chicago | 7 | Stopwatch Beta","protocol":17,"map":"koth_lakeside_final","folder":"tf","game":"Team Fortress","app_id":440,"player_count":24,"max_players":24,"Bots":0,"server_type":"Dedicated","server_os":"Linux","password":true,"vac":true,"version":"7757534","steam_id":85568392924866364,"keywords":["cp","nocrits","nodmgspread","uncletopia"],"game_id":440,"stv_port":27036,"stv_name":"Uncletopia | Chicago | 7 | Stopwatch Beta | STV","players":[{"user_id":202,"name":"sara, boylady","steam_id":76561198283462369,"connected_time":289000000000,"state":"active","ping":125},{"user_id":175,"name":"Captain Meth","steam_id":76561199073621650,"connected_time":2265000000000,"state":"active","ping":102},{"user_id":186,"name":"NUt","steam_id":76561198031007966,"connected_time":1189000000000,"state":"active","ping":69},{"user_id":157,"name":"Ice","steam_id":76561198045076794,"connected_time":4598000000000,"state":"active","ping":45},{"user_id":164,"name":"Ry","steam_id":76561198325802137,"connected_time":3347000000000,"state":"active","ping":67},{"user_id":152,"name":"Caridin Corg","steam_id":76561198027873183,"connected_time":5052000000000,"state":"active","ping":70},{"user_id":153,"name":"YaBoiTurt","steam_id":76561198342530733,"connected_time":5042000000000,"state":"active","ping":95},{"user_id":151,"name":"Digivee!","steam_id":76561198138908840,"connected_time":5137000000000,"state":"active","ping":76},{"user_id":199,"name":"Soap Man","steam_id":76561198000490235,"connected_time":389000000000,"state":"active","ping":119},{"user_id":196,"name":"Otto","steam_id":76561198167371080,"connected_time":546000000000,"state":"active","ping":132},{"user_id":161,"name":"Disambiguation","steam_id":76561198133963270,"connected_time":3731000000000,"state":"active","ping":64},{"user_id":200,"name":"ToughGuy311","steam_id":76561198131458027,"connected_time":389000000000,"state":"active","ping":65},{"user_id":201,"name":"KingSteve42","steam_id":76561198409455888,"connected_time":354000000000,"state":"active","ping":113},{"user_id":189,"name":"DazzlingMaggot","steam_id":76561197972716928,"connected_time":1009000000000,"state":"active","ping":73},{"user_id":203,"name":"jetstream sam","steam_id":76561198253560879,"connected_time":261000000000,"state":"active","ping":72},{"user_id":173,"name":"sergeant Adderall","steam_id":76561199010296481,"connected_time":2442000000000,"state":"active","ping":89},{"user_id":204,"name":"Spooky","steam_id":76561198273925232,"connected_time":239000000000,"state":"active","ping":71},{"user_id":205,"name":"kramer","steam_id":76561198117761965,"connected_time":211000000000,"state":"active","ping":68},{"user_id":183,"name":"PzVIIIMaus","steam_id":76561198346559365,"connected_time":1400000000000,"state":"active","ping":48},{"user_id":195,"name":"lite","steam_id":76561198300633951,"connected_time":753000000000,"state":"active","ping":107},{"user_id":206,"name":"E-ferret","steam_id":76561198394134715,"connected_time":208000000000,"state":"active","ping":77},{"user_id":192,"name":"MontellWilliams","steam_id":76561198172143015,"connected_time":806000000000,"state":"active","ping":61},{"user_id":207,"name":"Gen","steam_id":76561198258126130,"connected_time":174000000000,"state":"active","ping":69},{"user_id":194,"name":"Jackaloped♥","steam_id":76561198054925421,"connected_time":781000000000,"state":"active","ping":55}]},{"server_id":39,"name":"Uncletopia | Chicago | 8 | Community","name_short":"chi-8","host":"chi-2.us.uncletopia.com","port":27045,"enabled":true,"region":"us-central","cc":"us","latitude":41.881832,"longitude":-87.62318,"reserved":0,"last_update":"0001-01-01T00:00:00Z","name_a2s":"Uncletopia | Chicago | 8 | Community","protocol":17,"map":"workshop/koth_ramjam_rc1.ugc459778887","folder":"tf","game":"Team Fortress","app_id":440,"player_count":0,"max_players":24,"Bots":0,"server_type":"Dedicated","server_os":"Linux","password":true,"vac":true,"version":"7757534","steam_id":85568392924866365,"keywords":["cp","nocrits","nodmgspread","uncletopia"],"game_id":440,"stv_port":27046,"stv_name":"Uncletopia | Chicago | 8 | Community | STV","players":null},{"server_id":8,"name":"Uncletopia | Dallas | 1 | All Maps","name_short":"dal-1","host":"dal-1.us.uncletopia.com","port":27015,"enabled":true,"region":"us-central","cc":"us","latitude":32.779167,"longitude":-96.80889,"reserved":0,"last_update":"0001-01-01T00:00:00Z","name_a2s":"Uncletopia | Dallas | 1 | All Maps","protocol":17,"map":"pl_upward","folder":"tf","game":"Team Fortress","app_id":440,"player_count":24,"max_players":24,"Bots":0,"server_type":"Dedicated","server_os":"Linux","password":true,"vac":true,"version":"7757534","steam_id":85568392924469986,"keywords":["nocrits","nodmgspread","payload","uncletopia"],"game_id":440,"stv_port":27016,"stv_name":"Uncletopia | Dallas | 1 | All Maps | STV","players":[{"user_id":811,"name":"Dr_Evil_1738","steam_id":76561199133770186,"connected_time":682000000000,"state":"active","ping":216},{"user_id":809,"name":"xZackAttack27x","steam_id":76561198035446639,"connected_time":856000000000,"state":"active","ping":41},{"user_id":789,"name":"Bee's","steam_id":76561198041888432,"connected_time":2326000000000,"state":"active","ping":236},{"user_id":783,"name":"ExplosiveGamer21","steam_id":76561198132370955,"connected_time":3045000000000,"state":"spawning","ping":90},{"user_id":772,"name":"Stillkill","steam_id":76561198065069057,"connected_time":3680000000000,"state":"spawning","ping":44},{"user_id":727,"name":"Tribute","steam_id":76561198081594043,"connected_time":6035000000000,"state":"active","ping":97},{"user_id":804,"name":"The destroyer of foreskin","steam_id":76561198135275966,"connected_time":1330000000000,"state":"spawning","ping":165},{"user_id":792,"name":"t h e n a","steam_id":76561198169736062,"connected_time":2275000000000,"state":"spawning","ping":216},{"user_id":788,"name":"(TWoN Adric)","steam_id":76561197999304024,"connected_time":2360000000000,"state":"active","ping":94},{"user_id":808,"name":"s p a c e k a t","steam_id":76561198066852209,"connected_time":893000000000,"state":"active","ping":132},{"user_id":770,"name":"the12xu","steam_id":76561198197086561,"connected_time":3749000000000,"state":"spawning","ping":95},{"user_id":800,"name":"The Sicilian Defense","steam_id":76561198117525735,"connected_time":1824000000000,"state":"spawning","ping":63},{"user_id":812,"name":"footoftheday","steam_id":76561198052712449,"connected_time":278000000000,"state":"active","ping":138},{"user_id":776,"name":"IxMic88","steam_id":76561198018552479,"connected_time":3639000000000,"state":"active","ping":70},{"user_id":805,"name":"Johnny Metrocop","steam_id":76561199068981957,"connected_time":1305000000000,"state":"spawning","ping":69},{"user_id":806,"name":"Artistic","steam_id":76561198118159566,"connected_time":1189000000000,"state":"active","ping":84},{"user_id":767,"name":"Bunny of Epicness","steam_id":76561198003897012,"connected_time":4164000000000,"state":"spawning","ping":225},{"user_id":807,"name":"Coosnut","steam_id":76561198061106216,"connected_time":945000000000,"state":"spawning","ping":39},{"user_id":794,"name":"Builder","steam_id":76561198042004822,"connected_time":2243000000000,"state":"active","ping":73},{"user_id":801,"name":"GarretGood","steam_id":76561198071881495,"connected_time":1767000000000,"state":"active","ping":195},{"user_id":785,"name":"ChozoFury","steam_id":76561197999220378,"connected_time":2471000000000,"state":"active","ping":118},{"user_id":795,"name":"The Announcer's Feet","steam_id":76561199443456893,"connected_time":2232000000000,"state":"active","ping":84},{"user_id":810,"name":"Dr. Bonair","steam_id":76561198129237487,"connected_time":840000000000,"state":"active","ping":181},{"user_id":803,"name":"AlaNo","steam_id":76561198133099582,"connected_time":1587000000000,"state":"spawning","ping":88}]},{"server_id":108,"name":"Uncletopia | Dallas | 2 | All Maps","name_short":"dal-2","host":"dal-1.us.uncletopia.com","port":27025,"enabled":true,"region":"us-central","cc":"us","latitude":32.779167,"longitude":-96.80889,"reserved":0,"last_update":"0001-01-01T00:00:00Z","name_a2s":"Uncletopia | Dallas | 2 | All Maps","protocol":17,"map":"pl_frontier_final","folder":"tf","game":"Team Fortress","app_id":440,"player_count":24,"max_players":24,"Bots":0,"server_type":"Dedicated","server_os":"Linux","password":true,"vac":true,"version":"7757534","steam_id":85568392924469988,"keywords":["nocrits","nodmgspread","payload","uncletopia"],"game_id":440,"stv_port":27026,"stv_name":"Uncletopia | Dallas | 2 | All Maps | STV","players":[{"user_id":569,"name":"Wind Fucker","steam_id":76561198275362375,"connected_time":557000000000,"state":"active","ping":84},{"user_id":546,"name":"Marc Antony","steam_id":76561198011366517,"connected_time":2536000000000,"state":"active","ping":70},{"user_id":565,"name":"pulco","steam_id":76561198252902508,"connected_time":1127000000000,"state":"active","ping":64},{"user_id":471,"name":"Amish Supremacist","steam_id":76561198396181197,"connected_time":8458000000000,"state":"active","ping":75},{"user_id":560,"name":"Dr. SeymourButts","steam_id":76561198015266125,"connected_time":1379000000000,"state":"active","ping":70},{"user_id":505,"name":"Nodspine","steam_id":76561198253579994,"connected_time":5572000000000,"state":"active","ping":132},{"user_id":559,"name":"Markz","steam_id":76561197996278159,"connected_time":1496000000000,"state":"active","ping":95},{"user_id":531,"name":"STrong Bomber","steam_id":76561198805051139,"connected_time":3372000000000,"state":"active","ping":106},{"user_id":484,"name":"Krow","steam_id":76561198010392099,"connected_time":7311000000000,"state":"active","ping":54},{"user_id":539,"name":"BruteForceLK","steam_id":76561198043922524,"connected_time":2764000000000,"state":"active","ping":91},{"user_id":558,"name":"level 6 scoundrel","steam_id":76561198248148760,"connected_time":1745000000000,"state":"active","ping":88},{"user_id":547,"name":"AlphaTwo3","steam_id":76561198034696854,"connected_time":2440000000000,"state":"active","ping":79},{"user_id":555,"name":"AGagagaga","steam_id":76561199008585183,"connected_time":2185000000000,"state":"active","ping":79},{"user_id":561,"name":"American freedom bird","steam_id":76561198366142388,"connected_time":1297000000000,"state":"active","ping":86},{"user_id":562,"name":"sollarious101","steam_id":76561199086649385,"connected_time":1258000000000,"state":"active","ping":42},{"user_id":570,"name":"GLG MUTT","steam_id":76561198147785541,"connected_time":277000000000,"state":"active","ping":63},{"user_id":563,"name":"Funtimeshadow","steam_id":76561199254055123,"connected_time":1246000000000,"state":"active","ping":65},{"user_id":501,"name":"Bimba","steam_id":76561198006883248,"connected_time":6409000000000,"state":"active","ping":55},{"user_id":564,"name":"Red","steam_id":76561198031865869,"connected_time":1244000000000,"state":"active","ping":60},{"user_id":557,"name":"CyberZayne","steam_id":76561198002351356,"connected_time":2167000000000,"state":"active","ping":139},{"user_id":568,"name":"Mr.Pan","steam_id":76561198069030613,"connected_time":1033000000000,"state":"active","ping":72},{"user_id":460,"name":"Dunkle","steam_id":76561198041903573,"connected_time":9184000000000,"state":"active","ping":92},{"user_id":488,"name":"PaintMyMeow","steam_id":76561198056860387,"connected_time":7026000000000,"state":"active","ping":76},{"user_id":544,"name":"spot","steam_id":76561198151135298,"connected_time":2641000000000,"state":"active","ping":70}]},{"server_id":5,"name":"Uncletopia | Frankfurt | 1 | All Maps","name_short":"frk-1","host":"frk-1.de.uncletopia.com","port":27015,"enabled":true,"region":"eu","cc":"de","latitude":50.110924,"longitude":8.682127,"reserved":0,"last_update":"0001-01-01T00:00:00Z","name_a2s":"Uncletopia | Frankfurt | 1 | All Maps","protocol":17,"map":"koth_highpass","folder":"tf","game":"Team Fortress","app_id":440,"player_count":0,"max_players":24,"Bots":0,"server_type":"Dedicated","server_os":"Linux","password":true,"vac":true,"version":"7757534","steam_id":85568392924469989,"keywords":["cp","nocrits","nodmgspread","uncletopia"],"game_id":440,"stv_port":27016,"stv_name":"Uncletopia | Frankfurt | 1 | All Maps | STV","players":null},{"server_id":110,"name":"Uncletopia | Frankfurt | 2 | All Maps","name_short":"frk-2","host":"frk-1.de.uncletopia.com","port":27025,"enabled":true,"region":"eu","cc":"de","latitude":50.110924,"longitude":8.682127,"reserved":0,"last_update":"0001-01-01T00:00:00Z","name_a2s":"Uncletopia | Frankfurt | 2 | All Maps","protocol":17,"map":"pl_snowycoast","folder":"tf","game":"Team Fortress","app_id":440,"player_count":3,"max_players":24,"Bots":0,"server_type":"Dedicated","server_os":"Linux","password":true,"vac":true,"version":"7757534","steam_id":85568392924469990,"keywords":["nocrits","nodmgspread","payload","uncletopia"],"game_id":440,"stv_port":27026,"stv_name":"Uncletopia | Frankfurt | 2 | All Maps | STV","players":[{"user_id":807,"name":"Mata-za","steam_id":76561198124559932,"connected_time":89000000000,"state":"active","ping":80},{"user_id":804,"name":"RiAvoTheOfficial","steam_id":76561199121022061,"connected_time":1137000000000,"state":"active","ping":124},{"user_id":806,"name":"Gordon Freeman","steam_id":76561199202255532,"connected_time":728000000000,"state":"active","ping":145}]},{"server_id":308,"name":"Uncletopia | Frankfurt | 3 | All Maps","name_short":"frk-3","host":"frk-1.de.uncletopia.com","port":27035,"enabled":true,"region":"eu","cc":"de","latitude":50.110924,"longitude":8.682127,"reserved":0,"last_update":"0001-01-01T00:00:00Z","name_a2s":"Uncletopia | Frankfurt | 3 | All Maps","protocol":17,"map":"koth_viaduct","folder":"tf","game":"Team Fortress","app_id":440,"player_count":0,"max_players":24,"Bots":0,"server_type":"Dedicated","server_os":"Linux","password":true,"vac":true,"version":"7757534","steam_id":85568392924504274,"keywords":["cp","nocrits","nodmgspread","uncletopia"],"game_id":440,"stv_port":27036,"stv_name":"Uncletopia | Frankfurt | 3 | All Maps | STV","players":null},{"server_id":309,"name":"Uncletopia | Frankfurt | 4 | All Maps","name_short":"frk-4","host":"frk-1.de.uncletopia.com","port":27045,"enabled":true,"region":"eu","cc":"de","latitude":50.110924,"longitude":8.682127,"reserved":0,"last_update":"0001-01-01T00:00:00Z","name_a2s":"Uncletopia | Frankfurt | 4 | All Maps","protocol":17,"map":"cp_mountainlab","folder":"tf","game":"Team Fortress","app_id":440,"player_count":0,"max_players":24,"Bots":0,"server_type":"Dedicated","server_os":"Linux","password":true,"vac":true,"version":"7757534","steam_id":85568392924504275,"keywords":["cp","nocrits","nodmgspread","uncletopia"],"game_id":440,"stv_port":27046,"stv_name":"Uncletopia | Frankfurt | 4 | All Maps | STV","players":null},{"server_id":310,"name":"Uncletopia | Frankfurt | 5 | All Maps","name_short":"frk-5","host":"frk-1.de.uncletopia.com","port":27055,"enabled":true,"region":"eu","cc":"de","latitude":50.110924,"longitude":8.682127,"reserved":0,"last_update":"0001-01-01T00:00:00Z","name_a2s":"Uncletopia | Frankfurt | 5 | All Maps","protocol":17,"map":"koth_highpass","folder":"tf","game":"Team Fortress","app_id":440,"player_count":0,"max_players":24,"Bots":0,"server_type":"Dedicated","server_os":"Linux","password":true,"vac":true,"version":"7757534","steam_id":85568392924504277,"keywords":["cp","nocrits","nodmgspread","uncletopia"],"game_id":440,"stv_port":27056,"stv_name":"Uncletopia | Frankfurt | 5 | All Maps | STV","players":null},{"server_id":311,"name":"Uncletopia | Frankfurt | 6 | All Maps","name_short":"frk-6","host":"frk-1.de.uncletopia.com","port":27065,"enabled":true,"region":"eu","cc":"de","latitude":50.110924,"longitude":8.682127,"reserved":0,"last_update":"0001-01-01T00:00:00Z","name_a2s":"Uncletopia | Frankfurt | 6 | All Maps","protocol":17,"map":"koth_cascade","folder":"tf","game":"Team Fortress","app_id":440,"player_count":0,"max_players":24,"Bots":0,"server_type":"Dedicated","server_os":"Linux","password":true,"vac":true,"version":"7757534","steam_id":85568392924504278,"keywords":["cp","nocrits","nodmgspread","uncletopia"],"game_id":440,"stv_port":27066,"stv_name":"Uncletopia | Frankfurt | 6 | All Maps | STV","players":null},{"server_id":23,"name":"Uncletopia | Frankfurt | 7 | Stopwatch Beta","name_short":"frk-7","host":"frk-1.de.uncletopia.com","port":27075,"enabled":true,"region":"eu","cc":"de","latitude":50.110924,"longitude":8.682127,"reserved":0,"last_update":"0001-01-01T00:00:00Z","name_a2s":"Uncletopia | Frankfurt | 7 | Stopwatch Beta","protocol":17,"map":"pl_borneo","folder":"tf","game":"Team Fortress","app_id":440,"player_count":0,"max_players":24,"Bots":0,"server_type":"Dedicated","server_os":"Linux","password":true,"vac":true,"version":"7757534","steam_id":85568392924742827,"keywords":["nocrits","nodmgspread","payload","uncletopia"],"game_id":440,"stv_port":27076,"stv_name":"Uncletopia | Frankfurt | 7 | Stopwatch Beta | STV","players":null},{"server_id":24,"name":"Uncletopia | Frankfurt | 8 | Community","name_short":"frk-8","host":"frk-1.de.uncletopia.com","port":27085,"enabled":true,"region":"eu","cc":"de","latitude":50.110924,"longitude":8.682127,"reserved":0,"last_update":"0001-01-01T00:00:00Z","name_a2s":"Uncletopia | Frankfurt | 8 | Community","protocol":17,"map":"workshop/rd_asteroid_redux_b1.ugc2154902912","folder":"tf","game":"Team Fortress","app_id":440,"player_count":0,"max_players":24,"Bots":0,"server_type":"Dedicated","server_os":"Linux","password":true,"vac":true,"version":"7757534","steam_id":85568392924742828,"keywords":["beta","nocrits","nodmgspread","rd","uncletopia"],"game_id":440,"stv_port":27086,"stv_name":"Uncletopia | Frankfurt | 8 | Community | STV","players":null},{"server_id":202,"name":"Uncletopia | Hong Kong | 1 | All Maps","name_short":"hgk-1","host":"hgk-1.hk.uncletopia.com","port":27015,"enabled":true,"region":"asia","cc":"hk","latitude":22.302711,"longitude":114.177216,"reserved":0,"last_update":"0001-01-01T00:00:00Z","name_a2s":"Uncletopia | Hong Kong | 1 | All Maps","protocol":17,"map":"pl_swiftwater_final1","folder":"tf","game":"Team Fortress","app_id":440,"player_count":22,"max_players":24,"Bots":0,"server_type":"Dedicated","server_os":"Linux","password":true,"vac":true,"version":"7757534","steam_id":85568392924494504,"keywords":["nocrits","nodmgspread","payload","uncletopia"],"game_id":440,"stv_port":27016,"stv_name":"Uncletopia | Hong Kong | 1 | All Maps | STV","players":[{"user_id":173,"name":"Lym0n","steam_id":76561199192420260,"connected_time":19000000000,"state":"active","ping":108},{"user_id":174,"name":"Shadows","steam_id":76561199202699668,"connected_time":16000000000,"state":"spawning","ping":178},{"user_id":146,"name":"uptriste","steam_id":76561198158666692,"connected_time":1809000000000,"state":"active","ping":35},{"user_id":114,"name":"T.","steam_id":76561198337887896,"connected_time":4711000000000,"state":"active","ping":85},{"user_id":169,"name":"Mori","steam_id":76561198430817360,"connected_time":311000000000,"state":"active","ping":49},{"user_id":118,"name":"Sleeping","steam_id":76561198120553035,"connected_time":4360000000000,"state":"active","ping":62},{"user_id":137,"name":"i legit own asia","steam_id":76561199126124270,"connected_time":2607000000000,"state":"active","ping":94},{"user_id":140,"name":"Urotsuki","steam_id":76561198074339034,"connected_time":2327000000000,"state":"active","ping":75},{"user_id":130,"name":"Talkk More","steam_id":76561198305424433,"connected_time":3015000000000,"state":"active","ping":78},{"user_id":74,"name":"iced","steam_id":76561198999114004,"connected_time":7170000000000,"state":"active","ping":100},{"user_id":155,"name":"condiment king","steam_id":76561199039560921,"connected_time":1384000000000,"state":"active","ping":77},{"user_id":159,"name":"Rain.","steam_id":76561198843129303,"connected_time":795000000000,"state":"active","ping":78},{"user_id":158,"name":"liberta","steam_id":76561198340436140,"connected_time":828000000000,"state":"active","ping":39},{"user_id":170,"name":"Zeniticts","steam_id":76561198318707808,"connected_time":272000000000,"state":"active","ping":83},{"user_id":134,"name":"bocchi's oppai","steam_id":76561198008307645,"connected_time":2841000000000,"state":"active","ping":163},{"user_id":171,"name":"Smile :)","steam_id":76561199125493462,"connected_time":248000000000,"state":"active","ping":160},{"user_id":162,"name":":)","steam_id":76561198437941450,"connected_time":701000000000,"state":"active","ping":91},{"user_id":103,"name":"hogcoin","steam_id":76561199206816701,"connected_time":5659000000000,"state":"active","ping":78},{"user_id":143,"name":"23rd","steam_id":76561199014675406,"connected_time":2109000000000,"state":"active","ping":123},{"user_id":161,"name":"「❈」Erythrin","steam_id":76561198966773377,"connected_time":755000000000,"state":"active","ping":89},{"user_id":163,"name":"Milk❤ (UT's Moaner)","steam_id":76561198163911560,"connected_time":666000000000,"state":"active","ping":131},{"user_id":166,"name":"Tember","steam_id":76561198369809493,"connected_time":472000000000,"state":"active","ping":112}]},{"server_id":1,"name":"Uncletopia | Los Angeles | 1 | All Maps","name_short":"lax-1","host":"lax-1.us.uncletopia.com","port":27015,"enabled":true,"region":"us-west","cc":"us","latitude":33.94279,"longitude":-118.41004,"reserved":0,"last_update":"0001-01-01T00:00:00Z","name_a2s":"Uncletopia | Los Angeles | 1 | All Maps","protocol":17,"map":"cp_mountainlab","folder":"tf","game":"Team Fortress","app_id":440,"player_count":3,"max_players":24,"Bots":0,"server_type":"Dedicated","server_os":"Linux","password":true,"vac":true,"version":"7757534","steam_id":85568392924469991,"keywords":["cp","nocrits","nodmgspread","uncletopia"],"game_id":440,"stv_port":27016,"stv_name":"Uncletopia | Los Angeles | 1 | All Maps | STV","players":[{"user_id":152,"name":"jc7jack","steam_id":76561198051490229,"connected_time":1540000000000,"state":"active","ping":107},{"user_id":156,"name":"MikotoNui","steam_id":76561198049607369,"connected_time":712000000000,"state":"active","ping":120},{"user_id":158,"name":"Sad Sapling","steam_id":76561198075612150,"connected_time":177000000000,"state":"active","ping":46}]},{"server_id":112,"name":"Uncletopia | Los Angeles | 2 | All Maps","name_short":"lax-2","host":"lax-1.us.uncletopia.com","port":27025,"enabled":true,"region":"us-west","cc":"us","latitude":33.94279,"longitude":-118.41004,"reserved":0,"last_update":"0001-01-01T00:00:00Z","name_a2s":"Uncletopia | Los Angeles | 2 | All Maps","protocol":17,"map":"koth_cascade","folder":"tf","game":"Team Fortress","app_id":440,"player_count":0,"max_players":24,"Bots":0,"server_type":"Dedicated","server_os":"Linux","password":true,"vac":true,"version":"7757534","steam_id":85568392924469992,"keywords":["cp","nocrits","nodmgspread","uncletopia"],"game_id":440,"stv_port":27026,"stv_name":"Uncletopia | Los Angeles | 2 | All Maps | STV","players":null},{"server_id":324,"name":"Uncletopia | Los Angeles | 3 | All Maps","name_short":"lax-3","host":"lax-1.us.uncletopia.com","port":27035,"enabled":true,"region":"us-west","cc":"us","latitude":33.94279,"longitude":-118.41004,"reserved":0,"last_update":"0001-01-01T00:00:00Z","name_a2s":"Uncletopia | Los Angeles | 3 | All Maps","protocol":17,"map":"pl_borneo","folder":"tf","game":"Team Fortress","app_id":440,"player_count":18,"max_players":24,"Bots":0,"server_type":"Dedicated","server_os":"Linux","password":true,"vac":true,"version":"7757534","steam_id":85568392924510198,"keywords":["nocrits","nodmgspread","payload","uncletopia"],"game_id":440,"stv_port":27036,"stv_name":"Uncletopia | Los Angeles | 3 | All Maps | STV","players":[{"user_id":525,"name":"Carte","steam_id":76561198077424488,"connected_time":1372000000000,"state":"active","ping":39},{"user_id":515,"name":"Schnitz(Lost my Glasses)","steam_id":76561198265484253,"connected_time":2285000000000,"state":"active","ping":54},{"user_id":549,"name":"Winter","steam_id":76561198312741335,"connected_time":46000000000,"state":"active","ping":92},{"user_id":524,"name":"Shichinitzi","steam_id":76561198003833732,"connected_time":1861000000000,"state":"active","ping":91},{"user_id":523,"name":"Dr. ButtRape","steam_id":76561198089834652,"connected_time":1875000000000,"state":"active","ping":81},{"user_id":527,"name":"Dullahan","steam_id":76561198119668908,"connected_time":1343000000000,"state":"active","ping":51},{"user_id":528,"name":"mechanicvirus","steam_id":76561198038161480,"connected_time":1339000000000,"state":"active","ping":54},{"user_id":550,"name":"i want to kill you","steam_id":76561198041348890,"connected_time":38000000000,"state":"active","ping":105},{"user_id":464,"name":"Moth","steam_id":76561198170253694,"connected_time":4534000000000,"state":"spawning","ping":156},{"user_id":529,"name":"GreenApples","steam_id":76561198120559543,"connected_time":1329000000000,"state":"active","ping":52},{"user_id":536,"name":"Chafn","steam_id":76561197969386702,"connected_time":1082000000000,"state":"active","ping":50},{"user_id":552,"name":"hedahman","steam_id":76561198052398134,"connected_time":25000000000,"state":"active","ping":72},{"user_id":548,"name":"walrooos","steam_id":76561198024521839,"connected_time":340000000000,"state":"active","ping":48},{"user_id":533,"name":"Bada Bingus","steam_id":76561198046743307,"connected_time":1189000000000,"state":"active","ping":124},{"user_id":546,"name":"Wavelengths","steam_id":76561197997621320,"connected_time":558000000000,"state":"active","ping":82},{"user_id":543,"name":"USP Victorville","steam_id":76561198117025741,"connected_time":826000000000,"state":"active","ping":46},{"user_id":547,"name":"NagitoTheLucky","steam_id":76561198065096327,"connected_time":519000000000,"state":"active","ping":57},{"user_id":545,"name":"Fungus","steam_id":76561198390297486,"connected_time":587000000000,"state":"active","ping":37}]},{"server_id":25,"name":"Uncletopia | Los Angeles | 4 | Stopwatch Beta","name_short":"lax-4","host":"lax-1.us.uncletopia.com","port":27045,"enabled":true,"region":"us-west","cc":"us","latitude":33.94279,"longitude":-118.41004,"reserved":0,"last_update":"0001-01-01T00:00:00Z","name_a2s":"Uncletopia | Los Angeles | 4 | Stopwatch Beta","protocol":17,"map":"cp_sunshine","folder":"tf","game":"Team Fortress","app_id":440,"player_count":0,"max_players":24,"Bots":0,"server_type":"Dedicated","server_os":"Linux","password":true,"vac":true,"version":"7757534","steam_id":85568392924510199,"keywords":["cp","nocrits","nodmgspread","uncletopia"],"game_id":440,"stv_port":27046,"stv_name":"Uncletopia | Los Angeles | 4 | Stopwatch Beta | STV","players":null},{"server_id":11,"name":"Uncletopia | London | 1 | All Maps","name_short":"lon-1","host":"lon-1.uk.uncletopia.com","port":27015,"enabled":true,"region":"eu","cc":"gb","latitude":51.509865,"longitude":-0.118092,"reserved":0,"last_update":"0001-01-01T00:00:00Z","name_a2s":"Uncletopia | London | 1 | All Maps","protocol":17,"map":"koth_viaduct","folder":"tf","game":"Team Fortress","app_id":440,"player_count":0,"max_players":24,"Bots":0,"server_type":"Dedicated","server_os":"Linux","password":true,"vac":true,"version":"7757534","steam_id":85568392924367362,"keywords":["cp","nocrits","nodmgspread","uncletopia"],"game_id":440,"stv_port":27016,"stv_name":"Uncletopia | London | 1 | All Maps | STV","players":null},{"server_id":114,"name":"Uncletopia | London | 2 | All Maps","name_short":"lon-2","host":"lon-1.uk.uncletopia.com","port":27025,"enabled":true,"region":"eu","cc":"gb","latitude":51.509865,"longitude":-0.118092,"reserved":0,"last_update":"0001-01-01T00:00:00Z","name_a2s":"Uncletopia | London | 2 | All Maps","protocol":17,"map":"pl_swiftwater_final1","folder":"tf","game":"Team Fortress","app_id":440,"player_count":24,"max_players":24,"Bots":0,"server_type":"Dedicated","server_os":"Linux","password":true,"vac":true,"version":"7757534","steam_id":85568392924470941,"keywords":["nocrits","nodmgspread","payload","uncletopia"],"game_id":440,"stv_port":27026,"stv_name":"Uncletopia | London | 2 | All Maps | STV","players":[{"user_id":1244,"name":"whoop","steam_id":76561197995028466,"connected_time":442000000000,"state":"active","ping":77},{"user_id":1216,"name":"Arturs","steam_id":76561198085667179,"connected_time":3543000000000,"state":"active","ping":109},{"user_id":1245,"name":"Kai","steam_id":76561198800004578,"connected_time":428000000000,"state":"active","ping":46},{"user_id":1237,"name":"Dreadnawght","steam_id":76561198000973506,"connected_time":1163000000000,"state":"active","ping":62},{"user_id":1250,"name":"Tazerann","steam_id":76561198043743881,"connected_time":73000000000,"state":"active","ping":44},{"user_id":1233,"name":"Nooblington","steam_id":76561198053695699,"connected_time":1418000000000,"state":"active","ping":45},{"user_id":1246,"name":"Professional Cookie Stealer","steam_id":76561198358029722,"connected_time":419000000000,"state":"active","ping":59},{"user_id":1222,"name":"valette","steam_id":76561198062747590,"connected_time":3257000000000,"state":"active","ping":59},{"user_id":1235,"name":"Aash","steam_id":76561198041530759,"connected_time":1198000000000,"state":"active","ping":54},{"user_id":1176,"name":"Hellcat","steam_id":76561198045692488,"connected_time":5594000000000,"state":"active","ping":83},{"user_id":1242,"name":"Kavary","steam_id":76561198024792146,"connected_time":947000000000,"state":"active","ping":85},{"user_id":1243,"name":"PROFILE NAME","steam_id":76561198180056982,"connected_time":580000000000,"state":"active","ping":59},{"user_id":1232,"name":"Kroto","steam_id":76561198056233760,"connected_time":1426000000000,"state":"active","ping":60},{"user_id":1178,"name":"Dr.Bananas89","steam_id":76561198098816836,"connected_time":5552000000000,"state":"active","ping":163},{"user_id":1238,"name":"etc","steam_id":76561197998394797,"connected_time":1144000000000,"state":"active","ping":52},{"user_id":1239,"name":"murderwow","steam_id":76561198024566944,"connected_time":1115000000000,"state":"active","ping":106},{"user_id":1223,"name":"Zerzark","steam_id":76561198070118903,"connected_time":3246000000000,"state":"active","ping":56},{"user_id":1240,"name":"pip boy","steam_id":76561197960530280,"connected_time":1041000000000,"state":"active","ping":74},{"user_id":1196,"name":"FireStorm","steam_id":76561198350478325,"connected_time":4793000000000,"state":"active","ping":45},{"user_id":1220,"name":"glyph","steam_id":76561197980736364,"connected_time":3426000000000,"state":"active","ping":83},{"user_id":1241,"name":"New","steam_id":76561198402195911,"connected_time":1025000000000,"state":"active","ping":111},{"user_id":1213,"name":"BrainLacking","steam_id":76561198965574196,"connected_time":3847000000000,"state":"active","ping":56},{"user_id":1214,"name":"The Black Duckling","steam_id":76561198383394891,"connected_time":3648000000000,"state":"active","ping":145},{"user_id":1249,"name":"Bumboy","steam_id":76561198146301690,"connected_time":382000000000,"state":"active","ping":57}]},{"server_id":320,"name":"Uncletopia | London | 3 | All Maps","name_short":"lon-3","host":"lon-1.uk.uncletopia.com","port":27035,"enabled":true,"region":"eu","cc":"gb","latitude":51.509865,"longitude":-0.118092,"reserved":0,"last_update":"0001-01-01T00:00:00Z","name_a2s":"Uncletopia | London | 3 | All Maps","protocol":17,"map":"cp_altitude","folder":"tf","game":"Team Fortress","app_id":440,"player_count":0,"max_players":24,"Bots":0,"server_type":"Dedicated","server_os":"Linux","password":true,"vac":true,"version":"7757534","steam_id":85568392924510192,"keywords":["cp","nocrits","nodmgspread","uncletopia"],"game_id":440,"stv_port":27036,"stv_name":"Uncletopia | London | 3 | All Maps | STV","players":null},{"server_id":321,"name":"Uncletopia | London | 4 | All Maps","name_short":"lon-4","host":"lon-1.uk.uncletopia.com","port":27045,"enabled":true,"region":"eu","cc":"gb","latitude":51.509865,"longitude":-0.118092,"reserved":0,"last_update":"0001-01-01T00:00:00Z","name_a2s":"Uncletopia | London | 4 | All Maps","protocol":17,"map":"koth_cascade","folder":"tf","game":"Team Fortress","app_id":440,"player_count":0,"max_players":24,"Bots":0,"server_type":"Dedicated","server_os":"Linux","password":true,"vac":true,"version":"7757534","steam_id":85568392924510193,"keywords":["cp","nocrits","nodmgspread","uncletopia"],"game_id":440,"stv_port":27046,"stv_name":"Uncletopia | London | 4 | All Maps | STV","players":null},{"server_id":21,"name":"Uncletopia | London | 5 | All Maps","name_short":"lon-5","host":"lon-1.uk.uncletopia.com","port":27055,"enabled":true,"region":"eu","cc":"gb","latitude":51.509865,"longitude":-0.118092,"reserved":0,"last_update":"0001-01-01T00:00:00Z","name_a2s":"Uncletopia | London | 5 | All Maps","protocol":17,"map":"koth_lakeside_final","folder":"tf","game":"Team Fortress","app_id":440,"player_count":0,"max_players":24,"Bots":0,"server_type":"Dedicated","server_os":"Linux","password":true,"vac":true,"version":"7757534","steam_id":85568392924742829,"keywords":["cp","nocrits","nodmgspread","uncletopia"],"game_id":440,"stv_port":27056,"stv_name":"Uncletopia | London | 5 | All Maps | STV","players":null},{"server_id":22,"name":"Uncletopia | London | 6 | All Maps","name_short":"lon-6","host":"lon-1.uk.uncletopia.com","port":27065,"enabled":true,"region":"eu","cc":"gb","latitude":51.509865,"longitude":-0.118092,"reserved":0,"last_update":"0001-01-01T00:00:00Z","name_a2s":"Uncletopia | London | 6 | All Maps","protocol":17,"map":"pl_swiftwater_final1","folder":"tf","game":"Team Fortress","app_id":440,"player_count":0,"max_players":24,"Bots":0,"server_type":"Dedicated","server_os":"Linux","password":true,"vac":true,"version":"7757534","steam_id":85568392924742830,"keywords":["nocrits","nodmgspread","payload","uncletopia"],"game_id":440,"stv_port":27066,"stv_name":"Uncletopia | London | 6 | All Maps | STV","players":null},{"server_id":40,"name":"Uncletopia | London | 7 | No Payload","name_short":"lon-7","host":"lon-1.uk.uncletopia.com","port":27075,"enabled":true,"region":"eu","cc":"gb","latitude":51.509865,"longitude":-0.118092,"reserved":0,"last_update":"0001-01-01T00:00:00Z","name_a2s":"Uncletopia | London | 7 | No Payload","protocol":17,"map":"koth_king","folder":"tf","game":"Team Fortress","app_id":440,"player_count":0,"max_players":24,"Bots":0,"server_type":"Dedicated","server_os":"Linux","password":true,"vac":true,"version":"7757534","steam_id":85568392924964314,"keywords":["cp","nocrits","nodmgspread","uncletopia"],"game_id":440,"stv_port":27076,"stv_name":"Uncletopia | London | 7 | No Payload | STV","players":null},{"server_id":41,"name":"Uncletopia | London | 8 | Community","name_short":"lon-8","host":"lon-1.uk.uncletopia.com","port":27085,"enabled":true,"region":"eu","cc":"gb","latitude":51.509865,"longitude":-0.118092,"reserved":0,"last_update":"0001-01-01T00:00:00Z","name_a2s":"Uncletopia | London | 8 | Community","protocol":17,"map":"workshop/koth_ashville_final.ugc2130459942","folder":"tf","game":"Team Fortress","app_id":440,"player_count":0,"max_players":24,"Bots":0,"server_type":"Dedicated","server_os":"Linux","password":true,"vac":true,"version":"7757534","steam_id":85568392924964315,"keywords":["cp","nocrits","nodmgspread","uncletopia"],"game_id":440,"stv_port":27086,"stv_name":"Uncletopia | London | 8 | Community | STV","players":null},{"server_id":300,"name":"Uncletopia | Montréal | 1 | All Maps","name_short":"mtl-1","host":"mtl-1.ca.uncletopia.com","port":27015,"enabled":true,"region":"us-east","cc":"ca","latitude":45.50889,"longitude":-73.56167,"reserved":0,"last_update":"0001-01-01T00:00:00Z","name_a2s":"Uncletopia | Montréal | 1 | All Maps","protocol":17,"map":"koth_cascade","folder":"tf","game":"Team Fortress","app_id":440,"player_count":0,"max_players":24,"Bots":0,"server_type":"Dedicated","server_os":"Linux","password":true,"vac":true,"version":"7757534","steam_id":85568392924500087,"keywords":["cp","nocrits","nodmgspread","uncletopia"],"game_id":440,"stv_port":27016,"stv_name":"Uncletopia | Montréal | 1 | All Maps | STV","players":null},{"server_id":301,"name":"Uncletopia | Montréal | 2 | All Maps","name_short":"mtl-2","host":"mtl-1.ca.uncletopia.com","port":27025,"enabled":true,"region":"us-east","cc":"ca","latitude":45.50889,"longitude":-73.56167,"reserved":0,"last_update":"0001-01-01T00:00:00Z","name_a2s":"Uncletopia | Montréal | 2 | All Maps","protocol":17,"map":"cp_sunshine","folder":"tf","game":"Team Fortress","app_id":440,"player_count":0,"max_players":24,"Bots":0,"server_type":"Dedicated","server_os":"Linux","password":true,"vac":true,"version":"7757534","steam_id":85568392924500088,"keywords":["cp","nocrits","nodmgspread","uncletopia"],"game_id":440,"stv_port":27026,"stv_name":"Uncletopia | Montréal | 2 | All Maps | STV","players":null},{"server_id":302,"name":"Uncletopia | Montréal | 3 | All Maps","name_short":"mtl-3","host":"mtl-1.ca.uncletopia.com","port":27035,"enabled":true,"region":"us-east","cc":"ca","latitude":45.50889,"longitude":-73.56167,"reserved":0,"last_update":"0001-01-01T00:00:00Z","name_a2s":"Uncletopia | Montréal | 3 | All Maps","protocol":17,"map":"cp_sunshine","folder":"tf","game":"Team Fortress","app_id":440,"player_count":0,"max_players":24,"Bots":0,"server_type":"Dedicated","server_os":"Linux","password":true,"vac":true,"version":"7757534","steam_id":85568392924500089,"keywords":["cp","nocrits","nodmgspread","uncletopia"],"game_id":440,"stv_port":27036,"stv_name":"Uncletopia | Montréal | 3 | All Maps | STV","players":null},{"server_id":303,"name":"Uncletopia | Montréal | 4 | No Payload","name_short":"mtl-4","host":"mtl-1.ca.uncletopia.com","port":27045,"enabled":true,"region":"us-east","cc":"ca","latitude":45.50889,"longitude":-73.56167,"reserved":0,"last_update":"0001-01-01T00:00:00Z","name_a2s":"Uncletopia | Montréal | 4 | No Payload","protocol":17,"map":"cp_mountainlab","folder":"tf","game":"Team Fortress","app_id":440,"player_count":6,"max_players":24,"Bots":0,"server_type":"Dedicated","server_os":"Linux","password":true,"vac":true,"version":"7757534","steam_id":85568392924500090,"keywords":["cp","nocrits","nodmgspread","uncletopia"],"game_id":440,"stv_port":27046,"stv_name":"Uncletopia | Montréal | 4 | No Payload | STV","players":[{"user_id":9,"name":"SupermanBritt","steam_id":76561198195533697,"connected_time":3758000000000,"state":"active","ping":55},{"user_id":10,"name":"Vitzenhauzer","steam_id":76561198116449787,"connected_time":3756000000000,"state":"active","ping":56},{"user_id":11,"name":"DocterBuster","steam_id":76561198199283535,"connected_time":3750000000000,"state":"active","ping":58},{"user_id":12,"name":"Simon","steam_id":76561198332763962,"connected_time":3744000000000,"state":"active","ping":54},{"user_id":13,"name":"Kjorque","steam_id":76561198091978710,"connected_time":776000000000,"state":"active","ping":119},{"user_id":14,"name":"Gary","steam_id":76561198133309753,"connected_time":758000000000,"state":"active","ping":59}]},{"server_id":13,"name":"Uncletopia | New York City | 1 | All Maps","name_short":"nyc-1","host":"nyc-1.us.uncletopia.com","port":27015,"enabled":true,"region":"us-east","cc":"us","latitude":40.73061,"longitude":-73.93524,"reserved":0,"last_update":"0001-01-01T00:00:00Z","name_a2s":"Uncletopia | New York City | 1 | All Maps","protocol":17,"map":"koth_brazil","folder":"tf","game":"Team Fortress","app_id":440,"player_count":24,"max_players":24,"Bots":0,"server_type":"Dedicated","server_os":"Linux","password":true,"vac":true,"version":"7757534","steam_id":85568392924469993,"keywords":["cp","nocrits","nodmgspread","uncletopia"],"game_id":440,"stv_port":27016,"stv_name":"Uncletopia | New York City | 1 | All Maps | STV","players":[{"user_id":439,"name":"Angora","steam_id":76561198068520506,"connected_time":369000000000,"state":"active","ping":82},{"user_id":437,"name":"Mr_Blue_Sun","steam_id":76561198803462433,"connected_time":416000000000,"state":"active","ping":61},{"user_id":385,"name":"miner","steam_id":76561198073035221,"connected_time":2684000000000,"state":"active","ping":74},{"user_id":392,"name":"CptSkippy","steam_id":76561198127439343,"connected_time":2059000000000,"state":"active","ping":107},{"user_id":443,"name":"Angus Butt","steam_id":76561198355342780,"connected_time":263000000000,"state":"active","ping":47},{"user_id":444,"name":"poogoblin49","steam_id":76561198124866303,"connected_time":246000000000,"state":"active","ping":76},{"user_id":448,"name":"Dauntless Duelist","steam_id":76561198025056018,"connected_time":68000000000,"state":"active","ping":112},{"user_id":345,"name":"Hydroxianchaos","steam_id":76561198043786828,"connected_time":6952000000000,"state":"active","ping":43},{"user_id":440,"name":"Rabbitone","steam_id":76561198132691749,"connected_time":359000000000,"state":"active","ping":106},{"user_id":360,"name":"Quansen","steam_id":76561198151594550,"connected_time":4065000000000,"state":"active","ping":56},{"user_id":434,"name":"Festivized Bar (101)","steam_id":76561198416341999,"connected_time":636000000000,"state":"active","ping":88},{"user_id":395,"name":"LinkFromDaPast","steam_id":76561198211437197,"connected_time":2036000000000,"state":"active","ping":104},{"user_id":433,"name":"ultra instinct cringe micheal","steam_id":76561198275625984,"connected_time":653000000000,"state":"active","ping":64},{"user_id":441,"name":"Havok","steam_id":76561198063455003,"connected_time":351000000000,"state":"active","ping":51},{"user_id":403,"name":"Vonzoid","steam_id":76561198272309709,"connected_time":1603000000000,"state":"active","ping":81},{"user_id":365,"name":"Solomon Grundy","steam_id":76561198956823243,"connected_time":3635000000000,"state":"active","ping":53},{"user_id":387,"name":"woah","steam_id":76561198070547748,"connected_time":2318000000000,"state":"active","ping":64},{"user_id":449,"name":"KawaiiFox_chan","steam_id":76561198303569493,"connected_time":50000000000,"state":"spawning","ping":92},{"user_id":401,"name":"Beeveelution","steam_id":76561198331526301,"connected_time":1673000000000,"state":"active","ping":116},{"user_id":421,"name":"illious","steam_id":76561198169925494,"connected_time":981000000000,"state":"active","ping":68},{"user_id":445,"name":"Megadesk","steam_id":76561198078219641,"connected_time":237000000000,"state":"active","ping":76},{"user_id":381,"name":"Snoogs","steam_id":76561198444880931,"connected_time":3362000000000,"state":"active","ping":63},{"user_id":430,"name":"simplyhere141","steam_id":76561199204117948,"connected_time":699000000000,"state":"active","ping":47},{"user_id":287,"name":"CRAZY engineer","steam_id":76561198887937902,"connected_time":12781000000000,"state":"active","ping":50}]},{"server_id":14,"name":"Uncletopia | New York City | 2 | All Maps","name_short":"nyc-2","host":"nyc-1.us.uncletopia.com","port":27025,"enabled":true,"region":"us-east","cc":"us","latitude":40.73061,"longitude":-73.93524,"reserved":0,"last_update":"0001-01-01T00:00:00Z","name_a2s":"Uncletopia | New York City | 2 | All Maps","protocol":17,"map":"pl_upward","folder":"tf","game":"Team Fortress","app_id":440,"player_count":24,"max_players":24,"Bots":0,"server_type":"Dedicated","server_os":"Linux","password":true,"vac":true,"version":"7757534","steam_id":85568392924469994,"keywords":["nocrits","nodmgspread","payload","uncletopia"],"game_id":440,"stv_port":27026,"stv_name":"Uncletopia | New York City | 2 | All Maps | STV","players":[{"user_id":661,"name":"glert","steam_id":76561198808378733,"connected_time":103000000000,"state":"active","ping":63},{"user_id":662,"name":"Pixeled","steam_id":76561198088917077,"connected_time":52000000000,"state":"active","ping":84},{"user_id":649,"name":"Skullypoo","steam_id":76561198067912022,"connected_time":989000000000,"state":"active","ping":67},{"user_id":642,"name":"FAC","steam_id":76561198009818412,"connected_time":1069000000000,"state":"active","ping":75},{"user_id":644,"name":"ṽ⧉ cookie","steam_id":76561197998884823,"connected_time":1057000000000,"state":"active","ping":86},{"user_id":640,"name":"MidnightOnyx","steam_id":76561199117733905,"connected_time":1231000000000,"state":"active","ping":82},{"user_id":604,"name":"Tom!","steam_id":76561198110937717,"connected_time":3837000000000,"state":"active","ping":58},{"user_id":663,"name":"wolf_71","steam_id":76561198963570945,"connected_time":14000000000,"state":"active","ping":109},{"user_id":641,"name":"DB1","steam_id":76561199172642819,"connected_time":1223000000000,"state":"active","ping":58},{"user_id":646,"name":"ark","steam_id":76561198041066271,"connected_time":1044000000000,"state":"active","ping":99},{"user_id":612,"name":"flappyflap2","steam_id":76561198285048973,"connected_time":3207000000000,"state":"active","ping":45},{"user_id":653,"name":"yerb *18badies ^_^","steam_id":76561198312055294,"connected_time":879000000000,"state":"active","ping":44},{"user_id":648,"name":"ki","steam_id":76561198018564445,"connected_time":1022000000000,"state":"active","ping":88},{"user_id":650,"name":"Jungian PSYOP","steam_id":76561198116125023,"connected_time":987000000000,"state":"active","ping":70},{"user_id":569,"name":"Bunny Eater","steam_id":76561198029563721,"connected_time":6410000000000,"state":"active","ping":75},{"user_id":658,"name":"maax","steam_id":76561198050722114,"connected_time":453000000000,"state":"active","ping":50},{"user_id":654,"name":"ur so pretty ^_^ \u003c3","steam_id":76561198832230598,"connected_time":878000000000,"state":"active","ping":51},{"user_id":655,"name":"Saristan","steam_id":76561198093346048,"connected_time":851000000000,"state":"active","ping":50},{"user_id":617,"name":"Harold","steam_id":76561198057317770,"connected_time":3145000000000,"state":"active","ping":107},{"user_id":656,"name":"GiraffeMan","steam_id":76561198042104084,"connected_time":774000000000,"state":"active","ping":59},{"user_id":618,"name":"DAS SCHNITZELSTIEN","steam_id":76561198051137159,"connected_time":3140000000000,"state":"active","ping":111},{"user_id":622,"name":"Fudgely","steam_id":76561198039425862,"connected_time":2955000000000,"state":"active","ping":53},{"user_id":630,"name":"EVIL MEDIC","steam_id":76561199151780779,"connected_time":2219000000000,"state":"active","ping":62},{"user_id":660,"name":"Jazz","steam_id":76561198281069210,"connected_time":234000000000,"state":"active","ping":61}]},{"server_id":15,"name":"Uncletopia | New York City | 3 | Stopwatch Beta","name_short":"nyc-3","host":"nyc-1.us.uncletopia.com","port":27035,"enabled":true,"region":"us-east","cc":"us","latitude":40.73061,"longitude":-73.93524,"reserved":0,"last_update":"0001-01-01T00:00:00Z","name_a2s":"Uncletopia | New York City | 3 | Stopwatch Beta","protocol":17,"map":"workshop/cp_reckoner_rc6.ugc674719999","folder":"tf","game":"Team Fortress","app_id":440,"player_count":0,"max_players":24,"Bots":0,"server_type":"Dedicated","server_os":"Linux","password":true,"vac":true,"version":"7757534","steam_id":85568392924742820,"keywords":["cp","nocrits","nodmgspread","uncletopia"],"game_id":440,"stv_port":27036,"stv_name":"Uncletopia | New York City | 3 | Stopwatch Beta | STV","players":null},{"server_id":16,"name":"Uncletopia | New York City | 4 | Community","name_short":"nyc-4","host":"nyc-1.us.uncletopia.com","port":27045,"enabled":true,"region":"us-east","cc":"us","latitude":40.73061,"longitude":-73.93524,"reserved":0,"last_update":"0001-01-01T00:00:00Z","name_a2s":"Uncletopia | New York City | 4 | Community","protocol":17,"map":"workshop/koth_ashville_final.ugc2130459942","folder":"tf","game":"Team Fortress","app_id":440,"player_count":6,"max_players":24,"Bots":0,"server_type":"Dedicated","server_os":"Linux","password":true,"vac":true,"version":"7757534","steam_id":85568392924742821,"keywords":["cp","nocrits","nodmgspread","uncletopia"],"game_id":440,"stv_port":27046,"stv_name":"Uncletopia | New York City | 4 | Community | STV","players":[{"user_id":134,"name":"Godfinger","steam_id":76561198426346549,"connected_time":743000000000,"state":"active","ping":64},{"user_id":39,"name":"King Sans","steam_id":76561198294198517,"connected_time":8508000000000,"state":"active","ping":40},{"user_id":141,"name":"Cyvi","steam_id":76561198167450649,"connected_time":237000000000,"state":"active","ping":76},{"user_id":125,"name":"Chechens Spotted","steam_id":76561199028910893,"connected_time":2234000000000,"state":"active","ping":74},{"user_id":108,"name":"nnobi","steam_id":76561198878729277,"connected_time":3386000000000,"state":"active","ping":74},{"user_id":120,"name":"SoWhich","steam_id":76561198237125842,"connected_time":2844000000000,"state":"active","ping":66}]},{"server_id":142,"name":"Uncletopia | São Paulo | 1 | All Maps","name_short":"sao-1","host":"sao-1.br.uncletopia.com","port":27015,"enabled":true,"region":"sa","cc":"br","latitude":-23.533773,"longitude":-46.62529,"reserved":0,"last_update":"0001-01-01T00:00:00Z","name_a2s":"Uncletopia | São Paulo | 1 | All Maps","protocol":17,"map":"koth_highpass","folder":"tf","game":"Team Fortress","app_id":440,"player_count":0,"max_players":24,"Bots":0,"server_type":"Dedicated","server_os":"Linux","password":true,"vac":true,"version":"7757534","steam_id":85568392924469996,"keywords":["cp","nocrits","nodmgspread","uncletopia"],"game_id":440,"stv_port":27016,"stv_name":"Uncletopia | São Paulo | 1 | All Maps | STV","players":null},{"server_id":143,"name":"Uncletopia | São Paulo | 2 | All Maps","name_short":"sao-2","host":"sao-2.br.uncletopia.com","port":27015,"enabled":true,"region":"sa","cc":"br","latitude":-23.533773,"longitude":-46.62529,"reserved":0,"last_update":"0001-01-01T00:00:00Z","name_a2s":"Uncletopia | São Paulo | 2 | All Maps","protocol":17,"map":"koth_highpass","folder":"tf","game":"Team Fortress","app_id":440,"player_count":0,"max_players":24,"Bots":0,"server_type":"Dedicated","server_os":"Linux","password":true,"vac":true,"version":"7757534","steam_id":85568392924485349,"keywords":["cp","nocrits","nodmgspread","uncletopia"],"game_id":440,"stv_port":27016,"stv_name":"Uncletopia | São Paulo | 2 | All Maps | STV","players":null},{"server_id":7,"name":"Uncletopia | Seattle | 1 | All Maps","name_short":"sea-1","host":"sea-1.us.uncletopia.com","port":27015,"enabled":true,"region":"us-west","cc":"us","latitude":47.608013,"longitude":-122.33517,"reserved":0,"last_update":"0001-01-01T00:00:00Z","name_a2s":"Uncletopia | Seattle | 1 | All Maps","protocol":17,"map":"pl_barnblitz","folder":"tf","game":"Team Fortress","app_id":440,"player_count":24,"max_players":24,"Bots":0,"server_type":"Dedicated","server_os":"Linux","password":true,"vac":true,"version":"7757534","steam_id":85568392924469997,"keywords":["nocrits","nodmgspread","payload","uncletopia"],"game_id":440,"stv_port":27016,"stv_name":"Uncletopia | Seattle | 1 | All Maps | STV","players":[{"user_id":539,"name":"kaeru","steam_id":76561198043789098,"connected_time":3729000000000,"state":"active","ping":74},{"user_id":589,"name":"Percules 2024","steam_id":76561198195220521,"connected_time":170000000000,"state":"active","ping":77},{"user_id":583,"name":"Amateur Glaswegian","steam_id":76561198030851956,"connected_time":552000000000,"state":"active","ping":53},{"user_id":489,"name":"Aardappel","steam_id":76561198030894676,"connected_time":6343000000000,"state":"active","ping":71},{"user_id":586,"name":"TüCold","steam_id":76561198111278197,"connected_time":446000000000,"state":"active","ping":52},{"user_id":577,"name":"〣dust〣 -she/her-","steam_id":76561198045218909,"connected_time":1370000000000,"state":"active","ping":43},{"user_id":575,"name":"carmillaluvr1334","steam_id":76561198325306660,"connected_time":1726000000000,"state":"active","ping":53},{"user_id":514,"name":"rat gets the cheese","steam_id":76561198031234032,"connected_time":5045000000000,"state":"active","ping":97},{"user_id":567,"name":"Villchip","steam_id":76561198198599982,"connected_time":2090000000000,"state":"active","ping":54},{"user_id":568,"name":"riff","steam_id":76561198168924361,"connected_time":2077000000000,"state":"active","ping":107},{"user_id":517,"name":"Julien","steam_id":76561199389584938,"connected_time":4820000000000,"state":"active","ping":44},{"user_id":587,"name":"Divine Kitty","steam_id":76561198293490689,"connected_time":187000000000,"state":"active","ping":70},{"user_id":569,"name":"Truffles","steam_id":76561198095868800,"connected_time":2041000000000,"state":"active","ping":114},{"user_id":590,"name":"brick of samd","steam_id":76561198419896433,"connected_time":159000000000,"state":"active","ping":37},{"user_id":578,"name":"R5-D4","steam_id":76561198025196439,"connected_time":1187000000000,"state":"active","ping":54},{"user_id":579,"name":"2u1t3500_______","steam_id":76561198870649125,"connected_time":907000000000,"state":"active","ping":88},{"user_id":529,"name":"TheCowledWiz","steam_id":76561198016735868,"connected_time":3964000000000,"state":"active","ping":47},{"user_id":570,"name":"A Normal Zed","steam_id":76561198376026672,"connected_time":2034000000000,"state":"active","ping":105},{"user_id":580,"name":"ryghehn","steam_id":76561198195359229,"connected_time":725000000000,"state":"active","ping":43},{"user_id":592,"name":"LogicalFurret","steam_id":76561198350604657,"connected_time":152000000000,"state":"active","ping":91},{"user_id":453,"name":"Mignyanne :3","steam_id":76561198048754056,"connected_time":8872000000000,"state":"active","ping":76},{"user_id":576,"name":"Theory-ZaZa","steam_id":76561198116419931,"connected_time":1610000000000,"state":"active","ping":62},{"user_id":543,"name":"Mike's Pimento Cheese Sandwich","steam_id":76561198978499219,"connected_time":3592000000000,"state":"active","ping":75},{"user_id":585,"name":"parrot1002924","steam_id":76561199443882275,"connected_time":469000000000,"state":"active","ping":77}]},{"server_id":119,"name":"Uncletopia | Seattle | 2 | All Maps","name_short":"sea-2","host":"sea-1.us.uncletopia.com","port":27025,"enabled":true,"region":"us-west","cc":"us","latitude":47.608013,"longitude":-122.33517,"reserved":0,"last_update":"0001-01-01T00:00:00Z","name_a2s":"Uncletopia | Seattle | 2 | All Maps","protocol":17,"map":"koth_lakeside_final","folder":"tf","game":"Team Fortress","app_id":440,"player_count":24,"max_players":24,"Bots":0,"server_type":"Dedicated","server_os":"Linux","password":true,"vac":true,"version":"7757534","steam_id":85568392924469998,"keywords":["cp","nocrits","nodmgspread","uncletopia"],"game_id":440,"stv_port":27026,"stv_name":"Uncletopia | Seattle | 2 | All Maps | STV","players":[{"user_id":426,"name":"SvicidalBug","steam_id":76561198221390504,"connected_time":809000000000,"state":"active","ping":68},{"user_id":400,"name":"Diesel","steam_id":76561198060177579,"connected_time":5073000000000,"state":"active","ping":75},{"user_id":440,"name":"bob1444","steam_id":76561198110258432,"connected_time":279000000000,"state":"active","ping":135},{"user_id":434,"name":"......","steam_id":76561198067612741,"connected_time":433000000000,"state":"active","ping":44},{"user_id":420,"name":"Superfroakie","steam_id":76561198117833895,"connected_time":1794000000000,"state":"active","ping":141},{"user_id":439,"name":"CSharp","steam_id":76561199185191710,"connected_time":374000000000,"state":"active","ping":141},{"user_id":435,"name":"mmmBoyo","steam_id":76561198821360261,"connected_time":432000000000,"state":"active","ping":69},{"user_id":409,"name":"The Population of Sweden","steam_id":76561198202201644,"connected_time":3939000000000,"state":"active","ping":37},{"user_id":436,"name":"Scansy","steam_id":76561198140528754,"connected_time":432000000000,"state":"active","ping":47},{"user_id":442,"name":"Oinker","steam_id":76561198033130631,"connected_time":151000000000,"state":"active","ping":67},{"user_id":411,"name":"Pneumo.","steam_id":76561197987911883,"connected_time":3260000000000,"state":"active","ping":75},{"user_id":422,"name":"Tomato Soup","steam_id":76561198051834684,"connected_time":1392000000000,"state":"active","ping":69},{"user_id":419,"name":"mub","steam_id":76561197961943948,"connected_time":2131000000000,"state":"active","ping":47},{"user_id":429,"name":"Dextersbrain","steam_id":76561198011831579,"connected_time":463000000000,"state":"active","ping":68},{"user_id":388,"name":"Buuw","steam_id":76561198085707714,"connected_time":5962000000000,"state":"active","ping":87},{"user_id":412,"name":"Major Rabbit","steam_id":76561198086047613,"connected_time":3253000000000,"state":"active","ping":127},{"user_id":430,"name":"evil baby","steam_id":76561198019435762,"connected_time":459000000000,"state":"active","ping":73},{"user_id":378,"name":"CDMacK","steam_id":76561198043909070,"connected_time":6569000000000,"state":"active","ping":65},{"user_id":325,"name":"SadFapping","steam_id":76561198076651049,"connected_time":11311000000000,"state":"active","ping":59},{"user_id":441,"name":"Deltablood","steam_id":76561198028259914,"connected_time":206000000000,"state":"active","ping":95},{"user_id":437,"name":"RockDoctor","steam_id":76561198965756070,"connected_time":425000000000,"state":"active","ping":64},{"user_id":438,"name":"Misteryman321","steam_id":76561198039041713,"connected_time":405000000000,"state":"active","ping":76},{"user_id":410,"name":"Spek","steam_id":76561198051816190,"connected_time":3268000000000,"state":"active","ping":94},{"user_id":423,"name":"king piccolo gaming","steam_id":76561198000744865,"connected_time":1391000000000,"state":"active","ping":48}]},{"server_id":406,"name":"Uncletopia | Seattle | 3 | Stopwatch Beta","name_short":"sea-3","host":"sea-1.us.uncletopia.com","port":27035,"enabled":true,"region":"us-west","cc":"us","latitude":47.608013,"longitude":-122.33517,"reserved":0,"last_update":"0001-01-01T00:00:00Z","name_a2s":"Uncletopia | Seattle | 3 | Stopwatch Beta","protocol":17,"map":"pl_swiftwater_final1","folder":"tf","game":"Team Fortress","app_id":440,"player_count":0,"max_players":24,"Bots":0,"server_type":"Dedicated","server_os":"Linux","password":true,"vac":true,"version":"7757534","steam_id":85568392924515217,"keywords":["nocrits","nodmgspread","payload","uncletopia"],"game_id":440,"stv_port":27036,"stv_name":"Uncletopia | Seattle | 3 | Stopwatch Beta | STV","players":null},{"server_id":17,"name":"Uncletopia | San Francisco | 1 | All Maps","name_short":"sfo-1","host":"sfo-1.us.uncletopia.com","port":27015,"enabled":true,"region":"us-west","cc":"us","latitude":37.77397,"longitude":-122.4313,"reserved":0,"last_update":"0001-01-01T00:00:00Z","name_a2s":"Uncletopia | San Francisco | 1 | All Maps","protocol":17,"map":"pl_barnblitz","folder":"tf","game":"Team Fortress","app_id":440,"player_count":24,"max_players":24,"Bots":0,"server_type":"Dedicated","server_os":"Linux","password":true,"vac":true,"version":"7757534","steam_id":85568392924469999,"keywords":["nocrits","nodmgspread","payload","uncletopia"],"game_id":440,"stv_port":27016,"stv_name":"Uncletopia | San Francisco | 1 | All Maps | STV","players":[{"user_id":747,"name":"Mugen","steam_id":76561198411174773,"connected_time":1291000000000,"state":"active","ping":58},{"user_id":750,"name":"Sacapuntas","steam_id":76561198014848089,"connected_time":871000000000,"state":"active","ping":67},{"user_id":738,"name":"loyaldandan0764","steam_id":76561199231020424,"connected_time":1715000000000,"state":"active","ping":75},{"user_id":723,"name":"Amish Robot","steam_id":76561198041156065,"connected_time":2697000000000,"state":"active","ping":93},{"user_id":735,"name":"TheBrocklobster","steam_id":76561198039682984,"connected_time":1987000000000,"state":"active","ping":68},{"user_id":751,"name":"*BOOM*TSK*MORTAL KOMBAAAAAT!","steam_id":76561197961107982,"connected_time":857000000000,"state":"active","ping":101},{"user_id":749,"name":"ssxbbygoyard","steam_id":76561198206866237,"connected_time":911000000000,"state":"active","ping":77},{"user_id":758,"name":"pingus","steam_id":76561198268995867,"connected_time":206000000000,"state":"active","ping":50},{"user_id":720,"name":"thebigjay762","steam_id":76561199469055293,"connected_time":2866000000000,"state":"active","ping":128},{"user_id":752,"name":"Final_MarioXD","steam_id":76561199184862419,"connected_time":785000000000,"state":"active","ping":106},{"user_id":700,"name":"pan","steam_id":76561198093968095,"connected_time":3567000000000,"state":"active","ping":45},{"user_id":756,"name":"Cute Gatito","steam_id":76561198351147780,"connected_time":622000000000,"state":"active","ping":61},{"user_id":753,"name":"CumBob","steam_id":76561198168693975,"connected_time":766000000000,"state":"active","ping":30},{"user_id":745,"name":"Whapper","steam_id":76561198044029606,"connected_time":1343000000000,"state":"active","ping":55},{"user_id":748,"name":"Better Homes \u0026 Gardens","steam_id":76561198032269238,"connected_time":915000000000,"state":"active","ping":76},{"user_id":729,"name":"Wolowolowolowolowolowolowolowol","steam_id":76561199217207233,"connected_time":2575000000000,"state":"active","ping":47},{"user_id":740,"name":"Nekrotic","steam_id":76561198309465586,"connected_time":1636000000000,"state":"active","ping":67},{"user_id":754,"name":"the grape thief","steam_id":76561198862785401,"connected_time":760000000000,"state":"active","ping":58},{"user_id":736,"name":"็็็็็","steam_id":76561198118859752,"connected_time":1903000000000,"state":"active","ping":50},{"user_id":731,"name":"Ignignokt","steam_id":76561198162207470,"connected_time":2518000000000,"state":"active","ping":78},{"user_id":755,"name":"Shyland(Nilla)","steam_id":76561198253089092,"connected_time":754000000000,"state":"active","ping":80},{"user_id":737,"name":"Socialism Enjoyer","steam_id":76561197991817974,"connected_time":1892000000000,"state":"active","ping":56},{"user_id":742,"name":"Fazool","steam_id":76561198111191216,"connected_time":1616000000000,"state":"active","ping":83},{"user_id":743,"name":"Mr. Taco","steam_id":76561198030583357,"connected_time":1609000000000,"state":"active","ping":69}]},{"server_id":18,"name":"Uncletopia | San Francisco | 2 | All Maps","name_short":"sfo-2","host":"sfo-1.us.uncletopia.com","port":27025,"enabled":true,"region":"us-west","cc":"us","latitude":37.77397,"longitude":-122.4313,"reserved":0,"last_update":"0001-01-01T00:00:00Z","name_a2s":"Uncletopia | San Francisco | 2 | All Maps","protocol":17,"map":"pl_pier","folder":"tf","game":"Team Fortress","app_id":440,"player_count":24,"max_players":24,"Bots":0,"server_type":"Dedicated","server_os":"Linux","password":true,"vac":true,"version":"7757534","steam_id":85568392924470000,"keywords":["nocrits","nodmgspread","payload","uncletopia"],"game_id":440,"stv_port":27026,"stv_name":"Uncletopia | San Francisco | 2 | All Maps | STV","players":[{"user_id":217,"name":"Kafka","steam_id":76561198051444864,"connected_time":269000000000,"state":"active","ping":53},{"user_id":216,"name":"Tax Evasion Wario","steam_id":76561198049563704,"connected_time":282000000000,"state":"active","ping":91},{"user_id":185,"name":"Sudo","steam_id":76561198123714026,"connected_time":3569000000000,"state":"active","ping":57},{"user_id":165,"name":"Goldbug","steam_id":76561198025221202,"connected_time":4847000000000,"state":"active","ping":40},{"user_id":212,"name":"Fargo","steam_id":76561198044703931,"connected_time":884000000000,"state":"active","ping":71},{"user_id":150,"name":"'^ '","steam_id":76561198125261443,"connected_time":5779000000000,"state":"active","ping":76},{"user_id":197,"name":"KennyIsBroke","steam_id":76561198245254014,"connected_time":2723000000000,"state":"active","ping":66},{"user_id":218,"name":"carp","steam_id":76561198193144463,"connected_time":235000000000,"state":"active","ping":51},{"user_id":219,"name":"sevvy \u003c3","steam_id":76561198219129496,"connected_time":202000000000,"state":"active","ping":57},{"user_id":220,"name":"Euphoria","steam_id":76561198187168787,"connected_time":189000000000,"state":"active","ping":95},{"user_id":152,"name":"milfs hmu","steam_id":76561198123477485,"connected_time":5770000000000,"state":"active","ping":51},{"user_id":205,"name":"PonYOOOOOOO","steam_id":76561199067424111,"connected_time":1992000000000,"state":"active","ping":62},{"user_id":192,"name":"bucue","steam_id":76561198053364136,"connected_time":2839000000000,"state":"active","ping":54},{"user_id":211,"name":"WayPastMeh","steam_id":76561198440277329,"connected_time":1304000000000,"state":"active","ping":81},{"user_id":221,"name":"Bombtoberfest","steam_id":76561198086185831,"connected_time":168000000000,"state":"active","ping":66},{"user_id":194,"name":"GarboBeans","steam_id":76561198089127316,"connected_time":2833000000000,"state":"active","ping":59},{"user_id":215,"name":"Brando","steam_id":76561198078306678,"connected_time":310000000000,"state":"active","ping":76},{"user_id":161,"name":"dosimeter","steam_id":76561198039608940,"connected_time":5320000000000,"state":"active","ping":71},{"user_id":200,"name":"BarelyAnimateObject","steam_id":76561198986264116,"connected_time":2596000000000,"state":"active","ping":51},{"user_id":206,"name":"Orange Toaster","steam_id":76561198013397599,"connected_time":1989000000000,"state":"active","ping":59},{"user_id":154,"name":"wesker can hit it tbh","steam_id":76561197968351430,"connected_time":5754000000000,"state":"active","ping":62},{"user_id":214,"name":"The Rookie Sensation","steam_id":76561198060731432,"connected_time":844000000000,"state":"active","ping":93},{"user_id":198,"name":"Big Gazza","steam_id":76561199030963367,"connected_time":2718000000000,"state":"active","ping":72},{"user_id":222,"name":"Thicket","steam_id":76561198371066702,"connected_time":160000000000,"state":"active","ping":64}]},{"server_id":19,"name":"Uncletopia | San Francisco | 3 | Stopwatch Beta","name_short":"sfo-3","host":"sfo-1.us.uncletopia.com","port":27035,"enabled":true,"region":"us-west","cc":"us","latitude":37.77397,"longitude":-122.4313,"reserved":0,"last_update":"0001-01-01T00:00:00Z","name_a2s":"Uncletopia | San Francisco | 3 | Stopwatch Beta","protocol":17,"map":"workshop/koth_clearcut_b15.ugc2107050255","folder":"tf","game":"Team Fortress","app_id":440,"player_count":0,"max_players":24,"Bots":0,"server_type":"Dedicated","server_os":"Linux","password":true,"vac":true,"version":"7757534","steam_id":85568392924742824,"keywords":["cp","nocrits","nodmgspread","uncletopia"],"game_id":440,"stv_port":27036,"stv_name":"Uncletopia | San Francisco | 3 | Stopwatch Beta | STV","players":null},{"server_id":20,"name":"Uncletopia | San Francisco | 4 | Community","name_short":"sfo-4","host":"sfo-1.us.uncletopia.com","port":27045,"enabled":true,"region":"us-west","cc":"us","latitude":37.77397,"longitude":-122.4313,"reserved":0,"last_update":"0001-01-01T00:00:00Z","name_a2s":"Uncletopia | San Francisco | 4 | Community","protocol":17,"map":"workshop/pl_fifthcurve_rc1.ugc648227046","folder":"tf","game":"Team Fortress","app_id":440,"player_count":0,"max_players":24,"Bots":0,"server_type":"Dedicated","server_os":"Linux","password":true,"vac":true,"version":"7757534","steam_id":85568392924742826,"keywords":["nocrits","nodmgspread","payload","uncletopia"],"game_id":440,"stv_port":27046,"stv_name":"Uncletopia | San Francisco | 4 | Community | STV","players":null},{"server_id":141,"name":"Uncletopia | Sydney | 1 | All Maps","name_short":"syd-1","host":"syd-1.au.uncletopia.com","port":27015,"enabled":true,"region":"au","cc":"au","latitude":-33.865143,"longitude":151.2099,"reserved":0,"last_update":"0001-01-01T00:00:00Z","name_a2s":"Uncletopia | Sydney | 1 | All Maps","protocol":17,"map":"cp_dustbowl","folder":"tf","game":"Team Fortress","app_id":440,"player_count":24,"max_players":24,"Bots":0,"server_type":"Dedicated","server_os":"Linux","password":true,"vac":true,"version":"7757534","steam_id":85568392924470001,"keywords":["cp","nocrits","nodmgspread","uncletopia"],"game_id":440,"stv_port":27016,"stv_name":"Uncletopia | Sydney | 1 | All Maps | STV","players":[{"user_id":190,"name":"Dr Rags","steam_id":76561198179481430,"connected_time":90000000000,"state":"active","ping":91},{"user_id":174,"name":"Hardcase","steam_id":76561198124442611,"connected_time":2155000000000,"state":"active","ping":80},{"user_id":193,"name":"Sy 4","steam_id":76561198879862702,"connected_time":49000000000,"state":"active","ping":68},{"user_id":192,"name":"SewerStalker","steam_id":76561199253363005,"connected_time":79000000000,"state":"active","ping":115},{"user_id":191,"name":"pos1tve","steam_id":76561199087124672,"connected_time":87000000000,"state":"active","ping":44},{"user_id":181,"name":"MaeThereBeBees","steam_id":76561198970137480,"connected_time":1461000000000,"state":"active","ping":73},{"user_id":71,"name":"Wake'n'Bake'n'Make'n'Bacon","steam_id":76561198061960926,"connected_time":11354000000000,"state":"active","ping":97},{"user_id":59,"name":"Cup","steam_id":76561198038485845,"connected_time":12481000000000,"state":"active","ping":47},{"user_id":182,"name":"osiris","steam_id":76561198172640226,"connected_time":1288000000000,"state":"active","ping":74},{"user_id":188,"name":"CalSeek","steam_id":76561198196680755,"connected_time":369000000000,"state":"active","ping":80},{"user_id":109,"name":"Piklz","steam_id":76561198043384139,"connected_time":8835000000000,"state":"active","ping":54},{"user_id":175,"name":"uncle nephew junior","steam_id":76561198930683342,"connected_time":1955000000000,"state":"active","ping":59},{"user_id":183,"name":"SinisterMagnus","steam_id":76561198133867907,"connected_time":650000000000,"state":"active","ping":82},{"user_id":194,"name":"Arc","steam_id":76561198124440503,"connected_time":38000000000,"state":"active","ping":59},{"user_id":189,"name":"Johngamer2418","steam_id":76561198377832282,"connected_time":103000000000,"state":"active","ping":47},{"user_id":121,"name":"FyreFeat","steam_id":76561198068428930,"connected_time":7591000000000,"state":"active","ping":50},{"user_id":165,"name":"Iggy","steam_id":76561198801469956,"connected_time":3825000000000,"state":"active","ping":59},{"user_id":154,"name":"Glockenspe (She/Her)","steam_id":76561199184115241,"connected_time":4160000000000,"state":"active","ping":47},{"user_id":185,"name":"seiran","steam_id":76561198880907232,"connected_time":442000000000,"state":"active","ping":101},{"user_id":171,"name":"k1ng BEA$T","steam_id":76561197965566926,"connected_time":2324000000000,"state":"active","ping":30},{"user_id":125,"name":"the rot consumes","steam_id":76561199445490119,"connected_time":7226000000000,"state":"active","ping":31},{"user_id":195,"name":"Dirty Deeds Done Dirt Cheap","steam_id":76561198256760480,"connected_time":26000000000,"state":"spawning","ping":48},{"user_id":96,"name":"Jetfire","steam_id":76561198047370036,"connected_time":9985000000000,"state":"active","ping":77},{"user_id":187,"name":"normans on sabbatical honey","steam_id":76561198082423230,"connected_time":417000000000,"state":"active","ping":73}]},{"server_id":123,"name":"Uncletopia | Sydney | 2 | All Maps","name_short":"syd-2","host":"syd-1.au.uncletopia.com","port":27025,"enabled":true,"region":"au","cc":"au","latitude":-33.865143,"longitude":151.2099,"reserved":0,"last_update":"0001-01-01T00:00:00Z","name_a2s":"Uncletopia | Sydney | 2 | All Maps","protocol":17,"map":"pl_swiftwater_final1","folder":"tf","game":"Team Fortress","app_id":440,"player_count":24,"max_players":24,"Bots":0,"server_type":"Dedicated","server_os":"Linux","password":true,"vac":true,"version":"7757534","steam_id":85568392924470002,"keywords":["nocrits","nodmgspread","payload","uncletopia"],"game_id":440,"stv_port":27026,"stv_name":"Uncletopia | Sydney | 2 | All Maps | STV","players":[{"user_id":65,"name":"Optometrist Prime","steam_id":76561198340730741,"connected_time":3570000000000,"state":"active","ping":58},{"user_id":81,"name":"doctor morbin' (real)","steam_id":76561199365241695,"connected_time":2226000000000,"state":"active","ping":121},{"user_id":105,"name":"Local GP (bulk billing)","steam_id":76561198126300023,"connected_time":411000000000,"state":"active","ping":57},{"user_id":107,"name":"Jagonite","steam_id":76561198089124961,"connected_time":166000000000,"state":"active","ping":117},{"user_id":101,"name":"Pompadouraus","steam_id":76561198327530525,"connected_time":597000000000,"state":"active","ping":80},{"user_id":99,"name":"Mikester","steam_id":76561198331560673,"connected_time":630000000000,"state":"active","ping":60},{"user_id":100,"name":"riskybiznutz","steam_id":76561198040467549,"connected_time":608000000000,"state":"active","ping":52},{"user_id":106,"name":"grab a stubby mate","steam_id":76561198075320354,"connected_time":350000000000,"state":"active","ping":55},{"user_id":77,"name":"floppinv2","steam_id":76561198213566569,"connected_time":2342000000000,"state":"active","ping":105},{"user_id":102,"name":"random.","steam_id":76561198848689967,"connected_time":582000000000,"state":"active","ping":51},{"user_id":63,"name":"Lobarté","steam_id":76561198090116136,"connected_time":4069000000000,"state":"active","ping":60},{"user_id":83,"name":"[1UP]Ralphy","steam_id":76561198019107403,"connected_time":2104000000000,"state":"active","ping":61},{"user_id":29,"name":"SassnCheeky","steam_id":76561197993875592,"connected_time":5641000000000,"state":"active","ping":55},{"user_id":91,"name":"gothic_princess99","steam_id":76561198044514230,"connected_time":1551000000000,"state":"active","ping":61},{"user_id":93,"name":"TW_light2022","steam_id":76561199393566784,"connected_time":1205000000000,"state":"active","ping":60},{"user_id":86,"name":"rudra","steam_id":76561198067731912,"connected_time":2002000000000,"state":"active","ping":66},{"user_id":39,"name":"monstrous existence","steam_id":76561198132937542,"connected_time":5221000000000,"state":"active","ping":62},{"user_id":40,"name":"THIS IS NOT MY BEAUTIFUL WIFE!","steam_id":76561198025225448,"connected_time":5215000000000,"state":"active","ping":76},{"user_id":41,"name":"Eddie","steam_id":76561198081031350,"connected_time":5185000000000,"state":"active","ping":50},{"user_id":64,"name":"Corgo","steam_id":76561198162174985,"connected_time":3768000000000,"state":"active","ping":52},{"user_id":103,"name":"Pandemos","steam_id":76561198132242734,"connected_time":562000000000,"state":"active","ping":52},{"user_id":88,"name":"Sover blw.tf","steam_id":76561198136347837,"connected_time":1883000000000,"state":"active","ping":131},{"user_id":90,"name":"ttv/ca7x3","steam_id":76561198181194862,"connected_time":1588000000000,"state":"active","ping":61},{"user_id":48,"name":"YEAH I DID IT AN ILL DO IT AGAI","steam_id":76561198150293480,"connected_time":4975000000000,"state":"active","ping":64}]},{"server_id":395,"name":"Uncletopia | Sydney | 3 | All Maps","name_short":"syd-3","host":"syd-1.au.uncletopia.com","port":27035,"enabled":true,"region":"au","cc":"au","latitude":-33.865143,"longitude":151.2099,"reserved":0,"last_update":"0001-01-01T00:00:00Z","name_a2s":"Uncletopia | Sydney | 3 | All Maps","protocol":17,"map":"koth_cascade","folder":"tf","game":"Team Fortress","app_id":440,"player_count":4,"max_players":24,"Bots":0,"server_type":"Dedicated","server_os":"Linux","password":true,"vac":true,"version":"7757534","steam_id":85568392925194467,"keywords":["cp","nocrits","nodmgspread","uncletopia"],"game_id":440,"stv_port":27036,"stv_name":"Uncletopia | Sydney | 3 | All Maps | STV","players":[{"user_id":47,"name":"SUCC MY DUCC","steam_id":76561198127068703,"connected_time":79000000000,"state":"active","ping":70},{"user_id":39,"name":"Cris.p bacon","steam_id":76561199230423491,"connected_time":1128000000000,"state":"active","ping":112},{"user_id":41,"name":"Putramandela","steam_id":76561199373932400,"connected_time":927000000000,"state":"active","ping":157},{"user_id":44,"name":"ZigSta","steam_id":76561198177362890,"connected_time":467000000000,"state":"active","ping":73}]},{"server_id":396,"name":"Uncletopia | Sydney | 4 | All Maps","name_short":"syd-4","host":"syd-1.au.uncletopia.com","port":27045,"enabled":true,"region":"au","cc":"au","latitude":-33.865143,"longitude":151.2099,"reserved":0,"last_update":"0001-01-01T00:00:00Z","name_a2s":"Uncletopia | Sydney | 4 | All Maps","protocol":17,"map":"cp_altitude","folder":"tf","game":"Team Fortress","app_id":440,"player_count":0,"max_players":24,"Bots":0,"server_type":"Dedicated","server_os":"Linux","password":true,"vac":true,"version":"7757534","steam_id":85568392925397958,"keywords":["cp","nocrits","nodmgspread","uncletopia"],"game_id":440,"stv_port":27046,"stv_name":"Uncletopia | Sydney | 4 | All Maps | STV","players":null},{"server_id":58,"name":"Uncletopia | Sydney | 5 | Stopwatch Beta","name_short":"syd-5","host":"syd-1.au.uncletopia.com","port":27055,"enabled":true,"region":"au","cc":"au","latitude":-33.865143,"longitude":151.2099,"reserved":0,"last_update":"0001-01-01T00:00:00Z","name_a2s":"Uncletopia | Sydney | 5 | Stopwatch Beta","protocol":17,"map":"pl_barnblitz","folder":"tf","game":"Team Fortress","app_id":440,"player_count":0,"max_players":24,"Bots":0,"server_type":"Dedicated","server_os":"Linux","password":true,"vac":true,"version":"7757534","steam_id":85568392925397959,"keywords":["nocrits","nodmgspread","payload","uncletopia"],"game_id":440,"stv_port":27056,"stv_name":"Uncletopia | Sydney | 5 | Stopwatch Beta | STV","players":null},{"server_id":59,"name":"Uncletopia | Sydney | 6 | Community","name_short":"syd-6","host":"syd-1.au.uncletopia.com","port":27065,"enabled":true,"region":"au","cc":"au","latitude":-33.865143,"longitude":151.2099,"reserved":0,"last_update":"0001-01-01T00:00:00Z","name_a2s":"Uncletopia | Sydney | 6 | Community","protocol":17,"map":"workshop/koth_ramjam_rc1.ugc459778887","folder":"tf","game":"Team Fortress","app_id":440,"player_count":1,"max_players":24,"Bots":0,"server_type":"Dedicated","server_os":"Linux","password":true,"vac":true,"version":"7757534","steam_id":85568392925397960,"keywords":["cp","nocrits","nodmgspread","uncletopia"],"game_id":440,"stv_port":27066,"stv_name":"Uncletopia | Sydney | 6 | Community | STV","players":[{"user_id":7,"name":"iLikeMudrock ᗜ‸ᗜ","steam_id":76561199352285088,"connected_time":90000000000,"state":"active","ping":271}]},{"server_id":49,"name":"Uncletopia | Warsaw | 1 | All Maps","name_short":"waw-1","host":"waw-1.pl.uncletopia.com","port":27015,"enabled":true,"region":"eu","cc":"pl","latitude":52.2297,"longitude":21.017532,"reserved":0,"last_update":"0001-01-01T00:00:00Z","name_a2s":"","protocol":0,"map":"","folder":"","game":"","app_id":0,"player_count":0,"max_players":0,"Bots":0,"server_type":"","server_os":"","password":false,"vac":false,"version":"","steam_id":0,"keywords":null,"game_id":0,"stv_port":0,"stv_name":"","players":null},{"server_id":50,"name":"Uncletopia | Warsaw | 2 | All Maps","name_short":"waw-2","host":"waw-1.pl.uncletopia.com","port":27025,"enabled":true,"region":"eu","cc":"pl","latitude":52.2297,"longitude":21.017532,"reserved":0,"last_update":"0001-01-01T00:00:00Z","name_a2s":"Uncletopia | Warsaw | 2 | All Maps","protocol":17,"map":"cp_dustbowl","folder":"tf","game":"Team Fortress","app_id":440,"player_count":0,"max_players":24,"Bots":0,"server_type":"Dedicated","server_os":"Linux","password":true,"vac":true,"version":"7757534","steam_id":85568392925397851,"keywords":["cp","nocrits","nodmgspread","uncletopia"],"game_id":440,"stv_port":27026,"stv_name":"Uncletopia | Warsaw | 2 | All Maps | STV","players":null},{"server_id":51,"name":"Uncletopia | Warsaw | 3 | All Maps","name_short":"waw-3","host":"waw-1.pl.uncletopia.com","port":27035,"enabled":true,"region":"eu","cc":"pl","latitude":52.2297,"longitude":21.017532,"reserved":0,"last_update":"0001-01-01T00:00:00Z","name_a2s":"Uncletopia | Warsaw | 3 | All Maps","protocol":17,"map":"pl_badwater","folder":"tf","game":"Team Fortress","app_id":440,"player_count":0,"max_players":24,"Bots":0,"server_type":"Dedicated","server_os":"Linux","password":true,"vac":true,"version":"7757534","steam_id":85568392925397852,"keywords":["nocrits","nodmgspread","payload","uncletopia"],"game_id":440,"stv_port":27036,"stv_name":"Uncletopia | Warsaw | 3 | All Maps | STV","players":null},{"server_id":52,"name":"Uncletopia | Warsaw | 4 | All Maps","name_short":"waw-4","host":"waw-1.pl.uncletopia.com","port":27045,"enabled":true,"region":"eu","cc":"pl","latitude":52.2297,"longitude":21.017532,"reserved":0,"last_update":"0001-01-01T00:00:00Z","name_a2s":"Uncletopia | Warsaw | 4 | All Maps","protocol":17,"map":"koth_highpass","folder":"tf","game":"Team Fortress","app_id":440,"player_count":0,"max_players":24,"Bots":0,"server_type":"Dedicated","server_os":"Linux","password":true,"vac":true,"version":"7757534","steam_id":85568392925397853,"keywords":["cp","nocrits","nodmgspread","uncletopia"],"game_id":440,"stv_port":27046,"stv_name":"Uncletopia | Warsaw | 4 | All Maps | STV","players":null},{"server_id":53,"name":"Uncletopia | Warsaw | 5 | Stopwatch Beta","name_short":"waw-5","host":"waw-1.pl.uncletopia.com","port":27055,"enabled":true,"region":"eu","cc":"pl","latitude":52.2297,"longitude":21.017532,"reserved":0,"last_update":"0001-01-01T00:00:00Z","name_a2s":"Uncletopia | Warsaw | 5 | Stopwatch Beta","protocol":17,"map":"pl_borneo","folder":"tf","game":"Team Fortress","app_id":440,"player_count":0,"max_players":24,"Bots":0,"server_type":"Dedicated","server_os":"Linux","password":true,"vac":true,"version":"7757534","steam_id":85568392925397854,"keywords":["nocrits","nodmgspread","payload","uncletopia"],"game_id":440,"stv_port":27056,"stv_name":"Uncletopia | Warsaw | 5 | Stopwatch Beta | STV","players":null},{"server_id":54,"name":"Uncletopia | Warsaw | 6 | Community","name_short":"waw-6","host":"waw-1.pl.uncletopia.com","port":27065,"enabled":true,"region":"eu","cc":"pl","latitude":52.2297,"longitude":21.017532,"reserved":0,"last_update":"0001-01-01T00:00:00Z","name_a2s":"Uncletopia | Warsaw | 6 | Community","protocol":17,"map":"workshop/rd_asteroid_redux_b1.ugc2154902912","folder":"tf","game":"Team Fortress","app_id":440,"player_count":0,"max_players":24,"Bots":0,"server_type":"Dedicated","server_os":"Linux","password":true,"vac":true,"version":"7757534","steam_id":85568392925397856,"keywords":["beta","nocrits","nodmgspread","rd","uncletopia"],"game_id":440,"stv_port":27066,"stv_name":"Uncletopia | Warsaw | 6 | Community | STV","players":null}]}