{"status":true,"message":"","result":[{"server_id":9,"name":"Uncletopia | Atlanta | 1 | All Maps","name_short":"atl-1","host":"atl-1.us.uncletopia.com","port":27015,"enabled":true,"region":"us-east","cc":"us","latitude":33.753746,"longitude":-84.38633,"reserved":0,"last_update":"0001-01-01T00:00:00Z","name_a2s":"Uncletopia | Atlanta | 1 | All Maps","protocol":17,"map":"pl_borneo","folder":"tf","game":"Team Fortress","app_id":440,"player_count":24,"max_players":24,"Bots":0,"server_type":"Dedicated","server_os":"Linux","password":true,"vac":true,"version":"7961495","steam_id":85568392924469982,"keywords":["nocrits","nodmgspread","payload","uncletopia"],"game_id":440,"stv_port":27016,"stv_name":"Uncletopia | Atlanta | 1 | All Maps | STV","players":null},{"server_id":104,"name":"Uncletopia | Atlanta | 2 | All Maps","name_short":"atl-2","host":"atl-1.us.uncletopia.com","port":27025,"enabled":true,"region":"us-east","cc":"us","latitude":33.753746,"longitude":-84.38633,"reserved":0,"last_update":"0001-01-01T00:00:00Z","name_a2s":"Uncletopia | Atlanta | 2 | All Maps","protocol":17,"map":"koth_cascade","folder":"tf","game":"Team Fortress","app_id":440,"player_count":0,"max_players":24,"Bots":0,"server_type":"Dedicated","server_os":"Linux","password":true,"vac":true,"version":"7961495","steam_id":85568392924469983,"keywords":["cp","nocrits","nodmgspread","uncletopia"],"game_id":440,"stv_port":27026,"stv_name":"Uncletopia | Atlanta | 2 | All Maps | STV","players":null},{"server_id":400,"name":"Uncletopia | Atlanta | 3 | Stopwatch","name_short":"atl-3","host":"atl-1.us.uncletopia.com","port":27035,"enabled":true,"region":"us-east","cc":"us","latitude":33.753746,"longitude":-84.38633,"reserved":0,"last_update":"0001-01-01T00:00:00Z","name_a2s":"Uncletopia | Atlanta | 3 | Stopwatch","protocol":17,"map":"cp_metalworks","folder":"tf","game":"Team Fortress","app_id":440,"player_count":0,"max_players":24,"Bots":0,"server_type":"Dedicated","server_os":"Linux","password":true,"vac":true,"version":"7961495","steam_id":85568392924515187,"keywords":["cp","nocrits","nodmgspread","uncletopia"],"game_id":440,"stv_port":27036,"stv_name":"Uncletopia | Atlanta | 3 | Stopwatch | STV","players":null},{"server_id":401,"name":"Uncletopia | Atlanta | 4 | Community","name_short":"atl-4","host":"atl-1.us.uncletopia.com","port":27045,"enabled":true,"region":"us-east","cc":"us","latitude":33.753746,"longitude":-84.38633,"reserved":0,"last_update":"0001-01-01T00:00:00Z","name_a2s":"Uncletopia | Atlanta | 4 | Community","protocol":17,"map":"cp_sunshine","folder":"tf","game":"Team Fortress","app_id":440,"player_count":0,"max_players":24,"Bots":0,"server_type":"Dedicated","server_os":"Linux","password":true,"vac":true,"version":"7961495","steam_id":85568392924515188,"keywords":["cp","nocrits","nodmgspread","uncletopia"],"game_id":440,"stv_port":27046,"stv_name":"Uncletopia | Atlanta | 4 | Community | STV","players":null},{"server_id":2,"name":"Uncletopia | Chicago | 1 | All Maps","name_short":"chi-1","host":"chi-1.us.uncletopia.com","port":27015,"enabled":true,"region":"us-central","cc":"us","latitude":41.881832,"longitude":-87.62318,"reserved":0,"last_update":"0001-01-01T00:00:00Z","name_a2s":"Uncletopia | Chicago | 1 | All Maps","protocol":17,"map":"pl_frontier_final","folder":"tf","game":"Team Fortress","app_id":440,"player_count":24,"max_players":24,"Bots":0,"server_type":"Dedicated","server_os":"Linux","password":true,"vac":true,"version":"7961495","steam_id":85568392924469984,"keywords":["nocrits","nodmgspread","payload","uncletopia"],"game_id":440,"stv_port":27016,"stv_name":"Uncletopia | Chicago | 1 | All Maps | STV","players":[{"user_id":10,"name":"SkyFix","steam_id":76561198070974999,"connected_time":2001000000000,"state":"active","ping":149},{"user_id":37,"name":"AveMoSwag","steam_id":76561198261701911,"connected_time":987000000000,"state":"active","ping":56},{"user_id":9,"name":"Papahemmy","steam_id":76561198155470810,"connected_time":2034000000000,"state":"active","ping":62},{"user_id":11,"name":"BrassBulldog","steam_id":76561199243218999,"connected_time":1994000000000,"state":"active","ping":61},{"user_id":16,"name":"Mrink","steam_id":76561199027165750,"connected_time":1707000000000,"state":"active","ping":122},{"user_id":13,"name":"MR SKELTAL","steam_id":76561198031089598,"connected_time":1859000000000,"state":"active","ping":69},{"user_id":14,"name":"viliamoleosdev","steam_id":76561199485194793,"connected_time":1779000000000,"state":"active","ping":188},{"user_id":47,"name":"berserker_tf2","steam_id":76561198303464488,"connected_time":377000000000,"state":"active","ping":69},{"user_id":48,"name":"(◣ _ ◢)","steam_id":76561198396340174,"connected_time":300000000000,"state":"active","ping":83},{"user_id":57,"name":"fish ●","steam_id":76561198999217575,"connected_time":129000000000,"state":"active","ping":61},{"user_id":50,"name":"Penguineer","steam_id":76561198015031926,"connected_time":265000000000,"state":"active","ping":60},{"user_id":53,"name":"BlazingWaters","steam_id":76561198136322660,"connected_time":199000000000,"state":"active","ping":82},{"user_id":46,"name":"Huloon","steam_id":76561198070837568,"connected_time":579000000000,"state":"active","ping":70},{"user_id":52,"name":"Ugly Sweater Gaming","steam_id":76561198204822261,"connected_time":225000000000,"state":"active","ping":78},{"user_id":23,"name":"firelord","steam_id":76561198254188888,"connected_time":1590000000000,"state":"active","ping":73},{"user_id":24,"name":"nimbus","steam_id":76561199049550830,"connected_time":1566000000000,"state":"active","ping":61},{"user_id":54,"name":"Zeek","steam_id":76561197987204351,"connected_time":194000000000,"state":"active","ping":59},{"user_id":43,"name":"Window Licker #pride","steam_id":76561198386717007,"connected_time":694000000000,"state":"active","ping":52},{"user_id":39,"name":"WishMakers","steam_id":76561198061533565,"connected_time":962000000000,"state":"active","ping":72},{"user_id":55,"name":"U.n.k","steam_id":76561198329242141,"connected_time":193000000000,"state":"active","ping":95},{"user_id":56,"name":"twink gaming","steam_id":76561199117379404,"connected_time":153000000000,"state":"active","ping":108},{"user_id":44,"name":"Satan-2","steam_id":76561199231742764,"connected_time":669000000000,"state":"active","ping":72},{"user_id":31,"name":"Travorski","steam_id":76561198072493142,"connected_time":1420000000000,"state":"active","ping":88},{"user_id":32,"name":"Or̸̛͒͜igin","steam_id":76561199486746463,"connected_time":1414000000000,"state":"active","ping":71}]},{"server_id":106,"name":"Uncletopia | Chicago | 2 | All Maps","name_short":"chi-2","host":"chi-1.us.uncletopia.com","port":27025,"enabled":true,"region":"us-central","cc":"us","latitude":41.881832,"longitude":-87.62318,"reserved":0,"last_update":"0001-01-01T00:00:00Z","name_a2s":"Uncletopia | Chicago | 2 | All Maps","protocol":17,"map":"koth_lakeside_final","folder":"tf","game":"Team Fortress","app_id":440,"player_count":0,"max_players":24,"Bots":0,"server_type":"Dedicated","server_os":"Linux","password":true,"vac":true,"version":"7961495","steam_id":85568392924469985,"keywords":["cp","nocrits","nodmgspread","uncletopia"],"game_id":440,"stv_port":27026,"stv_name":"Uncletopia | Chicago | 2 | All Maps | STV","players":null},{"server_id":402,"name":"Uncletopia | Chicago | 3 | All Maps","name_short":"chi-3","host":"chi-1.us.uncletopia.com","port":27035,"enabled":true,"region":"us-central","cc":"us","latitude":41.881832,"longitude":-87.62318,"reserved":0,"last_update":"0001-01-01T00:00:00Z","name_a2s":"Uncletopia | Chicago | 3 | All Maps","protocol":17,"map":"cp_dustbowl","folder":"tf","game":"Team Fortress","app_id":440,"player_count":0,"max_players":24,"Bots":0,"server_type":"Dedicated","server_os":"Linux","password":true,"vac":true,"version":"7961495","steam_id":85568392924515191,"keywords":["cp","nocrits","nodmgspread","uncletopia"],"game_id":440,"stv_port":27036,"stv_name":"Uncletopia | Chicago | 3 | All Maps | STV","players":null},{"server_id":403,"name":"Uncletopia | Chicago | 4 | All Maps","name_short":"chi-4","host":"chi-1.us.uncletopia.com","port":27045,"enabled":true,"region":"us-central","cc":"us","latitude":41.881832,"longitude":-87.62318,"reserved":0,"last_update":"0001-01-01T00:00:00Z","name_a2s":"Uncletopia | Chicago | 4 | All Maps","protocol":17,"map":"pl_upward","folder":"tf","game":"Team Fortress","app_id":440,"player_count":24,"max_players":24,"Bots":0,"server_type":"Dedicated","server_os":"Linux","password":true,"vac":true,"version":"7961495","steam_id":85568392924515193,"keywords":["nocrits","nodmgspread","payload","uncletopia"],"game_id":440,"stv_port":27046,"stv_name":"Uncletopia | Chicago | 4 | All Maps | STV","players":[{"user_id":168,"name":"vv","steam_id":76561198134813102,"connected_time":1002000000000,"state":"active","ping":47},{"user_id":171,"name":"Prsm","steam_id":76561198053344995,"connected_time":825000000000,"state":"active","ping":51},{"user_id":176,"name":"Rustyorion","steam_id":76561198439186347,"connected_time":85000000000,"state":"active","ping":99},{"user_id":178,"name":"Mog","steam_id":76561198025575870,"connected_time":62000000000,"state":"active","ping":48},{"user_id":95,"name":"creeeeeee","steam_id":76561198392539722,"connected_time":5681000000000,"state":"active","ping":77},{"user_id":169,"name":"Nathan","steam_id":76561199132214008,"connected_time":991000000000,"state":"active","ping":104},{"user_id":145,"name":"imng","steam_id":76561198014988031,"connected_time":2070000000000,"state":"active","ping":70},{"user_id":179,"name":"ПЕНИС™","steam_id":76561199257746634,"connected_time":9000000000,"state":"active","ping":148},{"user_id":91,"name":"Catgirl queef :3","steam_id":76561199015827567,"connected_time":5884000000000,"state":"active","ping":73},{"user_id":146,"name":"BRUH NATOR","steam_id":76561199094694437,"connected_time":2065000000000,"state":"active","ping":86},{"user_id":129,"name":"taigaxx","steam_id":76561198202669250,"connected_time":3161000000000,"state":"active","ping":71},{"user_id":174,"name":"gretchling","steam_id":76561198046111695,"connected_time":441000000000,"state":"active","ping":66},{"user_id":125,"name":"organic kale","steam_id":76561198101506575,"connected_time":3524000000000,"state":"active","ping":65},{"user_id":175,"name":"a","steam_id":76561198131245396,"connected_time":125000000000,"state":"active","ping":57},{"user_id":74,"name":"Invis","steam_id":76561198084260431,"connected_time":6380000000000,"state":"active","ping":82},{"user_id":165,"name":"g00bur","steam_id":76561197993622520,"connected_time":1364000000000,"state":"active","ping":67},{"user_id":180,"name":"Hershey Squirts","steam_id":76561198086261882,"connected_time":7000000000,"state":"spawning","ping":71},{"user_id":147,"name":"François Viète","steam_id":76561198072975518,"connected_time":2064000000000,"state":"active","ping":71},{"user_id":157,"name":"suicide pro","steam_id":76561198057076267,"connected_time":1648000000000,"state":"active","ping":74},{"user_id":177,"name":"Niλiwiλi, ▼iscount of ▼io","steam_id":76561198009193777,"connected_time":81000000000,"state":"active","ping":64},{"user_id":159,"name":"Lifial","steam_id":76561198271885819,"connected_time":1491000000000,"state":"active","ping":71},{"user_id":155,"name":"Toxic Ron","steam_id":76561198089302972,"connected_time":1975000000000,"state":"active","ping":72},{"user_id":160,"name":"Walmart Employee","steam_id":76561198840373909,"connected_time":1487000000000,"state":"active","ping":86},{"user_id":173,"name":"freyja","steam_id":76561198249206656,"connected_time":582000000000,"state":"active","ping":62}]},{"server_id":36,"name":"Uncletopia | Chicago | 5 | All Maps","name_short":"chi-5","host":"chi-2.us.uncletopia.com","port":27015,"enabled":true,"region":"us-central","cc":"us","latitude":41.881832,"longitude":-87.62318,"reserved":0,"last_update":"0001-01-01T00:00:00Z","name_a2s":"Uncletopia | Chicago | 5 | All Maps","protocol":17,"map":"cp_mountainlab","folder":"tf","game":"Team Fortress","app_id":440,"player_count":0,"max_players":24,"Bots":0,"server_type":"Dedicated","server_os":"Linux","password":true,"vac":true,"version":"7961495","steam_id":85568392924866362,"keywords":["cp","nocrits","nodmgspread","uncletopia"],"game_id":440,"stv_port":27016,"stv_name":"Uncletopia | Chicago | 5 | All Maps | STV","players":null},{"server_id":37,"name":"Uncletopia | Chicago | 6 | All Maps","name_short":"chi-6","host":"chi-2.us.uncletopia.com","port":27025,"enabled":true,"region":"us-central","cc":"us","latitude":41.881832,"longitude":-87.62318,"reserved":0,"last_update":"0001-01-01T00:00:00Z","name_a2s":"Uncletopia | Chicago | 6 | All Maps","protocol":17,"map":"pl_frontier_final","folder":"tf","game":"Team Fortress","app_id":440,"player_count":0,"max_players":24,"Bots":0,"server_type":"Dedicated","server_os":"Linux","password":true,"vac":true,"version":"7961495","steam_id":85568392924866363,"keywords":["nocrits","nodmgspread","payload","uncletopia"],"game_id":440,"stv_port":27026,"stv_name":"Uncletopia | Chicago | 6 | All Maps | STV","players":null},{"server_id":38,"name":"Uncletopia | Chicago | 7 | Stopwatch","name_short":"chi-7","host":"chi-2.us.uncletopia.com","port":27035,"enabled":true,"region":"us-central","cc":"us","latitude":41.881832,"longitude":-87.62318,"reserved":0,"last_update":"0001-01-01T00:00:00Z","name_a2s":"Uncletopia | Chicago | 7 | Stopwatch","protocol":17,"map":"koth_highpass","folder":"tf","game":"Team Fortress","app_id":440,"player_count":0,"max_players":24,"Bots":0,"server_type":"Dedicated","server_os":"Linux","password":true,"vac":true,"version":"7961495","steam_id":85568392924866364,"keywords":["cp","nocrits","nodmgspread","uncletopia"],"game_id":440,"stv_port":27036,"stv_name":"Uncletopia | Chicago | 7 | Stopwatch | STV","players":null},{"server_id":39,"name":"Uncletopia | Chicago | 8 | Community","name_short":"chi-8","host":"chi-2.us.uncletopia.com","port":27045,"enabled":true,"region":"us-central","cc":"us","latitude":41.881832,"longitude":-87.62318,"reserved":0,"last_update":"0001-01-01T00:00:00Z","name_a2s":"Uncletopia | Chicago | 8 | Community","protocol":17,"map":"workshop/pl_emerge_rc2.ugc888027758","folder":"tf","game":"Team Fortress","app_id":440,"player_count":0,"max_players":24,"Bots":0,"server_type":"Dedicated","server_os":"Linux","password":true,"vac":true,"version":"7961495","steam_id":85568392924866365,"keywords":["nocrits","nodmgspread","payload","uncletopia"],"game_id":440,"stv_port":27046,"stv_name":"Uncletopia | Chicago | 8 | Community | STV","players":null},{"server_id":8,"name":"Uncletopia | Dallas | 1 | All Maps","name_short":"dal-1","host":"dal-1.us.uncletopia.com","port":27015,"enabled":true,"region":"us-central","cc":"us","latitude":32.779167,"longitude":-96.80889,"reserved":0,"last_update":"0001-01-01T00:00:00Z","name_a2s":"Uncletopia | Dallas | 1 | All Maps","protocol":17,"map":"koth_viaduct","folder":"tf","game":"Team Fortress","app_id":440,"player_count":0,"max_players":24,"Bots":0,"server_type":"Dedicated","server_os":"Linux","password":true,"vac":true,"version":"7961495","steam_id":85568392924469986,"keywords":["cp","nocrits","nodmgspread","uncletopia"],"game_id":440,"stv_port":27016,"stv_name":"Uncletopia | Dallas | 1 | All Maps | STV","players":null},{"server_id":108,"name":"Uncletopia | Dallas | 2 | All Maps","name_short":"dal-2","host":"dal-1.us.uncletopia.com","port":27025,"enabled":true,"region":"us-central","cc":"us","latitude":32.779167,"longitude":-96.80889,"reserved":0,"last_update":"0001-01-01T00:00:00Z","name_a2s":"Uncletopia | Dallas | 2 | All Maps","protocol":17,"map":"cp_snakewater_final1","folder":"tf","game":"Team Fortress","app_id":440,"player_count":22,"max_players":24,"Bots":0,"server_type":"Dedicated","server_os":"Linux","password":true,"vac":true,"version":"7961495","steam_id":85568392924469988,"keywords":["cp","nocrits","nodmgspread","uncletopia"],"game_id":440,"stv_port":27026,"stv_name":"Uncletopia | Dallas | 2 | All Maps | STV","players":[{"user_id":396,"name":"rowlf","steam_id":76561198084926176,"connected_time":283000000000,"state":"active","ping":58},{"user_id":362,"name":"Acro","steam_id":76561198092451804,"connected_time":1410000000000,"state":"active","ping":71},{"user_id":398,"name":"Roberto Del Fuego","steam_id":76561198043458554,"connected_time":217000000000,"state":"active","ping":74},{"user_id":382,"name":"Shooter of Walls","steam_id":76561197988105207,"connected_time":828000000000,"state":"active","ping":86},{"user_id":349,"name":"Grasshopper506","steam_id":76561198111633418,"connected_time":2776000000000,"state":"active","ping":89},{"user_id":370,"name":"Dough Boy","steam_id":76561198360231698,"connected_time":1073000000000,"state":"active","ping":60},{"user_id":390,"name":"¡No te entiendo inglés!","steam_id":76561198298364415,"connected_time":508000000000,"state":"active","ping":118},{"user_id":384,"name":"Breakaway","steam_id":76561198089308523,"connected_time":747000000000,"state":"active","ping":102},{"user_id":368,"name":"1000 Gigglebytes of clown girls","steam_id":76561198290719848,"connected_time":1129000000000,"state":"active","ping":96},{"user_id":371,"name":"Doctor Emerald(Bison Emperor)","steam_id":76561199123003872,"connected_time":1070000000000,"state":"active","ping":87},{"user_id":395,"name":"dr.sex","steam_id":76561198218497904,"connected_time":357000000000,"state":"active","ping":71},{"user_id":269,"name":"Jeramosa","steam_id":76561198811000094,"connected_time":5464000000000,"state":"active","ping":73},{"user_id":393,"name":"Lucas","steam_id":76561198399704604,"connected_time":434000000000,"state":"active","ping":100},{"user_id":256,"name":"Waluweebgi","steam_id":76561198825432603,"connected_time":5822000000000,"state":"active","ping":60},{"user_id":374,"name":"npc energy","steam_id":76561198035342207,"connected_time":998000000000,"state":"active","ping":59},{"user_id":376,"name":"bobkattbro","steam_id":76561199009438984,"connected_time":984000000000,"state":"active","ping":127},{"user_id":377,"name":"SCATTER","steam_id":76561198405168492,"connected_time":981000000000,"state":"active","ping":102},{"user_id":397,"name":"Knyght","steam_id":76561198066435869,"connected_time":276000000000,"state":"active","ping":84},{"user_id":392,"name":"cajun","steam_id":76561198069380992,"connected_time":466000000000,"state":"active","ping":55},{"user_id":391,"name":"mountainkug","steam_id":76561199491802535,"connected_time":482000000000,"state":"active","ping":104},{"user_id":363,"name":"Abysa.","steam_id":76561198424398862,"connected_time":1259000000000,"state":"active","ping":149},{"user_id":380,"name":"Sergi338","steam_id":76561198201866231,"connected_time":969000000000,"state":"active","ping":108}]},{"server_id":404,"name":"Uncletopia | Dallas | 3 | All Maps","name_short":"dal-3","host":"dal-1.us.uncletopia.com","port":27035,"enabled":true,"region":"us-central","cc":"us","latitude":32.779167,"longitude":-96.80889,"reserved":0,"last_update":"0001-01-01T00:00:00Z","name_a2s":"Uncletopia | Dallas | 3 | All Maps","protocol":17,"map":"pl_badwater","folder":"tf","game":"Team Fortress","app_id":440,"player_count":0,"max_players":24,"Bots":0,"server_type":"Dedicated","server_os":"Linux","password":true,"vac":true,"version":"7961495","steam_id":85568392924515219,"keywords":["nocrits","nodmgspread","payload","uncletopia"],"game_id":440,"stv_port":27036,"stv_name":"Uncletopia | Dallas | 3 | All Maps | STV","players":null},{"server_id":405,"name":"Uncletopia | Dallas | 4 | Community","name_short":"dal-4","host":"dal-1.us.uncletopia.com","port":27045,"enabled":true,"region":"us-central","cc":"us","latitude":32.779167,"longitude":-96.80889,"reserved":0,"last_update":"0001-01-01T00:00:00Z","name_a2s":"Uncletopia | Dallas | 4 | Community","protocol":17,"map":"pl_pier","folder":"tf","game":"Team Fortress","app_id":440,"player_count":0,"max_players":24,"Bots":0,"server_type":"Dedicated","server_os":"Linux","password":true,"vac":true,"version":"7961495","steam_id":85568392924515220,"keywords":["nocrits","nodmgspread","payload","uncletopia"],"game_id":440,"stv_port":27046,"stv_name":"Uncletopia | Dallas | 4 | Community | STV","players":null},{"server_id":5,"name":"Uncletopia | Frankfurt | 1 | All Maps","name_short":"frk-1","host":"frk-1.de.uncletopia.com","port":27015,"enabled":true,"region":"eu","cc":"de","latitude":50.110924,"longitude":8.682127,"reserved":0,"last_update":"0001-01-01T00:00:00Z","name_a2s":"Uncletopia | Frankfurt | 1 | All Maps","protocol":17,"map":"pl_upward","folder":"tf","game":"Team Fortress","app_id":440,"player_count":24,"max_players":24,"Bots":0,"server_type":"Dedicated","server_os":"Linux","password":true,"vac":true,"version":"7961495","steam_id":85568392924469989,"keywords":["nocrits","nodmgspread","payload","uncletopia"],"game_id":440,"stv_port":27016,"stv_name":"Uncletopia | Frankfurt | 1 | All Maps | STV","players":[{"user_id":204,"name":"Optimist 50","steam_id":76561198039631442,"connected_time":2198000000000,"state":"active","ping":79},{"user_id":202,"name":"MakSok","steam_id":76561198050889367,"connected_time":2210000000000,"state":"active","ping":115},{"user_id":223,"name":"Mudderbad","steam_id":76561199040869510,"connected_time":586000000000,"state":"active","ping":68},{"user_id":94,"name":"Der ewige Boomer","steam_id":76561198254812703,"connected_time":10215000000000,"state":"active","ping":68},{"user_id":161,"name":"saywoo","steam_id":76561198904469197,"connected_time":5141000000000,"state":"active","ping":70},{"user_id":224,"name":"IgorVitoriev","steam_id":76561198075723591,"connected_time":498000000000,"state":"active","ping":54},{"user_id":227,"name":"worgeral","steam_id":76561198050781898,"connected_time":318000000000,"state":"active","ping":71},{"user_id":210,"name":"Fatmagic Mukbang ASMR","steam_id":76561198063492110,"connected_time":2123000000000,"state":"active","ping":83},{"user_id":225,"name":"LE$KA","steam_id":76561198211434744,"connected_time":358000000000,"state":"active","ping":84},{"user_id":217,"name":"lucifer_on_vacation","steam_id":76561198088956059,"connected_time":1483000000000,"state":"active","ping":113},{"user_id":216,"name":"b4ckSTARRRR","steam_id":76561198007389768,"connected_time":1517000000000,"state":"active","ping":45},{"user_id":198,"name":"booba","steam_id":76561198158018284,"connected_time":3041000000000,"state":"active","ping":59},{"user_id":205,"name":"LivEssense","steam_id":76561198052476979,"connected_time":2194000000000,"state":"active","ping":75},{"user_id":209,"name":"Uncle Moomin","steam_id":76561198011628656,"connected_time":2161000000000,"state":"active","ping":82},{"user_id":152,"name":"Sham!","steam_id":76561198050434275,"connected_time":6232000000000,"state":"active","ping":45},{"user_id":189,"name":"Nag","steam_id":76561197970488206,"connected_time":3484000000000,"state":"active","ping":87},{"user_id":153,"name":"Marukuso","steam_id":76561198154229845,"connected_time":6228000000000,"state":"active","ping":64},{"user_id":201,"name":"Flying Chemist","steam_id":76561198085039837,"connected_time":2495000000000,"state":"active","ping":73},{"user_id":191,"name":"El_Kommadante","steam_id":76561198079551685,"connected_time":3478000000000,"state":"active","ping":87},{"user_id":162,"name":"AestheticalZ","steam_id":76561198269554197,"connected_time":4839000000000,"state":"active","ping":64},{"user_id":219,"name":"willfonjr","steam_id":76561198850388985,"connected_time":1155000000000,"state":"active","ping":74},{"user_id":214,"name":"★Lily","steam_id":76561198014774371,"connected_time":1957000000000,"state":"active","ping":47},{"user_id":229,"name":"♬ ᴛᴇᴋɪᴛ ♬","steam_id":76561198111704722,"connected_time":248000000000,"state":"active","ping":90},{"user_id":231,"name":"Chopperson_","steam_id":76561198873728497,"connected_time":127000000000,"state":"active","ping":252}]},{"server_id":110,"name":"Uncletopia | Frankfurt | 2 | All Maps","name_short":"frk-2","host":"frk-1.de.uncletopia.com","port":27025,"enabled":true,"region":"eu","cc":"de","latitude":50.110924,"longitude":8.682127,"reserved":0,"last_update":"0001-01-01T00:00:00Z","name_a2s":"Uncletopia | Frankfurt | 2 | All Maps","protocol":17,"map":"pl_swiftwater_final1","folder":"tf","game":"Team Fortress","app_id":440,"player_count":24,"max_players":24,"Bots":0,"server_type":"Dedicated","server_os":"Linux","password":true,"vac":true,"version":"7961495","steam_id":85568392924469990,"keywords":["nocrits","nodmgspread","payload","uncletopia"],"game_id":440,"stv_port":27026,"stv_name":"Uncletopia | Frankfurt | 2 | All Maps | STV","players":[{"user_id":226,"name":"Righty","steam_id":76561199224705434,"connected_time":1277000000000,"state":"active","ping":118},{"user_id":199,"name":"frbuz","steam_id":76561198327135462,"connected_time":3188000000000,"state":"active","ping":165},{"user_id":237,"name":"grr","steam_id":76561199429407130,"connected_time":449000000000,"state":"active","ping":92},{"user_id":234,"name":"housethatwearingpurple","steam_id":76561198381266785,"connected_time":775000000000,"state":"active","ping":140},{"user_id":238,"name":"Spich","steam_id":76561199017245962,"connected_time":407000000000,"state":"active","ping":87},{"user_id":224,"name":"Bobo","steam_id":76561198052308399,"connected_time":1321000000000,"state":"active","ping":60},{"user_id":239,"name":"Flying skyhigh","steam_id":76561198372971096,"connected_time":379000000000,"state":"active","ping":81},{"user_id":216,"name":"michalstrach13","steam_id":76561199004687217,"connected_time":2196000000000,"state":"active","ping":70},{"user_id":229,"name":"Gelo","steam_id":76561198082274576,"connected_time":1125000000000,"state":"active","ping":82},{"user_id":240,"name":"Just1s","steam_id":76561198026597437,"connected_time":329000000000,"state":"active","ping":66},{"user_id":29,"name":"AleXandriX","steam_id":76561198035203950,"connected_time":11314000000000,"state":"active","ping":59},{"user_id":242,"name":"lacurio","steam_id":76561198059701776,"connected_time":277000000000,"state":"active","ping":49},{"user_id":243,"name":"skippy","steam_id":76561198171958773,"connected_time":276000000000,"state":"active","ping":65},{"user_id":218,"name":"Poggito","steam_id":76561198838001276,"connected_time":1950000000000,"state":"active","ping":51},{"user_id":219,"name":"Butt","steam_id":76561198115496457,"connected_time":1933000000000,"state":"active","ping":49},{"user_id":236,"name":"Albon","steam_id":76561198060378881,"connected_time":488000000000,"state":"active","ping":56},{"user_id":244,"name":"patmat","steam_id":76561198869110531,"connected_time":262000000000,"state":"active","ping":65},{"user_id":230,"name":"I Am Coming For Your Anus","steam_id":76561198303492953,"connected_time":1123000000000,"state":"active","ping":102},{"user_id":247,"name":"Im off the 30mg edible rn","steam_id":76561198171466414,"connected_time":152000000000,"state":"active","ping":161},{"user_id":221,"name":"CzechMate #SaveTF2","steam_id":76561198012687703,"connected_time":1775000000000,"state":"active","ping":49},{"user_id":235,"name":"Gugu gaga","steam_id":76561198161822358,"connected_time":635000000000,"state":"active","ping":57},{"user_id":220,"name":"Eno","steam_id":76561198387892963,"connected_time":1899000000000,"state":"active","ping":60},{"user_id":246,"name":"Pat8594","steam_id":76561198439321175,"connected_time":220000000000,"state":"active","ping":45},{"user_id":217,"name":"Machepka","steam_id":76561198226266992,"connected_time":2139000000000,"state":"active","ping":70}]},{"server_id":308,"name":"Uncletopia | Frankfurt | 3 | All Maps","name_short":"frk-3","host":"frk-1.de.uncletopia.com","port":27035,"enabled":true,"region":"eu","cc":"de","latitude":50.110924,"longitude":8.682127,"reserved":0,"last_update":"0001-01-01T00:00:00Z","name_a2s":"Uncletopia | Frankfurt | 3 | All Maps","protocol":17,"map":"pl_badwater","folder":"tf","game":"Team Fortress","app_id":440,"player_count":24,"max_players":24,"Bots":0,"server_type":"Dedicated","server_os":"Linux","password":true,"vac":true,"version":"7961495","steam_id":85568392924504274,"keywords":["nocrits","nodmgspread","payload","uncletopia"],"game_id":440,"stv_port":27036,"stv_name":"Uncletopia | Frankfurt | 3 | All Maps | STV","players":[{"user_id":285,"name":"WIZARD","steam_id":76561198199570742,"connected_time":7458000000000,"state":"active","ping":97},{"user_id":366,"name":"Tohtori gerhard (official)","steam_id":76561198835081622,"connected_time":3846000000000,"state":"active","ping":93},{"user_id":341,"name":"FUKAYOU","steam_id":76561198380484033,"connected_time":4443000000000,"state":"active","ping":53},{"user_id":405,"name":"socaramel","steam_id":76561197984480336,"connected_time":683000000000,"state":"active","ping":75},{"user_id":409,"name":"Fat Pigeon","steam_id":76561198817940142,"connected_time":107000000000,"state":"active","ping":59},{"user_id":381,"name":"install gentoo","steam_id":76561198185257982,"connected_time":2918000000000,"state":"active","ping":82},{"user_id":290,"name":"überminze","steam_id":76561198228818228,"connected_time":7422000000000,"state":"active","ping":86},{"user_id":397,"name":"Mirra","steam_id":76561198076597292,"connected_time":966000000000,"state":"active","ping":75},{"user_id":373,"name":"Arti","steam_id":76561198335267078,"connected_time":3415000000000,"state":"active","ping":69},{"user_id":398,"name":"Nittugai","steam_id":76561198067366462,"connected_time":923000000000,"state":"active","ping":60},{"user_id":392,"name":"Volt","steam_id":76561198237074532,"connected_time":2076000000000,"state":"active","ping":102},{"user_id":395,"name":"f4f_cricket","steam_id":76561197985879993,"connected_time":1570000000000,"state":"active","ping":70},{"user_id":349,"name":"Gio'sMonkey","steam_id":76561198892432223,"connected_time":4346000000000,"state":"active","ping":73},{"user_id":317,"name":"Arsonist","steam_id":76561199087953833,"connected_time":6989000000000,"state":"active","ping":109},{"user_id":393,"name":"katten","steam_id":76561198163615254,"connected_time":2049000000000,"state":"active","ping":59},{"user_id":399,"name":"Triggerhappy","steam_id":76561198334672983,"connected_time":915000000000,"state":"active","ping":102},{"user_id":404,"name":"AzureTestament","steam_id":76561198147007440,"connected_time":801000000000,"state":"active","ping":72},{"user_id":406,"name":"Xtis","steam_id":76561198043837480,"connected_time":602000000000,"state":"active","ping":71},{"user_id":358,"name":"Eula my beloved","steam_id":76561198150524777,"connected_time":4192000000000,"state":"active","ping":60},{"user_id":365,"name":"☭TheDevilsEye☭","steam_id":76561198017379398,"connected_time":3874000000000,"state":"active","ping":75},{"user_id":408,"name":"Harcore (HARDCORE!)","steam_id":76561198280507478,"connected_time":260000000000,"state":"active","ping":56},{"user_id":407,"name":"Pingus","steam_id":76561199015156956,"connected_time":438000000000,"state":"active","ping":99},{"user_id":403,"name":"Mr.Shpee","steam_id":76561198158701474,"connected_time":854000000000,"state":"active","ping":75},{"user_id":385,"name":"Mista Baymort","steam_id":76561198367178355,"connected_time":2809000000000,"state":"active","ping":74}]},{"server_id":309,"name":"Uncletopia | Frankfurt | 4 | All Maps","name_short":"frk-4","host":"frk-1.de.uncletopia.com","port":27045,"enabled":true,"region":"eu","cc":"de","latitude":50.110924,"longitude":8.682127,"reserved":0,"last_update":"0001-01-01T00:00:00Z","name_a2s":"Uncletopia | Frankfurt | 4 | All Maps","protocol":17,"map":"koth_highpass","folder":"tf","game":"Team Fortress","app_id":440,"player_count":0,"max_players":24,"Bots":0,"server_type":"Dedicated","server_os":"Linux","password":true,"vac":true,"version":"7961495","steam_id":85568392924504275,"keywords":["cp","nocrits","nodmgspread","uncletopia"],"game_id":440,"stv_port":27046,"stv_name":"Uncletopia | Frankfurt | 4 | All Maps | STV","players":null},{"server_id":310,"name":"Uncletopia | Frankfurt | 5 | All Maps","name_short":"frk-5","host":"frk-1.de.uncletopia.com","port":27055,"enabled":true,"region":"eu","cc":"de","latitude":50.110924,"longitude":8.682127,"reserved":0,"last_update":"0001-01-01T00:00:00Z","name_a2s":"Uncletopia | Frankfurt | 5 | All Maps","protocol":17,"map":"pl_badwater","folder":"tf","game":"Team Fortress","app_id":440,"player_count":24,"max_players":24,"Bots":0,"server_type":"Dedicated","server_os":"Linux","password":true,"vac":true,"version":"7961495","steam_id":85568392924504277,"keywords":["nocrits","nodmgspread","payload","uncletopia"],"game_id":440,"stv_port":27056,"stv_name":"Uncletopia | Frankfurt | 5 | All Maps | STV","players":[{"user_id":210,"name":"Klaus","steam_id":76561198150394201,"connected_time":6273000000000,"state":"active","ping":85},{"user_id":277,"name":"The Misery","steam_id":76561198062818516,"connected_time":1907000000000,"state":"active","ping":61},{"user_id":241,"name":"Average meme enjoyer","steam_id":76561199087566663,"connected_time":3538000000000,"state":"active","ping":83},{"user_id":257,"name":"Ralistix","steam_id":76561198051654135,"connected_time":2767000000000,"state":"active","ping":88},{"user_id":247,"name":"Sn1Ch","steam_id":76561198073076943,"connected_time":3017000000000,"state":"active","ping":85},{"user_id":265,"name":"Dot","steam_id":76561198047299145,"connected_time":2119000000000,"state":"active","ping":78},{"user_id":108,"name":"Nyhde","steam_id":76561198012771416,"connected_time":13449000000000,"state":"active","ping":106},{"user_id":261,"name":"Z.","steam_id":76561198838692532,"connected_time":2284000000000,"state":"active","ping":194},{"user_id":300,"name":"vgiamp10","steam_id":76561198396069529,"connected_time":68000000000,"state":"active","ping":68},{"user_id":294,"name":"Pedersen","steam_id":76561198033171355,"connected_time":671000000000,"state":"active","ping":75},{"user_id":289,"name":"hey STUPID! I'm over here...","steam_id":76561198056388702,"connected_time":1053000000000,"state":"active","ping":85},{"user_id":295,"name":"Sholunan","steam_id":76561198062435739,"connected_time":613000000000,"state":"active","ping":69},{"user_id":286,"name":"Sakari","steam_id":76561197997811299,"connected_time":1235000000000,"state":"active","ping":50},{"user_id":297,"name":"Vexu","steam_id":76561198113145846,"connected_time":354000000000,"state":"active","ping":84},{"user_id":293,"name":"TyAero","steam_id":76561198328633940,"connected_time":691000000000,"state":"active","ping":91},{"user_id":253,"name":"cuddles","steam_id":76561198805181599,"connected_time":2972000000000,"state":"active","ping":67},{"user_id":254,"name":"Dark ^^","steam_id":76561198036241064,"connected_time":2961000000000,"state":"active","ping":63},{"user_id":296,"name":"eldaou2009","steam_id":76561198966358094,"connected_time":533000000000,"state":"active","ping":59},{"user_id":292,"name":"bady_3","steam_id":76561199030975778,"connected_time":818000000000,"state":"active","ping":128},{"user_id":201,"name":"TheMerchant","steam_id":76561198133664392,"connected_time":6741000000000,"state":"active","ping":64},{"user_id":52,"name":"else1","steam_id":76561197996558319,"connected_time":16775000000000,"state":"active","ping":76},{"user_id":273,"name":"Rjlt07","steam_id":76561198054883471,"connected_time":1961000000000,"state":"active","ping":89},{"user_id":278,"name":"Deckard","steam_id":76561198004704647,"connected_time":1751000000000,"state":"active","ping":76},{"user_id":274,"name":"tony","steam_id":76561199382978934,"connected_time":1960000000000,"state":"active","ping":109}]},{"server_id":311,"name":"Uncletopia | Frankfurt | 6 | All Maps","name_short":"frk-6","host":"frk-1.de.uncletopia.com","port":27065,"enabled":true,"region":"eu","cc":"de","latitude":50.110924,"longitude":8.682127,"reserved":0,"last_update":"0001-01-01T00:00:00Z","name_a2s":"Uncletopia | Frankfurt | 6 | All Maps","protocol":17,"map":"koth_cascade","folder":"tf","game":"Team Fortress","app_id":440,"player_count":24,"max_players":24,"Bots":0,"server_type":"Dedicated","server_os":"Linux","password":true,"vac":true,"version":"7961495","steam_id":85568392924504278,"keywords":["cp","nocrits","nodmgspread","uncletopia"],"game_id":440,"stv_port":27066,"stv_name":"Uncletopia | Frankfurt | 6 | All Maps | STV","players":[{"user_id":282,"name":"caffreze","steam_id":76561198408988907,"connected_time":135000000000,"state":"active","ping":80},{"user_id":279,"name":"sex toilet","steam_id":76561198412197820,"connected_time":459000000000,"state":"active","ping":74},{"user_id":271,"name":"Alpharen_22","steam_id":76561198803349451,"connected_time":947000000000,"state":"active","ping":76},{"user_id":234,"name":"mossfan1","steam_id":76561198087525446,"connected_time":3485000000000,"state":"active","ping":76},{"user_id":270,"name":"Rachugh","steam_id":76561199235852578,"connected_time":957000000000,"state":"active","ping":176},{"user_id":267,"name":"Nome","steam_id":76561198867982828,"connected_time":1278000000000,"state":"active","ping":108},{"user_id":205,"name":"concussion gaming","steam_id":76561198425494530,"connected_time":4811000000000,"state":"active","ping":109},{"user_id":206,"name":"63756d","steam_id":76561198808699024,"connected_time":4805000000000,"state":"active","ping":71},{"user_id":283,"name":"Remenos","steam_id":76561198029337778,"connected_time":86000000000,"state":"active","ping":90},{"user_id":281,"name":"Pietro Badoglio","steam_id":76561198302435743,"connected_time":159000000000,"state":"active","ping":78},{"user_id":217,"name":"Jeffrey Harpen","steam_id":76561199073314677,"connected_time":4106000000000,"state":"active","ping":66},{"user_id":280,"name":"BabyYodaIsMySoda","steam_id":76561198321846861,"connected_time":319000000000,"state":"active","ping":74},{"user_id":265,"name":"german medicine man","steam_id":76561199145278275,"connected_time":1593000000000,"state":"active","ping":46},{"user_id":284,"name":"RebirthInFire","steam_id":76561198200555755,"connected_time":82000000000,"state":"active","ping":56},{"user_id":258,"name":"Waltism","steam_id":76561199447676489,"connected_time":1993000000000,"state":"active","ping":66},{"user_id":224,"name":"vi hava en usel regering","steam_id":76561198037978654,"connected_time":3896000000000,"state":"active","ping":67},{"user_id":243,"name":"Джекет","steam_id":76561198327897125,"connected_time":3049000000000,"state":"active","ping":89},{"user_id":230,"name":"TSUTSUMARETE","steam_id":76561198325061394,"connected_time":3742000000000,"state":"active","ping":68},{"user_id":252,"name":"marshmellow monkey","steam_id":76561199063756747,"connected_time":2720000000000,"state":"active","ping":98},{"user_id":266,"name":"Fus in Boots","steam_id":76561198053897722,"connected_time":1343000000000,"state":"active","ping":64},{"user_id":273,"name":"Berdly","steam_id":76561199029872533,"connected_time":885000000000,"state":"active","ping":62},{"user_id":232,"name":"Sea_Snake_","steam_id":76561199422383541,"connected_time":3647000000000,"state":"active","ping":125},{"user_id":254,"name":"Pudlich","steam_id":76561198300089671,"connected_time":2586000000000,"state":"active","ping":70},{"user_id":278,"name":"Drinking Problem","steam_id":76561198319162953,"connected_time":517000000000,"state":"active","ping":67}]},{"server_id":23,"name":"Uncletopia | Frankfurt | 7 | Stopwatch","name_short":"frk-7","host":"frk-1.de.uncletopia.com","port":27075,"enabled":true,"region":"eu","cc":"de","latitude":50.110924,"longitude":8.682127,"reserved":0,"last_update":"0001-01-01T00:00:00Z","name_a2s":"Uncletopia | Frankfurt | 7 | Stopwatch","protocol":17,"map":"workshop/pl_vigil_rc10.ugc1266210012","folder":"tf","game":"Team Fortress","app_id":440,"player_count":1,"max_players":24,"Bots":0,"server_type":"Dedicated","server_os":"Linux","password":true,"vac":true,"version":"7961495","steam_id":85568392924742827,"keywords":["nocrits","nodmgspread","payload","uncletopia"],"game_id":440,"stv_port":27076,"stv_name":"Uncletopia | Frankfurt | 7 | Stopwatch | STV","players":[{"user_id":7,"name":"Maaitjemiddel","steam_id":76561199012406119,"connected_time":83000000000,"state":"connecting","ping":70}]},{"server_id":24,"name":"Uncletopia | Frankfurt | 8 | Community","name_short":"frk-8","host":"frk-1.de.uncletopia.com","port":27085,"enabled":true,"region":"eu","cc":"de","latitude":50.110924,"longitude":8.682127,"reserved":0,"last_update":"0001-01-01T00:00:00Z","name_a2s":"Uncletopia | Frankfurt | 8 | Community","protocol":17,"map":"workshop/pl_barnblitz_pro7.ugc582280235","folder":"tf","game":"Team Fortress","app_id":440,"player_count":0,"max_players":24,"Bots":0,"server_type":"Dedicated","server_os":"Linux","password":true,"vac":true,"version":"7961495","steam_id":85568392924742828,"keywords":["nocrits","nodmgspread","payload","uncletopia"],"game_id":440,"stv_port":27086,"stv_name":"Uncletopia | Frankfurt | 8 | Community | STV","players":null},{"server_id":202,"name":"Uncletopia | Hong Kong | 1 | All Maps","name_short":"hgk-1","host":"hgk-1.hk.uncletopia.com","port":27015,"enabled":true,"region":"asia","cc":"hk","latitude":22.302711,"longitude":114.177216,"reserved":0,"last_update":"0001-01-01T00:00:00Z","name_a2s":"Uncletopia | Hong Kong | 1 | All Maps","protocol":17,"map":"pl_badwater","folder":"tf","game":"Team Fortress","app_id":440,"player_count":21,"max_players":24,"Bots":0,"server_type":"Dedicated","server_os":"Linux","password":true,"vac":true,"version":"7961495","steam_id":85568392924494504,"keywords":["nocrits","nodmgspread","payload","uncletopia"],"game_id":440,"stv_port":27016,"stv_name":"Uncletopia | Hong Kong | 1 | All Maps | STV","players":[{"user_id":410,"name":"just_adhenz1284 #SaveTF2","steam_id":76561198293654671,"connected_time":889000000000,"state":"connecting","ping":437},{"user_id":422,"name":"sakuchan_39","steam_id":76561198095278714,"connected_time":19000000000,"state":"active","ping":37},{"user_id":353,"name":"U・♀・U kitty","steam_id":76561198149684436,"connected_time":7739000000000,"state":"active","ping":26},{"user_id":421,"name":"Lettuce","steam_id":76561199029369149,"connected_time":53000000000,"state":"active","ping":118},{"user_id":414,"name":"brizzard","steam_id":76561198048438653,"connected_time":467000000000,"state":"active","ping":46},{"user_id":413,"name":"drude","steam_id":76561198337481030,"connected_time":561000000000,"state":"active","ping":119},{"user_id":408,"name":"Nuh-uh!","steam_id":76561198084840314,"connected_time":1065000000000,"state":"active","ping":89},{"user_id":409,"name":"Z-DiZ","steam_id":76561198056537641,"connected_time":1046000000000,"state":"active","ping":95},{"user_id":389,"name":"Battery","steam_id":76561198004583032,"connected_time":3126000000000,"state":"active","ping":91},{"user_id":415,"name":"Tide","steam_id":76561198116422475,"connected_time":459000000000,"state":"active","ping":106},{"user_id":419,"name":"Spookie","steam_id":76561199158560796,"connected_time":173000000000,"state":"active","ping":65},{"user_id":396,"name":"avered","steam_id":76561199480939609,"connected_time":2551000000000,"state":"active","ping":76},{"user_id":369,"name":"Jun-char","steam_id":76561198126774704,"connected_time":5464000000000,"state":"active","ping":87},{"user_id":420,"name":"salami","steam_id":76561198306834480,"connected_time":164000000000,"state":"active","ping":81},{"user_id":370,"name":"Beef Wellington","steam_id":76561197995635241,"connected_time":5051000000000,"state":"active","ping":119},{"user_id":350,"name":"Samoyed","steam_id":76561198299150410,"connected_time":7745000000000,"state":"active","ping":75},{"user_id":417,"name":"지방덩어리","steam_id":76561198154458585,"connected_time":369000000000,"state":"active","ping":114},{"user_id":404,"name":"Lux","steam_id":76561198434985433,"connected_time":1358000000000,"state":"active","ping":91},{"user_id":387,"name":"L + dont care + didnt ask","steam_id":76561198062865762,"connected_time":3435000000000,"state":"active","ping":32},{"user_id":405,"name":"Epicwindow+-","steam_id":76561198067219529,"connected_time":1344000000000,"state":"active","ping":47},{"user_id":344,"name":"母の肉団子@hao123.com","steam_id":76561198069561896,"connected_time":9680000000000,"state":"active","ping":45}]},{"server_id":1,"name":"Uncletopia | Los Angeles | 1 | All Maps","name_short":"lax-1","host":"lax-1.us.uncletopia.com","port":27015,"enabled":true,"region":"us-west","cc":"us","latitude":33.94279,"longitude":-118.41004,"reserved":0,"last_update":"0001-01-01T00:00:00Z","name_a2s":"Uncletopia | Los Angeles | 1 | All Maps","protocol":17,"map":"koth_highpass","folder":"tf","game":"Team Fortress","app_id":440,"player_count":0,"max_players":24,"Bots":0,"server_type":"Dedicated","server_os":"Linux","password":true,"vac":true,"version":"7961495","steam_id":85568392924469991,"keywords":["cp","nocrits","nodmgspread","uncletopia"],"game_id":440,"stv_port":27016,"stv_name":"Uncletopia | Los Angeles | 1 | All Maps | STV","players":null},{"server_id":112,"name":"Uncletopia | Los Angeles | 2 | All Maps","name_short":"lax-2","host":"lax-1.us.uncletopia.com","port":27025,"enabled":true,"region":"us-west","cc":"us","latitude":33.94279,"longitude":-118.41004,"reserved":0,"last_update":"0001-01-01T00:00:00Z","name_a2s":"Uncletopia | Los Angeles | 2 | All Maps","protocol":17,"map":"cp_mountainlab","folder":"tf","game":"Team Fortress","app_id":440,"player_count":0,"max_players":24,"Bots":0,"server_type":"Dedicated","server_os":"Linux","password":true,"vac":true,"version":"7961495","steam_id":85568392924469992,"keywords":["cp","nocrits","nodmgspread","uncletopia"],"game_id":440,"stv_port":27026,"stv_name":"Uncletopia | Los Angeles | 2 | All Maps | STV","players":null},{"server_id":324,"name":"Uncletopia | Los Angeles | 3 | All Maps","name_short":"lax-3","host":"lax-1.us.uncletopia.com","port":27035,"enabled":true,"region":"us-west","cc":"us","latitude":33.94279,"longitude":-118.41004,"reserved":0,"last_update":"0001-01-01T00:00:00Z","name_a2s":"Uncletopia | Los Angeles | 3 | All Maps","protocol":17,"map":"pl_frontier_final","folder":"tf","game":"Team Fortress","app_id":440,"player_count":0,"max_players":24,"Bots":0,"server_type":"Dedicated","server_os":"Linux","password":true,"vac":true,"version":"7961495","steam_id":85568392924510198,"keywords":["nocrits","nodmgspread","payload","uncletopia"],"game_id":440,"stv_port":27036,"stv_name":"Uncletopia | Los Angeles | 3 | All Maps | STV","players":null},{"server_id":25,"name":"Uncletopia | Los Angeles | 4 | Stopwatch","name_short":"lax-4","host":"lax-1.us.uncletopia.com","port":27045,"enabled":true,"region":"us-west","cc":"us","latitude":33.94279,"longitude":-118.41004,"reserved":0,"last_update":"0001-01-01T00:00:00Z","name_a2s":"Uncletopia | Los Angeles | 4 | Stopwatch","protocol":17,"map":"pl_barnblitz","folder":"tf","game":"Team Fortress","app_id":440,"player_count":0,"max_players":24,"Bots":0,"server_type":"Dedicated","server_os":"Linux","password":true,"vac":true,"version":"7961495","steam_id":85568392924510199,"keywords":["nocrits","nodmgspread","payload","uncletopia"],"game_id":440,"stv_port":27046,"stv_name":"Uncletopia | Los Angeles | 4 | Stopwatch | STV","players":null},{"server_id":11,"name":"Uncletopia | London | 1 | All Maps","name_short":"lon-1","host":"lon-1.uk.uncletopia.com","port":27015,"enabled":true,"region":"eu","cc":"gb","latitude":51.509865,"longitude":-0.118092,"reserved":0,"last_update":"0001-01-01T00:00:00Z","name_a2s":"Uncletopia | London | 1 | All Maps","protocol":17,"map":"cp_process_final","folder":"tf","game":"Team Fortress","app_id":440,"player_count":23,"max_players":24,"Bots":0,"server_type":"Dedicated","server_os":"Linux","password":true,"vac":true,"version":"7961495","steam_id":85568392924367362,"keywords":["cp","nocrits","nodmgspread","uncletopia"],"game_id":440,"stv_port":27016,"stv_name":"Uncletopia | London | 1 | All Maps | STV","players":[{"user_id":205,"name":"Blar","steam_id":76561198042438229,"connected_time":5357000000000,"state":"active","ping":55},{"user_id":258,"name":"ⒿⒺⒺⓏⓄ","steam_id":76561198123592400,"connected_time":2130000000000,"state":"active","ping":92},{"user_id":287,"name":"just a cat","steam_id":76561198328023740,"connected_time":512000000000,"state":"active","ping":55},{"user_id":259,"name":"Spinya","steam_id":76561198086653667,"connected_time":1742000000000,"state":"active","ping":57},{"user_id":294,"name":"GLUEEATER hedon","steam_id":76561198249832770,"connected_time":285000000000,"state":"active","ping":45},{"user_id":295,"name":"Shoeman","steam_id":76561198126726364,"connected_time":196000000000,"state":"active","ping":59},{"user_id":222,"name":"INDIEFRAME","steam_id":76561199086092220,"connected_time":3558000000000,"state":"active","ping":61},{"user_id":272,"name":"Sherlock Bond","steam_id":76561198042045955,"connected_time":1428000000000,"state":"active","ping":49},{"user_id":297,"name":"Kai","steam_id":76561198800004578,"connected_time":145000000000,"state":"active","ping":49},{"user_id":292,"name":"shooer!","steam_id":76561198110531281,"connected_time":388000000000,"state":"active","ping":70},{"user_id":296,"name":"Arminius","steam_id":76561198047681820,"connected_time":151000000000,"state":"active","ping":69},{"user_id":298,"name":"Rock paper scissors sidequest","steam_id":76561198289376428,"connected_time":135000000000,"state":"active","ping":57},{"user_id":299,"name":"hwg","steam_id":76561198090848620,"connected_time":126000000000,"state":"active","ping":104},{"user_id":262,"name":"heheihavebigdong","steam_id":76561198115283167,"connected_time":1707000000000,"state":"active","ping":126},{"user_id":277,"name":"Excessive Clownery","steam_id":76561198130404188,"connected_time":1139000000000,"state":"active","ping":56},{"user_id":285,"name":"Tomboy Mold","steam_id":76561198106455841,"connected_time":526000000000,"state":"active","ping":74},{"user_id":250,"name":"Mr.Cupcake","steam_id":76561198152711174,"connected_time":2309000000000,"state":"active","ping":77},{"user_id":300,"name":"Aven","steam_id":76561198974343597,"connected_time":109000000000,"state":"active","ping":85},{"user_id":270,"name":"Volvo 740 Turbo Wagon","steam_id":76561199027564726,"connected_time":1601000000000,"state":"active","ping":40},{"user_id":301,"name":"KillFatih","steam_id":76561198289729882,"connected_time":39000000000,"state":"spawning","ping":95},{"user_id":255,"name":"marvi444","steam_id":76561198431534139,"connected_time":2216000000000,"state":"active","ping":50},{"user_id":293,"name":"Jara.","steam_id":76561197992207165,"connected_time":307000000000,"state":"active","ping":100},{"user_id":289,"name":"peepo","steam_id":76561198194668505,"connected_time":493000000000,"state":"active","ping":45}]},{"server_id":114,"name":"Uncletopia | London | 2 | All Maps","name_short":"lon-2","host":"lon-1.uk.uncletopia.com","port":27025,"enabled":true,"region":"eu","cc":"gb","latitude":51.509865,"longitude":-0.118092,"reserved":0,"last_update":"0001-01-01T00:00:00Z","name_a2s":"Uncletopia | London | 2 | All Maps","protocol":17,"map":"pl_badwater","folder":"tf","game":"Team Fortress","app_id":440,"player_count":24,"max_players":24,"Bots":0,"server_type":"Dedicated","server_os":"Linux","password":true,"vac":true,"version":"7961495","steam_id":85568392924470941,"keywords":["nocrits","nodmgspread","payload","uncletopia"],"game_id":440,"stv_port":27026,"stv_name":"Uncletopia | London | 2 | All Maps | STV","players":[{"user_id":393,"name":"Qbe","steam_id":76561198009654837,"connected_time":14000000000,"state":"spawning","ping":95},{"user_id":368,"name":"SeaKane","steam_id":76561198165453318,"connected_time":1789000000000,"state":"active","ping":58},{"user_id":364,"name":"oslninja8","steam_id":76561199407528463,"connected_time":2281000000000,"state":"active","ping":43},{"user_id":389,"name":"Tri-","steam_id":76561198133524794,"connected_time":481000000000,"state":"active","ping":34},{"user_id":363,"name":"FloatingEmpire3","steam_id":76561198809514696,"connected_time":2672000000000,"state":"active","ping":64},{"user_id":355,"name":"Rockfrenzy","steam_id":76561198005428050,"connected_time":2937000000000,"state":"active","ping":71},{"user_id":345,"name":"Mitt","steam_id":76561199011013919,"connected_time":4074000000000,"state":"active","ping":78},{"user_id":340,"name":"20100","steam_id":76561197992660834,"connected_time":4372000000000,"state":"active","ping":60},{"user_id":337,"name":"clunk","steam_id":76561198836460767,"connected_time":4422000000000,"state":"active","ping":76},{"user_id":379,"name":"twitch.tv/vision515","steam_id":76561198065293729,"connected_time":926000000000,"state":"active","ping":168},{"user_id":366,"name":"bonzai","steam_id":76561198086817743,"connected_time":2008000000000,"state":"active","ping":75},{"user_id":386,"name":"Eidolon","steam_id":76561198043919565,"connected_time":758000000000,"state":"active","ping":69},{"user_id":218,"name":"David","steam_id":76561198017852330,"connected_time":14870000000000,"state":"active","ping":85},{"user_id":390,"name":"Bags.","steam_id":76561198045708372,"connected_time":437000000000,"state":"active","ping":55},{"user_id":381,"name":"yuno appreciator","steam_id":76561198083286511,"connected_time":858000000000,"state":"active","ping":37},{"user_id":391,"name":"Jnet","steam_id":76561198001282720,"connected_time":401000000000,"state":"active","ping":93},{"user_id":387,"name":"Armored","steam_id":76561198267449130,"connected_time":711000000000,"state":"active","ping":84},{"user_id":347,"name":"fence_","steam_id":76561198150386379,"connected_time":3930000000000,"state":"active","ping":46},{"user_id":335,"name":"nokia #rustmoment banditcamp.co","steam_id":76561198976411995,"connected_time":4496000000000,"state":"active","ping":102},{"user_id":388,"name":"El Wiwi","steam_id":76561198134378108,"connected_time":544000000000,"state":"active","ping":78},{"user_id":392,"name":"amongus2117","steam_id":76561199491841052,"connected_time":224000000000,"state":"active","ping":97},{"user_id":325,"name":"Michal Jordan (real)","steam_id":76561199106262610,"connected_time":5662000000000,"state":"active","ping":60},{"user_id":384,"name":"Urfangonultasadana","steam_id":76561199389286151,"connected_time":798000000000,"state":"active","ping":110},{"user_id":380,"name":"Strepii","steam_id":76561199076904766,"connected_time":884000000000,"state":"active","ping":95}]},{"server_id":320,"name":"Uncletopia | London | 3 | All Maps","name_short":"lon-3","host":"lon-1.uk.uncletopia.com","port":27035,"enabled":true,"region":"eu","cc":"gb","latitude":51.509865,"longitude":-0.118092,"reserved":0,"last_update":"0001-01-01T00:00:00Z","name_a2s":"Uncletopia | London | 3 | All Maps","protocol":17,"map":"pl_borneo","folder":"tf","game":"Team Fortress","app_id":440,"player_count":0,"max_players":24,"Bots":0,"server_type":"Dedicated","server_os":"Linux","password":true,"vac":true,"version":"7961495","steam_id":85568392924510192,"keywords":["nocrits","nodmgspread","payload","uncletopia"],"game_id":440,"stv_port":27036,"stv_name":"Uncletopia | London | 3 | All Maps | STV","players":null},{"server_id":321,"name":"Uncletopia | London | 4 | All Maps","name_short":"lon-4","host":"lon-1.uk.uncletopia.com","port":27045,"enabled":true,"region":"eu","cc":"gb","latitude":51.509865,"longitude":-0.118092,"reserved":0,"last_update":"0001-01-01T00:00:00Z","name_a2s":"Uncletopia | London | 4 | All Maps","protocol":17,"map":"pl_borneo","folder":"tf","game":"Team Fortress","app_id":440,"player_count":23,"max_players":24,"Bots":0,"server_type":"Dedicated","server_os":"Linux","password":true,"vac":true,"version":"7961495","steam_id":85568392924510193,"keywords":["nocrits","nodmgspread","payload","uncletopia"],"game_id":440,"stv_port":27046,"stv_name":"Uncletopia | London | 4 | All Maps | STV","players":[{"user_id":95,"name":"N00BCSF","steam_id":76561198035530934,"connected_time":1338000000000,"state":"active","ping":61},{"user_id":108,"name":"Milk","steam_id":76561198125876588,"connected_time":226000000000,"state":"active","ping":43},{"user_id":89,"name":"JaneDoe","steam_id":76561198067081506,"connected_time":1569000000000,"state":"active","ping":88},{"user_id":79,"name":"s a i","steam_id":76561197970379754,"connected_time":2511000000000,"state":"active","ping":62},{"user_id":101,"name":"Marky","steam_id":76561199474556920,"connected_time":439000000000,"state":"active","ping":106},{"user_id":74,"name":"lillunya ♡","steam_id":76561198330418866,"connected_time":3168000000000,"state":"active","ping":70},{"user_id":87,"name":"LT.Steeamer","steam_id":76561198271938142,"connected_time":1803000000000,"state":"active","ping":61},{"user_id":85,"name":"Ullr","steam_id":76561198140547483,"connected_time":2143000000000,"state":"active","ping":45},{"user_id":51,"name":"john fortress","steam_id":76561198013237629,"connected_time":5084000000000,"state":"active","ping":89},{"user_id":60,"name":"Mr_Touchyou","steam_id":76561198452524697,"connected_time":4803000000000,"state":"active","ping":106},{"user_id":103,"name":"Weegad Wobus","steam_id":76561199429562693,"connected_time":397000000000,"state":"active","ping":81},{"user_id":109,"name":"skittle","steam_id":76561198303232638,"connected_time":117000000000,"state":"active","ping":71},{"user_id":104,"name":"LOBZIK","steam_id":76561198114830120,"connected_time":367000000000,"state":"active","ping":79},{"user_id":86,"name":"Rodia","steam_id":76561197968293161,"connected_time":2122000000000,"state":"active","ping":75},{"user_id":105,"name":"GoodOldJack12","steam_id":76561198100910669,"connected_time":356000000000,"state":"active","ping":59},{"user_id":107,"name":"yodel","steam_id":76561198138777659,"connected_time":287000000000,"state":"active","ping":59},{"user_id":93,"name":"Ytte","steam_id":76561198098370555,"connected_time":1452000000000,"state":"active","ping":120},{"user_id":94,"name":"Soulman25 (FIN)","steam_id":76561198103611974,"connected_time":1444000000000,"state":"active","ping":97},{"user_id":110,"name":"obscure","steam_id":76561198119532381,"connected_time":114000000000,"state":"active","ping":47},{"user_id":59,"name":"YoloMama","steam_id":76561198018797146,"connected_time":4842000000000,"state":"active","ping":87},{"user_id":96,"name":"housy","steam_id":76561198080008210,"connected_time":977000000000,"state":"active","ping":57},{"user_id":111,"name":"Watermelon","steam_id":76561198078349914,"connected_time":92000000000,"state":"active","ping":49},{"user_id":98,"name":"Eric Catman","steam_id":76561198802117294,"connected_time":630000000000,"state":"active","ping":70}]},{"server_id":21,"name":"Uncletopia | London | 5 | All Maps","name_short":"lon-5","host":"lon-1.uk.uncletopia.com","port":27055,"enabled":true,"region":"eu","cc":"gb","latitude":51.509865,"longitude":-0.118092,"reserved":0,"last_update":"0001-01-01T00:00:00Z","name_a2s":"Uncletopia | London | 5 | All Maps","protocol":17,"map":"pl_barnblitz","folder":"tf","game":"Team Fortress","app_id":440,"player_count":22,"max_players":24,"Bots":0,"server_type":"Dedicated","server_os":"Linux","password":true,"vac":true,"version":"7961495","steam_id":85568392924742829,"keywords":["nocrits","nodmgspread","payload","uncletopia"],"game_id":440,"stv_port":27056,"stv_name":"Uncletopia | London | 5 | All Maps | STV","players":[{"user_id":584,"name":"CAR DOOR","steam_id":76561198055283295,"connected_time":1981000000000,"state":"active","ping":45},{"user_id":521,"name":"阿纳斯塔西娅","steam_id":76561197994492154,"connected_time":6443000000000,"state":"active","ping":72},{"user_id":565,"name":"MTGbigdog","steam_id":76561198838760637,"connected_time":3876000000000,"state":"active","ping":133},{"user_id":547,"name":"Penis Contortionist","steam_id":76561198073663784,"connected_time":4178000000000,"state":"active","ping":46},{"user_id":570,"name":"Sirzen","steam_id":76561198170155434,"connected_time":3346000000000,"state":"active","ping":45},{"user_id":599,"name":"󠀡󠀡","steam_id":76561198059375315,"connected_time":775000000000,"state":"active","ping":78},{"user_id":558,"name":"WHUSSKEY","steam_id":76561198137827441,"connected_time":4000000000000,"state":"active","ping":76},{"user_id":608,"name":"Mackerel","steam_id":76561197980088396,"connected_time":48000000000,"state":"active","ping":57},{"user_id":590,"name":"Maximilian1359","steam_id":76561198152439608,"connected_time":1771000000000,"state":"active","ping":67},{"user_id":607,"name":"пшод подпишись","steam_id":76561198188258338,"connected_time":76000000000,"state":"active","ping":130},{"user_id":601,"name":"Tuosan","steam_id":76561198062611429,"connected_time":737000000000,"state":"active","ping":75},{"user_id":522,"name":"buko","steam_id":76561198349648942,"connected_time":5991000000000,"state":"active","ping":76},{"user_id":609,"name":"Just a baby","steam_id":76561198018660838,"connected_time":34000000000,"state":"active","ping":153},{"user_id":580,"name":"s3rg_","steam_id":76561198024043213,"connected_time":2472000000000,"state":"active","ping":63},{"user_id":602,"name":"brtaba","steam_id":76561198796334790,"connected_time":720000000000,"state":"active","ping":75},{"user_id":587,"name":"Defragmented","steam_id":76561198854210081,"connected_time":1907000000000,"state":"active","ping":143},{"user_id":597,"name":"theartistnathan","steam_id":76561198833787452,"connected_time":980000000000,"state":"active","ping":147},{"user_id":593,"name":"Johnny Bravo","steam_id":76561198872013525,"connected_time":1448000000000,"state":"active","ping":93},{"user_id":579,"name":"[O\u0026O]YaboiDucki","steam_id":76561198195976589,"connected_time":2618000000000,"state":"active","ping":87},{"user_id":582,"name":"fiddlesticks","steam_id":76561198155229347,"connected_time":1996000000000,"state":"active","ping":41},{"user_id":598,"name":"Ablativus","steam_id":76561198025698470,"connected_time":814000000000,"state":"active","ping":79},{"user_id":596,"name":"Jack","steam_id":76561198079575891,"connected_time":1130000000000,"state":"active","ping":53}]},{"server_id":22,"name":"Uncletopia | London | 6 | All Maps","name_short":"lon-6","host":"lon-1.uk.uncletopia.com","port":27065,"enabled":true,"region":"eu","cc":"gb","latitude":51.509865,"longitude":-0.118092,"reserved":0,"last_update":"0001-01-01T00:00:00Z","name_a2s":"Uncletopia | London | 6 | All Maps","protocol":17,"map":"pl_swiftwater_final1","folder":"tf","game":"Team Fortress","app_id":440,"player_count":20,"max_players":24,"Bots":0,"server_type":"Dedicated","server_os":"Linux","password":true,"vac":true,"version":"7961495","steam_id":85568392924742830,"keywords":["nocrits","nodmgspread","payload","uncletopia"],"game_id":440,"stv_port":27066,"stv_name":"Uncletopia | London | 6 | All Maps | STV","players":[{"user_id":146,"name":"xiiski","steam_id":76561198152387747,"connected_time":1291000000000,"state":"active","ping":94},{"user_id":168,"name":"boppy","steam_id":76561199222546982,"connected_time":122000000000,"state":"active","ping":52},{"user_id":103,"name":"who is spikey mike?","steam_id":76561199169534004,"connected_time":3635000000000,"state":"active","ping":38},{"user_id":120,"name":"Jellis","steam_id":76561198058849897,"connected_time":2658000000000,"state":"active","ping":30},{"user_id":167,"name":"Luna","steam_id":76561198416527370,"connected_time":334000000000,"state":"active","ping":72},{"user_id":154,"name":"znunney","steam_id":76561199438501613,"connected_time":676000000000,"state":"active","ping":59},{"user_id":155,"name":"dramæ","steam_id":76561198235739036,"connected_time":655000000000,"state":"active","ping":76},{"user_id":143,"name":"anderGL7","steam_id":76561198042529664,"connected_time":1691000000000,"state":"active","ping":78},{"user_id":156,"name":"Grekofun","steam_id":76561198758029808,"connected_time":648000000000,"state":"active","ping":84},{"user_id":135,"name":"bull.","steam_id":76561197965462062,"connected_time":2198000000000,"state":"active","ping":58},{"user_id":148,"name":"Shuro-Chi","steam_id":76561198172942134,"connected_time":1171000000000,"state":"active","ping":56},{"user_id":165,"name":"milo","steam_id":76561198119016918,"connected_time":484000000000,"state":"active","ping":66},{"user_id":147,"name":"Azrept","steam_id":76561198088368347,"connected_time":1222000000000,"state":"active","ping":67},{"user_id":164,"name":"maciejkrzysteczko","steam_id":76561199140822962,"connected_time":511000000000,"state":"active","ping":79},{"user_id":166,"name":"joey deathrun","steam_id":76561198142070141,"connected_time":466000000000,"state":"active","ping":68},{"user_id":160,"name":"thia","steam_id":76561198186366599,"connected_time":582000000000,"state":"active","ping":85},{"user_id":150,"name":"General William Tecumseh Sherma","steam_id":76561199078307343,"connected_time":1020000000000,"state":"active","ping":125},{"user_id":162,"name":"PEPELOLOPELO","steam_id":76561199036288500,"connected_time":555000000000,"state":"active","ping":122},{"user_id":130,"name":"Sympathetic","steam_id":76561198028087123,"connected_time":2377000000000,"state":"active","ping":87},{"user_id":163,"name":"2c-based","steam_id":76561198054214390,"connected_time":548000000000,"state":"active","ping":44}]},{"server_id":40,"name":"Uncletopia | London | 7 | Stopwatch","name_short":"lon-7","host":"lon-1.uk.uncletopia.com","port":27075,"enabled":true,"region":"eu","cc":"gb","latitude":51.509865,"longitude":-0.118092,"reserved":0,"last_update":"0001-01-01T00:00:00Z","name_a2s":"Uncletopia | London | 7 | Stopwatch","protocol":17,"map":"workshop/koth_clearcut_b15.ugc2107050255","folder":"tf","game":"Team Fortress","app_id":440,"player_count":0,"max_players":24,"Bots":0,"server_type":"Dedicated","server_os":"Linux","password":true,"vac":true,"version":"7961495","steam_id":85568392924964314,"keywords":["cp","nocrits","nodmgspread","uncletopia"],"game_id":440,"stv_port":27076,"stv_name":"Uncletopia | London | 7 | Stopwatch | STV","players":null},{"server_id":41,"name":"Uncletopia | London | 8 | Community","name_short":"lon-8","host":"lon-1.uk.uncletopia.com","port":27085,"enabled":true,"region":"eu","cc":"gb","latitude":51.509865,"longitude":-0.118092,"reserved":0,"last_update":"0001-01-01T00:00:00Z","name_a2s":"Uncletopia | London | 8 | Community","protocol":17,"map":"cp_snakewater_final1","folder":"tf","game":"Team Fortress","app_id":440,"player_count":0,"max_players":24,"Bots":0,"server_type":"Dedicated","server_os":"Linux","password":true,"vac":true,"version":"7961495","steam_id":85568392924964315,"keywords":["cp","nocrits","nodmgspread","uncletopia"],"game_id":440,"stv_port":27086,"stv_name":"Uncletopia | London | 8 | Community | STV","players":null},{"server_id":300,"name":"Uncletopia | Montréal | 1 | One Thousand Uncles","name_short":"mtl-1","host":"mtl-1.ca.uncletopia.com","port":27015,"enabled":true,"region":"us-east","cc":"ca","latitude":45.50889,"longitude":-73.56167,"reserved":0,"last_update":"0001-01-01T00:00:00Z","name_a2s":"","protocol":0,"map":"","folder":"","game":"","app_id":0,"player_count":0,"max_players":0,"Bots":0,"server_type":"","server_os":"","password":false,"vac":false,"version":"","steam_id":0,"keywords":null,"game_id":0,"stv_port":0,"stv_name":"","players":null},{"server_id":301,"name":"Uncletopia | Montréal | 2 | One Thousand Uncles","name_short":"mtl-2","host":"mtl-1.ca.uncletopia.com","port":27025,"enabled":true,"region":"us-east","cc":"ca","latitude":45.50889,"longitude":-73.56167,"reserved":0,"last_update":"0001-01-01T00:00:00Z","name_a2s":"","protocol":0,"map":"","folder":"","game":"","app_id":0,"player_count":0,"max_players":0,"Bots":0,"server_type":"","server_os":"","password":false,"vac":false,"version":"","steam_id":0,"keywords":null,"game_id":0,"stv_port":0,"stv_name":"","players":null},{"server_id":302,"name":"Uncletopia | Montréal | 3 | One Thousand Uncles","name_short":"mtl-3","host":"mtl-1.ca.uncletopia.com","port":27035,"enabled":true,"region":"us-east","cc":"ca","latitude":45.50889,"longitude":-73.56167,"reserved":0,"last_update":"0001-01-01T00:00:00Z","name_a2s":"","protocol":0,"map":"","folder":"","game":"","app_id":0,"player_count":0,"max_players":0,"Bots":0,"server_type":"","server_os":"","password":false,"vac":false,"version":"","steam_id":0,"keywords":null,"game_id":0,"stv_port":0,"stv_name":"","players":null},{"server_id":13,"name":"Uncletopia | New York City | 1 | All Maps","name_short":"nyc-1","host":"nyc-1.us.uncletopia.com","port":27015,"enabled":true,"region":"us-east","cc":"us","latitude":40.73061,"longitude":-73.93524,"reserved":0,"last_update":"0001-01-01T00:00:00Z","name_a2s":"Uncletopia | New York City | 1 | All Maps","protocol":17,"map":"koth_highpass","folder":"tf","game":"Team Fortress","app_id":440,"player_count":0,"max_players":24,"Bots":0,"server_type":"Dedicated","server_os":"Linux","password":true,"vac":true,"version":"7961495","steam_id":85568392924469993,"keywords":["cp","nocrits","nodmgspread","uncletopia"],"game_id":440,"stv_port":27016,"stv_name":"Uncletopia | New York City | 1 | All Maps | STV","players":null},{"server_id":14,"name":"Uncletopia | New York City | 2 | All Maps","name_short":"nyc-2","host":"nyc-1.us.uncletopia.com","port":27025,"enabled":true,"region":"us-east","cc":"us","latitude":40.73061,"longitude":-73.93524,"reserved":0,"last_update":"0001-01-01T00:00:00Z","name_a2s":"Uncletopia | New York City | 2 | All Maps","protocol":17,"map":"pl_pier","folder":"tf","game":"Team Fortress","app_id":440,"player_count":0,"max_players":24,"Bots":0,"server_type":"Dedicated","server_os":"Linux","password":true,"vac":true,"version":"7961495","steam_id":85568392924469994,"keywords":["nocrits","nodmgspread","payload","uncletopia"],"game_id":440,"stv_port":27026,"stv_name":"Uncletopia | New York City | 2 | All Maps | STV","players":null},{"server_id":15,"name":"Uncletopia | New York City | 3 | Stopwatch","name_short":"nyc-3","host":"nyc-1.us.uncletopia.com","port":27035,"enabled":true,"region":"us-east","cc":"us","latitude":40.73061,"longitude":-73.93524,"reserved":0,"last_update":"0001-01-01T00:00:00Z","name_a2s":"Uncletopia | New York City | 3 | Stopwatch","protocol":17,"map":"cp_process_final","folder":"tf","game":"Team Fortress","app_id":440,"player_count":8,"max_players":24,"Bots":0,"server_type":"Dedicated","server_os":"Linux","password":true,"vac":true,"version":"7961495","steam_id":85568392924742820,"keywords":["cp","nocrits","nodmgspread","uncletopia"],"game_id":440,"stv_port":27036,"stv_name":"Uncletopia | New York City | 3 | Stopwatch | STV","players":[{"user_id":3,"name":"Cheezus","steam_id":76561199093893813,"connected_time":1904000000000,"state":"active","ping":135},{"user_id":4,"name":"ProSlayer77","steam_id":76561199435273618,"connected_time":1896000000000,"state":"active","ping":128},{"user_id":5,"name":"piotrek.konieczny","steam_id":76561199442895864,"connected_time":1398000000000,"state":"active","ping":383},{"user_id":7,"name":"rip muhammad ali","steam_id":76561198072640720,"connected_time":1029000000000,"state":"active","ping":52},{"user_id":8,"name":"cotton","steam_id":76561198018652890,"connected_time":484000000000,"state":"active","ping":48},{"user_id":9,"name":"Toma_Strims","steam_id":76561198042841506,"connected_time":428000000000,"state":"active","ping":45},{"user_id":13,"name":"JudgmentErgo","steam_id":76561198068962758,"connected_time":65000000000,"state":"active","ping":78},{"user_id":12,"name":"Sugary","steam_id":76561198088267265,"connected_time":125000000000,"state":"active","ping":119}]},{"server_id":16,"name":"Uncletopia | New York City | 4 | Community","name_short":"nyc-4","host":"nyc-1.us.uncletopia.com","port":27045,"enabled":true,"region":"us-east","cc":"us","latitude":40.73061,"longitude":-73.93524,"reserved":0,"last_update":"0001-01-01T00:00:00Z","name_a2s":"Uncletopia | New York City | 4 | Community","protocol":17,"map":"cp_altitude","folder":"tf","game":"Team Fortress","app_id":440,"player_count":0,"max_players":24,"Bots":0,"server_type":"Dedicated","server_os":"Linux","password":true,"vac":true,"version":"7961495","steam_id":85568392924742821,"keywords":["cp","nocrits","nodmgspread","uncletopia"],"game_id":440,"stv_port":27046,"stv_name":"Uncletopia | New York City | 4 | Community | STV","players":null},{"server_id":142,"name":"Uncletopia | São Paulo | 1 | All Maps","name_short":"sao-1","host":"sao-1.br.uncletopia.com","port":27015,"enabled":true,"region":"sa","cc":"br","latitude":-23.533773,"longitude":-46.62529,"reserved":0,"last_update":"0001-01-01T00:00:00Z","name_a2s":"Uncletopia | São Paulo | 1 | All Maps","protocol":17,"map":"cp_process_final","folder":"tf","game":"Team Fortress","app_id":440,"player_count":0,"max_players":24,"Bots":0,"server_type":"Dedicated","server_os":"Linux","password":true,"vac":true,"version":"7961495","steam_id":85568392924469996,"keywords":["cp","nocrits","nodmgspread","uncletopia"],"game_id":440,"stv_port":27016,"stv_name":"Uncletopia | São Paulo | 1 | All Maps | STV","players":null},{"server_id":143,"name":"Uncletopia | São Paulo | 2 | Community","name_short":"sao-2","host":"sao-2.br.uncletopia.com","port":27015,"enabled":true,"region":"sa","cc":"br","latitude":-23.533773,"longitude":-46.62529,"reserved":0,"last_update":"0001-01-01T00:00:00Z","name_a2s":"Uncletopia | São Paulo | 2 | Community","protocol":17,"map":"pl_badwater","folder":"tf","game":"Team Fortress","app_id":440,"player_count":0,"max_players":24,"Bots":0,"server_type":"Dedicated","server_os":"Linux","password":true,"vac":true,"version":"7961495","steam_id":85568392924485349,"keywords":["nocrits","nodmgspread","payload","uncletopia"],"game_id":440,"stv_port":27016,"stv_name":"Uncletopia | São Paulo | 2 | Community | STV","players":null},{"server_id":7,"name":"Uncletopia | Seattle | 1 | All Maps","name_short":"sea-1","host":"sea-1.us.uncletopia.com","port":27015,"enabled":true,"region":"us-west","cc":"us","latitude":47.608013,"longitude":-122.33517,"reserved":0,"last_update":"0001-01-01T00:00:00Z","name_a2s":"Uncletopia | Seattle | 1 | All Maps","protocol":17,"map":"pl_upward","folder":"tf","game":"Team Fortress","app_id":440,"player_count":24,"max_players":24,"Bots":0,"server_type":"Dedicated","server_os":"Linux","password":true,"vac":true,"version":"7961495","steam_id":85568392924469997,"keywords":["nocrits","nodmgspread","payload","uncletopia"],"game_id":440,"stv_port":27016,"stv_name":"Uncletopia | Seattle | 1 | All Maps | STV","players":[{"user_id":3,"name":"slushy :((","steam_id":76561198135281802,"connected_time":7647000000000,"state":"active","ping":32},{"user_id":66,"name":"rushy :))","steam_id":76561198065825165,"connected_time":3947000000000,"state":"active","ping":124},{"user_id":55,"name":"SeeNik","steam_id":76561198149499817,"connected_time":4531000000000,"state":"active","ping":79},{"user_id":9,"name":"jayeskae","steam_id":76561198144220801,"connected_time":7261000000000,"state":"active","ping":45},{"user_id":82,"name":"Rain","steam_id":76561198032318897,"connected_time":2066000000000,"state":"active","ping":85},{"user_id":83,"name":"tinkerbell","steam_id":76561197978351201,"connected_time":2047000000000,"state":"active","ping":70},{"user_id":22,"name":"THE VOICES KEEP GETTING LOUDER","steam_id":76561198309823950,"connected_time":6565000000000,"state":"active","ping":42},{"user_id":103,"name":"Redo64","steam_id":76561198330923332,"connected_time":827000000000,"state":"active","ping":107},{"user_id":54,"name":"Paint Huffing Yoshi Player","steam_id":76561198028969023,"connected_time":4545000000000,"state":"active","ping":49},{"user_id":104,"name":"Purp (autism separatist arc)","steam_id":76561198044559535,"connected_time":781000000000,"state":"active","ping":112},{"user_id":85,"name":"dust | it/she","steam_id":76561198045218909,"connected_time":2038000000000,"state":"active","ping":42},{"user_id":73,"name":"evilOlive","steam_id":76561198106222025,"connected_time":3413000000000,"state":"active","ping":82},{"user_id":105,"name":"Ashes!","steam_id":76561197998475441,"connected_time":762000000000,"state":"active","ping":118},{"user_id":107,"name":"you just got dyked on","steam_id":76561198018977723,"connected_time":699000000000,"state":"active","ping":52},{"user_id":100,"name":"Skabbety","steam_id":76561198168044257,"connected_time":929000000000,"state":"active","ping":43},{"user_id":106,"name":"Gluppo","steam_id":76561198060016004,"connected_time":758000000000,"state":"active","ping":102},{"user_id":92,"name":"Rovsson","steam_id":76561198274949596,"connected_time":1256000000000,"state":"active","ping":118},{"user_id":88,"name":"SEGNO","steam_id":76561198102780113,"connected_time":1951000000000,"state":"active","ping":75},{"user_id":90,"name":"Wheaty","steam_id":76561198003553412,"connected_time":1571000000000,"state":"active","ping":53},{"user_id":32,"name":"Closed.","steam_id":76561198212598967,"connected_time":6022000000000,"state":"active","ping":77},{"user_id":110,"name":"Lambda","steam_id":76561198353587576,"connected_time":293000000000,"state":"active","ping":53},{"user_id":77,"name":"Petrivus","steam_id":76561198202152453,"connected_time":2618000000000,"state":"active","ping":45},{"user_id":111,"name":"Joeyy #1Team","steam_id":76561198284576866,"connected_time":200000000000,"state":"active","ping":90},{"user_id":109,"name":"scungo","steam_id":76561198316654855,"connected_time":657000000000,"state":"active","ping":118}]},{"server_id":119,"name":"Uncletopia | Seattle | 2 | All Maps","name_short":"sea-2","host":"sea-1.us.uncletopia.com","port":27025,"enabled":true,"region":"us-west","cc":"us","latitude":47.608013,"longitude":-122.33517,"reserved":0,"last_update":"0001-01-01T00:00:00Z","name_a2s":"Uncletopia | Seattle | 2 | All Maps","protocol":17,"map":"cp_sunshine","folder":"tf","game":"Team Fortress","app_id":440,"player_count":1,"max_players":24,"Bots":0,"server_type":"Dedicated","server_os":"Linux","password":true,"vac":true,"version":"7961495","steam_id":85568392924469998,"keywords":["cp","nocrits","nodmgspread","uncletopia"],"game_id":440,"stv_port":27026,"stv_name":"Uncletopia | Seattle | 2 | All Maps | STV","players":[{"user_id":15,"name":"Xain35","steam_id":76561198121834307,"connected_time":101000000000,"state":"spawning","ping":35}]},{"server_id":406,"name":"Uncletopia | Seattle | 3 | Stopwatch","name_short":"sea-3","host":"sea-1.us.uncletopia.com","port":27035,"enabled":true,"region":"us-west","cc":"us","latitude":47.608013,"longitude":-122.33517,"reserved":0,"last_update":"0001-01-01T00:00:00Z","name_a2s":"Uncletopia | Seattle | 3 | Stopwatch","protocol":17,"map":"pl_pier","folder":"tf","game":"Team Fortress","app_id":440,"player_count":0,"max_players":24,"Bots":0,"server_type":"Dedicated","server_os":"Linux","password":true,"vac":true,"version":"7961495","steam_id":85568392924515217,"keywords":["nocrits","nodmgspread","payload","uncletopia"],"game_id":440,"stv_port":27036,"stv_name":"Uncletopia | Seattle | 3 | Stopwatch | STV","players":null},{"server_id":17,"name":"Uncletopia | San Francisco | 1 | All Maps","name_short":"sfo-1","host":"sfo-1.us.uncletopia.com","port":27015,"enabled":true,"region":"us-west","cc":"us","latitude":37.77397,"longitude":-122.4313,"reserved":0,"last_update":"0001-01-01T00:00:00Z","name_a2s":"Uncletopia | San Francisco | 1 | All Maps","protocol":17,"map":"koth_cascade","folder":"tf","game":"Team Fortress","app_id":440,"player_count":0,"max_players":24,"Bots":0,"server_type":"Dedicated","server_os":"Linux","password":true,"vac":true,"version":"7961495","steam_id":85568392924469999,"keywords":["cp","nocrits","nodmgspread","uncletopia"],"game_id":440,"stv_port":27016,"stv_name":"Uncletopia | San Francisco | 1 | All Maps | STV","players":null},{"server_id":18,"name":"Uncletopia | San Francisco | 2 | All Maps","name_short":"sfo-2","host":"sfo-1.us.uncletopia.com","port":27025,"enabled":true,"region":"us-west","cc":"us","latitude":37.77397,"longitude":-122.4313,"reserved":0,"last_update":"0001-01-01T00:00:00Z","name_a2s":"Uncletopia | San Francisco | 2 | All Maps","protocol":17,"map":"pl_frontier_final","folder":"tf","game":"Team Fortress","app_id":440,"player_count":0,"max_players":24,"Bots":0,"server_type":"Dedicated","server_os":"Linux","password":true,"vac":true,"version":"7961495","steam_id":85568392924470000,"keywords":["nocrits","nodmgspread","payload","uncletopia"],"game_id":440,"stv_port":27026,"stv_name":"Uncletopia | San Francisco | 2 | All Maps | STV","players":null},{"server_id":19,"name":"Uncletopia | San Francisco | 3 | Stopwatch","name_short":"sfo-3","host":"sfo-1.us.uncletopia.com","port":27035,"enabled":true,"region":"us-west","cc":"us","latitude":37.77397,"longitude":-122.4313,"reserved":0,"last_update":"0001-01-01T00:00:00Z","name_a2s":"Uncletopia | San Francisco | 3 | Stopwatch","protocol":17,"map":"workshop/pl_vigil_rc10.ugc1266210012","folder":"tf","game":"Team Fortress","app_id":440,"player_count":0,"max_players":24,"Bots":0,"server_type":"Dedicated","server_os":"Linux","password":true,"vac":true,"version":"7961495","steam_id":85568392924742824,"keywords":["nocrits","nodmgspread","payload","uncletopia"],"game_id":440,"stv_port":27036,"stv_name":"Uncletopia | San Francisco | 3 | Stopwatch | STV","players":null},{"server_id":20,"name":"Uncletopia | San Francisco | 4 | Community","name_short":"sfo-4","host":"sfo-1.us.uncletopia.com","port":27045,"enabled":true,"region":"us-west","cc":"us","latitude":37.77397,"longitude":-122.4313,"reserved":0,"last_update":"0001-01-01T00:00:00Z","name_a2s":"Uncletopia | San Francisco | 4 | Community","protocol":17,"map":"pl_pier","folder":"tf","game":"Team Fortress","app_id":440,"player_count":0,"max_players":24,"Bots":0,"server_type":"Dedicated","server_os":"Linux","password":true,"vac":true,"version":"7961495","steam_id":85568392924742826,"keywords":["nocrits","nodmgspread","payload","uncletopia"],"game_id":440,"stv_port":27046,"stv_name":"Uncletopia | San Francisco | 4 | Community | STV","players":null},{"server_id":141,"name":"Uncletopia | Sydney | 1 | All Maps","name_short":"syd-1","host":"syd-1.au.uncletopia.com","port":27015,"enabled":true,"region":"au","cc":"au","latitude":-33.865143,"longitude":151.2099,"reserved":0,"last_update":"0001-01-01T00:00:00Z","name_a2s":"Uncletopia | Sydney | 1 | All Maps","protocol":17,"map":"plr_hightower","folder":"tf","game":"Team Fortress","app_id":440,"player_count":0,"max_players":24,"Bots":0,"server_type":"Dedicated","server_os":"Linux","password":true,"vac":true,"version":"7961495","steam_id":85568392924470001,"keywords":["nocrits","nodmgspread","payload","uncletopia"],"game_id":440,"stv_port":27016,"stv_name":"Uncletopia | Sydney | 1 | All Maps | STV","players":null},{"server_id":123,"name":"Uncletopia | Sydney | 2 | All Maps","name_short":"syd-2","host":"syd-1.au.uncletopia.com","port":27025,"enabled":true,"region":"au","cc":"au","latitude":-33.865143,"longitude":151.2099,"reserved":0,"last_update":"0001-01-01T00:00:00Z","name_a2s":"Uncletopia | Sydney | 2 | All Maps","protocol":17,"map":"pl_upward","folder":"tf","game":"Team Fortress","app_id":440,"player_count":0,"max_players":24,"Bots":0,"server_type":"Dedicated","server_os":"Linux","password":true,"vac":true,"version":"7961495","steam_id":85568392924470002,"keywords":["nocrits","nodmgspread","payload","uncletopia"],"game_id":440,"stv_port":27026,"stv_name":"Uncletopia | Sydney | 2 | All Maps | STV","players":null},{"server_id":395,"name":"Uncletopia | Sydney | 3 | All Maps","name_short":"syd-3","host":"syd-1.au.uncletopia.com","port":27035,"enabled":true,"region":"au","cc":"au","latitude":-33.865143,"longitude":151.2099,"reserved":0,"last_update":"0001-01-01T00:00:00Z","name_a2s":"Uncletopia | Sydney | 3 | All Maps","protocol":17,"map":"pl_badwater","folder":"tf","game":"Team Fortress","app_id":440,"player_count":7,"max_players":24,"Bots":0,"server_type":"Dedicated","server_os":"Linux","password":true,"vac":true,"version":"7961495","steam_id":85568392925194467,"keywords":["nocrits","nodmgspread","payload","uncletopia"],"game_id":440,"stv_port":27036,"stv_name":"Uncletopia | Sydney | 3 | All Maps | STV","players":[{"user_id":223,"name":"Walter under the bridge","steam_id":76561198301282416,"connected_time":3236000000000,"state":"active","ping":50},{"user_id":229,"name":"morrissey apologist","steam_id":76561198133901159,"connected_time":1615000000000,"state":"active","ping":70},{"user_id":161,"name":"Quartz-Powered Hoe","steam_id":76561198072845816,"connected_time":10091000000000,"state":"active","ping":51},{"user_id":209,"name":"subway_surfer_2001","steam_id":76561198048064049,"connected_time":4281000000000,"state":"active","ping":70},{"user_id":170,"name":"destroy!!","steam_id":76561198238031616,"connected_time":8802000000000,"state":"active","ping":82},{"user_id":217,"name":"Wobbly Bob","steam_id":76561197998726168,"connected_time":3627000000000,"state":"active","ping":63},{"user_id":216,"name":"RainyKnowone","steam_id":76561198840459258,"connected_time":3768000000000,"state":"active","ping":85}]},{"server_id":396,"name":"Uncletopia | Sydney | 4 | All Maps","name_short":"syd-4","host":"syd-1.au.uncletopia.com","port":27045,"enabled":true,"region":"au","cc":"au","latitude":-33.865143,"longitude":151.2099,"reserved":0,"last_update":"0001-01-01T00:00:00Z","name_a2s":"Uncletopia | Sydney | 4 | All Maps","protocol":17,"map":"plr_bananabay","folder":"tf","game":"Team Fortress","app_id":440,"player_count":0,"max_players":24,"Bots":0,"server_type":"Dedicated","server_os":"Linux","password":true,"vac":true,"version":"7961495","steam_id":85568392925397958,"keywords":["nocrits","nodmgspread","payload","uncletopia"],"game_id":440,"stv_port":27046,"stv_name":"Uncletopia | Sydney | 4 | All Maps | STV","players":null},{"server_id":58,"name":"Uncletopia | Sydney | 5 | Stopwatch","name_short":"syd-5","host":"syd-1.au.uncletopia.com","port":27055,"enabled":true,"region":"au","cc":"au","latitude":-33.865143,"longitude":151.2099,"reserved":0,"last_update":"0001-01-01T00:00:00Z","name_a2s":"Uncletopia | Sydney | 5 | Stopwatch","protocol":17,"map":"workshop/koth_bagel_rc6.ugc2514036946","folder":"tf","game":"Team Fortress","app_id":440,"player_count":0,"max_players":24,"Bots":0,"server_type":"Dedicated","server_os":"Linux","password":true,"vac":true,"version":"7961495","steam_id":85568392925397959,"keywords":["cp","nocrits","nodmgspread","uncletopia"],"game_id":440,"stv_port":27056,"stv_name":"Uncletopia | Sydney | 5 | Stopwatch | STV","players":null},{"server_id":59,"name":"Uncletopia | Sydney | 6 | Community","name_short":"syd-6","host":"syd-1.au.uncletopia.com","port":27065,"enabled":true,"region":"au","cc":"au","latitude":-33.865143,"longitude":151.2099,"reserved":0,"last_update":"0001-01-01T00:00:00Z","name_a2s":"Uncletopia | Sydney | 6 | Community","protocol":17,"map":"workshop/koth_kemptown_rc1.ugc767410655","folder":"tf","game":"Team Fortress","app_id":440,"player_count":0,"max_players":24,"Bots":0,"server_type":"Dedicated","server_os":"Linux","password":true,"vac":true,"version":"7961495","steam_id":85568392925397960,"keywords":["cp","nocrits","nodmgspread","uncletopia"],"game_id":440,"stv_port":27066,"stv_name":"Uncletopia | Sydney | 6 | Community | STV","players":null},{"server_id":49,"name":"Uncletopia | Warsaw | 1 | One Thousand Uncles","name_short":"waw-1","host":"waw-1.pl.uncletopia.com","port":27015,"enabled":true,"region":"eu","cc":"pl","latitude":52.2297,"longitude":21.017532,"reserved":0,"last_update":"0001-01-01T00:00:00Z","name_a2s":"Uncletopia | Warsaw | 1 | One Thousand Uncles","protocol":17,"map":"cp_egypt_final","folder":"tf","game":"Team Fortress","app_id":440,"player_count":0,"max_players":32,"Bots":0,"server_type":"Dedicated","server_os":"Linux","password":true,"vac":true,"version":"7961495","steam_id":85568392925397850,"keywords":["alltalk","cp","danepve","increased_maxplayers","nocrits","norespawntime","uncletopia"],"game_id":440,"stv_port":0,"stv_name":"","players":null},{"server_id":50,"name":"Uncletopia | Warsaw | 2 | One Thousand Uncles","name_short":"waw-2","host":"waw-1.pl.uncletopia.com","port":27025,"enabled":true,"region":"eu","cc":"pl","latitude":52.2297,"longitude":21.017532,"reserved":0,"last_update":"0001-01-01T00:00:00Z","name_a2s":"Uncletopia | Warsaw | 2 | One Thousand Uncles","protocol":17,"map":"cp_dustbowl","folder":"tf","game":"Team Fortress","app_id":440,"player_count":30,"max_players":32,"Bots":16,"server_type":"Dedicated","server_os":"Linux","password":true,"vac":true,"version":"7961495","steam_id":85568392925397851,"keywords":["alltalk","bots","cp","danepve","increased_maxplayers","nocrits","norespawntime","uncletopia"],"game_id":440,"stv_port":0,"stv_name":"","players":[{"user_id":384,"name":"Dr. pootis","steam_id":76561198803421654,"connected_time":3977000000000,"state":"active","ping":41},{"user_id":423,"name":"gmem","steam_id":76561198070006725,"connected_time":72000000000,"state":"active","ping":88},{"user_id":403,"name":"tirr0j","steam_id":76561198061949211,"connected_time":3016000000000,"state":"active","ping":64},{"user_id":416,"name":"Eujekas","steam_id":76561198010527145,"connected_time":789000000000,"state":"active","ping":112},{"user_id":405,"name":"Dagput","steam_id":76561199071544405,"connected_time":2224000000000,"state":"active","ping":57},{"user_id":406,"name":"Docia","steam_id":76561198214092639,"connected_time":1898000000000,"state":"active","ping":85},{"user_id":407,"name":"LUKE [PL]","steam_id":76561198307059549,"connected_time":1813000000000,"state":"active","ping":81},{"user_id":408,"name":"please do not the cat","steam_id":76561198089003514,"connected_time":1520000000000,"state":"active","ping":54},{"user_id":409,"name":"JuJuMann","steam_id":76561198289461028,"connected_time":1440000000000,"state":"active","ping":183},{"user_id":410,"name":"🔰 Caramell 🔰","steam_id":76561198080244403,"connected_time":1390000000000,"state":"active","ping":96},{"user_id":411,"name":"The one True Mads","steam_id":76561197999204692,"connected_time":1377000000000,"state":"active","ping":74},{"user_id":424,"name":"kovajatkaolevinaan","steam_id":76561199471146687,"connected_time":3000000000,"state":"spawning","ping":102},{"user_id":414,"name":"Skele","steam_id":76561199055970995,"connected_time":993000000000,"state":"active","ping":113},{"user_id":419,"name":"Gusvenga","steam_id":76561199350840589,"connected_time":321000000000,"state":"active","ping":55}]},{"server_id":51,"name":"Uncletopia | Warsaw | 3 | All Maps","name_short":"waw-3","host":"waw-1.pl.uncletopia.com","port":27035,"enabled":true,"region":"eu","cc":"pl","latitude":52.2297,"longitude":21.017532,"reserved":0,"last_update":"0001-01-01T00:00:00Z","name_a2s":"Uncletopia | Warsaw | 3 | All Maps","protocol":17,"map":"pl_upward","folder":"tf","game":"Team Fortress","app_id":440,"player_count":2,"max_players":24,"Bots":0,"server_type":"Dedicated","server_os":"Linux","password":true,"vac":true,"version":"7961495","steam_id":85568392925397852,"keywords":["nocrits","nodmgspread","payload","uncletopia"],"game_id":440,"stv_port":27036,"stv_name":"Uncletopia | Warsaw | 3 | All Maps | STV","players":[{"user_id":9,"name":"Eno I 217","steam_id":76561199106317833,"connected_time":2284000000000,"state":"active","ping":86},{"user_id":13,"name":"Truegr","steam_id":76561198811912339,"connected_time":235000000000,"state":"active","ping":72}]},{"server_id":52,"name":"Uncletopia | Warsaw | 4 | All Maps","name_short":"waw-4","host":"waw-1.pl.uncletopia.com","port":27045,"enabled":true,"region":"eu","cc":"pl","latitude":52.2297,"longitude":21.017532,"reserved":0,"last_update":"0001-01-01T00:00:00Z","name_a2s":"Uncletopia | Warsaw | 4 | All Maps","protocol":17,"map":"cp_foundry","folder":"tf","game":"Team Fortress","app_id":440,"player_count":6,"max_players":24,"Bots":0,"server_type":"Dedicated","server_os":"Linux","password":true,"vac":true,"version":"7961495","steam_id":85568392925397853,"keywords":["cp","nocrits","nodmgspread","uncletopia"],"game_id":440,"stv_port":27046,"stv_name":"Uncletopia | Warsaw | 4 | All Maps | STV","players":[{"user_id":13,"name":"Okacha","steam_id":76561198341166854,"connected_time":79000000000,"state":"active","ping":110},{"user_id":10,"name":"Jin","steam_id":76561198248878364,"connected_time":217000000000,"state":"active","ping":66},{"user_id":11,"name":"SoapySophie","steam_id":76561198902894934,"connected_time":90000000000,"state":"active","ping":129},{"user_id":12,"name":"Skcall","steam_id":76561198818774460,"connected_time":83000000000,"state":"active","ping":115},{"user_id":14,"name":"ellie","steam_id":76561198986197639,"connected_time":67000000000,"state":"active","ping":80},{"user_id":15,"name":"soffy","steam_id":76561198209807837,"connected_time":30000000000,"state":"spawning","ping":74}]},{"server_id":53,"name":"Uncletopia | Warsaw | 5 | Stopwatch","name_short":"waw-5","host":"waw-1.pl.uncletopia.com","port":27055,"enabled":true,"region":"eu","cc":"pl","latitude":52.2297,"longitude":21.017532,"reserved":0,"last_update":"0001-01-01T00:00:00Z","name_a2s":"Uncletopia | Warsaw | 5 | Stopwatch","protocol":17,"map":"workshop/koth_product_final.ugc454272353","folder":"tf","game":"Team Fortress","app_id":440,"player_count":0,"max_players":24,"Bots":0,"server_type":"Dedicated","server_os":"Linux","password":true,"vac":true,"version":"7961495","steam_id":85568392925397854,"keywords":["cp","nocrits","nodmgspread","uncletopia"],"game_id":440,"stv_port":27056,"stv_name":"Uncletopia | Warsaw | 5 | Stopwatch | STV","players":null},{"server_id":54,"name":"Uncletopia | Warsaw | 6 | Community","name_short":"waw-6","host":"waw-1.pl.uncletopia.com","port":27065,"enabled":true,"region":"eu","cc":"pl","latitude":52.2297,"longitude":21.017532,"reserved":0,"last_update":"0001-01-01T00:00:00Z","name_a2s":"Uncletopia | Warsaw | 6 | Community","protocol":17,"map":"workshop/cp_glacier_rc6.ugc2905735376","folder":"tf","game":"Team Fortress","app_id":440,"player_count":0,"max_players":24,"Bots":0,"server_type":"Dedicated","server_os":"Linux","password":true,"vac":true,"version":"7961495","steam_id":85568392925397856,"keywords":["cp","nocrits","nodmgspread","uncletopia"],"game_id":440,"stv_port":27066,"stv_name":"Uncletopia | Warsaw | 6 | Community | STV","players":null}]}