{"status":true,"message":"","result":[{"server_id":9,"name":"Uncletopia | Atlanta | 1 | All Maps","name_short":"atl-1","host":"atl-1.us.uncletopia.com","port":27015,"enabled":true,"region":"us-east","cc":"us","latitude":33.753746,"longitude":-84.38633,"reserved":0,"last_update":"0001-01-01T00:00:00Z","name_a2s":"Uncletopia | Atlanta | 1 | All Maps","protocol":17,"map":"koth_lakeside_final","folder":"tf","game":"Team Fortress","app_id":440,"player_count":24,"max_players":24,"Bots":0,"server_type":"Dedicated","server_os":"Linux","password":true,"vac":true,"version":"7961495","steam_id":85568392924469982,"keywords":["cp","nocrits","nodmgspread","uncletopia"],"game_id":440,"stv_port":27016,"stv_name":"Uncletopia | Atlanta | 1 | All Maps | STV","players":null},{"server_id":104,"name":"Uncletopia | Atlanta | 2 | All Maps","name_short":"atl-2","host":"atl-1.us.uncletopia.com","port":27025,"enabled":true,"region":"us-east","cc":"us","latitude":33.753746,"longitude":-84.38633,"reserved":0,"last_update":"0001-01-01T00:00:00Z","name_a2s":"Uncletopia | Atlanta | 2 | All Maps","protocol":17,"map":"koth_cascade","folder":"tf","game":"Team Fortress","app_id":440,"player_count":0,"max_players":24,"Bots":0,"server_type":"Dedicated","server_os":"Linux","password":true,"vac":true,"version":"7961495","steam_id":85568392924469983,"keywords":["cp","nocrits","nodmgspread","uncletopia"],"game_id":440,"stv_port":27026,"stv_name":"Uncletopia | Atlanta | 2 | All Maps | STV","players":null},{"server_id":400,"name":"Uncletopia | Atlanta | 3 | Stopwatch","name_short":"atl-3","host":"atl-1.us.uncletopia.com","port":27035,"enabled":true,"region":"us-east","cc":"us","latitude":33.753746,"longitude":-84.38633,"reserved":0,"last_update":"0001-01-01T00:00:00Z","name_a2s":"Uncletopia | Atlanta | 3 | Stopwatch","protocol":17,"map":"koth_clearcut_b15","folder":"tf","game":"Team Fortress","app_id":440,"player_count":0,"max_players":24,"Bots":0,"server_type":"Dedicated","server_os":"Linux","password":true,"vac":true,"version":"7961495","steam_id":85568392924515187,"keywords":["cp","nocrits","nodmgspread","uncletopia"],"game_id":440,"stv_port":27036,"stv_name":"Uncletopia | Atlanta | 3 | Stopwatch | STV","players":null},{"server_id":401,"name":"Uncletopia | Atlanta | 4 | Community","name_short":"atl-4","host":"atl-1.us.uncletopia.com","port":27045,"enabled":true,"region":"us-east","cc":"us","latitude":33.753746,"longitude":-84.38633,"reserved":0,"last_update":"0001-01-01T00:00:00Z","name_a2s":"Uncletopia | Atlanta | 4 | Community","protocol":17,"map":"koth_bagel_rc6","folder":"tf","game":"Team Fortress","app_id":440,"player_count":0,"max_players":24,"Bots":0,"server_type":"Dedicated","server_os":"Linux","password":true,"vac":true,"version":"7961495","steam_id":85568392924515188,"keywords":["cp","nocrits","nodmgspread","uncletopia"],"game_id":440,"stv_port":27046,"stv_name":"Uncletopia | Atlanta | 4 | Community | STV","players":null},{"server_id":2,"name":"Uncletopia | Chicago | 1 | All Maps","name_short":"chi-1","host":"chi-1.us.uncletopia.com","port":27015,"enabled":true,"region":"us-central","cc":"us","latitude":41.881832,"longitude":-87.62318,"reserved":0,"last_update":"0001-01-01T00:00:00Z","name_a2s":"Uncletopia | Chicago | 1 | All Maps","protocol":17,"map":"koth_viaduct","folder":"tf","game":"Team Fortress","app_id":440,"player_count":0,"max_players":24,"Bots":0,"server_type":"Dedicated","server_os":"Linux","password":true,"vac":true,"version":"7961495","steam_id":85568392924469984,"keywords":["cp","nocrits","nodmgspread","uncletopia"],"game_id":440,"stv_port":27016,"stv_name":"Uncletopia | Chicago | 1 | All Maps | STV","players":null},{"server_id":106,"name":"Uncletopia | Chicago | 2 | All Maps","name_short":"chi-2","host":"chi-1.us.uncletopia.com","port":27025,"enabled":true,"region":"us-central","cc":"us","latitude":41.881832,"longitude":-87.62318,"reserved":0,"last_update":"0001-01-01T00:00:00Z","name_a2s":"Uncletopia | Chicago | 2 | All Maps","protocol":17,"map":"cp_mountainlab","folder":"tf","game":"Team Fortress","app_id":440,"player_count":24,"max_players":24,"Bots":0,"server_type":"Dedicated","server_os":"Linux","password":true,"vac":true,"version":"7961495","steam_id":85568392924469985,"keywords":["cp","nocrits","nodmgspread","uncletopia"],"game_id":440,"stv_port":27026,"stv_name":"Uncletopia | Chicago | 2 | All Maps | STV","players":[{"user_id":136,"name":"seinfeld dog","steam_id":76561199013337543,"connected_time":4242000000000,"state":"active","ping":72},{"user_id":206,"name":"viedoamges","steam_id":76561198025295263,"connected_time":229000000000,"state":"active","ping":79},{"user_id":140,"name":"SandHanitizer","steam_id":76561198234676500,"connected_time":3901000000000,"state":"active","ping":74},{"user_id":180,"name":"ThatOneKnight","steam_id":76561198388583650,"connected_time":2027000000000,"state":"active","ping":54},{"user_id":208,"name":"Sewer Wizard","steam_id":76561199061404496,"connected_time":22000000000,"state":"active","ping":127},{"user_id":183,"name":"Corbe","steam_id":76561198353893927,"connected_time":1739000000000,"state":"active","ping":38},{"user_id":162,"name":"CabezaGrande","steam_id":76561197972555502,"connected_time":3184000000000,"state":"active","ping":73},{"user_id":198,"name":"OFF","steam_id":76561198191971493,"connected_time":807000000000,"state":"active","ping":60},{"user_id":200,"name":"giacomo","steam_id":76561198058560798,"connected_time":621000000000,"state":"active","ping":57},{"user_id":178,"name":"Fluffeline","steam_id":76561198352909489,"connected_time":2559000000000,"state":"active","ping":145},{"user_id":204,"name":"Chicago Shoplifter","steam_id":76561197986530028,"connected_time":310000000000,"state":"active","ping":97},{"user_id":187,"name":"Rornir","steam_id":76561198081829615,"connected_time":1633000000000,"state":"active","ping":41},{"user_id":191,"name":"sloth*","steam_id":76561198119488700,"connected_time":1530000000000,"state":"active","ping":76},{"user_id":154,"name":"Goldoche","steam_id":76561197995065045,"connected_time":3358000000000,"state":"active","ping":83},{"user_id":182,"name":"Hylic","steam_id":76561199051314589,"connected_time":1764000000000,"state":"active","ping":71},{"user_id":181,"name":"爪ㄚ丂ㄒ丨匚","steam_id":76561198857357381,"connected_time":1827000000000,"state":"active","ping":53},{"user_id":176,"name":"Ceige LFT","steam_id":76561198068538473,"connected_time":2698000000000,"state":"active","ping":80},{"user_id":201,"name":"Doctor_Redstone","steam_id":76561198061947161,"connected_time":518000000000,"state":"active","ping":68},{"user_id":205,"name":"UnlivingSkunk","steam_id":76561198324517387,"connected_time":272000000000,"state":"active","ping":72},{"user_id":207,"name":"Zozbieta","steam_id":76561198010336265,"connected_time":86000000000,"state":"active","ping":90},{"user_id":202,"name":"William Wallace","steam_id":76561199343316814,"connected_time":497000000000,"state":"active","ping":78},{"user_id":194,"name":"ace","steam_id":76561198855640991,"connected_time":1401000000000,"state":"active","ping":130},{"user_id":199,"name":"UnforeseenCabbages","steam_id":76561198079386608,"connected_time":638000000000,"state":"active","ping":75},{"user_id":146,"name":"RC","steam_id":76561198048127881,"connected_time":3802000000000,"state":"active","ping":79}]},{"server_id":402,"name":"Uncletopia | Chicago | 3 | All Maps","name_short":"chi-3","host":"chi-1.us.uncletopia.com","port":27035,"enabled":true,"region":"us-central","cc":"us","latitude":41.881832,"longitude":-87.62318,"reserved":0,"last_update":"0001-01-01T00:00:00Z","name_a2s":"Uncletopia | Chicago | 3 | All Maps","protocol":17,"map":"cp_steel","folder":"tf","game":"Team Fortress","app_id":440,"player_count":22,"max_players":24,"Bots":0,"server_type":"Dedicated","server_os":"Linux","password":true,"vac":true,"version":"7961495","steam_id":85568392924515191,"keywords":["cp","nocrits","nodmgspread","uncletopia"],"game_id":440,"stv_port":27036,"stv_name":"Uncletopia | Chicago | 3 | All Maps | STV","players":[{"user_id":81,"name":"a table","steam_id":76561198158461279,"connected_time":409000000000,"state":"active","ping":62},{"user_id":80,"name":"BRUH NATOR","steam_id":76561199094694437,"connected_time":535000000000,"state":"active","ping":85},{"user_id":90,"name":"Paulie Walnuts","steam_id":76561198148078451,"connected_time":114000000000,"state":"active","ping":75},{"user_id":56,"name":"Bestmaster202","steam_id":76561198235282680,"connected_time":3177000000000,"state":"active","ping":99},{"user_id":77,"name":"soltuno","steam_id":76561198074430565,"connected_time":800000000000,"state":"active","ping":119},{"user_id":94,"name":"dicksnip","steam_id":76561198356515396,"connected_time":19000000000,"state":"active","ping":86},{"user_id":83,"name":"chikin.sauce","steam_id":76561198042464635,"connected_time":359000000000,"state":"active","ping":83},{"user_id":86,"name":"jonpall","steam_id":76561198284054020,"connected_time":194000000000,"state":"active","ping":99},{"user_id":85,"name":"Griffin","steam_id":76561198159339442,"connected_time":314000000000,"state":"active","ping":61},{"user_id":68,"name":"Weerk","steam_id":76561199209543551,"connected_time":2090000000000,"state":"active","ping":77},{"user_id":73,"name":"Crimson","steam_id":76561198129326627,"connected_time":1861000000000,"state":"active","ping":76},{"user_id":87,"name":"DeadlyBlind","steam_id":76561197986897274,"connected_time":186000000000,"state":"active","ping":74},{"user_id":69,"name":"LegendaireNic","steam_id":76561198211753861,"connected_time":2062000000000,"state":"active","ping":69},{"user_id":88,"name":"sloth (be nice im cringe)","steam_id":76561198047098172,"connected_time":156000000000,"state":"active","ping":61},{"user_id":74,"name":"KFC Rat","steam_id":76561198135128086,"connected_time":1690000000000,"state":"active","ping":115},{"user_id":76,"name":"Crunchy","steam_id":76561198060342804,"connected_time":926000000000,"state":"active","ping":82},{"user_id":89,"name":"papa ram","steam_id":76561198114058074,"connected_time":152000000000,"state":"active","ping":60},{"user_id":62,"name":"1-800-GHOST-DANCE","steam_id":76561198835430429,"connected_time":2475000000000,"state":"active","ping":84},{"user_id":91,"name":"_grug__","steam_id":76561198165311232,"connected_time":71000000000,"state":"active","ping":70},{"user_id":92,"name":"Oni","steam_id":76561198112066584,"connected_time":69000000000,"state":"active","ping":62},{"user_id":93,"name":"Cut Throat Bill","steam_id":76561198170119157,"connected_time":35000000000,"state":"active","ping":92},{"user_id":95,"name":"wroh2801","steam_id":76561199103292218,"connected_time":13000000000,"state":"spawning","ping":45}]},{"server_id":403,"name":"Uncletopia | Chicago | 4 | All Maps","name_short":"chi-4","host":"chi-1.us.uncletopia.com","port":27045,"enabled":true,"region":"us-central","cc":"us","latitude":41.881832,"longitude":-87.62318,"reserved":0,"last_update":"0001-01-01T00:00:00Z","name_a2s":"Uncletopia | Chicago | 4 | All Maps","protocol":17,"map":"cp_standin_final","folder":"tf","game":"Team Fortress","app_id":440,"player_count":3,"max_players":24,"Bots":0,"server_type":"Dedicated","server_os":"Linux","password":true,"vac":true,"version":"7961495","steam_id":85568392924515193,"keywords":["cp","nocrits","nodmgspread","uncletopia"],"game_id":440,"stv_port":27046,"stv_name":"Uncletopia | Chicago | 4 | All Maps | STV","players":[{"user_id":4,"name":"OldRavensFan","steam_id":76561198043919562,"connected_time":1751000000000,"state":"active","ping":56},{"user_id":8,"name":"BLØRG","steam_id":76561198036126673,"connected_time":498000000000,"state":"active","ping":73},{"user_id":9,"name":"ChillinSquare","steam_id":76561198023745593,"connected_time":375000000000,"state":"active","ping":94}]},{"server_id":36,"name":"Uncletopia | Chicago | 5 | All Maps","name_short":"chi-5","host":"chi-2.us.uncletopia.com","port":27015,"enabled":true,"region":"us-central","cc":"us","latitude":41.881832,"longitude":-87.62318,"reserved":0,"last_update":"0001-01-01T00:00:00Z","name_a2s":"Uncletopia | Chicago | 5 | All Maps","protocol":17,"map":"koth_viaduct","folder":"tf","game":"Team Fortress","app_id":440,"player_count":0,"max_players":24,"Bots":0,"server_type":"Dedicated","server_os":"Linux","password":true,"vac":true,"version":"7961495","steam_id":85568392924866362,"keywords":["cp","nocrits","nodmgspread","uncletopia"],"game_id":440,"stv_port":27016,"stv_name":"Uncletopia | Chicago | 5 | All Maps | STV","players":null},{"server_id":37,"name":"Uncletopia | Chicago | 6 | All Maps","name_short":"chi-6","host":"chi-2.us.uncletopia.com","port":27025,"enabled":true,"region":"us-central","cc":"us","latitude":41.881832,"longitude":-87.62318,"reserved":0,"last_update":"0001-01-01T00:00:00Z","name_a2s":"Uncletopia | Chicago | 6 | All Maps","protocol":17,"map":"pl_snowycoast","folder":"tf","game":"Team Fortress","app_id":440,"player_count":23,"max_players":24,"Bots":0,"server_type":"Dedicated","server_os":"Linux","password":true,"vac":true,"version":"7961495","steam_id":85568392924866363,"keywords":["nocrits","nodmgspread","payload","uncletopia"],"game_id":440,"stv_port":27026,"stv_name":"Uncletopia | Chicago | 6 | All Maps | STV","players":[{"user_id":385,"name":"gummygeek","steam_id":76561198244543486,"connected_time":2497000000000,"state":"active","ping":109},{"user_id":426,"name":"spy has a gun?","steam_id":76561199241619967,"connected_time":254000000000,"state":"active","ping":69},{"user_id":430,"name":"Kentucky Fried Lullaby","steam_id":76561198047845399,"connected_time":33000000000,"state":"active","ping":73},{"user_id":407,"name":"The_Swan101","steam_id":76561198255629546,"connected_time":1573000000000,"state":"active","ping":83},{"user_id":415,"name":"Captian Wobbs","steam_id":76561198142884936,"connected_time":1297000000000,"state":"active","ping":80},{"user_id":410,"name":"Profesional Brohamad","steam_id":76561198824025210,"connected_time":1423000000000,"state":"active","ping":47},{"user_id":428,"name":"leumas","steam_id":76561198240408540,"connected_time":100000000000,"state":"active","ping":61},{"user_id":405,"name":"NiteVisions","steam_id":76561198093618206,"connected_time":1576000000000,"state":"active","ping":65},{"user_id":431,"name":"lfty","steam_id":76561198283841707,"connected_time":26000000000,"state":"active","ping":68},{"user_id":401,"name":"honked off the bobo","steam_id":76561198123287268,"connected_time":1872000000000,"state":"active","ping":45},{"user_id":328,"name":"spoon","steam_id":76561198298232556,"connected_time":6979000000000,"state":"active","ping":65},{"user_id":422,"name":"Pop Kamoel","steam_id":76561197972131979,"connected_time":578000000000,"state":"active","ping":121},{"user_id":406,"name":"poorly stacked bread trays","steam_id":76561198212098488,"connected_time":1576000000000,"state":"active","ping":71},{"user_id":402,"name":"mastercoms","steam_id":76561198046110893,"connected_time":1864000000000,"state":"active","ping":60},{"user_id":429,"name":"ඞ","steam_id":76561199365672047,"connected_time":87000000000,"state":"active","ping":86},{"user_id":427,"name":"dipp","steam_id":76561198395577807,"connected_time":178000000000,"state":"active","ping":73},{"user_id":417,"name":"Sizenberg","steam_id":76561198115842661,"connected_time":1265000000000,"state":"active","ping":84},{"user_id":376,"name":"Lylith","steam_id":76561198386687546,"connected_time":3336000000000,"state":"active","ping":64},{"user_id":362,"name":"Bombsgamer","steam_id":76561198350009050,"connected_time":4093000000000,"state":"active","ping":74},{"user_id":414,"name":"delegalize gaming NOW","steam_id":76561198004847013,"connected_time":1308000000000,"state":"active","ping":99},{"user_id":423,"name":"Tele Co","steam_id":76561198041909269,"connected_time":408000000000,"state":"active","ping":96},{"user_id":416,"name":"Mury","steam_id":76561198069743049,"connected_time":1290000000000,"state":"active","ping":106},{"user_id":419,"name":"kimin","steam_id":76561198263393063,"connected_time":1219000000000,"state":"active","ping":197}]},{"server_id":38,"name":"Uncletopia | Chicago | 7 | Stopwatch","name_short":"chi-7","host":"chi-2.us.uncletopia.com","port":27035,"enabled":true,"region":"us-central","cc":"us","latitude":41.881832,"longitude":-87.62318,"reserved":0,"last_update":"0001-01-01T00:00:00Z","name_a2s":"Uncletopia | Chicago | 7 | Stopwatch","protocol":17,"map":"pl_badwater","folder":"tf","game":"Team Fortress","app_id":440,"player_count":0,"max_players":24,"Bots":0,"server_type":"Dedicated","server_os":"Linux","password":true,"vac":true,"version":"7961495","steam_id":85568392924866364,"keywords":["nocrits","nodmgspread","payload","uncletopia"],"game_id":440,"stv_port":27036,"stv_name":"Uncletopia | Chicago | 7 | Stopwatch | STV","players":null},{"server_id":39,"name":"Uncletopia | Chicago | 8 | Community","name_short":"chi-8","host":"chi-2.us.uncletopia.com","port":27045,"enabled":true,"region":"us-central","cc":"us","latitude":41.881832,"longitude":-87.62318,"reserved":0,"last_update":"0001-01-01T00:00:00Z","name_a2s":"Uncletopia | Chicago | 8 | Community","protocol":17,"map":"pl_pier","folder":"tf","game":"Team Fortress","app_id":440,"player_count":0,"max_players":24,"Bots":0,"server_type":"Dedicated","server_os":"Linux","password":true,"vac":true,"version":"7961495","steam_id":85568392924866365,"keywords":["nocrits","nodmgspread","payload","uncletopia"],"game_id":440,"stv_port":27046,"stv_name":"Uncletopia | Chicago | 8 | Community | STV","players":null},{"server_id":8,"name":"Uncletopia | Dallas | 1 | All Maps","name_short":"dal-1","host":"dal-1.us.uncletopia.com","port":27015,"enabled":true,"region":"us-central","cc":"us","latitude":32.779167,"longitude":-96.80889,"reserved":0,"last_update":"0001-01-01T00:00:00Z","name_a2s":"Uncletopia | Dallas | 1 | All Maps","protocol":17,"map":"pl_frontier_final","folder":"tf","game":"Team Fortress","app_id":440,"player_count":0,"max_players":24,"Bots":0,"server_type":"Dedicated","server_os":"Linux","password":true,"vac":true,"version":"7961495","steam_id":85568392924469986,"keywords":["nocrits","nodmgspread","payload","uncletopia"],"game_id":440,"stv_port":27016,"stv_name":"Uncletopia | Dallas | 1 | All Maps | STV","players":null},{"server_id":108,"name":"Uncletopia | Dallas | 2 | All Maps","name_short":"dal-2","host":"dal-1.us.uncletopia.com","port":27025,"enabled":true,"region":"us-central","cc":"us","latitude":32.779167,"longitude":-96.80889,"reserved":0,"last_update":"0001-01-01T00:00:00Z","name_a2s":"Uncletopia | Dallas | 2 | All Maps","protocol":17,"map":"pl_goldrush","folder":"tf","game":"Team Fortress","app_id":440,"player_count":24,"max_players":24,"Bots":0,"server_type":"Dedicated","server_os":"Linux","password":true,"vac":true,"version":"7961495","steam_id":85568392924469988,"keywords":["nocrits","nodmgspread","payload","uncletopia"],"game_id":440,"stv_port":27026,"stv_name":"Uncletopia | Dallas | 2 | All Maps | STV","players":[{"user_id":174,"name":"HUMBY","steam_id":76561198065045867,"connected_time":640000000000,"state":"active","ping":78},{"user_id":141,"name":"adankmix","steam_id":76561198106945614,"connected_time":2283000000000,"state":"active","ping":67},{"user_id":180,"name":"Shameless Kuma Player","steam_id":76561198097700500,"connected_time":352000000000,"state":"active","ping":63},{"user_id":184,"name":"Alexander","steam_id":76561198019917123,"connected_time":219000000000,"state":"active","ping":141},{"user_id":178,"name":"U ω U","steam_id":76561198118802562,"connected_time":448000000000,"state":"active","ping":91},{"user_id":185,"name":"TV","steam_id":76561198177326926,"connected_time":184000000000,"state":"active","ping":92},{"user_id":163,"name":"listerine","steam_id":76561198041104084,"connected_time":959000000000,"state":"active","ping":83},{"user_id":181,"name":"Greasy Guavas","steam_id":76561198089650428,"connected_time":282000000000,"state":"active","ping":90},{"user_id":165,"name":"chanoc","steam_id":76561198026734746,"connected_time":947000000000,"state":"active","ping":90},{"user_id":121,"name":"HOODOO_LOVER_2007","steam_id":76561199087691214,"connected_time":4515000000000,"state":"active","ping":100},{"user_id":175,"name":"Necronaut","steam_id":76561198064868542,"connected_time":634000000000,"state":"active","ping":133},{"user_id":152,"name":"the count of badwater last","steam_id":76561198071775268,"connected_time":1632000000000,"state":"active","ping":74},{"user_id":126,"name":"Waesel","steam_id":76561198069188177,"connected_time":4034000000000,"state":"active","ping":74},{"user_id":182,"name":"Zanylank","steam_id":76561198858480639,"connected_time":261000000000,"state":"active","ping":98},{"user_id":158,"name":"Sup m8","steam_id":76561198081659121,"connected_time":1307000000000,"state":"active","ping":45},{"user_id":168,"name":"Malevo","steam_id":76561198148606522,"connected_time":930000000000,"state":"active","ping":59},{"user_id":179,"name":"Female Gamer","steam_id":76561199366482682,"connected_time":400000000000,"state":"active","ping":114},{"user_id":130,"name":"Kung fu Mungus","steam_id":76561198069281556,"connected_time":3792000000000,"state":"active","ping":75},{"user_id":173,"name":"Cum King","steam_id":76561199366744222,"connected_time":704000000000,"state":"active","ping":85},{"user_id":155,"name":"Bcuz","steam_id":76561197981318027,"connected_time":1474000000000,"state":"active","ping":88},{"user_id":156,"name":"M249 | Spectre","steam_id":76561198118334485,"connected_time":1436000000000,"state":"active","ping":101},{"user_id":186,"name":"Lord GabeN","steam_id":76561198140862723,"connected_time":168000000000,"state":"active","ping":88},{"user_id":160,"name":"Toasterduds","steam_id":76561198163477584,"connected_time":998000000000,"state":"active","ping":87},{"user_id":134,"name":"Whoa","steam_id":76561197970353496,"connected_time":3059000000000,"state":"active","ping":79}]},{"server_id":404,"name":"Uncletopia | Dallas | 3 | All Maps","name_short":"dal-3","host":"dal-1.us.uncletopia.com","port":27035,"enabled":true,"region":"us-central","cc":"us","latitude":32.779167,"longitude":-96.80889,"reserved":0,"last_update":"0001-01-01T00:00:00Z","name_a2s":"Uncletopia | Dallas | 3 | All Maps","protocol":17,"map":"pl_pier","folder":"tf","game":"Team Fortress","app_id":440,"player_count":0,"max_players":24,"Bots":0,"server_type":"Dedicated","server_os":"Linux","password":true,"vac":true,"version":"7961495","steam_id":85568392924515219,"keywords":["nocrits","nodmgspread","payload","uncletopia"],"game_id":440,"stv_port":27036,"stv_name":"Uncletopia | Dallas | 3 | All Maps | STV","players":null},{"server_id":405,"name":"Uncletopia | Dallas | 4 | Community","name_short":"dal-4","host":"dal-1.us.uncletopia.com","port":27045,"enabled":true,"region":"us-central","cc":"us","latitude":32.779167,"longitude":-96.80889,"reserved":0,"last_update":"0001-01-01T00:00:00Z","name_a2s":"Uncletopia | Dallas | 4 | Community","protocol":17,"map":"pl_pier","folder":"tf","game":"Team Fortress","app_id":440,"player_count":0,"max_players":24,"Bots":0,"server_type":"Dedicated","server_os":"Linux","password":true,"vac":true,"version":"7961495","steam_id":85568392924515220,"keywords":["nocrits","nodmgspread","payload","uncletopia"],"game_id":440,"stv_port":27046,"stv_name":"Uncletopia | Dallas | 4 | Community | STV","players":null},{"server_id":5,"name":"Uncletopia | Frankfurt | 1 | All Maps","name_short":"frk-1","host":"frk-1.de.uncletopia.com","port":27015,"enabled":true,"region":"eu","cc":"de","latitude":50.110924,"longitude":8.682127,"reserved":0,"last_update":"0001-01-01T00:00:00Z","name_a2s":"Uncletopia | Frankfurt | 1 | All Maps","protocol":17,"map":"pl_borneo","folder":"tf","game":"Team Fortress","app_id":440,"player_count":25,"max_players":24,"Bots":0,"server_type":"Dedicated","server_os":"Linux","password":true,"vac":true,"version":"7961495","steam_id":85568392924469989,"keywords":["nocrits","nodmgspread","payload","uncletopia"],"game_id":440,"stv_port":27016,"stv_name":"Uncletopia | Frankfurt | 1 | All Maps | STV","players":[{"user_id":180,"name":"Redmailbox","steam_id":76561198042930322,"connected_time":672000000000,"state":"active","ping":58},{"user_id":188,"name":"Caliban","steam_id":76561197999696839,"connected_time":9000000000,"state":"spawning","ping":95},{"user_id":189,"name":"Bobirulez","steam_id":76561198009125458,"connected_time":4000000000,"state":"spawning","ping":60},{"user_id":187,"name":"Toasty5050","steam_id":76561198073540881,"connected_time":21000000000,"state":"spawning","ping":58},{"user_id":137,"name":"Lucky Strike","steam_id":76561198355128010,"connected_time":3921000000000,"state":"active","ping":76},{"user_id":184,"name":"Gamlader","steam_id":76561198306177608,"connected_time":407000000000,"state":"active","ping":86},{"user_id":177,"name":"Vershal Smershal","steam_id":76561198116223995,"connected_time":1150000000000,"state":"active","ping":57},{"user_id":150,"name":"Editor_network","steam_id":76561199062767109,"connected_time":2788000000000,"state":"active","ping":64},{"user_id":171,"name":"Woman (Real)","steam_id":76561199151823932,"connected_time":1490000000000,"state":"active","ping":71},{"user_id":167,"name":"frog gaming","steam_id":76561198323926258,"connected_time":1756000000000,"state":"active","ping":156},{"user_id":164,"name":"Taylor","steam_id":76561198088268573,"connected_time":2250000000000,"state":"active","ping":55},{"user_id":152,"name":"ethan","steam_id":76561198119495513,"connected_time":2771000000000,"state":"active","ping":53},{"user_id":173,"name":"static","steam_id":76561198836825741,"connected_time":1372000000000,"state":"active","ping":59},{"user_id":168,"name":"xavier","steam_id":76561198076494034,"connected_time":1755000000000,"state":"active","ping":52},{"user_id":155,"name":"Doriian","steam_id":76561198071438810,"connected_time":2743000000000,"state":"active","ping":74},{"user_id":143,"name":"Carry Krypl","steam_id":76561198136938121,"connected_time":3333000000000,"state":"active","ping":60},{"user_id":172,"name":"Pilaarius","steam_id":76561198120273212,"connected_time":1404000000000,"state":"active","ping":94},{"user_id":146,"name":"=OKB= P4NTH3R","steam_id":76561197999204603,"connected_time":2924000000000,"state":"active","ping":54},{"user_id":156,"name":"Umme","steam_id":76561198053809566,"connected_time":2737000000000,"state":"active","ping":83},{"user_id":174,"name":"shmax","steam_id":76561198889012709,"connected_time":1320000000000,"state":"active","ping":89},{"user_id":190,"name":"skippy","steam_id":76561198171958773,"connected_time":4000000000,"state":"spawning","ping":53},{"user_id":176,"name":"KnugenIV","steam_id":76561198127091993,"connected_time":1158000000000,"state":"active","ping":52},{"user_id":140,"name":"Aiiden360","steam_id":76561198153073387,"connected_time":3768000000000,"state":"active","ping":161},{"user_id":160,"name":"Frenk2.0","steam_id":76561198974256814,"connected_time":2679000000000,"state":"active","ping":74},{"user_id":186,"name":"Bajas","steam_id":76561198179339326,"connected_time":365000000000,"state":"active","ping":76}]},{"server_id":110,"name":"Uncletopia | Frankfurt | 2 | All Maps","name_short":"frk-2","host":"frk-1.de.uncletopia.com","port":27025,"enabled":true,"region":"eu","cc":"de","latitude":50.110924,"longitude":8.682127,"reserved":0,"last_update":"0001-01-01T00:00:00Z","name_a2s":"Uncletopia | Frankfurt | 2 | All Maps","protocol":17,"map":"koth_harvest_final","folder":"tf","game":"Team Fortress","app_id":440,"player_count":24,"max_players":24,"Bots":0,"server_type":"Dedicated","server_os":"Linux","password":true,"vac":true,"version":"7961495","steam_id":85568392924469990,"keywords":["cp","nocrits","nodmgspread","uncletopia"],"game_id":440,"stv_port":27026,"stv_name":"Uncletopia | Frankfurt | 2 | All Maps | STV","players":[{"user_id":306,"name":"olof","steam_id":76561198095681561,"connected_time":270000000000,"state":"active","ping":103},{"user_id":267,"name":"Vinnie","steam_id":76561198004919672,"connected_time":2365000000000,"state":"active","ping":66},{"user_id":243,"name":"dogot","steam_id":76561198880890519,"connected_time":3493000000000,"state":"active","ping":76},{"user_id":278,"name":"heatburn","steam_id":76561198019001992,"connected_time":2067000000000,"state":"active","ping":53},{"user_id":238,"name":"Lubi Animal","steam_id":76561199041620433,"connected_time":3567000000000,"state":"active","ping":49},{"user_id":239,"name":"JayKey","steam_id":76561198008847925,"connected_time":3567000000000,"state":"active","ping":49},{"user_id":302,"name":"Repa24","steam_id":76561198033016390,"connected_time":320000000000,"state":"active","ping":66},{"user_id":290,"name":"Ω","steam_id":76561199088570961,"connected_time":696000000000,"state":"active","ping":102},{"user_id":287,"name":"Finem Belli","steam_id":76561198227177976,"connected_time":736000000000,"state":"active","ping":46},{"user_id":307,"name":"I919I","steam_id":76561198141049923,"connected_time":50000000000,"state":"active","ping":75},{"user_id":244,"name":"Oleg Mongol","steam_id":76561199497304797,"connected_time":3492000000000,"state":"active","ping":125},{"user_id":299,"name":"Swift","steam_id":76561197998799889,"connected_time":360000000000,"state":"active","ping":57},{"user_id":298,"name":"pablo","steam_id":76561198089285014,"connected_time":532000000000,"state":"active","ping":74},{"user_id":272,"name":"SuperBananeMan","steam_id":76561199091421628,"connected_time":2174000000000,"state":"active","ping":62},{"user_id":282,"name":"BigZZZ","steam_id":76561197998461614,"connected_time":1850000000000,"state":"active","ping":72},{"user_id":274,"name":"Ben Dover","steam_id":76561199213629970,"connected_time":2129000000000,"state":"active","ping":97},{"user_id":275,"name":"Pudlich","steam_id":76561198300089671,"connected_time":2125000000000,"state":"active","ping":73},{"user_id":276,"name":"Lorenzo Lovers","steam_id":76561198073973581,"connected_time":2117000000000,"state":"active","ping":78},{"user_id":294,"name":"Doctor A","steam_id":76561199099922811,"connected_time":661000000000,"state":"active","ping":161},{"user_id":283,"name":"BELADIT","steam_id":76561198011911501,"connected_time":1722000000000,"state":"active","ping":100},{"user_id":292,"name":"Voodoo D Child","steam_id":76561198094569373,"connected_time":692000000000,"state":"active","ping":85},{"user_id":301,"name":"Gruset","steam_id":76561198327512432,"connected_time":339000000000,"state":"active","ping":79},{"user_id":304,"name":"gagalak","steam_id":76561198089979108,"connected_time":306000000000,"state":"active","ping":89},{"user_id":280,"name":"cyanic","steam_id":76561198047828651,"connected_time":2063000000000,"state":"active","ping":60}]},{"server_id":308,"name":"Uncletopia | Frankfurt | 3 | All Maps","name_short":"frk-3","host":"frk-1.de.uncletopia.com","port":27035,"enabled":true,"region":"eu","cc":"de","latitude":50.110924,"longitude":8.682127,"reserved":0,"last_update":"0001-01-01T00:00:00Z","name_a2s":"Uncletopia | Frankfurt | 3 | All Maps","protocol":17,"map":"koth_highpass","folder":"tf","game":"Team Fortress","app_id":440,"player_count":24,"max_players":24,"Bots":0,"server_type":"Dedicated","server_os":"Linux","password":true,"vac":true,"version":"7961495","steam_id":85568392924504274,"keywords":["cp","nocrits","nodmgspread","uncletopia"],"game_id":440,"stv_port":27036,"stv_name":"Uncletopia | Frankfurt | 3 | All Maps | STV","players":[{"user_id":418,"name":"Zm4j","steam_id":76561198259465946,"connected_time":341000000000,"state":"active","ping":80},{"user_id":393,"name":"Mister","steam_id":76561199049647854,"connected_time":2574000000000,"state":"active","ping":45},{"user_id":389,"name":"Daan77","steam_id":76561198129940468,"connected_time":3008000000000,"state":"active","ping":74},{"user_id":422,"name":"Totally Clueless","steam_id":76561198085966488,"connected_time":69000000000,"state":"active","ping":88},{"user_id":420,"name":"Dang-Maggot","steam_id":76561199075532033,"connected_time":268000000000,"state":"active","ping":79},{"user_id":413,"name":"Bob l'éponge","steam_id":76561197988085026,"connected_time":620000000000,"state":"active","ping":60},{"user_id":353,"name":"unKr","steam_id":76561198342024316,"connected_time":5172000000000,"state":"active","ping":74},{"user_id":381,"name":"_Alonso","steam_id":76561198041893314,"connected_time":3497000000000,"state":"active","ping":49},{"user_id":401,"name":"midlpsyzl47","steam_id":76561199475972637,"connected_time":1106000000000,"state":"active","ping":82},{"user_id":416,"name":"norespectforthedevil","steam_id":76561197998922218,"connected_time":467000000000,"state":"active","ping":98},{"user_id":352,"name":"DiscoTraveler","steam_id":76561199240168088,"connected_time":5546000000000,"state":"active","ping":130},{"user_id":407,"name":"Catt #saveTF2","steam_id":76561199088078419,"connected_time":947000000000,"state":"active","ping":80},{"user_id":411,"name":"Piteras","steam_id":76561198858532207,"connected_time":752000000000,"state":"active","ping":75},{"user_id":405,"name":"Mimo","steam_id":76561197974221343,"connected_time":1027000000000,"state":"active","ping":107},{"user_id":391,"name":"Master Of Noob","steam_id":76561198217926783,"connected_time":2951000000000,"state":"active","ping":72},{"user_id":372,"name":"skill","steam_id":76561198106012909,"connected_time":4456000000000,"state":"active","ping":67},{"user_id":421,"name":"Mr Kawaii-Desu","steam_id":76561198122236176,"connected_time":156000000000,"state":"active","ping":61},{"user_id":406,"name":"Fish 'n' Chips","steam_id":76561198033476886,"connected_time":979000000000,"state":"active","ping":56},{"user_id":358,"name":"MUWEQ","steam_id":76561198107615727,"connected_time":5044000000000,"state":"active","ping":73},{"user_id":408,"name":"Janner","steam_id":76561198127045282,"connected_time":890000000000,"state":"active","ping":56},{"user_id":392,"name":"Venenakki","steam_id":76561198311526482,"connected_time":2946000000000,"state":"active","ping":520},{"user_id":387,"name":"Eric Catman","steam_id":76561198802117294,"connected_time":3097000000000,"state":"active","ping":83},{"user_id":333,"name":"neJ","steam_id":76561198003397488,"connected_time":8167000000000,"state":"active","ping":75},{"user_id":376,"name":"Khrinde","steam_id":76561198036744526,"connected_time":4030000000000,"state":"active","ping":97}]},{"server_id":309,"name":"Uncletopia | Frankfurt | 4 | All Maps","name_short":"frk-4","host":"frk-1.de.uncletopia.com","port":27045,"enabled":true,"region":"eu","cc":"de","latitude":50.110924,"longitude":8.682127,"reserved":0,"last_update":"0001-01-01T00:00:00Z","name_a2s":"Uncletopia | Frankfurt | 4 | All Maps","protocol":17,"map":"koth_viaduct","folder":"tf","game":"Team Fortress","app_id":440,"player_count":23,"max_players":24,"Bots":0,"server_type":"Dedicated","server_os":"Linux","password":true,"vac":true,"version":"7961495","steam_id":85568392924504275,"keywords":["cp","nocrits","nodmgspread","uncletopia"],"game_id":440,"stv_port":27046,"stv_name":"Uncletopia | Frankfurt | 4 | All Maps | STV","players":[{"user_id":149,"name":"[HOL] Solringen","steam_id":76561198003584681,"connected_time":441000000000,"state":"active","ping":65},{"user_id":118,"name":"Ralistix","steam_id":76561198051654135,"connected_time":1811000000000,"state":"active","ping":84},{"user_id":145,"name":"Legendary","steam_id":76561198296721223,"connected_time":483000000000,"state":"active","ping":98},{"user_id":108,"name":"Zerfesh","steam_id":76561198117534358,"connected_time":2129000000000,"state":"active","ping":90},{"user_id":139,"name":"ᴋᴜᴀʀᴛ","steam_id":76561199212930778,"connected_time":774000000000,"state":"active","ping":87},{"user_id":132,"name":"Dr Dumbass","steam_id":76561199217130633,"connected_time":933000000000,"state":"active","ping":171},{"user_id":110,"name":"Bhast","steam_id":76561198071620021,"connected_time":1999000000000,"state":"active","ping":80},{"user_id":144,"name":"SHRÖX","steam_id":76561198250244554,"connected_time":518000000000,"state":"active","ping":87},{"user_id":129,"name":"I_Forgot_My_Name","steam_id":76561198173424578,"connected_time":1128000000000,"state":"active","ping":66},{"user_id":150,"name":"turtlemage","steam_id":76561198052452373,"connected_time":309000000000,"state":"active","ping":60},{"user_id":142,"name":"elijah","steam_id":76561198093936708,"connected_time":746000000000,"state":"active","ping":65},{"user_id":143,"name":"raebbitos","steam_id":76561198167580006,"connected_time":646000000000,"state":"active","ping":59},{"user_id":107,"name":"beno","steam_id":76561198152146711,"connected_time":2157000000000,"state":"active","ping":63},{"user_id":152,"name":"le big mac","steam_id":76561199026378253,"connected_time":176000000000,"state":"active","ping":52},{"user_id":155,"name":"Nozzo","steam_id":76561198012367783,"connected_time":21000000000,"state":"active","ping":97},{"user_id":126,"name":"Minth","steam_id":76561198149080381,"connected_time":1321000000000,"state":"active","ping":79},{"user_id":156,"name":"Rock..","steam_id":76561198004641963,"connected_time":12000000000,"state":"active","ping":78},{"user_id":131,"name":"average manicotti enjoyer","steam_id":76561198059535856,"connected_time":1082000000000,"state":"active","ping":170},{"user_id":113,"name":"Haukka#7","steam_id":76561198867526505,"connected_time":1941000000000,"state":"active","ping":59},{"user_id":114,"name":"Sn1Ch","steam_id":76561198073076943,"connected_time":1938000000000,"state":"active","ping":91},{"user_id":147,"name":"JepCabestany","steam_id":76561198123812578,"connected_time":462000000000,"state":"active","ping":92},{"user_id":93,"name":"madrassen","steam_id":76561198279855271,"connected_time":3236000000000,"state":"active","ping":68},{"user_id":148,"name":"SneaK","steam_id":76561198280344773,"connected_time":459000000000,"state":"active","ping":86}]},{"server_id":310,"name":"Uncletopia | Frankfurt | 5 | All Maps","name_short":"frk-5","host":"frk-1.de.uncletopia.com","port":27055,"enabled":true,"region":"eu","cc":"de","latitude":50.110924,"longitude":8.682127,"reserved":0,"last_update":"0001-01-01T00:00:00Z","name_a2s":"Uncletopia | Frankfurt | 5 | All Maps","protocol":17,"map":"pl_frontier_final","folder":"tf","game":"Team Fortress","app_id":440,"player_count":24,"max_players":24,"Bots":0,"server_type":"Dedicated","server_os":"Linux","password":true,"vac":true,"version":"7961495","steam_id":85568392924504277,"keywords":["nocrits","nodmgspread","payload","uncletopia"],"game_id":440,"stv_port":27056,"stv_name":"Uncletopia | Frankfurt | 5 | All Maps | STV","players":[{"user_id":277,"name":"TheMerchant","steam_id":76561198133664392,"connected_time":624000000000,"state":"active","ping":54},{"user_id":282,"name":"Very Original Name","steam_id":76561199159833013,"connected_time":291000000000,"state":"active","ping":124},{"user_id":185,"name":"Archive","steam_id":76561198071255385,"connected_time":4565000000000,"state":"active","ping":97},{"user_id":285,"name":"simeswipe","steam_id":76561198188471097,"connected_time":158000000000,"state":"active","ping":72},{"user_id":280,"name":"666sammy","steam_id":76561198016607625,"connected_time":382000000000,"state":"active","ping":88},{"user_id":268,"name":"lore","steam_id":76561198120984188,"connected_time":921000000000,"state":"active","ping":55},{"user_id":272,"name":"Faking.","steam_id":76561198823540483,"connected_time":880000000000,"state":"active","ping":90},{"user_id":238,"name":"Fidacha","steam_id":76561198003060881,"connected_time":3236000000000,"state":"active","ping":60},{"user_id":263,"name":"Creamy","steam_id":76561198063907478,"connected_time":1508000000000,"state":"active","ping":71},{"user_id":284,"name":"KingDuckTheGreat","steam_id":76561199013190605,"connected_time":238000000000,"state":"active","ping":67},{"user_id":279,"name":"С̸̵̢̬̣̱͖̾̒̃̌ͪ͠?","steam_id":76561198798516896,"connected_time":458000000000,"state":"active","ping":173},{"user_id":278,"name":"hey STUPID! I'm over here...","steam_id":76561198056388702,"connected_time":493000000000,"state":"active","ping":84},{"user_id":286,"name":"Mayor Wank from Wanker Town","steam_id":76561197998253588,"connected_time":95000000000,"state":"active","ping":51},{"user_id":239,"name":"BabyYodaIsMySoda","steam_id":76561198321846861,"connected_time":3147000000000,"state":"active","ping":80},{"user_id":283,"name":"clean carp","steam_id":76561198127053294,"connected_time":289000000000,"state":"active","ping":62},{"user_id":270,"name":"vurtun","steam_id":76561198857395274,"connected_time":899000000000,"state":"active","ping":51},{"user_id":260,"name":"[PVFR]gabi974","steam_id":76561198046574709,"connected_time":1592000000000,"state":"active","ping":70},{"user_id":274,"name":"Potato","steam_id":76561198184310425,"connected_time":873000000000,"state":"active","ping":117},{"user_id":262,"name":"Delcup","steam_id":76561199006338376,"connected_time":1534000000000,"state":"active","ping":144},{"user_id":261,"name":"Mstro","steam_id":76561198090602078,"connected_time":1588000000000,"state":"active","ping":72},{"user_id":275,"name":"Syd","steam_id":76561198020515027,"connected_time":862000000000,"state":"active","ping":88},{"user_id":266,"name":"splooncas","steam_id":76561199487485968,"connected_time":1314000000000,"state":"active","ping":52},{"user_id":276,"name":"kornetov.vitalya","steam_id":76561199286034833,"connected_time":822000000000,"state":"active","ping":96},{"user_id":220,"name":"Ixsus\u003c3","steam_id":76561198094756869,"connected_time":3736000000000,"state":"active","ping":54}]},{"server_id":311,"name":"Uncletopia | Frankfurt | 6 | All Maps","name_short":"frk-6","host":"frk-1.de.uncletopia.com","port":27065,"enabled":true,"region":"eu","cc":"de","latitude":50.110924,"longitude":8.682127,"reserved":0,"last_update":"0001-01-01T00:00:00Z","name_a2s":"Uncletopia | Frankfurt | 6 | All Maps","protocol":17,"map":"pl_badwater","folder":"tf","game":"Team Fortress","app_id":440,"player_count":24,"max_players":24,"Bots":0,"server_type":"Dedicated","server_os":"Linux","password":true,"vac":true,"version":"7961495","steam_id":85568392924504278,"keywords":["nocrits","nodmgspread","payload","uncletopia"],"game_id":440,"stv_port":27066,"stv_name":"Uncletopia | Frankfurt | 6 | All Maps | STV","players":[{"user_id":164,"name":"Warrior555MainsGanon","steam_id":76561198388627786,"connected_time":2818000000000,"state":"active","ping":67},{"user_id":150,"name":"[GANGSTER] Hakyoma","steam_id":76561198041279766,"connected_time":3496000000000,"state":"active","ping":58},{"user_id":139,"name":"Ketich","steam_id":76561198021772703,"connected_time":4404000000000,"state":"active","ping":70},{"user_id":191,"name":"bazooka man from fortress","steam_id":76561198436817109,"connected_time":1427000000000,"state":"active","ping":68},{"user_id":202,"name":"edtrash","steam_id":76561198045983578,"connected_time":176000000000,"state":"active","ping":45},{"user_id":205,"name":"Rubi","steam_id":76561198139410003,"connected_time":76000000000,"state":"active","ping":73},{"user_id":184,"name":"Columban","steam_id":76561199202258284,"connected_time":1942000000000,"state":"active","ping":48},{"user_id":193,"name":"Yakowboi","steam_id":76561198145568925,"connected_time":1375000000000,"state":"active","ping":80},{"user_id":180,"name":"After8","steam_id":76561198090750865,"connected_time":2102000000000,"state":"active","ping":61},{"user_id":203,"name":"Soulman25 (FIN)","steam_id":76561198103611974,"connected_time":126000000000,"state":"active","ping":83},{"user_id":194,"name":"Mischail","steam_id":76561198016127010,"connected_time":1366000000000,"state":"active","ping":74},{"user_id":90,"name":"baby's first domination","steam_id":76561198325898181,"connected_time":7576000000000,"state":"active","ping":71},{"user_id":195,"name":"Stage 4 Hat Insanity","steam_id":76561198835292497,"connected_time":1340000000000,"state":"active","ping":92},{"user_id":131,"name":"Shinru","steam_id":76561198285951918,"connected_time":4600000000000,"state":"active","ping":78},{"user_id":159,"name":"weed fairy","steam_id":76561197998843096,"connected_time":3267000000000,"state":"active","ping":74},{"user_id":196,"name":"Whiller","steam_id":76561198223771644,"connected_time":1335000000000,"state":"active","ping":74},{"user_id":128,"name":"OpticalBlack","steam_id":76561198038624807,"connected_time":4904000000000,"state":"active","ping":100},{"user_id":200,"name":"LEGEND FUMO.","steam_id":76561198061033903,"connected_time":710000000000,"state":"active","ping":59},{"user_id":181,"name":"twitch.tv/vision515","steam_id":76561198065293729,"connected_time":2100000000000,"state":"active","ping":175},{"user_id":177,"name":"Wardjebleh","steam_id":76561199016836213,"connected_time":2298000000000,"state":"active","ping":61},{"user_id":178,"name":"Ceasar","steam_id":76561198056590853,"connected_time":2273000000000,"state":"active","ping":55},{"user_id":204,"name":"Star Throne","steam_id":76561198132171027,"connected_time":125000000000,"state":"active","ping":84},{"user_id":188,"name":"Mold","steam_id":76561199002172406,"connected_time":1807000000000,"state":"active","ping":61},{"user_id":198,"name":"vi hava en usel regering","steam_id":76561198037978654,"connected_time":1130000000000,"state":"active","ping":68}]},{"server_id":23,"name":"Uncletopia | Frankfurt | 7 | Stopwatch","name_short":"frk-7","host":"frk-1.de.uncletopia.com","port":27075,"enabled":true,"region":"eu","cc":"de","latitude":50.110924,"longitude":8.682127,"reserved":0,"last_update":"0001-01-01T00:00:00Z","name_a2s":"Uncletopia | Frankfurt | 7 | Stopwatch","protocol":17,"map":"workshop/koth_clearcut_b15.ugc2107050255","folder":"tf","game":"Team Fortress","app_id":440,"player_count":0,"max_players":24,"Bots":0,"server_type":"Dedicated","server_os":"Linux","password":true,"vac":true,"version":"7961495","steam_id":85568392924742827,"keywords":["cp","nocrits","nodmgspread","uncletopia"],"game_id":440,"stv_port":27076,"stv_name":"Uncletopia | Frankfurt | 7 | Stopwatch | STV","players":null},{"server_id":24,"name":"Uncletopia | Frankfurt | 8 | Community","name_short":"frk-8","host":"frk-1.de.uncletopia.com","port":27085,"enabled":true,"region":"eu","cc":"de","latitude":50.110924,"longitude":8.682127,"reserved":0,"last_update":"0001-01-01T00:00:00Z","name_a2s":"Uncletopia | Frankfurt | 8 | Community","protocol":17,"map":"workshop/pl_cactuscanyon_redux_final2.ugc2579644293","folder":"tf","game":"Team Fortress","app_id":440,"player_count":10,"max_players":24,"Bots":0,"server_type":"Dedicated","server_os":"Linux","password":true,"vac":true,"version":"7961495","steam_id":85568392924742828,"keywords":["nocrits","nodmgspread","payload","uncletopia"],"game_id":440,"stv_port":27086,"stv_name":"Uncletopia | Frankfurt | 8 | Community | STV","players":[{"user_id":298,"name":"F","steam_id":76561199149462792,"connected_time":222000000000,"state":"active","ping":66},{"user_id":304,"name":"sam-","steam_id":76561198013770973,"connected_time":26000000000,"state":"spawning","ping":240},{"user_id":198,"name":"spy in the base","steam_id":76561198284570752,"connected_time":7277000000000,"state":"active","ping":60},{"user_id":300,"name":"peppino.","steam_id":76561198207929768,"connected_time":115000000000,"state":"active","ping":71},{"user_id":301,"name":"Mr. Master","steam_id":76561199198569317,"connected_time":81000000000,"state":"active","ping":64},{"user_id":213,"name":"✡Cpruin✡","steam_id":76561198184924239,"connected_time":6779000000000,"state":"active","ping":67},{"user_id":303,"name":"Peter Pammpim","steam_id":76561199103785290,"connected_time":29000000000,"state":"spawning","ping":305},{"user_id":305,"name":"Cezaru7252","steam_id":76561198815955374,"connected_time":15000000000,"state":"spawning","ping":171},{"user_id":281,"name":"MovingIsOverRated","steam_id":76561198385633292,"connected_time":1444000000000,"state":"active","ping":83},{"user_id":208,"name":"rets_","steam_id":76561198061551392,"connected_time":7140000000000,"state":"active","ping":52}]},{"server_id":202,"name":"Uncletopia | Hong Kong | 1 | All Maps","name_short":"hgk-1","host":"hgk-1.hk.uncletopia.com","port":27015,"enabled":true,"region":"asia","cc":"hk","latitude":22.302711,"longitude":114.177216,"reserved":0,"last_update":"0001-01-01T00:00:00Z","name_a2s":"Uncletopia | Hong Kong | 1 | All Maps","protocol":17,"map":"koth_cascade","folder":"tf","game":"Team Fortress","app_id":440,"player_count":0,"max_players":24,"Bots":0,"server_type":"Dedicated","server_os":"Linux","password":true,"vac":true,"version":"7961495","steam_id":85568392924494504,"keywords":["cp","nocrits","nodmgspread","uncletopia"],"game_id":440,"stv_port":27016,"stv_name":"Uncletopia | Hong Kong | 1 | All Maps | STV","players":null},{"server_id":1,"name":"Uncletopia | Los Angeles | 1 | All Maps","name_short":"lax-1","host":"lax-1.us.uncletopia.com","port":27015,"enabled":true,"region":"us-west","cc":"us","latitude":33.94279,"longitude":-118.41004,"reserved":0,"last_update":"0001-01-01T00:00:00Z","name_a2s":"Uncletopia | Los Angeles | 1 | All Maps","protocol":17,"map":"pl_swiftwater_final1","folder":"tf","game":"Team Fortress","app_id":440,"player_count":0,"max_players":24,"Bots":0,"server_type":"Dedicated","server_os":"Linux","password":true,"vac":true,"version":"7961495","steam_id":85568392924469991,"keywords":["nocrits","nodmgspread","payload","uncletopia"],"game_id":440,"stv_port":27016,"stv_name":"Uncletopia | Los Angeles | 1 | All Maps | STV","players":null},{"server_id":112,"name":"Uncletopia | Los Angeles | 2 | All Maps","name_short":"lax-2","host":"lax-1.us.uncletopia.com","port":27025,"enabled":true,"region":"us-west","cc":"us","latitude":33.94279,"longitude":-118.41004,"reserved":0,"last_update":"0001-01-01T00:00:00Z","name_a2s":"Uncletopia | Los Angeles | 2 | All Maps","protocol":17,"map":"koth_cascade","folder":"tf","game":"Team Fortress","app_id":440,"player_count":0,"max_players":24,"Bots":0,"server_type":"Dedicated","server_os":"Linux","password":true,"vac":true,"version":"7961495","steam_id":85568392924469992,"keywords":["cp","nocrits","nodmgspread","uncletopia"],"game_id":440,"stv_port":27026,"stv_name":"Uncletopia | Los Angeles | 2 | All Maps | STV","players":null},{"server_id":324,"name":"Uncletopia | Los Angeles | 3 | All Maps","name_short":"lax-3","host":"lax-1.us.uncletopia.com","port":27035,"enabled":true,"region":"us-west","cc":"us","latitude":33.94279,"longitude":-118.41004,"reserved":0,"last_update":"0001-01-01T00:00:00Z","name_a2s":"Uncletopia | Los Angeles | 3 | All Maps","protocol":17,"map":"pl_frontier_final","folder":"tf","game":"Team Fortress","app_id":440,"player_count":0,"max_players":24,"Bots":0,"server_type":"Dedicated","server_os":"Linux","password":true,"vac":true,"version":"7961495","steam_id":85568392924510198,"keywords":["nocrits","nodmgspread","payload","uncletopia"],"game_id":440,"stv_port":27036,"stv_name":"Uncletopia | Los Angeles | 3 | All Maps | STV","players":null},{"server_id":25,"name":"Uncletopia | Los Angeles | 4 | Stopwatch","name_short":"lax-4","host":"lax-1.us.uncletopia.com","port":27045,"enabled":true,"region":"us-west","cc":"us","latitude":33.94279,"longitude":-118.41004,"reserved":0,"last_update":"0001-01-01T00:00:00Z","name_a2s":"Uncletopia | Los Angeles | 4 | Stopwatch","protocol":17,"map":"pl_barnblitz","folder":"tf","game":"Team Fortress","app_id":440,"player_count":0,"max_players":24,"Bots":0,"server_type":"Dedicated","server_os":"Linux","password":true,"vac":true,"version":"7961495","steam_id":85568392924510199,"keywords":["nocrits","nodmgspread","payload","uncletopia"],"game_id":440,"stv_port":27046,"stv_name":"Uncletopia | Los Angeles | 4 | Stopwatch | STV","players":null},{"server_id":11,"name":"Uncletopia | London | 1 | All Maps","name_short":"lon-1","host":"lon-1.uk.uncletopia.com","port":27015,"enabled":true,"region":"eu","cc":"gb","latitude":51.509865,"longitude":-0.118092,"reserved":0,"last_update":"0001-01-01T00:00:00Z","name_a2s":"Uncletopia | London | 1 | All Maps","protocol":17,"map":"cp_dustbowl","folder":"tf","game":"Team Fortress","app_id":440,"player_count":24,"max_players":24,"Bots":0,"server_type":"Dedicated","server_os":"Linux","password":true,"vac":true,"version":"7961495","steam_id":85568392924367362,"keywords":["cp","nocrits","nodmgspread","uncletopia"],"game_id":440,"stv_port":27016,"stv_name":"Uncletopia | London | 1 | All Maps | STV","players":[{"user_id":447,"name":"trite","steam_id":76561197983765323,"connected_time":698000000000,"state":"active","ping":51},{"user_id":449,"name":"Aaronbill3","steam_id":76561198014056212,"connected_time":658000000000,"state":"active","ping":68},{"user_id":444,"name":"Aaron","steam_id":76561197990046953,"connected_time":1080000000000,"state":"active","ping":57},{"user_id":425,"name":"ack","steam_id":76561198139796077,"connected_time":1977000000000,"state":"active","ping":52},{"user_id":463,"name":"fryingpants","steam_id":76561197985655573,"connected_time":215000000000,"state":"active","ping":90},{"user_id":439,"name":"Texas Red","steam_id":76561199069782779,"connected_time":1549000000000,"state":"active","ping":82},{"user_id":429,"name":"I I","steam_id":76561199101935057,"connected_time":1840000000000,"state":"active","ping":102},{"user_id":458,"name":"Illy","steam_id":76561198045537823,"connected_time":511000000000,"state":"active","ping":58},{"user_id":322,"name":"Trapezoid","steam_id":76561198059369295,"connected_time":8874000000000,"state":"active","ping":75},{"user_id":442,"name":"Logern","steam_id":76561198085243794,"connected_time":1240000000000,"state":"active","ping":60},{"user_id":451,"name":"Sir Cauterize","steam_id":76561198047079422,"connected_time":628000000000,"state":"active","ping":52},{"user_id":457,"name":"Senior","steam_id":76561198065014164,"connected_time":545000000000,"state":"active","ping":51},{"user_id":435,"name":"UltimateSlayer","steam_id":76561198384109309,"connected_time":1640000000000,"state":"active","ping":59},{"user_id":441,"name":"jcb.f.smith","steam_id":76561199491964000,"connected_time":1436000000000,"state":"active","ping":59},{"user_id":452,"name":"The_Jaystone","steam_id":76561198126280691,"connected_time":616000000000,"state":"active","ping":42},{"user_id":419,"name":"Favi","steam_id":76561198013236935,"connected_time":2250000000000,"state":"active","ping":80},{"user_id":448,"name":"SpacePig","steam_id":76561198044662873,"connected_time":695000000000,"state":"active","ping":98},{"user_id":464,"name":"Icarus300","steam_id":76561198015125766,"connected_time":26000000000,"state":"active","ping":78},{"user_id":462,"name":"breakfast burrito","steam_id":76561198148606969,"connected_time":239000000000,"state":"active","ping":74},{"user_id":391,"name":"Washburne","steam_id":76561198032810579,"connected_time":3986000000000,"state":"active","ping":54},{"user_id":437,"name":"Rick","steam_id":76561198140656976,"connected_time":1633000000000,"state":"active","ping":70},{"user_id":356,"name":"Fuzz","steam_id":76561198013049077,"connected_time":6565000000000,"state":"active","ping":78},{"user_id":456,"name":"God of Hellfire","steam_id":76561198423518671,"connected_time":584000000000,"state":"active","ping":106},{"user_id":438,"name":"Will","steam_id":76561198173329977,"connected_time":1628000000000,"state":"active","ping":51}]},{"server_id":114,"name":"Uncletopia | London | 2 | All Maps","name_short":"lon-2","host":"lon-1.uk.uncletopia.com","port":27025,"enabled":true,"region":"eu","cc":"gb","latitude":51.509865,"longitude":-0.118092,"reserved":0,"last_update":"0001-01-01T00:00:00Z","name_a2s":"Uncletopia | London | 2 | All Maps","protocol":17,"map":"pl_snowycoast","folder":"tf","game":"Team Fortress","app_id":440,"player_count":1,"max_players":24,"Bots":0,"server_type":"Dedicated","server_os":"Linux","password":true,"vac":true,"version":"7961495","steam_id":85568392924470941,"keywords":["nocrits","nodmgspread","payload","uncletopia"],"game_id":440,"stv_port":27026,"stv_name":"Uncletopia | London | 2 | All Maps | STV","players":[{"user_id":377,"name":"emag live","steam_id":76561198047164140,"connected_time":79000000000,"state":"active","ping":52}]},{"server_id":320,"name":"Uncletopia | London | 3 | All Maps","name_short":"lon-3","host":"lon-1.uk.uncletopia.com","port":27035,"enabled":true,"region":"eu","cc":"gb","latitude":51.509865,"longitude":-0.118092,"reserved":0,"last_update":"0001-01-01T00:00:00Z","name_a2s":"Uncletopia | London | 3 | All Maps","protocol":17,"map":"cp_steel","folder":"tf","game":"Team Fortress","app_id":440,"player_count":24,"max_players":24,"Bots":0,"server_type":"Dedicated","server_os":"Linux","password":true,"vac":true,"version":"7961495","steam_id":85568392924510192,"keywords":["cp","nocrits","nodmgspread","uncletopia"],"game_id":440,"stv_port":27036,"stv_name":"Uncletopia | London | 3 | All Maps | STV","players":[{"user_id":610,"name":"mere","steam_id":76561199136308055,"connected_time":1612000000000,"state":"active","ping":57},{"user_id":537,"name":"jaime","steam_id":76561197980590671,"connected_time":5676000000000,"state":"active","ping":88},{"user_id":595,"name":"Breddie Mercury","steam_id":76561198804590384,"connected_time":2261000000000,"state":"active","ping":78},{"user_id":621,"name":"sloppy transgirl toppy","steam_id":76561198057092208,"connected_time":1224000000000,"state":"active","ping":74},{"user_id":609,"name":"Gentlemann Co.","steam_id":76561197997142921,"connected_time":1679000000000,"state":"active","ping":55},{"user_id":640,"name":"Bobo","steam_id":76561198052308399,"connected_time":2000000000,"state":"spawning","ping":51},{"user_id":574,"name":"Fuvuk","steam_id":76561198044458593,"connected_time":3693000000000,"state":"active","ping":91},{"user_id":614,"name":"♬ ᴛᴇᴋɪᴛ ♬","steam_id":76561198111704722,"connected_time":1379000000000,"state":"active","ping":90},{"user_id":625,"name":"Brisket \u003c3","steam_id":76561198047291354,"connected_time":1201000000000,"state":"active","ping":129},{"user_id":629,"name":"Mehlord","steam_id":76561198061371289,"connected_time":1022000000000,"state":"active","ping":114},{"user_id":600,"name":"джегеми хэпкингс","steam_id":76561198131531394,"connected_time":2127000000000,"state":"active","ping":104},{"user_id":628,"name":"Cogsworth","steam_id":76561198101859889,"connected_time":1177000000000,"state":"active","ping":161},{"user_id":630,"name":"Deformed Gollum","steam_id":76561198155563589,"connected_time":997000000000,"state":"active","ping":51},{"user_id":631,"name":"Hotdog_Gentleman","steam_id":76561199309867837,"connected_time":990000000000,"state":"active","ping":112},{"user_id":623,"name":"Ve stylu","steam_id":76561198218257120,"connected_time":1214000000000,"state":"active","ping":67},{"user_id":637,"name":"Caruzon - Obismal","steam_id":76561198036211170,"connected_time":128000000000,"state":"active","ping":80},{"user_id":632,"name":"Gry","steam_id":76561198053961616,"connected_time":986000000000,"state":"active","ping":46},{"user_id":624,"name":"Artemis","steam_id":76561198199091801,"connected_time":1208000000000,"state":"active","ping":51},{"user_id":633,"name":"Level 1 Noob","steam_id":76561198088586340,"connected_time":754000000000,"state":"active","ping":60},{"user_id":638,"name":"R8N - Obismal","steam_id":76561198007482714,"connected_time":126000000000,"state":"active","ping":82},{"user_id":588,"name":"Fecal Feaster","steam_id":76561198386649656,"connected_time":2671000000000,"state":"active","ping":166},{"user_id":639,"name":"TunaFish","steam_id":76561199026018102,"connected_time":126000000000,"state":"active","ping":65},{"user_id":626,"name":"Riky95","steam_id":76561198095289436,"connected_time":1194000000000,"state":"active","ping":57},{"user_id":613,"name":"KAMIL","steam_id":76561198014578785,"connected_time":1444000000000,"state":"active","ping":63}]},{"server_id":321,"name":"Uncletopia | London | 4 | All Maps","name_short":"lon-4","host":"lon-1.uk.uncletopia.com","port":27045,"enabled":true,"region":"eu","cc":"gb","latitude":51.509865,"longitude":-0.118092,"reserved":0,"last_update":"0001-01-01T00:00:00Z","name_a2s":"Uncletopia | London | 4 | All Maps","protocol":17,"map":"cp_snakewater_final1","folder":"tf","game":"Team Fortress","app_id":440,"player_count":24,"max_players":24,"Bots":0,"server_type":"Dedicated","server_os":"Linux","password":true,"vac":true,"version":"7961495","steam_id":85568392924510193,"keywords":["cp","nocrits","nodmgspread","uncletopia"],"game_id":440,"stv_port":27046,"stv_name":"Uncletopia | London | 4 | All Maps | STV","players":[{"user_id":190,"name":"TSx* Osa__PL","steam_id":76561198027016799,"connected_time":1844000000000,"state":"active","ping":73},{"user_id":200,"name":"jj","steam_id":76561198079200985,"connected_time":1495000000000,"state":"active","ping":55},{"user_id":209,"name":"A Very Fulfilling Salad","steam_id":76561198084530972,"connected_time":818000000000,"state":"active","ping":55},{"user_id":161,"name":"kid bean","steam_id":76561198063328792,"connected_time":3346000000000,"state":"active","ping":97},{"user_id":208,"name":"Palex","steam_id":76561198093219465,"connected_time":876000000000,"state":"active","ping":43},{"user_id":210,"name":"Duck","steam_id":76561198148130588,"connected_time":617000000000,"state":"active","ping":53},{"user_id":198,"name":"[10thAL] Ballix","steam_id":76561198217495645,"connected_time":1664000000000,"state":"active","ping":46},{"user_id":196,"name":"TSx* Bargal","steam_id":76561198040266872,"connected_time":1770000000000,"state":"active","ping":85},{"user_id":151,"name":"szwagrowicz07","steam_id":76561199047297795,"connected_time":3675000000000,"state":"active","ping":44},{"user_id":199,"name":"gg player","steam_id":76561198341062380,"connected_time":1554000000000,"state":"active","ping":119},{"user_id":212,"name":"orinj","steam_id":76561198963378933,"connected_time":573000000000,"state":"active","ping":44},{"user_id":123,"name":"-rikeOo-","steam_id":76561198303995379,"connected_time":5196000000000,"state":"active","ping":79},{"user_id":145,"name":"Flash","steam_id":76561198067379855,"connected_time":4087000000000,"state":"active","ping":53},{"user_id":217,"name":"AKA_Sloth","steam_id":76561198031264376,"connected_time":115000000000,"state":"active","ping":71},{"user_id":192,"name":"Don Beatle","steam_id":76561198046129368,"connected_time":1816000000000,"state":"active","ping":147},{"user_id":193,"name":"Scootermouse","steam_id":76561198008665354,"connected_time":1788000000000,"state":"active","ping":146},{"user_id":218,"name":"Superiumentarius","steam_id":76561198081642249,"connected_time":33000000000,"state":"active","ping":62},{"user_id":214,"name":"TSx* Naxer","steam_id":76561198011986779,"connected_time":507000000000,"state":"active","ping":74},{"user_id":216,"name":"skilltissues","steam_id":76561198025828664,"connected_time":265000000000,"state":"active","ping":52},{"user_id":197,"name":"Spanns","steam_id":76561197998349793,"connected_time":1758000000000,"state":"active","ping":77},{"user_id":154,"name":"Spongelica Slobblecoque","steam_id":76561198009072273,"connected_time":3604000000000,"state":"active","ping":61},{"user_id":215,"name":"[Sheep] Tomco","steam_id":76561198388549261,"connected_time":303000000000,"state":"active","ping":62},{"user_id":177,"name":"A Very Disappointing Salad","steam_id":76561198020277939,"connected_time":2629000000000,"state":"active","ping":52},{"user_id":204,"name":"fikafika","steam_id":76561198037517223,"connected_time":1092000000000,"state":"active","ping":90}]},{"server_id":21,"name":"Uncletopia | London | 5 | All Maps","name_short":"lon-5","host":"lon-1.uk.uncletopia.com","port":27055,"enabled":true,"region":"eu","cc":"gb","latitude":51.509865,"longitude":-0.118092,"reserved":0,"last_update":"0001-01-01T00:00:00Z","name_a2s":"Uncletopia | London | 5 | All Maps","protocol":17,"map":"koth_lakeside_final","folder":"tf","game":"Team Fortress","app_id":440,"player_count":0,"max_players":24,"Bots":0,"server_type":"Dedicated","server_os":"Linux","password":true,"vac":true,"version":"7961495","steam_id":85568392924742829,"keywords":["cp","nocrits","nodmgspread","uncletopia"],"game_id":440,"stv_port":27056,"stv_name":"Uncletopia | London | 5 | All Maps | STV","players":null},{"server_id":22,"name":"Uncletopia | London | 6 | All Maps","name_short":"lon-6","host":"lon-1.uk.uncletopia.com","port":27065,"enabled":true,"region":"eu","cc":"gb","latitude":51.509865,"longitude":-0.118092,"reserved":0,"last_update":"0001-01-01T00:00:00Z","name_a2s":"Uncletopia | London | 6 | All Maps","protocol":17,"map":"cp_mountainlab","folder":"tf","game":"Team Fortress","app_id":440,"player_count":24,"max_players":24,"Bots":0,"server_type":"Dedicated","server_os":"Linux","password":true,"vac":true,"version":"7961495","steam_id":85568392924742830,"keywords":["cp","nocrits","nodmgspread","uncletopia"],"game_id":440,"stv_port":27066,"stv_name":"Uncletopia | London | 6 | All Maps | STV","players":[{"user_id":648,"name":"Mr. Mundy","steam_id":76561198132008918,"connected_time":982000000000,"state":"active","ping":87},{"user_id":584,"name":"Tower","steam_id":76561198090278447,"connected_time":3312000000000,"state":"active","ping":65},{"user_id":581,"name":"Carter","steam_id":76561198005243938,"connected_time":3577000000000,"state":"active","ping":60},{"user_id":652,"name":"hasky","steam_id":76561197986052798,"connected_time":809000000000,"state":"active","ping":85},{"user_id":611,"name":"JuanPonchoGringo™","steam_id":76561198038046899,"connected_time":2304000000000,"state":"active","ping":133},{"user_id":586,"name":"aabracadabra","steam_id":76561198061248329,"connected_time":3285000000000,"state":"active","ping":70},{"user_id":654,"name":"Yuzu","steam_id":76561198121694613,"connected_time":771000000000,"state":"active","ping":51},{"user_id":656,"name":"kingcays","steam_id":76561198006963055,"connected_time":315000000000,"state":"active","ping":76},{"user_id":647,"name":"Hexagon","steam_id":76561198151205758,"connected_time":993000000000,"state":"active","ping":62},{"user_id":658,"name":"nug","steam_id":76561198055396568,"connected_time":154000000000,"state":"active","ping":64},{"user_id":657,"name":"A Featherless Biped","steam_id":76561198307904901,"connected_time":268000000000,"state":"active","ping":47},{"user_id":638,"name":"CRITICAL_HIT!","steam_id":76561198349330393,"connected_time":1292000000000,"state":"active","ping":84},{"user_id":545,"name":"Spurt","steam_id":76561198078523852,"connected_time":5031000000000,"state":"active","ping":50},{"user_id":639,"name":"Egor Pomidor","steam_id":76561199175688390,"connected_time":1286000000000,"state":"active","ping":84},{"user_id":596,"name":"N1xD4","steam_id":76561199047686063,"connected_time":2906000000000,"state":"active","ping":68},{"user_id":649,"name":"Flohr","steam_id":76561198191948841,"connected_time":979000000000,"state":"active","ping":48},{"user_id":628,"name":"Well, off to hang myself","steam_id":76561198053374944,"connected_time":1688000000000,"state":"active","ping":69},{"user_id":629,"name":"JVLIVS","steam_id":76561198366167099,"connected_time":1684000000000,"state":"active","ping":45},{"user_id":655,"name":"Fat Pigeon","steam_id":76561198817940142,"connected_time":597000000000,"state":"active","ping":55},{"user_id":653,"name":"Kestrel","steam_id":76561198144033005,"connected_time":804000000000,"state":"active","ping":54},{"user_id":633,"name":"dumdum","steam_id":76561198069430083,"connected_time":1630000000000,"state":"active","ping":101},{"user_id":650,"name":"Mébh Óg MacTíre","steam_id":76561198346399624,"connected_time":970000000000,"state":"active","ping":84},{"user_id":635,"name":"Dan Dan the Furious","steam_id":76561198091032527,"connected_time":1571000000000,"state":"active","ping":54},{"user_id":642,"name":"how about you get a job","steam_id":76561199061646193,"connected_time":1249000000000,"state":"active","ping":96}]},{"server_id":40,"name":"Uncletopia | London | 7 | Stopwatch","name_short":"lon-7","host":"lon-1.uk.uncletopia.com","port":27075,"enabled":true,"region":"eu","cc":"gb","latitude":51.509865,"longitude":-0.118092,"reserved":0,"last_update":"0001-01-01T00:00:00Z","name_a2s":"Uncletopia | London | 7 | Stopwatch","protocol":17,"map":"pl_upward","folder":"tf","game":"Team Fortress","app_id":440,"player_count":0,"max_players":24,"Bots":0,"server_type":"Dedicated","server_os":"Linux","password":true,"vac":true,"version":"7961495","steam_id":85568392924964314,"keywords":["nocrits","nodmgspread","payload","uncletopia"],"game_id":440,"stv_port":27076,"stv_name":"Uncletopia | London | 7 | Stopwatch | STV","players":null},{"server_id":41,"name":"Uncletopia | London | 8 | Community","name_short":"lon-8","host":"lon-1.uk.uncletopia.com","port":27085,"enabled":true,"region":"eu","cc":"gb","latitude":51.509865,"longitude":-0.118092,"reserved":0,"last_update":"0001-01-01T00:00:00Z","name_a2s":"Uncletopia | London | 8 | Community","protocol":17,"map":"workshop/koth_bagel_rc6.ugc2514036946","folder":"tf","game":"Team Fortress","app_id":440,"player_count":0,"max_players":24,"Bots":0,"server_type":"Dedicated","server_os":"Linux","password":true,"vac":true,"version":"7961495","steam_id":85568392924964315,"keywords":["cp","nocrits","nodmgspread","uncletopia"],"game_id":440,"stv_port":27086,"stv_name":"Uncletopia | London | 8 | Community | STV","players":null},{"server_id":300,"name":"Uncletopia | Montréal | 1 | One Thousand Uncles","name_short":"mtl-1","host":"mtl-1.ca.uncletopia.com","port":27015,"enabled":true,"region":"us-east","cc":"ca","latitude":45.50889,"longitude":-73.56167,"reserved":0,"last_update":"0001-01-01T00:00:00Z","name_a2s":"","protocol":0,"map":"","folder":"","game":"","app_id":0,"player_count":6,"max_players":0,"Bots":0,"server_type":"","server_os":"","password":false,"vac":false,"version":"","steam_id":0,"keywords":null,"game_id":0,"stv_port":0,"stv_name":"","players":[{"user_id":68,"name":"shotgun sam","steam_id":76561199160884713,"connected_time":64000000000,"state":"active","ping":51},{"user_id":60,"name":"The Bridge Guardian","steam_id":76561199089271429,"connected_time":1822000000000,"state":"active","ping":83},{"user_id":61,"name":"Chucklez","steam_id":76561198058193135,"connected_time":1550000000000,"state":"active","ping":48},{"user_id":62,"name":"ThatGirlWithaK","steam_id":76561198317602350,"connected_time":1507000000000,"state":"active","ping":88},{"user_id":63,"name":"Congcrab","steam_id":76561198078687685,"connected_time":1482000000000,"state":"active","ping":100},{"user_id":64,"name":"Detox De Cipher","steam_id":76561198055630693,"connected_time":1460000000000,"state":"active","ping":86}]},{"server_id":301,"name":"Uncletopia | Montréal | 2 | One Thousand Uncles","name_short":"mtl-2","host":"mtl-1.ca.uncletopia.com","port":27025,"enabled":true,"region":"us-east","cc":"ca","latitude":45.50889,"longitude":-73.56167,"reserved":0,"last_update":"0001-01-01T00:00:00Z","name_a2s":"","protocol":0,"map":"","folder":"","game":"","app_id":0,"player_count":0,"max_players":0,"Bots":0,"server_type":"","server_os":"","password":false,"vac":false,"version":"","steam_id":0,"keywords":null,"game_id":0,"stv_port":0,"stv_name":"","players":null},{"server_id":302,"name":"Uncletopia | Montréal | 3 | One Thousand Uncles","name_short":"mtl-3","host":"mtl-1.ca.uncletopia.com","port":27035,"enabled":true,"region":"us-east","cc":"ca","latitude":45.50889,"longitude":-73.56167,"reserved":0,"last_update":"0001-01-01T00:00:00Z","name_a2s":"","protocol":0,"map":"","folder":"","game":"","app_id":0,"player_count":0,"max_players":0,"Bots":0,"server_type":"","server_os":"","password":false,"vac":false,"version":"","steam_id":0,"keywords":null,"game_id":0,"stv_port":0,"stv_name":"","players":null},{"server_id":13,"name":"Uncletopia | New York City | 1 | All Maps","name_short":"nyc-1","host":"nyc-1.us.uncletopia.com","port":27015,"enabled":true,"region":"us-east","cc":"us","latitude":40.73061,"longitude":-73.93524,"reserved":0,"last_update":"0001-01-01T00:00:00Z","name_a2s":"Uncletopia | New York City | 1 | All Maps","protocol":17,"map":"cp_dustbowl","folder":"tf","game":"Team Fortress","app_id":440,"player_count":19,"max_players":24,"Bots":0,"server_type":"Dedicated","server_os":"Linux","password":true,"vac":true,"version":"7961495","steam_id":85568392924469993,"keywords":["cp","nocrits","nodmgspread","uncletopia"],"game_id":440,"stv_port":27016,"stv_name":"Uncletopia | New York City | 1 | All Maps | STV","players":[{"user_id":86,"name":"Spoon ½","steam_id":76561198032696548,"connected_time":83000000000,"state":"active","ping":138},{"user_id":87,"name":"Ursus Ludius","steam_id":76561198025470722,"connected_time":18000000000,"state":"active","ping":66},{"user_id":67,"name":"tim","steam_id":76561198075510786,"connected_time":1762000000000,"state":"active","ping":90},{"user_id":88,"name":"DaveAtDublin","steam_id":76561198162386715,"connected_time":2000000000,"state":"spawning","ping":43},{"user_id":58,"name":"Primal","steam_id":76561197983118203,"connected_time":2524000000000,"state":"active","ping":59},{"user_id":75,"name":"taigaxx","steam_id":76561198202669250,"connected_time":825000000000,"state":"active","ping":71},{"user_id":20,"name":"Typh","steam_id":76561198315344079,"connected_time":6541000000000,"state":"active","ping":72},{"user_id":60,"name":"L to the OG","steam_id":76561199215811448,"connected_time":2324000000000,"state":"active","ping":75},{"user_id":77,"name":"epsilene","steam_id":76561198027468624,"connected_time":814000000000,"state":"active","ping":41},{"user_id":84,"name":"chainsaw chains for teeth.","steam_id":76561198294013916,"connected_time":93000000000,"state":"active","ping":47},{"user_id":65,"name":"MechaSixVII","steam_id":76561198014927379,"connected_time":1778000000000,"state":"active","ping":64},{"user_id":72,"name":"ZombieMan101","steam_id":76561198846999186,"connected_time":1082000000000,"state":"active","ping":128},{"user_id":82,"name":"Child Obesity","steam_id":76561198099263425,"connected_time":147000000000,"state":"active","ping":54},{"user_id":85,"name":"REZ","steam_id":76561198071088274,"connected_time":92000000000,"state":"active","ping":162},{"user_id":81,"name":"Ghostmeal","steam_id":76561198042380299,"connected_time":602000000000,"state":"active","ping":95},{"user_id":63,"name":"frenemy","steam_id":76561198011363677,"connected_time":2020000000000,"state":"active","ping":65},{"user_id":30,"name":"gregoryhens","steam_id":76561199434318315,"connected_time":6239000000000,"state":"active","ping":168},{"user_id":74,"name":"Chris","steam_id":76561198044278802,"connected_time":861000000000,"state":"active","ping":55},{"user_id":40,"name":"Brawns","steam_id":76561198045190199,"connected_time":4261000000000,"state":"active","ping":60}]},{"server_id":14,"name":"Uncletopia | New York City | 2 | All Maps","name_short":"nyc-2","host":"nyc-1.us.uncletopia.com","port":27025,"enabled":true,"region":"us-east","cc":"us","latitude":40.73061,"longitude":-73.93524,"reserved":0,"last_update":"0001-01-01T00:00:00Z","name_a2s":"Uncletopia | New York City | 2 | All Maps","protocol":17,"map":"koth_lakeside_final","folder":"tf","game":"Team Fortress","app_id":440,"player_count":0,"max_players":24,"Bots":0,"server_type":"Dedicated","server_os":"Linux","password":true,"vac":true,"version":"7961495","steam_id":85568392924469994,"keywords":["cp","nocrits","nodmgspread","uncletopia"],"game_id":440,"stv_port":27026,"stv_name":"Uncletopia | New York City | 2 | All Maps | STV","players":null},{"server_id":15,"name":"Uncletopia | New York City | 3 | Stopwatch","name_short":"nyc-3","host":"nyc-1.us.uncletopia.com","port":27035,"enabled":true,"region":"us-east","cc":"us","latitude":40.73061,"longitude":-73.93524,"reserved":0,"last_update":"0001-01-01T00:00:00Z","name_a2s":"Uncletopia | New York City | 3 | Stopwatch","protocol":17,"map":"pl_snowycoast","folder":"tf","game":"Team Fortress","app_id":440,"player_count":1,"max_players":24,"Bots":0,"server_type":"Dedicated","server_os":"Linux","password":true,"vac":true,"version":"7961495","steam_id":85568392924742820,"keywords":["nocrits","nodmgspread","payload","uncletopia"],"game_id":440,"stv_port":27036,"stv_name":"Uncletopia | New York City | 3 | Stopwatch | STV","players":[{"user_id":3,"name":"Kiwe","steam_id":76561199062703669,"connected_time":268000000000,"state":"active","ping":70}]},{"server_id":16,"name":"Uncletopia | New York City | 4 | Community","name_short":"nyc-4","host":"nyc-1.us.uncletopia.com","port":27045,"enabled":true,"region":"us-east","cc":"us","latitude":40.73061,"longitude":-73.93524,"reserved":0,"last_update":"0001-01-01T00:00:00Z","name_a2s":"Uncletopia | New York City | 4 | Community","protocol":17,"map":"workshop/pl_fifthcurve_rc1.ugc648227046","folder":"tf","game":"Team Fortress","app_id":440,"player_count":2,"max_players":24,"Bots":0,"server_type":"Dedicated","server_os":"Linux","password":true,"vac":true,"version":"7961495","steam_id":85568392924742821,"keywords":["nocrits","nodmgspread","payload","uncletopia"],"game_id":440,"stv_port":27046,"stv_name":"Uncletopia | New York City | 4 | Community | STV","players":[{"user_id":15,"name":"big_poopman2011","steam_id":76561198373996593,"connected_time":1761000000000,"state":"active","ping":72},{"user_id":16,"name":"Two right thumbs","steam_id":76561199041064345,"connected_time":1603000000000,"state":"active","ping":54}]},{"server_id":142,"name":"Uncletopia | São Paulo | 1 | All Maps","name_short":"sao-1","host":"sao-1.br.uncletopia.com","port":27015,"enabled":true,"region":"sa","cc":"br","latitude":-23.533773,"longitude":-46.62529,"reserved":0,"last_update":"0001-01-01T00:00:00Z","name_a2s":"Uncletopia | São Paulo | 1 | All Maps","protocol":17,"map":"cp_mountainlab","folder":"tf","game":"Team Fortress","app_id":440,"player_count":0,"max_players":24,"Bots":0,"server_type":"Dedicated","server_os":"Linux","password":true,"vac":true,"version":"7961495","steam_id":85568392924469996,"keywords":["cp","nocrits","nodmgspread","uncletopia"],"game_id":440,"stv_port":27016,"stv_name":"Uncletopia | São Paulo | 1 | All Maps | STV","players":null},{"server_id":143,"name":"Uncletopia | São Paulo | 2 | Community","name_short":"sao-2","host":"sao-2.br.uncletopia.com","port":27015,"enabled":true,"region":"sa","cc":"br","latitude":-23.533773,"longitude":-46.62529,"reserved":0,"last_update":"0001-01-01T00:00:00Z","name_a2s":"Uncletopia | São Paulo | 2 | Community","protocol":17,"map":"pl_badwater","folder":"tf","game":"Team Fortress","app_id":440,"player_count":0,"max_players":24,"Bots":0,"server_type":"Dedicated","server_os":"Linux","password":true,"vac":true,"version":"7961495","steam_id":85568392924485349,"keywords":["nocrits","nodmgspread","payload","uncletopia"],"game_id":440,"stv_port":27016,"stv_name":"Uncletopia | São Paulo | 2 | Community | STV","players":null},{"server_id":7,"name":"Uncletopia | Seattle | 1 | All Maps","name_short":"sea-1","host":"sea-1.us.uncletopia.com","port":27015,"enabled":true,"region":"us-west","cc":"us","latitude":47.608013,"longitude":-122.33517,"reserved":0,"last_update":"0001-01-01T00:00:00Z","name_a2s":"Uncletopia | Seattle | 1 | All Maps","protocol":17,"map":"koth_badlands","folder":"tf","game":"Team Fortress","app_id":440,"player_count":24,"max_players":24,"Bots":0,"server_type":"Dedicated","server_os":"Linux","password":true,"vac":true,"version":"7961495","steam_id":85568392924469997,"keywords":["cp","nocrits","nodmgspread","uncletopia"],"game_id":440,"stv_port":27016,"stv_name":"Uncletopia | Seattle | 1 | All Maps | STV","players":[{"user_id":262,"name":"zinnk","steam_id":76561198092081825,"connected_time":723000000000,"state":"active","ping":60},{"user_id":258,"name":"you just got dyked on","steam_id":76561198018977723,"connected_time":1254000000000,"state":"active","ping":47},{"user_id":267,"name":"jordanddean2016","steam_id":76561198323772677,"connected_time":695000000000,"state":"active","ping":45},{"user_id":257,"name":"my monitor is off","steam_id":76561198074499537,"connected_time":1389000000000,"state":"active","ping":73},{"user_id":241,"name":"Fluffy","steam_id":76561198115952540,"connected_time":2223000000000,"state":"active","ping":39},{"user_id":268,"name":"Reposas","steam_id":76561198058803197,"connected_time":584000000000,"state":"active","ping":103},{"user_id":228,"name":"Schmupp","steam_id":76561198150928115,"connected_time":3755000000000,"state":"active","ping":73},{"user_id":263,"name":"monkey squirts","steam_id":76561197983101644,"connected_time":716000000000,"state":"active","ping":73},{"user_id":244,"name":"Skitarii Alpha","steam_id":76561198000551238,"connected_time":2126000000000,"state":"active","ping":67},{"user_id":179,"name":"oo","steam_id":76561198119626492,"connected_time":8518000000000,"state":"active","ping":83},{"user_id":260,"name":"Daz","steam_id":76561198041431938,"connected_time":1158000000000,"state":"active","ping":48},{"user_id":266,"name":"ShackerJack","steam_id":76561198118017448,"connected_time":707000000000,"state":"active","ping":53},{"user_id":251,"name":"Spicy Chicken","steam_id":76561198074209737,"connected_time":1750000000000,"state":"active","ping":90},{"user_id":269,"name":"PageBoiSkull","steam_id":76561198237353578,"connected_time":582000000000,"state":"active","ping":70},{"user_id":214,"name":"imasheep","steam_id":76561198210322871,"connected_time":5733000000000,"state":"active","ping":75},{"user_id":271,"name":"adapt","steam_id":76561198156181017,"connected_time":294000000000,"state":"active","ping":76},{"user_id":270,"name":"Zeke","steam_id":76561198389722871,"connected_time":559000000000,"state":"active","ping":86},{"user_id":253,"name":"slushy :((","steam_id":76561198135281802,"connected_time":1603000000000,"state":"active","ping":30},{"user_id":248,"name":"Seanvich","steam_id":76561198065805500,"connected_time":2044000000000,"state":"active","ping":120},{"user_id":264,"name":"Firedust19","steam_id":76561198153238631,"connected_time":709000000000,"state":"active","ping":81},{"user_id":272,"name":"Karg","steam_id":76561198091387866,"connected_time":291000000000,"state":"active","ping":63},{"user_id":208,"name":"Little Linguine","steam_id":76561198816986370,"connected_time":6588000000000,"state":"active","ping":44},{"user_id":249,"name":"♥Tonto1♥","steam_id":76561198238492024,"connected_time":2041000000000,"state":"active","ping":118},{"user_id":255,"name":"UserLeft","steam_id":76561197998297379,"connected_time":1506000000000,"state":"active","ping":67}]},{"server_id":119,"name":"Uncletopia | Seattle | 2 | All Maps","name_short":"sea-2","host":"sea-1.us.uncletopia.com","port":27025,"enabled":true,"region":"us-west","cc":"us","latitude":47.608013,"longitude":-122.33517,"reserved":0,"last_update":"0001-01-01T00:00:00Z","name_a2s":"Uncletopia | Seattle | 2 | All Maps","protocol":17,"map":"koth_cascade","folder":"tf","game":"Team Fortress","app_id":440,"player_count":0,"max_players":24,"Bots":0,"server_type":"Dedicated","server_os":"Linux","password":true,"vac":true,"version":"7961495","steam_id":85568392924469998,"keywords":["cp","nocrits","nodmgspread","uncletopia"],"game_id":440,"stv_port":27026,"stv_name":"Uncletopia | Seattle | 2 | All Maps | STV","players":null},{"server_id":406,"name":"Uncletopia | Seattle | 3 | Stopwatch","name_short":"sea-3","host":"sea-1.us.uncletopia.com","port":27035,"enabled":true,"region":"us-west","cc":"us","latitude":47.608013,"longitude":-122.33517,"reserved":0,"last_update":"0001-01-01T00:00:00Z","name_a2s":"Uncletopia | Seattle | 3 | Stopwatch","protocol":17,"map":"pl_pier","folder":"tf","game":"Team Fortress","app_id":440,"player_count":1,"max_players":24,"Bots":0,"server_type":"Dedicated","server_os":"Linux","password":true,"vac":true,"version":"7961495","steam_id":85568392924515217,"keywords":["nocrits","nodmgspread","payload","uncletopia"],"game_id":440,"stv_port":27036,"stv_name":"Uncletopia | Seattle | 3 | Stopwatch | STV","players":[{"user_id":5,"name":"Sudsen","steam_id":76561198370603787,"connected_time":2000000000,"state":"spawning","ping":49}]},{"server_id":17,"name":"Uncletopia | San Francisco | 1 | All Maps","name_short":"sfo-1","host":"sfo-1.us.uncletopia.com","port":27015,"enabled":true,"region":"us-west","cc":"us","latitude":37.77397,"longitude":-122.4313,"reserved":0,"last_update":"0001-01-01T00:00:00Z","name_a2s":"Uncletopia | San Francisco | 1 | All Maps","protocol":17,"map":"koth_cascade","folder":"tf","game":"Team Fortress","app_id":440,"player_count":0,"max_players":24,"Bots":0,"server_type":"Dedicated","server_os":"Linux","password":true,"vac":true,"version":"7961495","steam_id":85568392924469999,"keywords":["cp","nocrits","nodmgspread","uncletopia"],"game_id":440,"stv_port":27016,"stv_name":"Uncletopia | San Francisco | 1 | All Maps | STV","players":null},{"server_id":18,"name":"Uncletopia | San Francisco | 2 | All Maps","name_short":"sfo-2","host":"sfo-1.us.uncletopia.com","port":27025,"enabled":true,"region":"us-west","cc":"us","latitude":37.77397,"longitude":-122.4313,"reserved":0,"last_update":"0001-01-01T00:00:00Z","name_a2s":"Uncletopia | San Francisco | 2 | All Maps","protocol":17,"map":"pl_frontier_final","folder":"tf","game":"Team Fortress","app_id":440,"player_count":0,"max_players":24,"Bots":0,"server_type":"Dedicated","server_os":"Linux","password":true,"vac":true,"version":"7961495","steam_id":85568392924470000,"keywords":["nocrits","nodmgspread","payload","uncletopia"],"game_id":440,"stv_port":27026,"stv_name":"Uncletopia | San Francisco | 2 | All Maps | STV","players":null},{"server_id":19,"name":"Uncletopia | San Francisco | 3 | Stopwatch","name_short":"sfo-3","host":"sfo-1.us.uncletopia.com","port":27035,"enabled":true,"region":"us-west","cc":"us","latitude":37.77397,"longitude":-122.4313,"reserved":0,"last_update":"0001-01-01T00:00:00Z","name_a2s":"Uncletopia | San Francisco | 3 | Stopwatch","protocol":17,"map":"pl_pier","folder":"tf","game":"Team Fortress","app_id":440,"player_count":0,"max_players":24,"Bots":0,"server_type":"Dedicated","server_os":"Linux","password":true,"vac":true,"version":"7961495","steam_id":85568392924742824,"keywords":["nocrits","nodmgspread","payload","uncletopia"],"game_id":440,"stv_port":27036,"stv_name":"Uncletopia | San Francisco | 3 | Stopwatch | STV","players":null},{"server_id":20,"name":"Uncletopia | San Francisco | 4 | Community","name_short":"sfo-4","host":"sfo-1.us.uncletopia.com","port":27045,"enabled":true,"region":"us-west","cc":"us","latitude":37.77397,"longitude":-122.4313,"reserved":0,"last_update":"0001-01-01T00:00:00Z","name_a2s":"Uncletopia | San Francisco | 4 | Community","protocol":17,"map":"workshop/koth_product_final.ugc454272353","folder":"tf","game":"Team Fortress","app_id":440,"player_count":0,"max_players":24,"Bots":0,"server_type":"Dedicated","server_os":"Linux","password":true,"vac":true,"version":"7961495","steam_id":85568392924742826,"keywords":["cp","nocrits","nodmgspread","uncletopia"],"game_id":440,"stv_port":27046,"stv_name":"Uncletopia | San Francisco | 4 | Community | STV","players":null},{"server_id":141,"name":"Uncletopia | Sydney | 1 | All Maps","name_short":"syd-1","host":"syd-1.au.uncletopia.com","port":27015,"enabled":true,"region":"au","cc":"au","latitude":-33.865143,"longitude":151.2099,"reserved":0,"last_update":"0001-01-01T00:00:00Z","name_a2s":"Uncletopia | Sydney | 1 | All Maps","protocol":17,"map":"koth_highpass","folder":"tf","game":"Team Fortress","app_id":440,"player_count":0,"max_players":24,"Bots":0,"server_type":"Dedicated","server_os":"Linux","password":true,"vac":true,"version":"7961495","steam_id":85568392924470001,"keywords":["cp","nocrits","nodmgspread","uncletopia"],"game_id":440,"stv_port":27016,"stv_name":"Uncletopia | Sydney | 1 | All Maps | STV","players":null},{"server_id":123,"name":"Uncletopia | Sydney | 2 | All Maps","name_short":"syd-2","host":"syd-1.au.uncletopia.com","port":27025,"enabled":true,"region":"au","cc":"au","latitude":-33.865143,"longitude":151.2099,"reserved":0,"last_update":"0001-01-01T00:00:00Z","name_a2s":"Uncletopia | Sydney | 2 | All Maps","protocol":17,"map":"pl_badwater","folder":"tf","game":"Team Fortress","app_id":440,"player_count":0,"max_players":24,"Bots":0,"server_type":"Dedicated","server_os":"Linux","password":true,"vac":true,"version":"7961495","steam_id":85568392924470002,"keywords":["nocrits","nodmgspread","payload","uncletopia"],"game_id":440,"stv_port":27026,"stv_name":"Uncletopia | Sydney | 2 | All Maps | STV","players":null},{"server_id":395,"name":"Uncletopia | Sydney | 3 | All Maps","name_short":"syd-3","host":"syd-1.au.uncletopia.com","port":27035,"enabled":true,"region":"au","cc":"au","latitude":-33.865143,"longitude":151.2099,"reserved":0,"last_update":"0001-01-01T00:00:00Z","name_a2s":"Uncletopia | Sydney | 3 | All Maps","protocol":17,"map":"koth_viaduct","folder":"tf","game":"Team Fortress","app_id":440,"player_count":0,"max_players":24,"Bots":0,"server_type":"Dedicated","server_os":"Linux","password":true,"vac":true,"version":"7961495","steam_id":85568392925194467,"keywords":["cp","nocrits","nodmgspread","uncletopia"],"game_id":440,"stv_port":27036,"stv_name":"Uncletopia | Sydney | 3 | All Maps | STV","players":null},{"server_id":396,"name":"Uncletopia | Sydney | 4 | All Maps","name_short":"syd-4","host":"syd-1.au.uncletopia.com","port":27045,"enabled":true,"region":"au","cc":"au","latitude":-33.865143,"longitude":151.2099,"reserved":0,"last_update":"0001-01-01T00:00:00Z","name_a2s":"Uncletopia | Sydney | 4 | All Maps","protocol":17,"map":"koth_highpass","folder":"tf","game":"Team Fortress","app_id":440,"player_count":0,"max_players":24,"Bots":0,"server_type":"Dedicated","server_os":"Linux","password":true,"vac":true,"version":"7961495","steam_id":85568392925397958,"keywords":["cp","nocrits","nodmgspread","uncletopia"],"game_id":440,"stv_port":27046,"stv_name":"Uncletopia | Sydney | 4 | All Maps | STV","players":null},{"server_id":58,"name":"Uncletopia | Sydney | 5 | Stopwatch","name_short":"syd-5","host":"syd-1.au.uncletopia.com","port":27055,"enabled":true,"region":"au","cc":"au","latitude":-33.865143,"longitude":151.2099,"reserved":0,"last_update":"0001-01-01T00:00:00Z","name_a2s":"Uncletopia | Sydney | 5 | Stopwatch","protocol":17,"map":"pl_frontier_final","folder":"tf","game":"Team Fortress","app_id":440,"player_count":0,"max_players":24,"Bots":0,"server_type":"Dedicated","server_os":"Linux","password":true,"vac":true,"version":"7961495","steam_id":85568392925397959,"keywords":["nocrits","nodmgspread","payload","uncletopia"],"game_id":440,"stv_port":27056,"stv_name":"Uncletopia | Sydney | 5 | Stopwatch | STV","players":null},{"server_id":59,"name":"Uncletopia | Sydney | 6 | Community","name_short":"syd-6","host":"syd-1.au.uncletopia.com","port":27065,"enabled":true,"region":"au","cc":"au","latitude":-33.865143,"longitude":151.2099,"reserved":0,"last_update":"0001-01-01T00:00:00Z","name_a2s":"Uncletopia | Sydney | 6 | Community","protocol":17,"map":"workshop/koth_bagel_rc6.ugc2514036946","folder":"tf","game":"Team Fortress","app_id":440,"player_count":0,"max_players":24,"Bots":0,"server_type":"Dedicated","server_os":"Linux","password":true,"vac":true,"version":"7961495","steam_id":85568392925397960,"keywords":["cp","nocrits","nodmgspread","uncletopia"],"game_id":440,"stv_port":27066,"stv_name":"Uncletopia | Sydney | 6 | Community | STV","players":null},{"server_id":49,"name":"Uncletopia | Warsaw | 1 | One Thousand Uncles","name_short":"waw-1","host":"waw-1.pl.uncletopia.com","port":27015,"enabled":true,"region":"eu","cc":"pl","latitude":52.2297,"longitude":21.017532,"reserved":0,"last_update":"0001-01-01T00:00:00Z","name_a2s":"Uncletopia | Warsaw | 1 | One Thousand Uncles","protocol":17,"map":"koth_highpass","folder":"tf","game":"Team Fortress","app_id":440,"player_count":20,"max_players":32,"Bots":16,"server_type":"Dedicated","server_os":"Linux","password":true,"vac":true,"version":"7961495","steam_id":85568392925397850,"keywords":["alltalk","bots","cp","danepve","increased_maxplayers","nocrits","norespawntime","uncletopia"],"game_id":440,"stv_port":0,"stv_name":"","players":[{"user_id":55,"name":"Serg","steam_id":76561198283930196,"connected_time":880000000000,"state":"active","ping":90},{"user_id":74,"name":"♦nudzeku♦","steam_id":76561199196336940,"connected_time":551000000000,"state":"active","ping":71},{"user_id":76,"name":"Lore","steam_id":76561199065520497,"connected_time":121000000000,"state":"active","ping":87},{"user_id":77,"name":"Max Power","steam_id":76561198019269089,"connected_time":3000000000,"state":"spawning","ping":51}]},{"server_id":50,"name":"Uncletopia | Warsaw | 2 | One Thousand Uncles","name_short":"waw-2","host":"waw-1.pl.uncletopia.com","port":27025,"enabled":true,"region":"eu","cc":"pl","latitude":52.2297,"longitude":21.017532,"reserved":0,"last_update":"0001-01-01T00:00:00Z","name_a2s":"Uncletopia | Warsaw | 2 | One Thousand Uncles","protocol":17,"map":"cp_altitude","folder":"tf","game":"Team Fortress","app_id":440,"player_count":29,"max_players":32,"Bots":16,"server_type":"Dedicated","server_os":"Linux","password":true,"vac":true,"version":"7961495","steam_id":85568392925397851,"keywords":["alltalk","bots","cp","danepve","increased_maxplayers","nocrits","norespawntime","uncletopia"],"game_id":440,"stv_port":0,"stv_name":"","players":[{"user_id":199,"name":"just a person","steam_id":76561198340369454,"connected_time":2000000000,"state":"spawning","ping":33},{"user_id":121,"name":"Samuel L. Jackson","steam_id":76561198130427881,"connected_time":4041000000000,"state":"active","ping":178},{"user_id":127,"name":"Fallen Dog","steam_id":76561198851387188,"connected_time":3987000000000,"state":"active","ping":83},{"user_id":138,"name":"Lukas","steam_id":76561198009118452,"connected_time":1517000000000,"state":"active","ping":65},{"user_id":164,"name":"Gooner","steam_id":76561198087035309,"connected_time":1016000000000,"state":"active","ping":50},{"user_id":137,"name":"Squanchy","steam_id":76561198013657513,"connected_time":2210000000000,"state":"active","ping":45},{"user_id":174,"name":"Letko","steam_id":76561198022416006,"connected_time":606000000000,"state":"active","ping":65},{"user_id":165,"name":"Torttu","steam_id":76561198013980029,"connected_time":975000000000,"state":"active","ping":75},{"user_id":179,"name":"Mr. Fox","steam_id":76561198803610709,"connected_time":244000000000,"state":"active","ping":134},{"user_id":176,"name":"Morgan BullFrog","steam_id":76561198088334623,"connected_time":566000000000,"state":"active","ping":88},{"user_id":177,"name":"skille","steam_id":76561198005794325,"connected_time":524000000000,"state":"active","ping":60},{"user_id":181,"name":"Yavkata","steam_id":76561198355317041,"connected_time":199000000000,"state":"active","ping":97},{"user_id":173,"name":"Tolя","steam_id":76561199108984092,"connected_time":686000000000,"state":"active","ping":116}]},{"server_id":51,"name":"Uncletopia | Warsaw | 3 | All Maps","name_short":"waw-3","host":"waw-1.pl.uncletopia.com","port":27035,"enabled":true,"region":"eu","cc":"pl","latitude":52.2297,"longitude":21.017532,"reserved":0,"last_update":"0001-01-01T00:00:00Z","name_a2s":"Uncletopia | Warsaw | 3 | All Maps","protocol":17,"map":"koth_viaduct","folder":"tf","game":"Team Fortress","app_id":440,"player_count":0,"max_players":24,"Bots":0,"server_type":"Dedicated","server_os":"Linux","password":true,"vac":true,"version":"7961495","steam_id":85568392925397852,"keywords":["cp","nocrits","nodmgspread","uncletopia"],"game_id":440,"stv_port":27036,"stv_name":"Uncletopia | Warsaw | 3 | All Maps | STV","players":null},{"server_id":52,"name":"Uncletopia | Warsaw | 4 | All Maps","name_short":"waw-4","host":"waw-1.pl.uncletopia.com","port":27045,"enabled":true,"region":"eu","cc":"pl","latitude":52.2297,"longitude":21.017532,"reserved":0,"last_update":"0001-01-01T00:00:00Z","name_a2s":"Uncletopia | Warsaw | 4 | All Maps","protocol":17,"map":"cp_snakewater_final1","folder":"tf","game":"Team Fortress","app_id":440,"player_count":4,"max_players":24,"Bots":0,"server_type":"Dedicated","server_os":"Linux","password":true,"vac":true,"version":"7961495","steam_id":85568392925397853,"keywords":["cp","nocrits","nodmgspread","uncletopia"],"game_id":440,"stv_port":27046,"stv_name":"Uncletopia | Warsaw | 4 | All Maps | STV","players":[{"user_id":37,"name":"LasagneMan","steam_id":76561198971904377,"connected_time":1390000000000,"state":"active","ping":67},{"user_id":38,"name":"S0rdini","steam_id":76561198986246118,"connected_time":1008000000000,"state":"active","ping":76},{"user_id":28,"name":"Mabert","steam_id":76561198436058407,"connected_time":4052000000000,"state":"active","ping":53},{"user_id":40,"name":"jjkun786","steam_id":76561199438517484,"connected_time":597000000000,"state":"active","ping":67}]},{"server_id":53,"name":"Uncletopia | Warsaw | 5 | Stopwatch","name_short":"waw-5","host":"waw-1.pl.uncletopia.com","port":27055,"enabled":true,"region":"eu","cc":"pl","latitude":52.2297,"longitude":21.017532,"reserved":0,"last_update":"0001-01-01T00:00:00Z","name_a2s":"Uncletopia | Warsaw | 5 | Stopwatch","protocol":17,"map":"koth_highpass","folder":"tf","game":"Team Fortress","app_id":440,"player_count":0,"max_players":24,"Bots":0,"server_type":"Dedicated","server_os":"Linux","password":true,"vac":true,"version":"7961495","steam_id":85568392925397854,"keywords":["cp","nocrits","nodmgspread","uncletopia"],"game_id":440,"stv_port":27056,"stv_name":"Uncletopia | Warsaw | 5 | Stopwatch | STV","players":null},{"server_id":54,"name":"Uncletopia | Warsaw | 6 | Community","name_short":"waw-6","host":"waw-1.pl.uncletopia.com","port":27065,"enabled":true,"region":"eu","cc":"pl","latitude":52.2297,"longitude":21.017532,"reserved":0,"last_update":"0001-01-01T00:00:00Z","name_a2s":"Uncletopia | Warsaw | 6 | Community","protocol":17,"map":"workshop/koth_synthetic_rc6a.ugc1549817316","folder":"tf","game":"Team Fortress","app_id":440,"player_count":0,"max_players":24,"Bots":0,"server_type":"Dedicated","server_os":"Linux","password":true,"vac":true,"version":"7961495","steam_id":85568392925397856,"keywords":["cp","nocrits","nodmgspread","uncletopia"],"game_id":440,"stv_port":27066,"stv_name":"Uncletopia | Warsaw | 6 | Community | STV","players":null}]}