{"status":true,"message":"","result":[{"server_id":9,"name":"Uncletopia | Atlanta | 1 | All Maps","name_short":"atl-1","host":"atl-1.us.uncletopia.com","port":27015,"enabled":true,"region":"us-east","cc":"us","latitude":33.753746,"longitude":-84.38633,"reserved":0,"last_update":"0001-01-01T00:00:00Z","name_a2s":"Uncletopia | Atlanta | 1 | All Maps","protocol":17,"map":"koth_lazarus","folder":"tf","game":"Team Fortress","app_id":440,"player_count":20,"max_players":24,"Bots":0,"server_type":"Dedicated","server_os":"Linux","password":true,"vac":true,"version":"7695204","steam_id":85568392924469982,"keywords":["cp","nocrits","nodmgspread","uncletopia"],"game_id":440,"stv_port":27016,"stv_name":"Uncletopia | Atlanta | 1 | All Maps | STV","players":[{"user_id":598,"name":"ATL1 | merryy","steam_id":76561198968001329,"connected_time":739000000000,"state":"active","ping":45},{"user_id":599,"name":"Anononomous Dumbo Octopus","steam_id":76561198252522394,"connected_time":718000000000,"state":"active","ping":86},{"user_id":605,"name":"atlas","steam_id":76561198184893754,"connected_time":136000000000,"state":"active","ping":64},{"user_id":601,"name":"floofy","steam_id":76561198389769098,"connected_time":392000000000,"state":"active","ping":87},{"user_id":586,"name":"festive medic","steam_id":76561198075758026,"connected_time":3159000000000,"state":"active","ping":81},{"user_id":580,"name":"chexo4","steam_id":76561198150532531,"connected_time":3939000000000,"state":"active","ping":48},{"user_id":242,"name":"ATL1 | eish","steam_id":76561198089463603,"connected_time":40551000000000,"state":"active","ping":105},{"user_id":596,"name":"Doober","steam_id":76561198056661095,"connected_time":1698000000000,"state":"active","ping":58},{"user_id":573,"name":"Zillers","steam_id":76561198095248744,"connected_time":4830000000000,"state":"active","ping":59},{"user_id":603,"name":"Bomb Squirtle‚Ñ¢","steam_id":76561197998931145,"connected_time":283000000000,"state":"active","ping":88},{"user_id":602,"name":"Spinch","steam_id":76561198296224166,"connected_time":369000000000,"state":"active","ping":63},{"user_id":259,"name":"joe lft","steam_id":76561198045781320,"connected_time":39231000000000,"state":"active","ping":60},{"user_id":587,"name":"Celebratory Scout","steam_id":76561198018213050,"connected_time":3155000000000,"state":"active","ping":60},{"user_id":556,"name":"David De Bergerac","steam_id":76561198010306294,"connected_time":8348000000000,"state":"active","ping":77},{"user_id":582,"name":"Kromeousible","steam_id":76561198087317232,"connected_time":3614000000000,"state":"active","ping":129},{"user_id":604,"name":"Dreysidel","steam_id":76561198056496183,"connected_time":220000000000,"state":"active","ping":89},{"user_id":588,"name":"ecstatic scout","steam_id":76561198108938632,"connected_time":2393000000000,"state":"active","ping":56},{"user_id":606,"name":"Peanuts","steam_id":76561198041978557,"connected_time":76000000000,"state":"active","ping":93},{"user_id":571,"name":"Intro Bonito","steam_id":76561198119478838,"connected_time":5654000000000,"state":"active","ping":59},{"user_id":593,"name":"PyroTechno","steam_id":76561198060929872,"connected_time":2146000000000,"state":"active","ping":43}]},{"server_id":400,"name":"Uncletopia | Atlanta | 3 | All Maps","name_short":"atl-3","host":"atl-1.us.uncletopia.com","port":27035,"enabled":true,"region":"us-east","cc":"us","latitude":33.753746,"longitude":-84.38633,"reserved":0,"last_update":"0001-01-01T00:00:00Z","name_a2s":"Uncletopia | Atlanta | 3 | All Maps","protocol":17,"map":"cp_sunshine","folder":"tf","game":"Team Fortress","app_id":440,"player_count":0,"max_players":24,"Bots":0,"server_type":"Dedicated","server_os":"Linux","password":true,"vac":true,"version":"7695204","steam_id":85568392924515187,"keywords":["cp","nocrits","nodmgspread","uncletopia"],"game_id":440,"stv_port":27036,"stv_name":"Uncletopia | Atlanta | 3 | All Maps | STV","players":null},{"server_id":401,"name":"Uncletopia | Atlanta | 4 | No Payload","name_short":"atl-4","host":"atl-1.us.uncletopia.com","port":27045,"enabled":true,"region":"us-east","cc":"us","latitude":33.753746,"longitude":-84.38633,"reserved":0,"last_update":"0001-01-01T00:00:00Z","name_a2s":"Uncletopia | Atlanta | 4 | No Payload","protocol":17,"map":"cp_snakewater_final1","folder":"tf","game":"Team Fortress","app_id":440,"player_count":0,"max_players":24,"Bots":0,"server_type":"Dedicated","server_os":"Linux","password":true,"vac":true,"version":"7695204","steam_id":85568392924515188,"keywords":["cp","nocrits","nodmgspread","uncletopia"],"game_id":440,"stv_port":27046,"stv_name":"Uncletopia | Atlanta | 4 | No Payload | STV","players":null},{"server_id":2,"name":"Uncletopia | Chicago | 1 | All Maps","name_short":"chi-1","host":"chi-1.us.uncletopia.com","port":27015,"enabled":true,"region":"us-central","cc":"us","latitude":41.881832,"longitude":-87.62318,"reserved":0,"last_update":"0001-01-01T00:00:00Z","name_a2s":"Uncletopia | Chicago | 1 | All Maps","protocol":17,"map":"pl_barnblitz","folder":"tf","game":"Team Fortress","app_id":440,"player_count":23,"max_players":24,"Bots":0,"server_type":"Dedicated","server_os":"Linux","password":true,"vac":true,"version":"7695204","steam_id":85568392924469984,"keywords":["nocrits","nodmgspread","payload","uncletopia"],"game_id":440,"stv_port":27016,"stv_name":"Uncletopia | Chicago | 1 | All Maps | STV","players":[{"user_id":845,"name":"DSM-IVCE","steam_id":76561199438515797,"connected_time":1766000000000,"state":"active","ping":117},{"user_id":867,"name":"Cleric","steam_id":76561198045887994,"connected_time":290000000000,"state":"active","ping":47},{"user_id":864,"name":"Foul Beast","steam_id":76561198829717392,"connected_time":710000000000,"state":"active","ping":65},{"user_id":836,"name":"Fanatical Goose","steam_id":76561198872850950,"connected_time":2525000000000,"state":"active","ping":109},{"user_id":868,"name":"I taunt after every kill","steam_id":76561198799288733,"connected_time":262000000000,"state":"active","ping":83},{"user_id":837,"name":"Miner2495","steam_id":76561198445904523,"connected_time":2347000000000,"state":"active","ping":59},{"user_id":869,"name":"NecroHash","steam_id":76561198158007618,"connected_time":201000000000,"state":"active","ping":74},{"user_id":851,"name":"badass skeleten","steam_id":76561198198460711,"connected_time":1513000000000,"state":"active","ping":48},{"user_id":853,"name":"Whyamidoingthisaaaa","steam_id":76561199168837342,"connected_time":1236000000000,"state":"active","ping":73},{"user_id":866,"name":"Anxiety","steam_id":76561198365627687,"connected_time":531000000000,"state":"active","ping":138},{"user_id":852,"name":"DuckKey","steam_id":76561198904477889,"connected_time":1487000000000,"state":"active","ping":60},{"user_id":854,"name":"Axelonemillion15","steam_id":76561198421342282,"connected_time":1144000000000,"state":"active","ping":120},{"user_id":855,"name":"holy whiskers lets go sisters","steam_id":76561198100160865,"connected_time":1098000000000,"state":"active","ping":59},{"user_id":856,"name":"Underscore","steam_id":76561198374209415,"connected_time":1031000000000,"state":"active","ping":59},{"user_id":872,"name":"Do Moose go Moo?","steam_id":76561198073550620,"connected_time":21000000000,"state":"active","ping":47},{"user_id":871,"name":"Non-Union Mexican Equivalent","steam_id":76561198013399809,"connected_time":123000000000,"state":"active","ping":97},{"user_id":861,"name":"veemo moment 2","steam_id":76561198003467221,"connected_time":767000000000,"state":"active","ping":47},{"user_id":774,"name":"√íw√ì","steam_id":76561197997304387,"connected_time":8188000000000,"state":"active","ping":78},{"user_id":873,"name":"scientist","steam_id":76561198043909391,"connected_time":12000000000,"state":"spawning","ping":71},{"user_id":874,"name":"FAZE BIG FARMA #FAZEUP","steam_id":76561198066120235,"connected_time":7000000000,"state":"spawning","ping":85},{"user_id":875,"name":"invite 4v4","steam_id":76561198143820214,"connected_time":6000000000,"state":"spawning","ping":62},{"user_id":876,"name":"anna","steam_id":76561197994492154,"connected_time":4000000000,"state":"spawning","ping":175},{"user_id":877,"name":"Gigabars","steam_id":76561198119267479,"connected_time":1000000000,"state":"spawning","ping":37}]},{"server_id":106,"name":"Uncletopia | Chicago | 2 | All Maps","name_short":"chi-2","host":"chi-1.us.uncletopia.com","port":27025,"enabled":true,"region":"us-central","cc":"us","latitude":41.881832,"longitude":-87.62318,"reserved":0,"last_update":"0001-01-01T00:00:00Z","name_a2s":"Uncletopia | Chicago | 2 | All Maps","protocol":17,"map":"pl_goldrush","folder":"tf","game":"Team Fortress","app_id":440,"player_count":18,"max_players":24,"Bots":0,"server_type":"Dedicated","server_os":"Linux","password":true,"vac":true,"version":"7695204","steam_id":85568392924469985,"keywords":["nocrits","nodmgspread","payload","uncletopia"],"game_id":440,"stv_port":27026,"stv_name":"Uncletopia | Chicago | 2 | All Maps | STV","players":[{"user_id":612,"name":"PootisLife","steam_id":76561198074400568,"connected_time":4533000000000,"state":"active","ping":90},{"user_id":613,"name":"2008 wifi router","steam_id":76561198983838790,"connected_time":4456000000000,"state":"active","ping":84},{"user_id":655,"name":"Rein","steam_id":76561198300340427,"connected_time":766000000000,"state":"active","ping":61},{"user_id":653,"name":"Azrazel","steam_id":76561198821691005,"connected_time":1168000000000,"state":"active","ping":65},{"user_id":632,"name":"Nobody","steam_id":76561198160544586,"connected_time":3416000000000,"state":"active","ping":58},{"user_id":629,"name":"Lewis Gunn","steam_id":76561198095338274,"connected_time":3832000000000,"state":"active","ping":51},{"user_id":617,"name":"Sharmat","steam_id":76561198103492042,"connected_time":4309000000000,"state":"active","ping":62},{"user_id":605,"name":"Fisherman","steam_id":76561198071026825,"connected_time":5376000000000,"state":"active","ping":60},{"user_id":618,"name":"CodeZero","steam_id":76561198135272294,"connected_time":4285000000000,"state":"active","ping":50},{"user_id":657,"name":"psy","steam_id":76561198013195018,"connected_time":388000000000,"state":"active","ping":82},{"user_id":621,"name":"Zogu","steam_id":76561198050292051,"connected_time":4169000000000,"state":"active","ping":138},{"user_id":608,"name":"Your Pal, Vegeta","steam_id":76561198064916816,"connected_time":5125000000000,"state":"active","ping":96},{"user_id":654,"name":"HobHob","steam_id":76561198145646314,"connected_time":941000000000,"state":"active","ping":82},{"user_id":624,"name":"Satori Komeiji","steam_id":76561198158211423,"connected_time":4076000000000,"state":"active","ping":98},{"user_id":642,"name":"pukey","steam_id":76561198125961489,"connected_time":2367000000000,"state":"active","ping":67},{"user_id":647,"name":"scorn","steam_id":76561197966261919,"connected_time":1784000000000,"state":"active","ping":74},{"user_id":652,"name":"Censure","steam_id":76561198850891374,"connected_time":1378000000000,"state":"active","ping":64},{"user_id":656,"name":"Bingus","steam_id":76561198144791538,"connected_time":694000000000,"state":"active","ping":70}]},{"server_id":402,"name":"Uncletopia | Chicago | 3 | All Maps","name_short":"chi-3","host":"chi-1.us.uncletopia.com","port":27035,"enabled":true,"region":"us-central","cc":"us","latitude":41.881832,"longitude":-87.62318,"reserved":0,"last_update":"0001-01-01T00:00:00Z","name_a2s":"Uncletopia | Chicago | 3 | All Maps","protocol":17,"map":"cp_egypt_final","folder":"tf","game":"Team Fortress","app_id":440,"player_count":22,"max_players":24,"Bots":0,"server_type":"Dedicated","server_os":"Linux","password":true,"vac":true,"version":"7695204","steam_id":85568392924515191,"keywords":["cp","nocrits","nodmgspread","uncletopia"],"game_id":440,"stv_port":27036,"stv_name":"Uncletopia | Chicago | 3 | All Maps | STV","players":[{"user_id":678,"name":"Godzylian","steam_id":76561198084832040,"connected_time":1502000000000,"state":"active","ping":97},{"user_id":680,"name":"Trackwolf","steam_id":76561198077576503,"connected_time":1315000000000,"state":"active","ping":91},{"user_id":684,"name":"TheMadDoctor","steam_id":76561198846198407,"connected_time":747000000000,"state":"active","ping":79},{"user_id":681,"name":"cosmet","steam_id":76561198114899953,"connected_time":1240000000000,"state":"active","ping":60},{"user_id":667,"name":"Maxxycat","steam_id":76561198194062681,"connected_time":1976000000000,"state":"active","ping":47},{"user_id":664,"name":"Den_Doofed","steam_id":76561198064418407,"connected_time":2097000000000,"state":"active","ping":174},{"user_id":690,"name":"Mad Elias","steam_id":76561198045869183,"connected_time":62000000000,"state":"active","ping":65},{"user_id":608,"name":"Blaze2.0","steam_id":76561199098688888,"connected_time":6552000000000,"state":"active","ping":106},{"user_id":691,"name":"macaroni zamboni","steam_id":76561198127149121,"connected_time":44000000000,"state":"active","ping":75},{"user_id":692,"name":"Papa Squat","steam_id":76561198045011208,"connected_time":16000000000,"state":"active","ping":66},{"user_id":666,"name":"FluffiestTail (She/Her)","steam_id":76561198061209061,"connected_time":1990000000000,"state":"active","ping":96},{"user_id":668,"name":"Don william","steam_id":76561199066025998,"connected_time":1835000000000,"state":"active","ping":120},{"user_id":672,"name":"hommmbre","steam_id":76561199136512169,"connected_time":1774000000000,"state":"active","ping":116},{"user_id":653,"name":"discord boyfriend/moderator","steam_id":76561198045926594,"connected_time":3663000000000,"state":"active","ping":105},{"user_id":671,"name":"Aristotle Voulton","steam_id":76561198100174923,"connected_time":1781000000000,"state":"active","ping":133},{"user_id":640,"name":"Marc Antony","steam_id":76561198011366517,"connected_time":4234000000000,"state":"active","ping":55},{"user_id":673,"name":"s","steam_id":76561198026534525,"connected_time":1760000000000,"state":"active","ping":53},{"user_id":688,"name":"plutonium isotope","steam_id":76561198319442494,"connected_time":651000000000,"state":"active","ping":101},{"user_id":674,"name":"Spike","steam_id":76561198141356571,"connected_time":1751000000000,"state":"active","ping":52},{"user_id":675,"name":"Glass Joe","steam_id":76561198317365741,"connected_time":1702000000000,"state":"active","ping":62},{"user_id":677,"name":"Congolese Crusader","steam_id":76561198063850199,"connected_time":1689000000000,"state":"active","ping":74},{"user_id":649,"name":"snow worm","steam_id":76561198328256922,"connected_time":3806000000000,"state":"active","ping":47}]},{"server_id":403,"name":"Uncletopia | Chicago | 4 | All Maps","name_short":"chi-4","host":"chi-1.us.uncletopia.com","port":27045,"enabled":true,"region":"us-central","cc":"us","latitude":41.881832,"longitude":-87.62318,"reserved":0,"last_update":"0001-01-01T00:00:00Z","name_a2s":"Uncletopia | Chicago | 4 | All Maps","protocol":17,"map":"pl_borneo","folder":"tf","game":"Team Fortress","app_id":440,"player_count":20,"max_players":24,"Bots":0,"server_type":"Dedicated","server_os":"Linux","password":true,"vac":true,"version":"7695204","steam_id":85568392924515193,"keywords":["nocrits","nodmgspread","payload","uncletopia"],"game_id":440,"stv_port":27046,"stv_name":"Uncletopia | Chicago | 4 | All Maps | STV","players":[{"user_id":792,"name":"Transbian mommy GF","steam_id":76561198153233822,"connected_time":2333000000000,"state":"active","ping":45},{"user_id":808,"name":"Cap","steam_id":76561198082157639,"connected_time":777000000000,"state":"active","ping":97},{"user_id":769,"name":"dumbass","steam_id":76561198410957728,"connected_time":3799000000000,"state":"active","ping":42},{"user_id":770,"name":"god's sleepiest puppygirl","steam_id":76561198128164970,"connected_time":3793000000000,"state":"active","ping":118},{"user_id":812,"name":"Chadkasa","steam_id":76561198084319765,"connected_time":644000000000,"state":"active","ping":91},{"user_id":568,"name":"Wug","steam_id":76561198084112264,"connected_time":13862000000000,"state":"active","ping":75},{"user_id":822,"name":"FishingJamboree2006 Champion","steam_id":76561198799306381,"connected_time":103000000000,"state":"active","ping":62},{"user_id":824,"name":"¬°ayudame!","steam_id":76561198071421094,"connected_time":78000000000,"state":"active","ping":95},{"user_id":809,"name":"Tech","steam_id":76561198177869755,"connected_time":775000000000,"state":"active","ping":54},{"user_id":810,"name":"John Cowboy","steam_id":76561198119161228,"connected_time":769000000000,"state":"active","ping":119},{"user_id":815,"name":"Aidn","steam_id":76561198225901372,"connected_time":551000000000,"state":"active","ping":70},{"user_id":818,"name":"MFB","steam_id":76561198170923095,"connected_time":348000000000,"state":"active","ping":70},{"user_id":817,"name":"Slash","steam_id":76561198155200922,"connected_time":494000000000,"state":"active","ping":58},{"user_id":761,"name":"thegreatnate","steam_id":76561198034670141,"connected_time":4346000000000,"state":"active","ping":51},{"user_id":814,"name":"lambmyth","steam_id":76561199215261209,"connected_time":630000000000,"state":"active","ping":78},{"user_id":602,"name":"Sir William Gaming","steam_id":76561198037676472,"connected_time":10928000000000,"state":"active","ping":163},{"user_id":820,"name":"quacked!","steam_id":76561198970819395,"connected_time":325000000000,"state":"active","ping":82},{"user_id":805,"name":"SpiderString","steam_id":76561198092409181,"connected_time":1564000000000,"state":"active","ping":106},{"user_id":797,"name":"Sir Galahad","steam_id":76561198195999859,"connected_time":2062000000000,"state":"active","ping":90},{"user_id":821,"name":"Liquid Metal Slime from DQ9","steam_id":76561198061621275,"connected_time":294000000000,"state":"active","ping":65}]},{"server_id":36,"name":"Uncletopia | Chicago | 5 | All Maps","name_short":"chi-5","host":"chi-2.us.uncletopia.com","port":27015,"enabled":true,"region":"us-central","cc":"us","latitude":41.881832,"longitude":-87.62318,"reserved":0,"last_update":"0001-01-01T00:00:00Z","name_a2s":"Uncletopia | Chicago | 5 | All Maps","protocol":17,"map":"pl_upward","folder":"tf","game":"Team Fortress","app_id":440,"player_count":24,"max_players":24,"Bots":0,"server_type":"Dedicated","server_os":"Linux","password":true,"vac":true,"version":"7695204","steam_id":85568392924866362,"keywords":["nocrits","nodmgspread","payload","uncletopia"],"game_id":440,"stv_port":27016,"stv_name":"Uncletopia | Chicago | 5 | All Maps | STV","players":[{"user_id":543,"name":"Don Trovolta","steam_id":76561198080492811,"connected_time":1007000000000,"state":"active","ping":108},{"user_id":538,"name":"NeoN‚Ñ¢","steam_id":76561198117608366,"connected_time":1333000000000,"state":"active","ping":45},{"user_id":398,"name":"wile","steam_id":76561198125261443,"connected_time":11876000000000,"state":"active","ping":100},{"user_id":557,"name":"Zoembie","steam_id":76561198108007509,"connected_time":196000000000,"state":"active","ping":74},{"user_id":517,"name":"Aviyarn","steam_id":76561199074194652,"connected_time":3222000000000,"state":"active","ping":67},{"user_id":550,"name":"Braul","steam_id":76561198067738196,"connected_time":555000000000,"state":"active","ping":162},{"user_id":546,"name":"Knives(ÊÇ™È≠î)","steam_id":76561198170169835,"connected_time":826000000000,"state":"active","ping":64},{"user_id":521,"name":"Kokoraji","steam_id":76561198153934429,"connected_time":2673000000000,"state":"active","ping":75},{"user_id":558,"name":"Sodomy","steam_id":76561198987327817,"connected_time":156000000000,"state":"active","ping":89},{"user_id":547,"name":"Charm #SaveTF2","steam_id":76561198120543277,"connected_time":804000000000,"state":"active","ping":92},{"user_id":551,"name":"llets throw","steam_id":76561198126358045,"connected_time":503000000000,"state":"active","ping":75},{"user_id":496,"name":"Fermenting Kiwi","steam_id":76561198253303497,"connected_time":5514000000000,"state":"active","ping":75},{"user_id":555,"name":"Fl4mingo","steam_id":76561198025601344,"connected_time":338000000000,"state":"active","ping":59},{"user_id":511,"name":"Sunmist","steam_id":76561198027784824,"connected_time":4267000000000,"state":"active","ping":85},{"user_id":524,"name":"Psychogen","steam_id":76561198338891277,"connected_time":2466000000000,"state":"active","ping":88},{"user_id":322,"name":"watterson :3","steam_id":76561198035536955,"connected_time":17877000000000,"state":"active","ping":73},{"user_id":541,"name":"LuciD","steam_id":76561198242842394,"connected_time":1264000000000,"state":"active","ping":98},{"user_id":504,"name":"calo","steam_id":76561198078373457,"connected_time":5137000000000,"state":"active","ping":90},{"user_id":553,"name":"agb 4FUN","steam_id":76561198094512992,"connected_time":462000000000,"state":"active","ping":45},{"user_id":556,"name":"defcon","steam_id":76561198100656328,"connected_time":337000000000,"state":"active","ping":79},{"user_id":532,"name":"ultralisk52","steam_id":76561198051666604,"connected_time":2207000000000,"state":"active","ping":69},{"user_id":559,"name":"Hanma","steam_id":76561199231206707,"connected_time":126000000000,"state":"active","ping":276},{"user_id":470,"name":"eerie p","steam_id":76561198044268201,"connected_time":7600000000000,"state":"active","ping":59},{"user_id":493,"name":"OldManHenderson1976","steam_id":76561198148713751,"connected_time":5828000000000,"state":"active","ping":90}]},{"server_id":37,"name":"Uncletopia | Chicago | 6 | All Maps","name_short":"chi-6","host":"chi-2.us.uncletopia.com","port":27025,"enabled":true,"region":"us-central","cc":"us","latitude":41.881832,"longitude":-87.62318,"reserved":0,"last_update":"0001-01-01T00:00:00Z","name_a2s":"Uncletopia | Chicago | 6 | All Maps","protocol":17,"map":"cp_snakewater_final1","folder":"tf","game":"Team Fortress","app_id":440,"player_count":12,"max_players":24,"Bots":0,"server_type":"Dedicated","server_os":"Linux","password":true,"vac":true,"version":"7695204","steam_id":85568392924866363,"keywords":["cp","nocrits","nodmgspread","uncletopia"],"game_id":440,"stv_port":27026,"stv_name":"Uncletopia | Chicago | 6 | All Maps | STV","players":[{"user_id":372,"name":"LoptousSmoothie","steam_id":76561198336419783,"connected_time":2804000000000,"state":"active","ping":76},{"user_id":387,"name":"Plain Toast","steam_id":76561198451580251,"connected_time":1619000000000,"state":"active","ping":67},{"user_id":370,"name":"Grease monkey","steam_id":76561199229169396,"connected_time":3795000000000,"state":"active","ping":51},{"user_id":375,"name":"boog2","steam_id":76561198146234744,"connected_time":2392000000000,"state":"active","ping":67},{"user_id":376,"name":"ed allan pwner","steam_id":76561198147746558,"connected_time":2391000000000,"state":"active","ping":45},{"user_id":377,"name":"mid","steam_id":76561198072996397,"connected_time":2386000000000,"state":"active","ping":47},{"user_id":366,"name":"KingTinkerer","steam_id":76561198226856548,"connected_time":4165000000000,"state":"active","ping":71},{"user_id":338,"name":"QuarterAnnualLiposuction #SvTF2","steam_id":76561198119886429,"connected_time":5428000000000,"state":"active","ping":76},{"user_id":380,"name":"-_-","steam_id":76561197998911283,"connected_time":2326000000000,"state":"active","ping":59},{"user_id":359,"name":"That1ac","steam_id":76561199097667737,"connected_time":4532000000000,"state":"active","ping":81},{"user_id":369,"name":"Idkam","steam_id":76561198005221771,"connected_time":4021000000000,"state":"active","ping":68},{"user_id":384,"name":"Psych03","steam_id":76561198061753667,"connected_time":1932000000000,"state":"active","ping":110}]},{"server_id":38,"name":"Uncletopia | Chicago | 7 | No Payload","name_short":"chi-7","host":"chi-2.us.uncletopia.com","port":27035,"enabled":true,"region":"us-central","cc":"us","latitude":41.881832,"longitude":-87.62318,"reserved":0,"last_update":"0001-01-01T00:00:00Z","name_a2s":"Uncletopia | Chicago | 7 | No Payload","protocol":17,"map":"koth_harvest_final","folder":"tf","game":"Team Fortress","app_id":440,"player_count":0,"max_players":24,"Bots":0,"server_type":"Dedicated","server_os":"Linux","password":true,"vac":true,"version":"7695204","steam_id":85568392924866364,"keywords":["cp","nocrits","nodmgspread","uncletopia"],"game_id":440,"stv_port":27036,"stv_name":"Uncletopia | Chicago | 7 | No Payload | STV","players":null},{"server_id":39,"name":"Uncletopia | Chicago | 8 | Community","name_short":"chi-8","host":"chi-2.us.uncletopia.com","port":27045,"enabled":true,"region":"us-central","cc":"us","latitude":41.881832,"longitude":-87.62318,"reserved":0,"last_update":"0001-01-01T00:00:00Z","name_a2s":"Uncletopia | Chicago | 8 | Community","protocol":17,"map":"workshop/pl_vigil_rc9.ugc1266210012","folder":"tf","game":"Team Fortress","app_id":440,"player_count":0,"max_players":24,"Bots":0,"server_type":"Dedicated","server_os":"Linux","password":true,"vac":true,"version":"7695204","steam_id":85568392924866365,"keywords":["nocrits","nodmgspread","payload","uncletopia"],"game_id":440,"stv_port":27046,"stv_name":"Uncletopia | Chicago | 8 | Community | STV","players":null},{"server_id":8,"name":"Uncletopia | Dallas | 1 | All Maps","name_short":"dal-1","host":"dal-1.us.uncletopia.com","port":27015,"enabled":true,"region":"us-central","cc":"us","latitude":32.779167,"longitude":-96.80889,"reserved":0,"last_update":"0001-01-01T00:00:00Z","name_a2s":"Uncletopia | Dallas | 1 | All Maps","protocol":17,"map":"pl_pier","folder":"tf","game":"Team Fortress","app_id":440,"player_count":24,"max_players":24,"Bots":0,"server_type":"Dedicated","server_os":"Linux","password":true,"vac":true,"version":"7695204","steam_id":85568392924469986,"keywords":["nocrits","nodmgspread","payload","uncletopia"],"game_id":440,"stv_port":27016,"stv_name":"Uncletopia | Dallas | 1 | All Maps | STV","players":[{"user_id":922,"name":"-=Bits=-Dinkleberg","steam_id":76561198080367616,"connected_time":667000000000,"state":"active","ping":58},{"user_id":918,"name":"The Cloaker","steam_id":76561198155815824,"connected_time":1458000000000,"state":"active","ping":70},{"user_id":915,"name":"Duck","steam_id":76561199236708672,"connected_time":1939000000000,"state":"active","ping":91},{"user_id":904,"name":"the senate","steam_id":76561198353542913,"connected_time":2849000000000,"state":"active","ping":93},{"user_id":870,"name":"DUCKY PUPPET","steam_id":76561198030119710,"connected_time":6982000000000,"state":"active","ping":155},{"user_id":897,"name":"Professor Cuthbert Calculus","steam_id":76561198003257461,"connected_time":4420000000000,"state":"active","ping":96},{"user_id":914,"name":"Seller of Waffles","steam_id":76561198296018138,"connected_time":2143000000000,"state":"active","ping":74},{"user_id":925,"name":"tsunshine","steam_id":76561199245670274,"connected_time":476000000000,"state":"active","ping":92},{"user_id":856,"name":"Gh0stWithPants","steam_id":76561198890651619,"connected_time":8350000000000,"state":"active","ping":80},{"user_id":838,"name":"gallowsCalibrator","steam_id":76561198404707578,"connected_time":10865000000000,"state":"active","ping":73},{"user_id":873,"name":"MARIOPARTYDSFAN","steam_id":76561198872122117,"connected_time":6931000000000,"state":"active","ping":57},{"user_id":891,"name":"jjtheboss314-live-","steam_id":76561199230397190,"connected_time":5208000000000,"state":"active","ping":50},{"user_id":857,"name":"The Krinkler","steam_id":76561198020308956,"connected_time":8303000000000,"state":"active","ping":62},{"user_id":874,"name":"Hamuktakali","steam_id":76561198039625579,"connected_time":6904000000000,"state":"active","ping":60},{"user_id":919,"name":"The Person Mann Gaming","steam_id":76561198293857963,"connected_time":1142000000000,"state":"active","ping":99},{"user_id":927,"name":"raya","steam_id":76561198051504581,"connected_time":6000000000,"state":"spawning","ping":51},{"user_id":899,"name":"Alset","steam_id":76561197993820174,"connected_time":3880000000000,"state":"active","ping":53},{"user_id":924,"name":"Gatling pea","steam_id":76561199202556158,"connected_time":505000000000,"state":"active","ping":76},{"user_id":926,"name":"Veridian","steam_id":76561198096334078,"connected_time":321000000000,"state":"active","ping":81},{"user_id":889,"name":"Soju","steam_id":76561198044130442,"connected_time":5299000000000,"state":"active","ping":48},{"user_id":921,"name":"primordialheath","steam_id":76561199386942638,"connected_time":954000000000,"state":"active","ping":93},{"user_id":913,"name":"Waltuh Whitte","steam_id":76561198372798868,"connected_time":2419000000000,"state":"active","ping":124},{"user_id":900,"name":"Anderswo","steam_id":76561198253224241,"connected_time":3880000000000,"state":"active","ping":94},{"user_id":822,"name":"Francis Gaming","steam_id":76561198295173122,"connected_time":11714000000000,"state":"active","ping":133}]},{"server_id":108,"name":"Uncletopia | Dallas | 2 | All Maps","name_short":"dal-2","host":"dal-1.us.uncletopia.com","port":27025,"enabled":true,"region":"us-central","cc":"us","latitude":32.779167,"longitude":-96.80889,"reserved":0,"last_update":"0001-01-01T00:00:00Z","name_a2s":"Uncletopia | Dallas | 2 | All Maps","protocol":17,"map":"cp_steel","folder":"tf","game":"Team Fortress","app_id":440,"player_count":23,"max_players":24,"Bots":0,"server_type":"Dedicated","server_os":"Linux","password":true,"vac":true,"version":"7695204","steam_id":85568392924469988,"keywords":["cp","nocrits","nodmgspread","uncletopia"],"game_id":440,"stv_port":27026,"stv_name":"Uncletopia | Dallas | 2 | All Maps | STV","players":[{"user_id":644,"name":"Strength!!","steam_id":76561198001241984,"connected_time":2080000000000,"state":"active","ping":106},{"user_id":626,"name":"Rampaging_Sheep","steam_id":76561198094927309,"connected_time":4294000000000,"state":"active","ping":82},{"user_id":624,"name":"amadeus","steam_id":76561198094855305,"connected_time":4303000000000,"state":"active","ping":85},{"user_id":642,"name":"Aaah....Refreshing water!","steam_id":76561198035698704,"connected_time":2490000000000,"state":"active","ping":95},{"user_id":661,"name":"IzayoiSakuya","steam_id":76561198015441782,"connected_time":158000000000,"state":"active","ping":99},{"user_id":660,"name":"Lore","steam_id":76561198098407538,"connected_time":199000000000,"state":"active","ping":76},{"user_id":656,"name":"Nonmoth","steam_id":76561198814181263,"connected_time":735000000000,"state":"active","ping":71},{"user_id":662,"name":"_Pai","steam_id":76561198108196753,"connected_time":141000000000,"state":"active","ping":75},{"user_id":663,"name":"Libra","steam_id":76561198065563533,"connected_time":114000000000,"state":"active","ping":47},{"user_id":648,"name":"Stressmelo","steam_id":76561199204445185,"connected_time":1384000000000,"state":"active","ping":90},{"user_id":618,"name":"Gold Ghost","steam_id":76561199005805984,"connected_time":4538000000000,"state":"active","ping":44},{"user_id":664,"name":"oldestman","steam_id":76561199108815470,"connected_time":67000000000,"state":"active","ping":41},{"user_id":640,"name":"The Caretaker","steam_id":76561198125241411,"connected_time":2588000000000,"state":"active","ping":87},{"user_id":643,"name":"the stallion","steam_id":76561198212242403,"connected_time":2333000000000,"state":"active","ping":105},{"user_id":658,"name":"VIRGINIA!!","steam_id":76561198036066855,"connected_time":696000000000,"state":"active","ping":91},{"user_id":538,"name":"Frank (beer 6)","steam_id":76561198126681511,"connected_time":14147000000000,"state":"active","ping":97},{"user_id":659,"name":"Soap","steam_id":76561198074619142,"connected_time":219000000000,"state":"active","ping":79},{"user_id":647,"name":"airbudenjoyer2012","steam_id":76561198150428763,"connected_time":1467000000000,"state":"active","ping":84},{"user_id":635,"name":"quidwad","steam_id":76561198041032599,"connected_time":3077000000000,"state":"active","ping":123},{"user_id":567,"name":"üëÅ sumixodic","steam_id":76561198090770710,"connected_time":11148000000000,"state":"active","ping":222},{"user_id":615,"name":"schizoplays","steam_id":76561199043827112,"connected_time":5634000000000,"state":"active","ping":83},{"user_id":637,"name":"brappy","steam_id":76561198024958319,"connected_time":2886000000000,"state":"active","ping":82},{"user_id":639,"name":"SN0W","steam_id":76561198153665468,"connected_time":2815000000000,"state":"active","ping":56}]},{"server_id":5,"name":"Uncletopia | Frankfurt | 1 | All Maps","name_short":"frk-1","host":"frk-1.de.uncletopia.com","port":27015,"enabled":true,"region":"eu","cc":"de","latitude":50.110924,"longitude":8.682127,"reserved":0,"last_update":"0001-01-01T00:00:00Z","name_a2s":"Uncletopia | Frankfurt | 1 | All Maps","protocol":17,"map":"koth_viaduct","folder":"tf","game":"Team Fortress","app_id":440,"player_count":0,"max_players":24,"Bots":0,"server_type":"Dedicated","server_os":"Linux","password":true,"vac":true,"version":"7695204","steam_id":85568392924469989,"keywords":["cp","nocrits","nodmgspread","uncletopia"],"game_id":440,"stv_port":0,"stv_name":"","players":null},{"server_id":110,"name":"Uncletopia | Frankfurt | 2 | All Maps","name_short":"frk-2","host":"frk-1.de.uncletopia.com","port":27025,"enabled":true,"region":"eu","cc":"de","latitude":50.110924,"longitude":8.682127,"reserved":0,"last_update":"0001-01-01T00:00:00Z","name_a2s":"Uncletopia | Frankfurt | 2 | All Maps","protocol":17,"map":"cp_altitude","folder":"tf","game":"Team Fortress","app_id":440,"player_count":0,"max_players":24,"Bots":0,"server_type":"Dedicated","server_os":"Linux","password":true,"vac":true,"version":"7695204","steam_id":85568392924469990,"keywords":["cp","nocrits","nodmgspread","uncletopia"],"game_id":440,"stv_port":0,"stv_name":"","players":null},{"server_id":308,"name":"Uncletopia | Frankfurt | 3 | All Maps","name_short":"frk-3","host":"frk-1.de.uncletopia.com","port":27035,"enabled":true,"region":"eu","cc":"de","latitude":50.110924,"longitude":8.682127,"reserved":0,"last_update":"0001-01-01T00:00:00Z","name_a2s":"Uncletopia | Frankfurt | 3 | All Maps","protocol":17,"map":"pl_badwater","folder":"tf","game":"Team Fortress","app_id":440,"player_count":0,"max_players":24,"Bots":0,"server_type":"Dedicated","server_os":"Linux","password":true,"vac":true,"version":"7695204","steam_id":85568392924504274,"keywords":["nocrits","nodmgspread","payload","uncletopia"],"game_id":440,"stv_port":0,"stv_name":"","players":null},{"server_id":309,"name":"Uncletopia | Frankfurt | 4 | All Maps","name_short":"frk-4","host":"frk-1.de.uncletopia.com","port":27045,"enabled":true,"region":"eu","cc":"de","latitude":50.110924,"longitude":8.682127,"reserved":0,"last_update":"0001-01-01T00:00:00Z","name_a2s":"Uncletopia | Frankfurt | 4 | All Maps","protocol":17,"map":"koth_highpass","folder":"tf","game":"Team Fortress","app_id":440,"player_count":0,"max_players":24,"Bots":0,"server_type":"Dedicated","server_os":"Linux","password":true,"vac":true,"version":"7695204","steam_id":85568392924504275,"keywords":["cp","nocrits","nodmgspread","uncletopia"],"game_id":440,"stv_port":0,"stv_name":"","players":null},{"server_id":310,"name":"Uncletopia | Frankfurt | 5 | All Maps","name_short":"frk-5","host":"frk-1.de.uncletopia.com","port":27055,"enabled":true,"region":"eu","cc":"de","latitude":50.110924,"longitude":8.682127,"reserved":0,"last_update":"0001-01-01T00:00:00Z","name_a2s":"Uncletopia | Frankfurt | 5 | All Maps","protocol":17,"map":"pl_pier","folder":"tf","game":"Team Fortress","app_id":440,"player_count":0,"max_players":24,"Bots":0,"server_type":"Dedicated","server_os":"Linux","password":true,"vac":true,"version":"7695204","steam_id":85568392924504277,"keywords":["nocrits","nodmgspread","payload","uncletopia"],"game_id":440,"stv_port":0,"stv_name":"","players":null},{"server_id":311,"name":"Uncletopia | Frankfurt | 6 | All Maps","name_short":"frk-6","host":"frk-1.de.uncletopia.com","port":27065,"enabled":true,"region":"eu","cc":"de","latitude":50.110924,"longitude":8.682127,"reserved":0,"last_update":"0001-01-01T00:00:00Z","name_a2s":"Uncletopia | Frankfurt | 6 | All Maps","protocol":17,"map":"pl_barnblitz","folder":"tf","game":"Team Fortress","app_id":440,"player_count":0,"max_players":24,"Bots":0,"server_type":"Dedicated","server_os":"Linux","password":true,"vac":true,"version":"7695204","steam_id":85568392924504278,"keywords":["nocrits","nodmgspread","payload","uncletopia"],"game_id":440,"stv_port":0,"stv_name":"","players":null},{"server_id":23,"name":"Uncletopia | Frankfurt | 7 | No Payload","name_short":"frk-7","host":"frk-1.de.uncletopia.com","port":27075,"enabled":true,"region":"eu","cc":"de","latitude":50.110924,"longitude":8.682127,"reserved":0,"last_update":"0001-01-01T00:00:00Z","name_a2s":"Uncletopia | Frankfurt | 7 | No Payload","protocol":17,"map":"pl_snowycoast","folder":"tf","game":"Team Fortress","app_id":440,"player_count":0,"max_players":24,"Bots":0,"server_type":"Dedicated","server_os":"Linux","password":true,"vac":true,"version":"7695204","steam_id":85568392924742827,"keywords":["nocrits","nodmgspread","payload","uncletopia"],"game_id":440,"stv_port":0,"stv_name":"","players":null},{"server_id":24,"name":"Uncletopia | Frankfurt | 8 | Community","name_short":"frk-8","host":"frk-1.de.uncletopia.com","port":27085,"enabled":true,"region":"eu","cc":"de","latitude":50.110924,"longitude":8.682127,"reserved":0,"last_update":"0001-01-01T00:00:00Z","name_a2s":"Uncletopia | Frankfurt | 8 | Community","protocol":17,"map":"koth_lakeside_final","folder":"tf","game":"Team Fortress","app_id":440,"player_count":0,"max_players":24,"Bots":0,"server_type":"Dedicated","server_os":"Linux","password":true,"vac":true,"version":"7695204","steam_id":85568392924742828,"keywords":["cp","nocrits","nodmgspread","uncletopia"],"game_id":440,"stv_port":0,"stv_name":"","players":null},{"server_id":202,"name":"Uncletopia | Hong Kong | 1 | All Maps","name_short":"hgk-1","host":"hgk-1.hk.uncletopia.com","port":27015,"enabled":true,"region":"asia","cc":"hk","latitude":22.302711,"longitude":114.177216,"reserved":0,"last_update":"0001-01-01T00:00:00Z","name_a2s":"Uncletopia | Hong Kong | 1 | All Maps","protocol":17,"map":"pl_badwater","folder":"tf","game":"Team Fortress","app_id":440,"player_count":24,"max_players":24,"Bots":0,"server_type":"Dedicated","server_os":"Linux","password":true,"vac":true,"version":"7695204","steam_id":85568392924494504,"keywords":["nocrits","nodmgspread","payload","uncletopia"],"game_id":440,"stv_port":27016,"stv_name":"Uncletopia | Hong Kong | 1 | All Maps | STV","players":[{"user_id":494,"name":"…îu·ó°‡∂û …ü∆®u·íê","steam_id":76561199031283970,"connected_time":723000000000,"state":"active","ping":80},{"user_id":501,"name":"xPhid","steam_id":76561199080808930,"connected_time":409000000000,"state":"active","ping":73},{"user_id":479,"name":"Lym0n","steam_id":76561199192420260,"connected_time":2697000000000,"state":"active","ping":108},{"user_id":360,"name":"big poo (training arc)","steam_id":76561199104552936,"connected_time":5333000000000,"state":"active","ping":79},{"user_id":480,"name":"can we get much higher","steam_id":76561199390507975,"connected_time":2617000000000,"state":"active","ping":48},{"user_id":187,"name":"wumao hunter","steam_id":76561197994194946,"connected_time":10382000000000,"state":"active","ping":103},{"user_id":484,"name":"godhood","steam_id":76561198412329672,"connected_time":1925000000000,"state":"active","ping":94},{"user_id":495,"name":"TechMaster12(F2P) #savetf2","steam_id":76561199244754236,"connected_time":719000000000,"state":"active","ping":98},{"user_id":497,"name":"Lyds","steam_id":76561199005908018,"connected_time":696000000000,"state":"active","ping":86},{"user_id":177,"name":"oppai „Åä„Å£„Å±„ÅÑ","steam_id":76561198008307645,"connected_time":11169000000000,"state":"active","ping":77},{"user_id":275,"name":"ArcticDolphin","steam_id":76561198203626319,"connected_time":7047000000000,"state":"active","ping":122},{"user_id":498,"name":"terrybl","steam_id":76561198055553140,"connected_time":675000000000,"state":"active","ping":83},{"user_id":185,"name":"alan poe","steam_id":76561198230213828,"connected_time":10934000000000,"state":"active","ping":85},{"user_id":493,"name":"Talkk More","steam_id":76561198305424433,"connected_time":1012000000000,"state":"active","ping":103},{"user_id":413,"name":"iced","steam_id":76561198999114004,"connected_time":4242000000000,"state":"active","ping":98},{"user_id":485,"name":"Toygar","steam_id":76561198023679830,"connected_time":1789000000000,"state":"active","ping":45},{"user_id":489,"name":"Javariced","steam_id":76561198069402937,"connected_time":1221000000000,"state":"active","ping":84},{"user_id":491,"name":"FweiD","steam_id":76561198057003021,"connected_time":1151000000000,"state":"active","ping":120},{"user_id":500,"name":"Nimbus","steam_id":76561198877713016,"connected_time":525000000000,"state":"active","ping":106},{"user_id":273,"name":"water tastes good","steam_id":76561199375947670,"connected_time":7058000000000,"state":"active","ping":69},{"user_id":194,"name":"UltraFat","steam_id":76561198253918132,"connected_time":9758000000000,"state":"active","ping":88},{"user_id":499,"name":"Fragiv","steam_id":76561198152364869,"connected_time":673000000000,"state":"active","ping":90},{"user_id":436,"name":"AmieAmour","steam_id":76561198956469036,"connected_time":3726000000000,"state":"active","ping":87},{"user_id":202,"name":"2232","steam_id":76561198074339034,"connected_time":8667000000000,"state":"active","ping":75}]},{"server_id":1,"name":"Uncletopia | Los Angeles | 1 | All Maps","name_short":"lax-1","host":"lax-1.us.uncletopia.com","port":27015,"enabled":true,"region":"us-west","cc":"us","latitude":33.94279,"longitude":-118.41004,"reserved":0,"last_update":"0001-01-01T00:00:00Z","name_a2s":"Uncletopia | Los Angeles | 1 | All Maps","protocol":17,"map":"cp_sunshine","folder":"tf","game":"Team Fortress","app_id":440,"player_count":18,"max_players":24,"Bots":0,"server_type":"Dedicated","server_os":"Linux","password":true,"vac":true,"version":"7695204","steam_id":85568392924469991,"keywords":["cp","nocrits","nodmgspread","uncletopia"],"game_id":440,"stv_port":27016,"stv_name":"Uncletopia | Los Angeles | 1 | All Maps | STV","players":[{"user_id":342,"name":"Ellie Goulding","steam_id":76561198035380358,"connected_time":2342000000000,"state":"active","ping":47},{"user_id":346,"name":"c49aa4","steam_id":76561199099537250,"connected_time":1942000000000,"state":"active","ping":50},{"user_id":365,"name":"stone","steam_id":76561198016806468,"connected_time":28000000000,"state":"active","ping":75},{"user_id":352,"name":"Bobby Hawaiian","steam_id":76561198393997521,"connected_time":868000000000,"state":"active","ping":72},{"user_id":334,"name":"Noxus","steam_id":76561199009820852,"connected_time":2765000000000,"state":"active","ping":68},{"user_id":355,"name":"Lord Nug Nug","steam_id":76561198105688657,"connected_time":689000000000,"state":"active","ping":78},{"user_id":363,"name":"Mr. Yoshida","steam_id":76561198263829831,"connected_time":293000000000,"state":"active","ping":67},{"user_id":298,"name":"Humus","steam_id":76561198175286355,"connected_time":6287000000000,"state":"active","ping":46},{"user_id":341,"name":"meet the gangster mario","steam_id":76561198133360797,"connected_time":2433000000000,"state":"active","ping":54},{"user_id":319,"name":"Silverman_Cam","steam_id":76561198936168937,"connected_time":4288000000000,"state":"active","ping":55},{"user_id":302,"name":"Super Mighty G","steam_id":76561198020932806,"connected_time":6199000000000,"state":"active","ping":45},{"user_id":318,"name":"a_10warthog5_56","steam_id":76561199388748730,"connected_time":4420000000000,"state":"active","ping":62},{"user_id":307,"name":"Schnitz","steam_id":76561198265484253,"connected_time":6104000000000,"state":"active","ping":49},{"user_id":340,"name":"JJP","steam_id":76561198032914094,"connected_time":2485000000000,"state":"active","ping":51},{"user_id":270,"name":"Blackcat","steam_id":76561199013406735,"connected_time":9649000000000,"state":"active","ping":56},{"user_id":320,"name":"Yoozer","steam_id":76561198420257694,"connected_time":3860000000000,"state":"active","ping":52},{"user_id":349,"name":"Wso1123","steam_id":76561198048040111,"connected_time":1480000000000,"state":"active","ping":60},{"user_id":308,"name":"its not clear enough","steam_id":76561198858328080,"connected_time":6084000000000,"state":"active","ping":40}]},{"server_id":112,"name":"Uncletopia | Los Angeles | 2 | All Maps","name_short":"lax-2","host":"lax-1.us.uncletopia.com","port":27025,"enabled":true,"region":"us-west","cc":"us","latitude":33.94279,"longitude":-118.41004,"reserved":0,"last_update":"0001-01-01T00:00:00Z","name_a2s":"Uncletopia | Los Angeles | 2 | All Maps","protocol":17,"map":"koth_highpass","folder":"tf","game":"Team Fortress","app_id":440,"player_count":0,"max_players":24,"Bots":0,"server_type":"Dedicated","server_os":"Linux","password":true,"vac":true,"version":"7695204","steam_id":85568392924469992,"keywords":["cp","nocrits","nodmgspread","uncletopia"],"game_id":440,"stv_port":27026,"stv_name":"Uncletopia | Los Angeles | 2 | All Maps | STV","players":null},{"server_id":324,"name":"Uncletopia | Los Angeles | 3 | All Maps","name_short":"lax-3","host":"lax-1.us.uncletopia.com","port":27035,"enabled":true,"region":"us-west","cc":"us","latitude":33.94279,"longitude":-118.41004,"reserved":0,"last_update":"0001-01-01T00:00:00Z","name_a2s":"Uncletopia | Los Angeles | 3 | All Maps","protocol":17,"map":"pl_barnblitz","folder":"tf","game":"Team Fortress","app_id":440,"player_count":4,"max_players":24,"Bots":0,"server_type":"Dedicated","server_os":"Linux","password":true,"vac":true,"version":"7695204","steam_id":85568392924510198,"keywords":["nocrits","nodmgspread","payload","uncletopia"],"game_id":440,"stv_port":27036,"stv_name":"Uncletopia | Los Angeles | 3 | All Maps | STV","players":[{"user_id":318,"name":"dex","steam_id":76561198202575667,"connected_time":591000000000,"state":"active","ping":166},{"user_id":319,"name":"Parauder","steam_id":76561198131593741,"connected_time":575000000000,"state":"active","ping":109},{"user_id":320,"name":"super autism girl","steam_id":76561198008908085,"connected_time":369000000000,"state":"active","ping":34},{"user_id":321,"name":"CrackedSanity","steam_id":76561198279841251,"connected_time":290000000000,"state":"active","ping":43}]},{"server_id":25,"name":"Uncletopia | Los Angeles | 4 | No Payload","name_short":"lax-4","host":"lax-1.us.uncletopia.com","port":27045,"enabled":true,"region":"us-west","cc":"us","latitude":33.94279,"longitude":-118.41004,"reserved":0,"last_update":"0001-01-01T00:00:00Z","name_a2s":"Uncletopia | Los Angeles | 4 | No Payload","protocol":17,"map":"cp_standin_final","folder":"tf","game":"Team Fortress","app_id":440,"player_count":0,"max_players":24,"Bots":0,"server_type":"Dedicated","server_os":"Linux","password":true,"vac":true,"version":"7695204","steam_id":85568392924510199,"keywords":["cp","nocrits","nodmgspread","uncletopia"],"game_id":440,"stv_port":27046,"stv_name":"Uncletopia | Los Angeles | 4 | No Payload | STV","players":null},{"server_id":11,"name":"Uncletopia | London | 1 | All Maps","name_short":"lon-1","host":"lon-1.uk.uncletopia.com","port":27015,"enabled":true,"region":"eu","cc":"gb","latitude":51.509865,"longitude":-0.118092,"reserved":0,"last_update":"0001-01-01T00:00:00Z","name_a2s":"Uncletopia | London | 1 | All Maps","protocol":17,"map":"pl_upward","folder":"tf","game":"Team Fortress","app_id":440,"player_count":0,"max_players":24,"Bots":0,"server_type":"Dedicated","server_os":"Linux","password":true,"vac":true,"version":"7695204","steam_id":85568392924367362,"keywords":["nocrits","nodmgspread","payload","uncletopia"],"game_id":440,"stv_port":0,"stv_name":"","players":null},{"server_id":114,"name":"Uncletopia | London | 2 | All Maps","name_short":"lon-2","host":"lon-1.uk.uncletopia.com","port":27025,"enabled":true,"region":"eu","cc":"gb","latitude":51.509865,"longitude":-0.118092,"reserved":0,"last_update":"0001-01-01T00:00:00Z","name_a2s":"Uncletopia | London | 2 | All Maps","protocol":17,"map":"cp_sunshine","folder":"tf","game":"Team Fortress","app_id":440,"player_count":0,"max_players":24,"Bots":0,"server_type":"Dedicated","server_os":"Linux","password":true,"vac":true,"version":"7695204","steam_id":85568392924470941,"keywords":["cp","nocrits","nodmgspread","uncletopia"],"game_id":440,"stv_port":0,"stv_name":"","players":null},{"server_id":320,"name":"Uncletopia | London | 3 | All Maps","name_short":"lon-3","host":"lon-1.uk.uncletopia.com","port":27035,"enabled":true,"region":"eu","cc":"gb","latitude":51.509865,"longitude":-0.118092,"reserved":0,"last_update":"0001-01-01T00:00:00Z","name_a2s":"Uncletopia | London | 3 | All Maps","protocol":17,"map":"cp_dustbowl","folder":"tf","game":"Team Fortress","app_id":440,"player_count":24,"max_players":24,"Bots":0,"server_type":"Dedicated","server_os":"Linux","password":true,"vac":true,"version":"7695204","steam_id":85568392924510192,"keywords":["cp","nocrits","nodmgspread","uncletopia"],"game_id":440,"stv_port":27036,"stv_name":"Uncletopia | London | 3 | All Maps | STV","players":[{"user_id":76,"name":"Flint","steam_id":76561197995920776,"connected_time":165000000000,"state":"active","ping":45},{"user_id":8,"name":"gunscout","steam_id":76561198531978435,"connected_time":5308000000000,"state":"active","ping":52},{"user_id":45,"name":"Jeg (the guy that ubers scouts)","steam_id":76561198405291408,"connected_time":2832000000000,"state":"active","ping":70},{"user_id":5,"name":"[kot.bob]","steam_id":76561198990993971,"connected_time":5316000000000,"state":"active","ping":128},{"user_id":6,"name":"Mengle","steam_id":76561198001953684,"connected_time":5314000000000,"state":"active","ping":127},{"user_id":71,"name":"CamieYT","steam_id":76561198124114740,"connected_time":535000000000,"state":"active","ping":51},{"user_id":77,"name":"BarrackOmaha","steam_id":76561198027922724,"connected_time":151000000000,"state":"active","ping":72},{"user_id":39,"name":"Glocket","steam_id":76561198068460684,"connected_time":3837000000000,"state":"active","ping":67},{"user_id":52,"name":"rat performance","steam_id":76561198065854668,"connected_time":2232000000000,"state":"active","ping":39},{"user_id":54,"name":"Fred","steam_id":76561198107137362,"connected_time":1786000000000,"state":"active","ping":49},{"user_id":49,"name":"dartush","steam_id":76561198067506270,"connected_time":2573000000000,"state":"active","ping":78},{"user_id":68,"name":"Mankor","steam_id":76561198020439322,"connected_time":802000000000,"state":"active","ping":59},{"user_id":50,"name":"ciliorkun18","steam_id":76561198228942500,"connected_time":2568000000000,"state":"active","ping":90},{"user_id":72,"name":"E1s","steam_id":76561198894958917,"connected_time":525000000000,"state":"active","ping":52},{"user_id":51,"name":"Spageti","steam_id":76561198074122906,"connected_time":2493000000000,"state":"active","ping":83},{"user_id":78,"name":"Marxman","steam_id":76561198856249022,"connected_time":121000000000,"state":"active","ping":165},{"user_id":58,"name":"Hussain_144","steam_id":76561198346029208,"connected_time":1291000000000,"state":"active","ping":174},{"user_id":61,"name":"Economic crisis","steam_id":76561198063562843,"connected_time":1170000000000,"state":"active","ping":60},{"user_id":60,"name":"whimsmas.","steam_id":76561198878171763,"connected_time":1274000000000,"state":"active","ping":46},{"user_id":62,"name":"0","steam_id":76561198164588638,"connected_time":1136000000000,"state":"active","ping":75},{"user_id":79,"name":"Mr. Pickles #SaveTF2","steam_id":76561199210183560,"connected_time":39000000000,"state":"active","ping":122},{"user_id":80,"name":"Pardon","steam_id":76561198339157326,"connected_time":23000000000,"state":"spawning","ping":115},{"user_id":73,"name":"wordrc","steam_id":76561198418788895,"connected_time":509000000000,"state":"active","ping":74},{"user_id":74,"name":"Rachugh","steam_id":76561199235852578,"connected_time":435000000000,"state":"active","ping":168}]},{"server_id":321,"name":"Uncletopia | London | 4 | All Maps","name_short":"lon-4","host":"lon-1.uk.uncletopia.com","port":27045,"enabled":true,"region":"eu","cc":"gb","latitude":51.509865,"longitude":-0.118092,"reserved":0,"last_update":"0001-01-01T00:00:00Z","name_a2s":"Uncletopia | London | 4 | All Maps","protocol":17,"map":"koth_viaduct","folder":"tf","game":"Team Fortress","app_id":440,"player_count":0,"max_players":24,"Bots":0,"server_type":"Dedicated","server_os":"Linux","password":true,"vac":true,"version":"7695204","steam_id":85568392924510193,"keywords":["cp","nocrits","nodmgspread","uncletopia"],"game_id":440,"stv_port":0,"stv_name":"","players":null},{"server_id":21,"name":"Uncletopia | London | 5 | All Maps","name_short":"lon-5","host":"lon-1.uk.uncletopia.com","port":27055,"enabled":true,"region":"eu","cc":"gb","latitude":51.509865,"longitude":-0.118092,"reserved":0,"last_update":"0001-01-01T00:00:00Z","name_a2s":"Uncletopia | London | 5 | All Maps","protocol":17,"map":"koth_cascade","folder":"tf","game":"Team Fortress","app_id":440,"player_count":0,"max_players":24,"Bots":0,"server_type":"Dedicated","server_os":"Linux","password":true,"vac":true,"version":"7695204","steam_id":85568392924742829,"keywords":["cp","nocrits","nodmgspread","uncletopia"],"game_id":440,"stv_port":0,"stv_name":"","players":null},{"server_id":22,"name":"Uncletopia | London | 6 | All Maps","name_short":"lon-6","host":"lon-1.uk.uncletopia.com","port":27065,"enabled":true,"region":"eu","cc":"gb","latitude":51.509865,"longitude":-0.118092,"reserved":0,"last_update":"0001-01-01T00:00:00Z","name_a2s":"Uncletopia | London | 6 | All Maps","protocol":17,"map":"pl_pier","folder":"tf","game":"Team Fortress","app_id":440,"player_count":0,"max_players":24,"Bots":0,"server_type":"Dedicated","server_os":"Linux","password":true,"vac":true,"version":"7695204","steam_id":85568392924742830,"keywords":["nocrits","nodmgspread","payload","uncletopia"],"game_id":440,"stv_port":0,"stv_name":"","players":null},{"server_id":40,"name":"Uncletopia | London | 7 | No Payload","name_short":"lon-7","host":"lon-1.uk.uncletopia.com","port":27075,"enabled":true,"region":"eu","cc":"gb","latitude":51.509865,"longitude":-0.118092,"reserved":0,"last_update":"0001-01-01T00:00:00Z","name_a2s":"Uncletopia | London | 7 | No Payload","protocol":17,"map":"cp_snakewater_final1","folder":"tf","game":"Team Fortress","app_id":440,"player_count":0,"max_players":24,"Bots":0,"server_type":"Dedicated","server_os":"Linux","password":true,"vac":true,"version":"7695204","steam_id":85568392924964314,"keywords":["cp","nocrits","nodmgspread","uncletopia"],"game_id":440,"stv_port":0,"stv_name":"","players":null},{"server_id":41,"name":"Uncletopia | London | 8 | Community","name_short":"lon-8","host":"lon-1.uk.uncletopia.com","port":27085,"enabled":true,"region":"eu","cc":"gb","latitude":51.509865,"longitude":-0.118092,"reserved":0,"last_update":"0001-01-01T00:00:00Z","name_a2s":"Uncletopia | London | 8 | Community","protocol":17,"map":"cp_dustbowl","folder":"tf","game":"Team Fortress","app_id":440,"player_count":0,"max_players":24,"Bots":0,"server_type":"Dedicated","server_os":"Linux","password":true,"vac":true,"version":"7695204","steam_id":85568392924964315,"keywords":["cp","nocrits","nodmgspread","uncletopia"],"game_id":440,"stv_port":0,"stv_name":"","players":null},{"server_id":300,"name":"Uncletopia | Montr√©al | 1 | All Maps","name_short":"mtl-1","host":"mtl-1.ca.uncletopia.com","port":27015,"enabled":true,"region":"us-east","cc":"ca","latitude":45.50889,"longitude":-73.56167,"reserved":0,"last_update":"0001-01-01T00:00:00Z","name_a2s":"Uncletopia | Montr√©al | 1 | All Maps","protocol":17,"map":"koth_cascade","folder":"tf","game":"Team Fortress","app_id":440,"player_count":0,"max_players":24,"Bots":0,"server_type":"Dedicated","server_os":"Linux","password":true,"vac":true,"version":"7695204","steam_id":85568392924500087,"keywords":["cp","nocrits","nodmgspread","uncletopia"],"game_id":440,"stv_port":27016,"stv_name":"Uncletopia | Montr√©al | 1 | All Maps | STV","players":null},{"server_id":301,"name":"Uncletopia | Montr√©al | 2 | All Maps","name_short":"mtl-2","host":"mtl-1.ca.uncletopia.com","port":27025,"enabled":true,"region":"us-east","cc":"ca","latitude":45.50889,"longitude":-73.56167,"reserved":0,"last_update":"0001-01-01T00:00:00Z","name_a2s":"Uncletopia | Montr√©al | 2 | All Maps","protocol":17,"map":"koth_cascade","folder":"tf","game":"Team Fortress","app_id":440,"player_count":0,"max_players":24,"Bots":0,"server_type":"Dedicated","server_os":"Linux","password":true,"vac":true,"version":"7695204","steam_id":85568392924500088,"keywords":["cp","nocrits","nodmgspread","uncletopia"],"game_id":440,"stv_port":27026,"stv_name":"Uncletopia | Montr√©al | 2 | All Maps | STV","players":null},{"server_id":302,"name":"Uncletopia | Montr√©al | 3 | All Maps","name_short":"mtl-3","host":"mtl-1.ca.uncletopia.com","port":27035,"enabled":true,"region":"us-east","cc":"ca","latitude":45.50889,"longitude":-73.56167,"reserved":0,"last_update":"0001-01-01T00:00:00Z","name_a2s":"Uncletopia | Montr√©al | 3 | All Maps","protocol":17,"map":"koth_viaduct","folder":"tf","game":"Team Fortress","app_id":440,"player_count":0,"max_players":24,"Bots":0,"server_type":"Dedicated","server_os":"Linux","password":true,"vac":true,"version":"7695204","steam_id":85568392924500089,"keywords":["cp","nocrits","nodmgspread","uncletopia"],"game_id":440,"stv_port":0,"stv_name":"","players":null},{"server_id":303,"name":"Uncletopia | Montr√©al | 4 | No Payload","name_short":"mtl-4","host":"mtl-1.ca.uncletopia.com","port":27045,"enabled":true,"region":"us-east","cc":"ca","latitude":45.50889,"longitude":-73.56167,"reserved":0,"last_update":"0001-01-01T00:00:00Z","name_a2s":"Uncletopia | Montr√©al | 4 | No Payload","protocol":17,"map":"koth_king","folder":"tf","game":"Team Fortress","app_id":440,"player_count":0,"max_players":24,"Bots":0,"server_type":"Dedicated","server_os":"Linux","password":true,"vac":true,"version":"7695204","steam_id":85568392924500090,"keywords":["cp","nocrits","nodmgspread","uncletopia"],"game_id":440,"stv_port":27046,"stv_name":"Uncletopia | Montr√©al | 4 | No Payload | STV","players":null},{"server_id":13,"name":"Uncletopia | New York City | 1 | All Maps","name_short":"nyc-1","host":"nyc-1.us.uncletopia.com","port":27015,"enabled":true,"region":"us-east","cc":"us","latitude":40.73061,"longitude":-73.93524,"reserved":0,"last_update":"0001-01-01T00:00:00Z","name_a2s":"Uncletopia | New York City | 1 | All Maps","protocol":17,"map":"cp_gravelpit","folder":"tf","game":"Team Fortress","app_id":440,"player_count":14,"max_players":24,"Bots":0,"server_type":"Dedicated","server_os":"Linux","password":true,"vac":true,"version":"7695204","steam_id":85568392924469993,"keywords":["cp","nocrits","nodmgspread","uncletopia"],"game_id":440,"stv_port":27016,"stv_name":"Uncletopia | New York City | 1 | All Maps | STV","players":[{"user_id":786,"name":"LucidMD","steam_id":76561198037489360,"connected_time":168000000000,"state":"active","ping":62},{"user_id":766,"name":"Bim","steam_id":76561198155979811,"connected_time":1508000000000,"state":"active","ping":48},{"user_id":787,"name":"human spinbotter with bow","steam_id":76561197979090955,"connected_time":143000000000,"state":"active","ping":70},{"user_id":768,"name":"DaBoltJ721","steam_id":76561198996803755,"connected_time":1350000000000,"state":"active","ping":53},{"user_id":769,"name":"CRAZY engineer","steam_id":76561198887937902,"connected_time":1304000000000,"state":"active","ping":52},{"user_id":788,"name":"Samu","steam_id":76561198842935153,"connected_time":66000000000,"state":"active","ping":104},{"user_id":700,"name":"KRELLAH","steam_id":76561198287045069,"connected_time":6348000000000,"state":"active","ping":51},{"user_id":751,"name":"Key","steam_id":76561198083157306,"connected_time":3044000000000,"state":"active","ping":69},{"user_id":706,"name":"sonic1394","steam_id":76561198054636788,"connected_time":5766000000000,"state":"active","ping":63},{"user_id":771,"name":"Cecil","steam_id":76561199309028776,"connected_time":1154000000000,"state":"active","ping":39},{"user_id":778,"name":"AirSpeed","steam_id":76561198226732992,"connected_time":699000000000,"state":"active","ping":105},{"user_id":780,"name":"Halcyon","steam_id":76561197999409268,"connected_time":485000000000,"state":"active","ping":62},{"user_id":702,"name":"LalitoTV","steam_id":76561198334302951,"connected_time":6337000000000,"state":"active","ping":129},{"user_id":784,"name":"yazub","steam_id":76561199095742895,"connected_time":361000000000,"state":"active","ping":80}]},{"server_id":14,"name":"Uncletopia | New York City | 2 | All Maps","name_short":"nyc-2","host":"nyc-1.us.uncletopia.com","port":27025,"enabled":true,"region":"us-east","cc":"us","latitude":40.73061,"longitude":-73.93524,"reserved":0,"last_update":"0001-01-01T00:00:00Z","name_a2s":"Uncletopia | New York City | 2 | All Maps","protocol":17,"map":"koth_highpass","folder":"tf","game":"Team Fortress","app_id":440,"player_count":0,"max_players":24,"Bots":0,"server_type":"Dedicated","server_os":"Linux","password":true,"vac":true,"version":"7695204","steam_id":85568392924469994,"keywords":["cp","nocrits","nodmgspread","uncletopia"],"game_id":440,"stv_port":27026,"stv_name":"Uncletopia | New York City | 2 | All Maps | STV","players":null},{"server_id":15,"name":"Uncletopia | New York City | 3 | All Maps","name_short":"nyc-3","host":"nyc-1.us.uncletopia.com","port":27035,"enabled":true,"region":"us-east","cc":"us","latitude":40.73061,"longitude":-73.93524,"reserved":0,"last_update":"0001-01-01T00:00:00Z","name_a2s":"Uncletopia | New York City | 3 | All Maps","protocol":17,"map":"koth_cascade","folder":"tf","game":"Team Fortress","app_id":440,"player_count":0,"max_players":24,"Bots":0,"server_type":"Dedicated","server_os":"Linux","password":true,"vac":true,"version":"7695204","steam_id":85568392924742820,"keywords":["cp","nocrits","nodmgspread","uncletopia"],"game_id":440,"stv_port":27036,"stv_name":"Uncletopia | New York City | 3 | All Maps | STV","players":null},{"server_id":16,"name":"Uncletopia | New York City | 4 | Community","name_short":"nyc-4","host":"nyc-1.us.uncletopia.com","port":27045,"enabled":true,"region":"us-east","cc":"us","latitude":40.73061,"longitude":-73.93524,"reserved":0,"last_update":"0001-01-01T00:00:00Z","name_a2s":"Uncletopia | New York City | 4 | Community","protocol":17,"map":"workshop/koth_ashville_final.ugc2130459942","folder":"tf","game":"Team Fortress","app_id":440,"player_count":0,"max_players":24,"Bots":0,"server_type":"Dedicated","server_os":"Linux","password":true,"vac":true,"version":"7695204","steam_id":85568392924742821,"keywords":["cp","nocrits","nodmgspread","uncletopia"],"game_id":440,"stv_port":27046,"stv_name":"Uncletopia | New York City | 4 | Community | STV","players":null},{"server_id":142,"name":"Uncletopia | S√£o Paulo | 1 | All Maps","name_short":"sao-1","host":"sao-1.br.uncletopia.com","port":27015,"enabled":true,"region":"sa","cc":"br","latitude":-23.533773,"longitude":-46.62529,"reserved":0,"last_update":"0001-01-01T00:00:00Z","name_a2s":"Uncletopia | S√£o Paulo | 1 | All Maps","protocol":17,"map":"koth_highpass","folder":"tf","game":"Team Fortress","app_id":440,"player_count":0,"max_players":24,"Bots":0,"server_type":"Dedicated","server_os":"Linux","password":true,"vac":true,"version":"7695204","steam_id":85568392924469996,"keywords":["cp","nocrits","nodmgspread","uncletopia"],"game_id":440,"stv_port":27016,"stv_name":"Uncletopia | S√£o Paulo | 1 | All Maps | STV","players":null},{"server_id":143,"name":"Uncletopia | S√£o Paulo | 2 | All Maps","name_short":"sao-2","host":"sao-2.br.uncletopia.com","port":27015,"enabled":true,"region":"sa","cc":"br","latitude":-23.533773,"longitude":-46.62529,"reserved":0,"last_update":"0001-01-01T00:00:00Z","name_a2s":"Uncletopia | S√£o Paulo | 2 | All Maps","protocol":17,"map":"koth_cascade","folder":"tf","game":"Team Fortress","app_id":440,"player_count":0,"max_players":24,"Bots":0,"server_type":"Dedicated","server_os":"Linux","password":true,"vac":true,"version":"7695204","steam_id":85568392924485349,"keywords":["cp","nocrits","nodmgspread","uncletopia"],"game_id":440,"stv_port":27016,"stv_name":"Uncletopia | S√£o Paulo | 2 | All Maps | STV","players":null},{"server_id":7,"name":"Uncletopia | Seattle | 1 | All Maps","name_short":"sea-1","host":"sea-1.us.uncletopia.com","port":27015,"enabled":true,"region":"us-west","cc":"us","latitude":47.608013,"longitude":-122.33517,"reserved":0,"last_update":"0001-01-01T00:00:00Z","name_a2s":"Uncletopia | Seattle | 1 | All Maps","protocol":17,"map":"pl_coal_event","folder":"tf","game":"Team Fortress","app_id":440,"player_count":17,"max_players":24,"Bots":0,"server_type":"Dedicated","server_os":"Linux","password":true,"vac":true,"version":"7695204","steam_id":85568392924469997,"keywords":["nocrits","nodmgspread","payload","uncletopia"],"game_id":440,"stv_port":27016,"stv_name":"Uncletopia | Seattle | 1 | All Maps | STV","players":[{"user_id":560,"name":"Xylemon","steam_id":76561197965297420,"connected_time":420000000000,"state":"active","ping":51},{"user_id":473,"name":"An Old Lady","steam_id":76561198047480318,"connected_time":8025000000000,"state":"active","ping":84},{"user_id":539,"name":"goldhed","steam_id":76561198051751133,"connected_time":3298000000000,"state":"active","ping":49},{"user_id":535,"name":"Spaghetti Cat","steam_id":76561198027168510,"connected_time":3963000000000,"state":"active","ping":65},{"user_id":561,"name":"s4lmon","steam_id":76561198055882807,"connected_time":407000000000,"state":"active","ping":47},{"user_id":562,"name":"House","steam_id":76561198308405663,"connected_time":338000000000,"state":"active","ping":52},{"user_id":564,"name":"litroolay","steam_id":76561197995226856,"connected_time":224000000000,"state":"active","ping":36},{"user_id":565,"name":"kenZino","steam_id":76561197967971192,"connected_time":196000000000,"state":"active","ping":45},{"user_id":523,"name":"IzzyHoP","steam_id":76561197995927883,"connected_time":4308000000000,"state":"active","ping":56},{"user_id":507,"name":"2 Point Tom","steam_id":76561198087617008,"connected_time":5378000000000,"state":"active","ping":51},{"user_id":548,"name":"Closed.","steam_id":76561198212598967,"connected_time":1210000000000,"state":"active","ping":78},{"user_id":566,"name":"Chap","steam_id":76561198294226443,"connected_time":107000000000,"state":"active","ping":86},{"user_id":559,"name":"Blackbeard","steam_id":76561198046952265,"connected_time":466000000000,"state":"active","ping":45},{"user_id":533,"name":"rat gets the cheese","steam_id":76561198031234032,"connected_time":3990000000000,"state":"active","ping":97},{"user_id":545,"name":"UV","steam_id":76561198083936918,"connected_time":1820000000000,"state":"active","ping":52},{"user_id":538,"name":"Shah","steam_id":76561198047508851,"connected_time":3486000000000,"state":"active","ping":52},{"user_id":551,"name":"incineratedbread","steam_id":76561198133619079,"connected_time":1171000000000,"state":"active","ping":58}]},{"server_id":119,"name":"Uncletopia | Seattle | 2 | All Maps","name_short":"sea-2","host":"sea-1.us.uncletopia.com","port":27025,"enabled":true,"region":"us-west","cc":"us","latitude":47.608013,"longitude":-122.33517,"reserved":0,"last_update":"0001-01-01T00:00:00Z","name_a2s":"Uncletopia | Seattle | 2 | All Maps","protocol":17,"map":"koth_cascade","folder":"tf","game":"Team Fortress","app_id":440,"player_count":0,"max_players":24,"Bots":0,"server_type":"Dedicated","server_os":"Linux","password":true,"vac":true,"version":"7695204","steam_id":85568392924469998,"keywords":["cp","nocrits","nodmgspread","uncletopia"],"game_id":440,"stv_port":27026,"stv_name":"Uncletopia | Seattle | 2 | All Maps | STV","players":null},{"server_id":17,"name":"Uncletopia | San Francisco | 1 | All Maps","name_short":"sfo-1","host":"sfo-1.us.uncletopia.com","port":27015,"enabled":true,"region":"us-west","cc":"us","latitude":37.77397,"longitude":-122.4313,"reserved":0,"last_update":"0001-01-01T00:00:00Z","name_a2s":"Uncletopia | San Francisco | 1 | All Maps","protocol":17,"map":"cp_gorge","folder":"tf","game":"Team Fortress","app_id":440,"player_count":24,"max_players":24,"Bots":0,"server_type":"Dedicated","server_os":"Linux","password":true,"vac":true,"version":"7695204","steam_id":85568392924469999,"keywords":["cp","nocrits","nodmgspread","uncletopia"],"game_id":440,"stv_port":27016,"stv_name":"Uncletopia | San Francisco | 1 | All Maps | STV","players":[{"user_id":297,"name":"minors dni","steam_id":76561198110142386,"connected_time":1947000000000,"state":"active","ping":47},{"user_id":281,"name":"Deobot","steam_id":76561198243697604,"connected_time":3125000000000,"state":"active","ping":67},{"user_id":319,"name":"oil","steam_id":76561198099980149,"connected_time":614000000000,"state":"active","ping":55},{"user_id":143,"name":"perc 10","steam_id":76561198116471653,"connected_time":12072000000000,"state":"active","ping":53},{"user_id":320,"name":"Yachter","steam_id":76561198129749194,"connected_time":560000000000,"state":"active","ping":74},{"user_id":323,"name":"Farseer Ulwithy","steam_id":76561197965179245,"connected_time":318000000000,"state":"active","ping":81},{"user_id":286,"name":"Kenpachi","steam_id":76561198803824764,"connected_time":2567000000000,"state":"active","ping":82},{"user_id":311,"name":"GoLUIGIT","steam_id":76561199251157275,"connected_time":1472000000000,"state":"active","ping":60},{"user_id":299,"name":"SolarusD","steam_id":76561198029279861,"connected_time":1854000000000,"state":"active","ping":45},{"user_id":296,"name":"devils nightmare","steam_id":76561198068136765,"connected_time":2052000000000,"state":"active","ping":49},{"user_id":298,"name":"Red","steam_id":76561198037346199,"connected_time":1937000000000,"state":"active","ping":105},{"user_id":300,"name":"Merry Matches_ lfp demo","steam_id":76561198048925904,"connected_time":1740000000000,"state":"active","ping":69},{"user_id":301,"name":"Lily Thorn","steam_id":76561198305488625,"connected_time":1717000000000,"state":"active","ping":78},{"user_id":321,"name":"Scribble Scrabble","steam_id":76561199251957693,"connected_time":444000000000,"state":"active","ping":86},{"user_id":315,"name":"Marc G","steam_id":76561198062650363,"connected_time":1083000000000,"state":"active","ping":84},{"user_id":318,"name":"Steve","steam_id":76561198352805460,"connected_time":864000000000,"state":"active","ping":75},{"user_id":305,"name":"grass.","steam_id":76561198953819225,"connected_time":1593000000000,"state":"active","ping":97},{"user_id":306,"name":"[S]Mr. X [No Monitor]","steam_id":76561197963746035,"connected_time":1559000000000,"state":"active","ping":85},{"user_id":307,"name":"Wildfire005","steam_id":76561198428025829,"connected_time":1548000000000,"state":"active","ping":109},{"user_id":324,"name":"walrooos ‚úø","steam_id":76561198024521839,"connected_time":288000000000,"state":"active","ping":51},{"user_id":309,"name":"„Çø„Ç±„Ç∑","steam_id":76561198052397636,"connected_time":1532000000000,"state":"active","ping":114},{"user_id":310,"name":"Artistic","steam_id":76561198118159566,"connected_time":1520000000000,"state":"active","ping":71},{"user_id":312,"name":"Baiden","steam_id":76561199123136659,"connected_time":1460000000000,"state":"active","ping":82},{"user_id":322,"name":"Some Dough","steam_id":76561198003827633,"connected_time":419000000000,"state":"active","ping":38}]},{"server_id":18,"name":"Uncletopia | San Francisco | 2 | All Maps","name_short":"sfo-2","host":"sfo-1.us.uncletopia.com","port":27025,"enabled":true,"region":"us-west","cc":"us","latitude":37.77397,"longitude":-122.4313,"reserved":0,"last_update":"0001-01-01T00:00:00Z","name_a2s":"Uncletopia | San Francisco | 2 | All Maps","protocol":17,"map":"pl_snowycoast","folder":"tf","game":"Team Fortress","app_id":440,"player_count":16,"max_players":24,"Bots":0,"server_type":"Dedicated","server_os":"Linux","password":true,"vac":true,"version":"7695204","steam_id":85568392924470000,"keywords":["nocrits","nodmgspread","payload","uncletopia"],"game_id":440,"stv_port":27026,"stv_name":"Uncletopia | San Francisco | 2 | All Maps | STV","players":[{"user_id":590,"name":"Pneumo.","steam_id":76561197987911883,"connected_time":1648000000000,"state":"active","ping":89},{"user_id":621,"name":"sheepstar34","steam_id":76561198344343340,"connected_time":291000000000,"state":"active","ping":47},{"user_id":568,"name":"Amogous Supreme","steam_id":76561198025476774,"connected_time":1951000000000,"state":"active","ping":50},{"user_id":543,"name":"duane","steam_id":76561198149565822,"connected_time":3101000000000,"state":"active","ping":93},{"user_id":536,"name":"R5-D4","steam_id":76561198025196439,"connected_time":3781000000000,"state":"active","ping":75},{"user_id":555,"name":"gerg","steam_id":76561197997127387,"connected_time":2421000000000,"state":"active","ping":46},{"user_id":569,"name":"TheChampagneOfMayonnaise","steam_id":76561197961107982,"connected_time":1933000000000,"state":"active","ping":128},{"user_id":580,"name":"social distance warrior","steam_id":76561198128992994,"connected_time":1766000000000,"state":"active","ping":59},{"user_id":600,"name":"I'm sorry in advance","steam_id":76561198087380785,"connected_time":1363000000000,"state":"active","ping":51},{"user_id":594,"name":"Chiaki Nanami","steam_id":76561198164782653,"connected_time":1573000000000,"state":"active","ping":120},{"user_id":623,"name":"Timebomb2134","steam_id":76561199065629825,"connected_time":152000000000,"state":"active","ping":61},{"user_id":595,"name":"Box of Lizards","steam_id":76561199072219697,"connected_time":1560000000000,"state":"active","ping":69},{"user_id":557,"name":"cakeebot","steam_id":76561198425995095,"connected_time":2382000000000,"state":"active","ping":64},{"user_id":492,"name":"Mason","steam_id":76561198125358775,"connected_time":5777000000000,"state":"active","ping":66},{"user_id":624,"name":"Lord Veemo","steam_id":76561199157464043,"connected_time":145000000000,"state":"active","ping":48},{"user_id":615,"name":"Bobby Ray","steam_id":76561198044131188,"connected_time":813000000000,"state":"active","ping":100}]},{"server_id":19,"name":"Uncletopia | San Francisco | 3 | No Payload","name_short":"sfo-3","host":"sfo-1.us.uncletopia.com","port":27035,"enabled":true,"region":"us-west","cc":"us","latitude":37.77397,"longitude":-122.4313,"reserved":0,"last_update":"0001-01-01T00:00:00Z","name_a2s":"Uncletopia | San Francisco | 3 | No Payload","protocol":17,"map":"cp_badlands","folder":"tf","game":"Team Fortress","app_id":440,"player_count":0,"max_players":24,"Bots":0,"server_type":"Dedicated","server_os":"Linux","password":true,"vac":true,"version":"7695204","steam_id":85568392924742824,"keywords":["cp","nocrits","nodmgspread","uncletopia"],"game_id":440,"stv_port":27036,"stv_name":"Uncletopia | San Francisco | 3 | No Payload | STV","players":null},{"server_id":20,"name":"Uncletopia | San Francisco | 4 | Community","name_short":"sfo-4","host":"sfo-1.us.uncletopia.com","port":27045,"enabled":true,"region":"us-west","cc":"us","latitude":37.77397,"longitude":-122.4313,"reserved":0,"last_update":"0001-01-01T00:00:00Z","name_a2s":"Uncletopia | San Francisco | 4 | Community","protocol":17,"map":"koth_highpass","folder":"tf","game":"Team Fortress","app_id":440,"player_count":0,"max_players":24,"Bots":0,"server_type":"Dedicated","server_os":"Linux","password":true,"vac":true,"version":"7695204","steam_id":85568392924742826,"keywords":["cp","nocrits","nodmgspread","uncletopia"],"game_id":440,"stv_port":0,"stv_name":"","players":null},{"server_id":141,"name":"Uncletopia | Sydney | 1 | All Maps","name_short":"syd-1","host":"syd-1.au.uncletopia.com","port":27015,"enabled":true,"region":"au","cc":"au","latitude":-33.865143,"longitude":151.2099,"reserved":0,"last_update":"0001-01-01T00:00:00Z","name_a2s":"Uncletopia | Sydney | 1 | All Maps","protocol":17,"map":"cp_dustbowl","folder":"tf","game":"Team Fortress","app_id":440,"player_count":22,"max_players":24,"Bots":0,"server_type":"Dedicated","server_os":"Linux","password":true,"vac":true,"version":"7695204","steam_id":85568392924470001,"keywords":["cp","nocrits","nodmgspread","uncletopia"],"game_id":440,"stv_port":27016,"stv_name":"Uncletopia | Sydney | 1 | All Maps | STV","players":[{"user_id":456,"name":"nori357","steam_id":76561198094691731,"connected_time":626000000000,"state":"active","ping":48},{"user_id":442,"name":"bill","steam_id":76561198066726621,"connected_time":2154000000000,"state":"active","ping":49},{"user_id":434,"name":"SolitaryID","steam_id":76561198315502025,"connected_time":2453000000000,"state":"active","ping":60},{"user_id":407,"name":"DJ","steam_id":76561198070691724,"connected_time":3982000000000,"state":"active","ping":64},{"user_id":461,"name":"Dingleburied","steam_id":76561198039845750,"connected_time":445000000000,"state":"active","ping":60},{"user_id":445,"name":"Evie Èõ®","steam_id":76561198360222919,"connected_time":1692000000000,"state":"active","ping":57},{"user_id":446,"name":"BaconUndies","steam_id":76561198281809824,"connected_time":1549000000000,"state":"active","ping":95},{"user_id":424,"name":"seiran","steam_id":76561198880907232,"connected_time":3081000000000,"state":"active","ping":79},{"user_id":417,"name":"sat_","steam_id":76561198170693338,"connected_time":3456000000000,"state":"active","ping":83},{"user_id":423,"name":"clout","steam_id":76561198073310502,"connected_time":3091000000000,"state":"active","ping":75},{"user_id":443,"name":"Top Ramen","steam_id":76561198028969833,"connected_time":2023000000000,"state":"active","ping":45},{"user_id":457,"name":"Homebrand Chronic","steam_id":76561198941549137,"connected_time":626000000000,"state":"active","ping":75},{"user_id":429,"name":"normans on sabbatical honey","steam_id":76561198082423230,"connected_time":2723000000000,"state":"active","ping":77},{"user_id":441,"name":"no teles 4 u","steam_id":76561198018478297,"connected_time":2233000000000,"state":"active","ping":73},{"user_id":426,"name":"quasi","steam_id":76561198282589938,"connected_time":3019000000000,"state":"active","ping":86},{"user_id":452,"name":"o p t i v e","steam_id":76561198131756192,"connected_time":944000000000,"state":"active","ping":89},{"user_id":436,"name":"¬≤","steam_id":76561198071436574,"connected_time":2402000000000,"state":"active","ping":44},{"user_id":469,"name":"GTSW1FT","steam_id":76561198315785054,"connected_time":51000000000,"state":"active","ping":108},{"user_id":463,"name":"Empr","steam_id":76561198024387396,"connected_time":283000000000,"state":"active","ping":91},{"user_id":462,"name":"PS6 maffaaa","steam_id":76561198074409027,"connected_time":386000000000,"state":"active","ping":49},{"user_id":413,"name":"‚ô• Sharpy \u003e v \u003c","steam_id":76561198091613743,"connected_time":3568000000000,"state":"active","ping":96},{"user_id":464,"name":"haze","steam_id":76561198364434717,"connected_time":233000000000,"state":"active","ping":59}]},{"server_id":123,"name":"Uncletopia | Sydney | 2 | All Maps","name_short":"syd-2","host":"syd-1.au.uncletopia.com","port":27025,"enabled":true,"region":"au","cc":"au","latitude":-33.865143,"longitude":151.2099,"reserved":0,"last_update":"0001-01-01T00:00:00Z","name_a2s":"Uncletopia | Sydney | 2 | All Maps","protocol":17,"map":"pl_upward","folder":"tf","game":"Team Fortress","app_id":440,"player_count":22,"max_players":24,"Bots":0,"server_type":"Dedicated","server_os":"Linux","password":true,"vac":true,"version":"7695204","steam_id":85568392924470002,"keywords":["nocrits","nodmgspread","payload","uncletopia"],"game_id":440,"stv_port":27026,"stv_name":"Uncletopia | Sydney | 2 | All Maps | STV","players":[{"user_id":27,"name":"Almond_Robin","steam_id":76561198823996617,"connected_time":4384000000000,"state":"active","ping":92},{"user_id":28,"name":"JayTheLlamaKing","steam_id":76561198836354249,"connected_time":4378000000000,"state":"active","ping":57},{"user_id":73,"name":"Taliban member","steam_id":76561198964787160,"connected_time":187000000000,"state":"active","ping":64},{"user_id":39,"name":"Cute Husky","steam_id":76561199053083075,"connected_time":2255000000000,"state":"active","ping":159},{"user_id":71,"name":"blicky","steam_id":76561198029829077,"connected_time":289000000000,"state":"active","ping":91},{"user_id":40,"name":"stevo","steam_id":76561198117749786,"connected_time":2058000000000,"state":"active","ping":80},{"user_id":46,"name":"syd :3","steam_id":76561199057568663,"connected_time":1800000000000,"state":"active","ping":57},{"user_id":59,"name":"Raypest","steam_id":76561197980678745,"connected_time":1490000000000,"state":"active","ping":42},{"user_id":42,"name":"hawk","steam_id":76561198135164277,"connected_time":1933000000000,"state":"active","ping":58},{"user_id":60,"name":"Ye (real)","steam_id":76561198046228152,"connected_time":1489000000000,"state":"active","ping":59},{"user_id":61,"name":"monkey      .","steam_id":76561198955819855,"connected_time":1445000000000,"state":"active","ping":55},{"user_id":55,"name":"Diavolo Diablo","steam_id":76561198166295333,"connected_time":1629000000000,"state":"active","ping":164},{"user_id":47,"name":"sereni7y","steam_id":76561198135060872,"connected_time":1793000000000,"state":"active","ping":46},{"user_id":68,"name":"DelHasMangoes/yt","steam_id":76561198047183797,"connected_time":1019000000000,"state":"active","ping":82},{"user_id":49,"name":"Tentacle","steam_id":76561197994320010,"connected_time":1783000000000,"state":"active","ping":51},{"user_id":72,"name":"On My Way to Smooch You, I Am","steam_id":76561198041713339,"connected_time":242000000000,"state":"active","ping":75},{"user_id":62,"name":"J''''","steam_id":76561198047565137,"connected_time":1444000000000,"state":"active","ping":60},{"user_id":63,"name":"ToadFungus","steam_id":76561199219667039,"connected_time":1428000000000,"state":"active","ping":100},{"user_id":56,"name":"i like balls","steam_id":76561199010558927,"connected_time":1627000000000,"state":"active","ping":181},{"user_id":67,"name":"krandlez` (Any/All)","steam_id":76561198044839726,"connected_time":1114000000000,"state":"active","ping":37},{"user_id":65,"name":"Burger Man Chips","steam_id":76561198019107403,"connected_time":1371000000000,"state":"active","ping":64},{"user_id":70,"name":"tim88435","steam_id":76561198089653987,"connected_time":374000000000,"state":"active","ping":42}]},{"server_id":395,"name":"Uncletopia | Sydney | 3 | All Maps","name_short":"syd-3","host":"syd-1.au.uncletopia.com","port":27035,"enabled":true,"region":"au","cc":"au","latitude":-33.865143,"longitude":151.2099,"reserved":0,"last_update":"0001-01-01T00:00:00Z","name_a2s":"Uncletopia | Sydney | 3 | All Maps","protocol":17,"map":"koth_harvest_final","folder":"tf","game":"Team Fortress","app_id":440,"player_count":5,"max_players":24,"Bots":0,"server_type":"Dedicated","server_os":"Linux","password":true,"vac":true,"version":"7695204","steam_id":85568392925194467,"keywords":["cp","nocrits","nodmgspread","uncletopia"],"game_id":440,"stv_port":27036,"stv_name":"Uncletopia | Sydney | 3 | All Maps | STV","players":[{"user_id":191,"name":"Jamie2Cool","steam_id":76561198155695809,"connected_time":1398000000000,"state":"active","ping":74},{"user_id":192,"name":"Pak'n'Save","steam_id":76561199199754055,"connected_time":1219000000000,"state":"active","ping":59},{"user_id":201,"name":"MagicBush","steam_id":76561198001937726,"connected_time":522000000000,"state":"active","ping":45},{"user_id":198,"name":"Nep Nya!","steam_id":76561198303367754,"connected_time":830000000000,"state":"active","ping":68},{"user_id":199,"name":"MikkyD","steam_id":76561198043452962,"connected_time":545000000000,"state":"active","ping":74}]},{"server_id":396,"name":"Uncletopia | Sydney | 4 | All Maps","name_short":"syd-4","host":"syd-1.au.uncletopia.com","port":27045,"enabled":true,"region":"au","cc":"au","latitude":-33.865143,"longitude":151.2099,"reserved":0,"last_update":"0001-01-01T00:00:00Z","name_a2s":"Uncletopia | Sydney | 4 | All Maps","protocol":17,"map":"pl_barnblitz","folder":"tf","game":"Team Fortress","app_id":440,"player_count":0,"max_players":24,"Bots":0,"server_type":"Dedicated","server_os":"Linux","password":true,"vac":true,"version":"7695204","steam_id":85568392925397958,"keywords":["nocrits","nodmgspread","payload","uncletopia"],"game_id":440,"stv_port":27046,"stv_name":"Uncletopia | Sydney | 4 | All Maps | STV","players":null},{"server_id":58,"name":"Uncletopia | Sydney | 5 | No Payload","name_short":"syd-5","host":"syd-1.au.uncletopia.com","port":27055,"enabled":true,"region":"au","cc":"au","latitude":-33.865143,"longitude":151.2099,"reserved":0,"last_update":"0001-01-01T00:00:00Z","name_a2s":"Uncletopia | Sydney | 5 | No Payload","protocol":17,"map":"koth_viaduct","folder":"tf","game":"Team Fortress","app_id":440,"player_count":0,"max_players":24,"Bots":0,"server_type":"Dedicated","server_os":"Linux","password":true,"vac":true,"version":"7695204","steam_id":85568392925397959,"keywords":["cp","nocrits","nodmgspread","uncletopia"],"game_id":440,"stv_port":0,"stv_name":"","players":null},{"server_id":59,"name":"Uncletopia | Sydney | 6 | Community","name_short":"syd-6","host":"syd-1.au.uncletopia.com","port":27065,"enabled":true,"region":"au","cc":"au","latitude":-33.865143,"longitude":151.2099,"reserved":0,"last_update":"0001-01-01T00:00:00Z","name_a2s":"Uncletopia | Sydney | 6 | Community","protocol":17,"map":"workshop/koth_bagel_rc5.ugc2514036946","folder":"tf","game":"Team Fortress","app_id":440,"player_count":0,"max_players":24,"Bots":0,"server_type":"Dedicated","server_os":"Linux","password":true,"vac":true,"version":"7695204","steam_id":85568392925397960,"keywords":["cp","nocrits","nodmgspread","uncletopia"],"game_id":440,"stv_port":27066,"stv_name":"Uncletopia | Sydney | 6 | Community | STV","players":null},{"server_id":49,"name":"Uncletopia | Warsaw | 1 | All Maps","name_short":"waw-1","host":"waw-1.pl.uncletopia.com","port":27015,"enabled":true,"region":"eu","cc":"pl","latitude":52.2297,"longitude":21.017532,"reserved":0,"last_update":"0001-01-01T00:00:00Z","name_a2s":"Uncletopia | Warsaw | 1 | All Maps","protocol":17,"map":"pl_frontier_final","folder":"tf","game":"Team Fortress","app_id":440,"player_count":0,"max_players":24,"Bots":0,"server_type":"Dedicated","server_os":"Linux","password":true,"vac":true,"version":"7695204","steam_id":85568392925397850,"keywords":["nocrits","nodmgspread","payload","uncletopia"],"game_id":440,"stv_port":0,"stv_name":"","players":null},{"server_id":50,"name":"Uncletopia | Warsaw | 2 | All Maps","name_short":"waw-2","host":"waw-1.pl.uncletopia.com","port":27025,"enabled":true,"region":"eu","cc":"pl","latitude":52.2297,"longitude":21.017532,"reserved":0,"last_update":"0001-01-01T00:00:00Z","name_a2s":"Uncletopia | Warsaw | 2 | All Maps","protocol":17,"map":"cp_snakewater_final1","folder":"tf","game":"Team Fortress","app_id":440,"player_count":0,"max_players":24,"Bots":0,"server_type":"Dedicated","server_os":"Linux","password":true,"vac":true,"version":"7695204","steam_id":85568392925397851,"keywords":["cp","nocrits","nodmgspread","uncletopia"],"game_id":440,"stv_port":0,"stv_name":"","players":null},{"server_id":51,"name":"Uncletopia | Warsaw | 3 | All Maps","name_short":"waw-3","host":"waw-1.pl.uncletopia.com","port":27035,"enabled":true,"region":"eu","cc":"pl","latitude":52.2297,"longitude":21.017532,"reserved":0,"last_update":"0001-01-01T00:00:00Z","name_a2s":"Uncletopia | Warsaw | 3 | All Maps","protocol":17,"map":"pl_barnblitz","folder":"tf","game":"Team Fortress","app_id":440,"player_count":0,"max_players":24,"Bots":0,"server_type":"Dedicated","server_os":"Linux","password":true,"vac":true,"version":"7695204","steam_id":85568392925397852,"keywords":["nocrits","nodmgspread","payload","uncletopia"],"game_id":440,"stv_port":0,"stv_name":"","players":null},{"server_id":52,"name":"Uncletopia | Warsaw | 4 | All Maps","name_short":"waw-4","host":"waw-1.pl.uncletopia.com","port":27045,"enabled":true,"region":"eu","cc":"pl","latitude":52.2297,"longitude":21.017532,"reserved":0,"last_update":"0001-01-01T00:00:00Z","name_a2s":"Uncletopia | Warsaw | 4 | All Maps","protocol":17,"map":"cp_altitude","folder":"tf","game":"Team Fortress","app_id":440,"player_count":0,"max_players":24,"Bots":0,"server_type":"Dedicated","server_os":"Linux","password":true,"vac":true,"version":"7695204","steam_id":85568392925397853,"keywords":["cp","nocrits","nodmgspread","uncletopia"],"game_id":440,"stv_port":0,"stv_name":"","players":null},{"server_id":53,"name":"Uncletopia | Warsaw | 5 | No Payload","name_short":"waw-5","host":"waw-1.pl.uncletopia.com","port":27055,"enabled":true,"region":"eu","cc":"pl","latitude":52.2297,"longitude":21.017532,"reserved":0,"last_update":"0001-01-01T00:00:00Z","name_a2s":"Uncletopia | Warsaw | 5 | No Payload","protocol":17,"map":"pl_badwater","folder":"tf","game":"Team Fortress","app_id":440,"player_count":0,"max_players":24,"Bots":0,"server_type":"Dedicated","server_os":"Linux","password":true,"vac":true,"version":"7695204","steam_id":85568392925397854,"keywords":["nocrits","nodmgspread","payload","uncletopia"],"game_id":440,"stv_port":0,"stv_name":"","players":null},{"server_id":54,"name":"Uncletopia | Warsaw | 6 | Community","name_short":"waw-6","host":"waw-1.pl.uncletopia.com","port":27065,"enabled":true,"region":"eu","cc":"pl","latitude":52.2297,"longitude":21.017532,"reserved":0,"last_update":"0001-01-01T00:00:00Z","name_a2s":"Uncletopia | Warsaw | 6 | Community","protocol":17,"map":"pl_barnblitz","folder":"tf","game":"Team Fortress","app_id":440,"player_count":0,"max_players":24,"Bots":0,"server_type":"Dedicated","server_os":"Linux","password":true,"vac":true,"version":"7695204","steam_id":85568392925397856,"keywords":["nocrits","nodmgspread","payload","uncletopia"],"game_id":440,"stv_port":0,"stv_name":"","players":null}]}