{"status":true,"message":"","result":[{"server_id":9,"name":"Uncletopia | Atlanta | 1 | All Maps","name_short":"atl-1","host":"atl-1.us.uncletopia.com","port":27015,"enabled":true,"region":"us-east","cc":"us","latitude":33.753746,"longitude":-84.38633,"reserved":0,"last_update":"0001-01-01T00:00:00Z","name_a2s":"Uncletopia | Atlanta | 1 | All Maps","protocol":17,"map":"cp_snakewater_final1","folder":"tf","game":"Team Fortress","app_id":440,"player_count":0,"max_players":24,"Bots":0,"server_type":"Dedicated","server_os":"Linux","password":true,"vac":true,"version":"7757534","steam_id":85568392924469982,"keywords":["cp","nocrits","nodmgspread","uncletopia"],"game_id":440,"stv_port":27016,"stv_name":"Uncletopia | Atlanta | 1 | All Maps | STV","players":null},{"server_id":400,"name":"Uncletopia | Atlanta | 3 | Stopwatch Beta","name_short":"atl-3","host":"atl-1.us.uncletopia.com","port":27035,"enabled":true,"region":"us-east","cc":"us","latitude":33.753746,"longitude":-84.38633,"reserved":0,"last_update":"0001-01-01T00:00:00Z","name_a2s":"Uncletopia | Atlanta | 3 | Stopwatch Beta","protocol":17,"map":"workshop/koth_ramjam_rc1.ugc459778887","folder":"tf","game":"Team Fortress","app_id":440,"player_count":0,"max_players":24,"Bots":0,"server_type":"Dedicated","server_os":"Linux","password":true,"vac":true,"version":"7757534","steam_id":85568392924515187,"keywords":["cp","nocrits","nodmgspread","uncletopia"],"game_id":440,"stv_port":27036,"stv_name":"Uncletopia | Atlanta | 3 | Stopwatch Beta | STV","players":null},{"server_id":401,"name":"Uncletopia | Atlanta | 4 | No Payload","name_short":"atl-4","host":"atl-1.us.uncletopia.com","port":27045,"enabled":true,"region":"us-east","cc":"us","latitude":33.753746,"longitude":-84.38633,"reserved":0,"last_update":"0001-01-01T00:00:00Z","name_a2s":"Uncletopia | Atlanta | 4 | No Payload","protocol":17,"map":"pl_pier","folder":"tf","game":"Team Fortress","app_id":440,"player_count":0,"max_players":24,"Bots":0,"server_type":"Dedicated","server_os":"Linux","password":true,"vac":true,"version":"7723704","steam_id":85568392924515188,"keywords":["nocrits","nodmgspread","payload","uncletopia"],"game_id":440,"stv_port":27046,"stv_name":"Uncletopia | Atlanta | 4 | No Payload | STV","players":null},{"server_id":2,"name":"Uncletopia | Chicago | 1 | All Maps","name_short":"chi-1","host":"chi-1.us.uncletopia.com","port":27015,"enabled":true,"region":"us-central","cc":"us","latitude":41.881832,"longitude":-87.62318,"reserved":0,"last_update":"0001-01-01T00:00:00Z","name_a2s":"Uncletopia | Chicago | 1 | All Maps","protocol":17,"map":"koth_highpass","folder":"tf","game":"Team Fortress","app_id":440,"player_count":18,"max_players":24,"Bots":0,"server_type":"Dedicated","server_os":"Linux","password":true,"vac":true,"version":"7757534","steam_id":85568392924469984,"keywords":["cp","nocrits","nodmgspread","uncletopia"],"game_id":440,"stv_port":27016,"stv_name":"Uncletopia | Chicago | 1 | All Maps | STV","players":[{"user_id":388,"name":"Jupiter","steam_id":76561198181315681,"connected_time":1722000000000,"state":"active","ping":62},{"user_id":389,"name":"Bogdan Off","steam_id":76561198018604828,"connected_time":1212000000000,"state":"active","ping":75},{"user_id":379,"name":"triangleman","steam_id":76561198972733542,"connected_time":2565000000000,"state":"active","ping":77},{"user_id":390,"name":"Juri Han","steam_id":76561198041678517,"connected_time":1091000000000,"state":"active","ping":99},{"user_id":381,"name":"Mr.ToasterOven","steam_id":76561199120586450,"connected_time":2233000000000,"state":"active","ping":114},{"user_id":382,"name":"NooBHatteR","steam_id":76561198077662703,"connected_time":2199000000000,"state":"active","ping":103},{"user_id":383,"name":"Naki","steam_id":76561198046792661,"connected_time":2074000000000,"state":"active","ping":73},{"user_id":391,"name":"nyxia- \u003c3","steam_id":76561198174415170,"connected_time":1012000000000,"state":"active","ping":46},{"user_id":392,"name":"ZplitZ","steam_id":76561198093629868,"connected_time":671000000000,"state":"active","ping":68},{"user_id":301,"name":"Masotan","steam_id":76561199047187302,"connected_time":8125000000000,"state":"active","ping":50},{"user_id":393,"name":"Klip","steam_id":76561198316254429,"connected_time":595000000000,"state":"active","ping":79},{"user_id":394,"name":"Herr M√ºller","steam_id":76561198064876829,"connected_time":581000000000,"state":"active","ping":87},{"user_id":395,"name":"Julia","steam_id":76561198175727790,"connected_time":367000000000,"state":"active","ping":94},{"user_id":400,"name":"albanian sleeper agent","steam_id":76561198302166119,"connected_time":44000000000,"state":"active","ping":125},{"user_id":401,"name":"nell","steam_id":76561198136225723,"connected_time":9000000000,"state":"spawning","ping":71},{"user_id":398,"name":"Lusa","steam_id":76561199435564731,"connected_time":218000000000,"state":"active","ping":180},{"user_id":399,"name":"loyaldandan0764","steam_id":76561199231020424,"connected_time":193000000000,"state":"active","ping":103},{"user_id":320,"name":"Bucket Hat Trick","steam_id":76561198381785132,"connected_time":7352000000000,"state":"active","ping":92}]},{"server_id":106,"name":"Uncletopia | Chicago | 2 | All Maps","name_short":"chi-2","host":"chi-1.us.uncletopia.com","port":27025,"enabled":true,"region":"us-central","cc":"us","latitude":41.881832,"longitude":-87.62318,"reserved":0,"last_update":"0001-01-01T00:00:00Z","name_a2s":"Uncletopia | Chicago | 2 | All Maps","protocol":17,"map":"cp_snakewater_final1","folder":"tf","game":"Team Fortress","app_id":440,"player_count":0,"max_players":24,"Bots":0,"server_type":"Dedicated","server_os":"Linux","password":true,"vac":true,"version":"7757534","steam_id":85568392924469985,"keywords":["cp","nocrits","nodmgspread","uncletopia"],"game_id":440,"stv_port":27026,"stv_name":"Uncletopia | Chicago | 2 | All Maps | STV","players":null},{"server_id":402,"name":"Uncletopia | Chicago | 3 | All Maps","name_short":"chi-3","host":"chi-1.us.uncletopia.com","port":27035,"enabled":true,"region":"us-central","cc":"us","latitude":41.881832,"longitude":-87.62318,"reserved":0,"last_update":"0001-01-01T00:00:00Z","name_a2s":"Uncletopia | Chicago | 3 | All Maps","protocol":17,"map":"pl_badwater","folder":"tf","game":"Team Fortress","app_id":440,"player_count":23,"max_players":24,"Bots":0,"server_type":"Dedicated","server_os":"Linux","password":true,"vac":true,"version":"7757534","steam_id":85568392924515191,"keywords":["nocrits","nodmgspread","payload","uncletopia"],"game_id":440,"stv_port":27036,"stv_name":"Uncletopia | Chicago | 3 | All Maps | STV","players":[{"user_id":361,"name":"nnobi","steam_id":76561198878729277,"connected_time":3187000000000,"state":"active","ping":75},{"user_id":383,"name":"Moychel","steam_id":76561198135551500,"connected_time":1395000000000,"state":"active","ping":130},{"user_id":337,"name":"Mata Mata Turtle","steam_id":76561198204545247,"connected_time":4189000000000,"state":"active","ping":75},{"user_id":377,"name":"Dr Frasier Crane","steam_id":76561198071790583,"connected_time":2661000000000,"state":"active","ping":58},{"user_id":384,"name":"LNRPdeadshot","steam_id":76561199160013540,"connected_time":1335000000000,"state":"active","ping":97},{"user_id":393,"name":"mrp","steam_id":76561198942843544,"connected_time":218000000000,"state":"active","ping":114},{"user_id":395,"name":"the grungler!","steam_id":76561198058485742,"connected_time":81000000000,"state":"active","ping":58},{"user_id":340,"name":"Dazed","steam_id":76561198167096734,"connected_time":4181000000000,"state":"active","ping":86},{"user_id":385,"name":"OrangeShoes","steam_id":76561197971249940,"connected_time":1221000000000,"state":"active","ping":79},{"user_id":392,"name":"bedmaxxing sleepcel","steam_id":76561198157983180,"connected_time":285000000000,"state":"active","ping":63},{"user_id":387,"name":"t h e n a","steam_id":76561198169736062,"connected_time":1193000000000,"state":"active","ping":89},{"user_id":394,"name":"Street Brawler","steam_id":76561199187337967,"connected_time":160000000000,"state":"active","ping":60},{"user_id":298,"name":"Horrizan","steam_id":76561197965028480,"connected_time":7169000000000,"state":"active","ping":88},{"user_id":396,"name":"Water","steam_id":76561198070297536,"connected_time":80000000000,"state":"active","ping":79},{"user_id":368,"name":"Unit#phntk#1","steam_id":76561198044946190,"connected_time":3044000000000,"state":"active","ping":75},{"user_id":379,"name":"rice white","steam_id":76561198320732910,"connected_time":2144000000000,"state":"active","ping":75},{"user_id":321,"name":"Skeleton Hotel","steam_id":76561198041704727,"connected_time":5836000000000,"state":"active","ping":54},{"user_id":397,"name":"Pika","steam_id":76561198068063436,"connected_time":79000000000,"state":"active","ping":47},{"user_id":349,"name":"Walnut","steam_id":76561198024954863,"connected_time":3870000000000,"state":"active","ping":56},{"user_id":398,"name":"Hippo Muncher","steam_id":76561198055411557,"connected_time":75000000000,"state":"active","ping":69},{"user_id":382,"name":"marilyn","steam_id":76561198096738991,"connected_time":1501000000000,"state":"active","ping":92},{"user_id":378,"name":"xZackAttack27x","steam_id":76561198035446639,"connected_time":2361000000000,"state":"active","ping":66},{"user_id":390,"name":"larguu","steam_id":76561197994336210,"connected_time":654000000000,"state":"active","ping":59}]},{"server_id":403,"name":"Uncletopia | Chicago | 4 | All Maps","name_short":"chi-4","host":"chi-1.us.uncletopia.com","port":27045,"enabled":true,"region":"us-central","cc":"us","latitude":41.881832,"longitude":-87.62318,"reserved":0,"last_update":"0001-01-01T00:00:00Z","name_a2s":"Uncletopia | Chicago | 4 | All Maps","protocol":17,"map":"koth_highpass","folder":"tf","game":"Team Fortress","app_id":440,"player_count":0,"max_players":24,"Bots":0,"server_type":"Dedicated","server_os":"Linux","password":true,"vac":true,"version":"7757534","steam_id":85568392924515193,"keywords":["cp","nocrits","nodmgspread","uncletopia"],"game_id":440,"stv_port":27046,"stv_name":"Uncletopia | Chicago | 4 | All Maps | STV","players":null},{"server_id":36,"name":"Uncletopia | Chicago | 5 | All Maps","name_short":"chi-5","host":"chi-2.us.uncletopia.com","port":27015,"enabled":true,"region":"us-central","cc":"us","latitude":41.881832,"longitude":-87.62318,"reserved":0,"last_update":"0001-01-01T00:00:00Z","name_a2s":"Uncletopia | Chicago | 5 | All Maps","protocol":17,"map":"pl_snowycoast","folder":"tf","game":"Team Fortress","app_id":440,"player_count":0,"max_players":24,"Bots":0,"server_type":"Dedicated","server_os":"Linux","password":true,"vac":true,"version":"7757534","steam_id":85568392924866362,"keywords":["nocrits","nodmgspread","payload","uncletopia"],"game_id":440,"stv_port":27016,"stv_name":"Uncletopia | Chicago | 5 | All Maps | STV","players":null},{"server_id":37,"name":"Uncletopia | Chicago | 6 | All Maps","name_short":"chi-6","host":"chi-2.us.uncletopia.com","port":27025,"enabled":true,"region":"us-central","cc":"us","latitude":41.881832,"longitude":-87.62318,"reserved":0,"last_update":"0001-01-01T00:00:00Z","name_a2s":"Uncletopia | Chicago | 6 | All Maps","protocol":17,"map":"koth_viaduct","folder":"tf","game":"Team Fortress","app_id":440,"player_count":0,"max_players":24,"Bots":0,"server_type":"Dedicated","server_os":"Linux","password":true,"vac":true,"version":"7757534","steam_id":85568392924866363,"keywords":["cp","nocrits","nodmgspread","uncletopia"],"game_id":440,"stv_port":27026,"stv_name":"Uncletopia | Chicago | 6 | All Maps | STV","players":null},{"server_id":38,"name":"Uncletopia | Chicago | 7 | Stopwatch Beta","name_short":"chi-7","host":"chi-2.us.uncletopia.com","port":27035,"enabled":true,"region":"us-central","cc":"us","latitude":41.881832,"longitude":-87.62318,"reserved":0,"last_update":"0001-01-01T00:00:00Z","name_a2s":"Uncletopia | Chicago | 7 | Stopwatch Beta","protocol":17,"map":"workshop/pl_badwater_pro_v12.ugc2142942074","folder":"tf","game":"Team Fortress","app_id":440,"player_count":0,"max_players":24,"Bots":0,"server_type":"Dedicated","server_os":"Linux","password":true,"vac":true,"version":"7757534","steam_id":85568392924866364,"keywords":["nocrits","nodmgspread","payload","uncletopia"],"game_id":440,"stv_port":27036,"stv_name":"Uncletopia | Chicago | 7 | Stopwatch Beta | STV","players":null},{"server_id":39,"name":"Uncletopia | Chicago | 8 | Community","name_short":"chi-8","host":"chi-2.us.uncletopia.com","port":27045,"enabled":true,"region":"us-central","cc":"us","latitude":41.881832,"longitude":-87.62318,"reserved":0,"last_update":"0001-01-01T00:00:00Z","name_a2s":"Uncletopia | Chicago | 8 | Community","protocol":17,"map":"workshop/cp_logjam_rc12.ugc454812035","folder":"tf","game":"Team Fortress","app_id":440,"player_count":0,"max_players":24,"Bots":0,"server_type":"Dedicated","server_os":"Linux","password":true,"vac":true,"version":"7757534","steam_id":85568392924866365,"keywords":["cp","nocrits","nodmgspread","uncletopia"],"game_id":440,"stv_port":27046,"stv_name":"Uncletopia | Chicago | 8 | Community | STV","players":null},{"server_id":8,"name":"Uncletopia | Dallas | 1 | All Maps","name_short":"dal-1","host":"dal-1.us.uncletopia.com","port":27015,"enabled":true,"region":"us-central","cc":"us","latitude":32.779167,"longitude":-96.80889,"reserved":0,"last_update":"0001-01-01T00:00:00Z","name_a2s":"Uncletopia | Dallas | 1 | All Maps","protocol":17,"map":"cp_altitude","folder":"tf","game":"Team Fortress","app_id":440,"player_count":0,"max_players":24,"Bots":0,"server_type":"Dedicated","server_os":"Linux","password":true,"vac":true,"version":"7757534","steam_id":85568392924469986,"keywords":["cp","nocrits","nodmgspread","uncletopia"],"game_id":440,"stv_port":27016,"stv_name":"Uncletopia | Dallas | 1 | All Maps | STV","players":null},{"server_id":108,"name":"Uncletopia | Dallas | 2 | All Maps","name_short":"dal-2","host":"dal-1.us.uncletopia.com","port":27025,"enabled":true,"region":"us-central","cc":"us","latitude":32.779167,"longitude":-96.80889,"reserved":0,"last_update":"0001-01-01T00:00:00Z","name_a2s":"Uncletopia | Dallas | 2 | All Maps","protocol":17,"map":"pl_swiftwater_final1","folder":"tf","game":"Team Fortress","app_id":440,"player_count":24,"max_players":24,"Bots":0,"server_type":"Dedicated","server_os":"Linux","password":true,"vac":true,"version":"7757534","steam_id":85568392924469988,"keywords":["nocrits","nodmgspread","payload","uncletopia"],"game_id":440,"stv_port":27026,"stv_name":"Uncletopia | Dallas | 2 | All Maps | STV","players":[{"user_id":404,"name":"+","steam_id":76561198262422184,"connected_time":2073000000000,"state":"active","ping":49},{"user_id":412,"name":"Socks","steam_id":76561198084279128,"connected_time":1052000000000,"state":"active","ping":104},{"user_id":341,"name":"Daz","steam_id":76561198041431938,"connected_time":4998000000000,"state":"active","ping":77},{"user_id":393,"name":"AlohaGnome","steam_id":76561198082595306,"connected_time":2459000000000,"state":"active","ping":88},{"user_id":383,"name":"robert","steam_id":76561198001196512,"connected_time":2690000000000,"state":"active","ping":60},{"user_id":394,"name":"hi","steam_id":76561198809577048,"connected_time":2442000000000,"state":"active","ping":101},{"user_id":384,"name":"Throckmorton627","steam_id":76561199147734259,"connected_time":2675000000000,"state":"active","ping":63},{"user_id":395,"name":"üéÉBunnyüéÉ","steam_id":76561198074872531,"connected_time":2437000000000,"state":"active","ping":61},{"user_id":413,"name":"pseudo-sentient subhuman","steam_id":76561198328210524,"connected_time":1042000000000,"state":"active","ping":79},{"user_id":418,"name":"seeping","steam_id":76561198063862967,"connected_time":379000000000,"state":"active","ping":86},{"user_id":417,"name":"09robcraft2","steam_id":76561199073189184,"connected_time":788000000000,"state":"active","ping":92},{"user_id":398,"name":"snongBurd","steam_id":76561198071254380,"connected_time":2427000000000,"state":"active","ping":77},{"user_id":415,"name":"boosh","steam_id":76561198102868313,"connected_time":858000000000,"state":"active","ping":89},{"user_id":370,"name":"Octis","steam_id":76561198118322999,"connected_time":3880000000000,"state":"active","ping":83},{"user_id":391,"name":"FCKGW-RHQQ2-YXRKT-8TG6W-2B7Q8","steam_id":76561197993138592,"connected_time":2534000000000,"state":"active","ping":94},{"user_id":400,"name":"nameban","steam_id":76561198869995094,"connected_time":2307000000000,"state":"active","ping":144},{"user_id":403,"name":"Average Vicodin Consumer","steam_id":76561199236719411,"connected_time":2157000000000,"state":"active","ping":88},{"user_id":409,"name":"hyly","steam_id":76561198079504588,"connected_time":1713000000000,"state":"active","ping":73},{"user_id":401,"name":"Malmart_Employee","steam_id":76561198320388704,"connected_time":2295000000000,"state":"active","ping":115},{"user_id":414,"name":"flipnote hatena frog","steam_id":76561198096334078,"connected_time":1025000000000,"state":"active","ping":75},{"user_id":367,"name":"IDNTT","steam_id":76561198080859587,"connected_time":4069000000000,"state":"active","ping":85},{"user_id":364,"name":"ough","steam_id":76561199156428309,"connected_time":4167000000000,"state":"active","ping":62},{"user_id":361,"name":"Darknile55","steam_id":76561198042029359,"connected_time":4234000000000,"state":"active","ping":75},{"user_id":407,"name":"two metre tall miku","steam_id":76561198337705174,"connected_time":2035000000000,"state":"active","ping":60}]},{"server_id":5,"name":"Uncletopia | Frankfurt | 1 | All Maps","name_short":"frk-1","host":"frk-1.de.uncletopia.com","port":27015,"enabled":true,"region":"eu","cc":"de","latitude":50.110924,"longitude":8.682127,"reserved":0,"last_update":"0001-01-01T00:00:00Z","name_a2s":"Uncletopia | Frankfurt | 1 | All Maps","protocol":17,"map":"pl_pier","folder":"tf","game":"Team Fortress","app_id":440,"player_count":0,"max_players":24,"Bots":0,"server_type":"Dedicated","server_os":"Linux","password":true,"vac":true,"version":"7757534","steam_id":85568392924469989,"keywords":["nocrits","nodmgspread","payload","uncletopia"],"game_id":440,"stv_port":27016,"stv_name":"Uncletopia | Frankfurt | 1 | All Maps | STV","players":null},{"server_id":110,"name":"Uncletopia | Frankfurt | 2 | All Maps","name_short":"frk-2","host":"frk-1.de.uncletopia.com","port":27025,"enabled":true,"region":"eu","cc":"de","latitude":50.110924,"longitude":8.682127,"reserved":0,"last_update":"0001-01-01T00:00:00Z","name_a2s":"Uncletopia | Frankfurt | 2 | All Maps","protocol":17,"map":"cp_altitude","folder":"tf","game":"Team Fortress","app_id":440,"player_count":0,"max_players":24,"Bots":0,"server_type":"Dedicated","server_os":"Linux","password":true,"vac":true,"version":"7757534","steam_id":85568392924469990,"keywords":["cp","nocrits","nodmgspread","uncletopia"],"game_id":440,"stv_port":27026,"stv_name":"Uncletopia | Frankfurt | 2 | All Maps | STV","players":null},{"server_id":308,"name":"Uncletopia | Frankfurt | 3 | All Maps","name_short":"frk-3","host":"frk-1.de.uncletopia.com","port":27035,"enabled":true,"region":"eu","cc":"de","latitude":50.110924,"longitude":8.682127,"reserved":0,"last_update":"0001-01-01T00:00:00Z","name_a2s":"Uncletopia | Frankfurt | 3 | All Maps","protocol":17,"map":"cp_altitude","folder":"tf","game":"Team Fortress","app_id":440,"player_count":0,"max_players":24,"Bots":0,"server_type":"Dedicated","server_os":"Linux","password":true,"vac":true,"version":"7757534","steam_id":85568392924504274,"keywords":["cp","nocrits","nodmgspread","uncletopia"],"game_id":440,"stv_port":27036,"stv_name":"Uncletopia | Frankfurt | 3 | All Maps | STV","players":null},{"server_id":309,"name":"Uncletopia | Frankfurt | 4 | All Maps","name_short":"frk-4","host":"frk-1.de.uncletopia.com","port":27045,"enabled":true,"region":"eu","cc":"de","latitude":50.110924,"longitude":8.682127,"reserved":0,"last_update":"0001-01-01T00:00:00Z","name_a2s":"Uncletopia | Frankfurt | 4 | All Maps","protocol":17,"map":"pl_snowycoast","folder":"tf","game":"Team Fortress","app_id":440,"player_count":0,"max_players":24,"Bots":0,"server_type":"Dedicated","server_os":"Linux","password":true,"vac":true,"version":"7757534","steam_id":85568392924504275,"keywords":["nocrits","nodmgspread","payload","uncletopia"],"game_id":440,"stv_port":27046,"stv_name":"Uncletopia | Frankfurt | 4 | All Maps | STV","players":null},{"server_id":310,"name":"Uncletopia | Frankfurt | 5 | All Maps","name_short":"frk-5","host":"frk-1.de.uncletopia.com","port":27055,"enabled":true,"region":"eu","cc":"de","latitude":50.110924,"longitude":8.682127,"reserved":0,"last_update":"0001-01-01T00:00:00Z","name_a2s":"Uncletopia | Frankfurt | 5 | All Maps","protocol":17,"map":"cp_altitude","folder":"tf","game":"Team Fortress","app_id":440,"player_count":0,"max_players":24,"Bots":0,"server_type":"Dedicated","server_os":"Linux","password":true,"vac":true,"version":"7757534","steam_id":85568392924504277,"keywords":["cp","nocrits","nodmgspread","uncletopia"],"game_id":440,"stv_port":27056,"stv_name":"Uncletopia | Frankfurt | 5 | All Maps | STV","players":null},{"server_id":311,"name":"Uncletopia | Frankfurt | 6 | All Maps","name_short":"frk-6","host":"frk-1.de.uncletopia.com","port":27065,"enabled":true,"region":"eu","cc":"de","latitude":50.110924,"longitude":8.682127,"reserved":0,"last_update":"0001-01-01T00:00:00Z","name_a2s":"Uncletopia | Frankfurt | 6 | All Maps","protocol":17,"map":"koth_highpass","folder":"tf","game":"Team Fortress","app_id":440,"player_count":0,"max_players":24,"Bots":0,"server_type":"Dedicated","server_os":"Linux","password":true,"vac":true,"version":"7757534","steam_id":85568392924504278,"keywords":["cp","nocrits","nodmgspread","uncletopia"],"game_id":440,"stv_port":27066,"stv_name":"Uncletopia | Frankfurt | 6 | All Maps | STV","players":null},{"server_id":23,"name":"Uncletopia | Frankfurt | 7 | Stopwatch Beta","name_short":"frk-7","host":"frk-1.de.uncletopia.com","port":27075,"enabled":true,"region":"eu","cc":"de","latitude":50.110924,"longitude":8.682127,"reserved":0,"last_update":"0001-01-01T00:00:00Z","name_a2s":"Uncletopia | Frankfurt | 7 | Stopwatch Beta","protocol":17,"map":"pl_borneo","folder":"tf","game":"Team Fortress","app_id":440,"player_count":0,"max_players":24,"Bots":0,"server_type":"Dedicated","server_os":"Linux","password":true,"vac":true,"version":"7757534","steam_id":85568392924742827,"keywords":["nocrits","nodmgspread","payload","uncletopia"],"game_id":440,"stv_port":27076,"stv_name":"Uncletopia | Frankfurt | 7 | Stopwatch Beta | STV","players":null},{"server_id":24,"name":"Uncletopia | Frankfurt | 8 | Community","name_short":"frk-8","host":"frk-1.de.uncletopia.com","port":27085,"enabled":true,"region":"eu","cc":"de","latitude":50.110924,"longitude":8.682127,"reserved":0,"last_update":"0001-01-01T00:00:00Z","name_a2s":"Uncletopia | Frankfurt | 8 | Community","protocol":17,"map":"koth_cascade","folder":"tf","game":"Team Fortress","app_id":440,"player_count":0,"max_players":24,"Bots":0,"server_type":"Dedicated","server_os":"Linux","password":true,"vac":true,"version":"7757534","steam_id":85568392924742828,"keywords":["cp","nocrits","nodmgspread","uncletopia"],"game_id":440,"stv_port":27086,"stv_name":"Uncletopia | Frankfurt | 8 | Community | STV","players":null},{"server_id":202,"name":"Uncletopia | Hong Kong | 1 | All Maps","name_short":"hgk-1","host":"hgk-1.hk.uncletopia.com","port":27015,"enabled":true,"region":"asia","cc":"hk","latitude":22.302711,"longitude":114.177216,"reserved":0,"last_update":"0001-01-01T00:00:00Z","name_a2s":"Uncletopia | Hong Kong | 1 | All Maps","protocol":17,"map":"pl_upward","folder":"tf","game":"Team Fortress","app_id":440,"player_count":24,"max_players":24,"Bots":0,"server_type":"Dedicated","server_os":"Linux","password":true,"vac":true,"version":"7757534","steam_id":85568392924494504,"keywords":["nocrits","nodmgspread","payload","uncletopia"],"game_id":440,"stv_port":27016,"stv_name":"Uncletopia | Hong Kong | 1 | All Maps | STV","players":[{"user_id":173,"name":"Rhaegar","steam_id":76561198037122849,"connected_time":2347000000000,"state":"active","ping":79},{"user_id":183,"name":"iMac G3","steam_id":76561199039424416,"connected_time":1379000000000,"state":"active","ping":113},{"user_id":170,"name":"ObscuroLucem","steam_id":76561198875037943,"connected_time":2710000000000,"state":"active","ping":82},{"user_id":186,"name":"LzyLuker","steam_id":76561198325513854,"connected_time":1223000000000,"state":"active","ping":80},{"user_id":190,"name":"SINDACCO MELON","steam_id":76561199254288337,"connected_time":626000000000,"state":"active","ping":101},{"user_id":185,"name":"pardo","steam_id":76561198230213828,"connected_time":1352000000000,"state":"active","ping":62},{"user_id":187,"name":"Signed_In_Again","steam_id":76561199446481404,"connected_time":1172000000000,"state":"active","ping":104},{"user_id":133,"name":"C√° Th√°ng 4","steam_id":76561198047162026,"connected_time":5421000000000,"state":"active","ping":75},{"user_id":191,"name":"Can sub","steam_id":76561198970391737,"connected_time":584000000000,"state":"active","ping":75},{"user_id":175,"name":"Totally a real lvl 3 sentry","steam_id":76561198979802944,"connected_time":2134000000000,"state":"active","ping":69},{"user_id":136,"name":"Lym0n","steam_id":76561199192420260,"connected_time":5161000000000,"state":"active","ping":115},{"user_id":137,"name":"gilsomnia","steam_id":76561198830813639,"connected_time":5086000000000,"state":"active","ping":114},{"user_id":192,"name":"ellz","steam_id":76561199216074568,"connected_time":571000000000,"state":"active","ping":125},{"user_id":157,"name":"Shades on Goggles","steam_id":76561198406067629,"connected_time":4352000000000,"state":"active","ping":58},{"user_id":197,"name":"Smile :)","steam_id":76561199125493462,"connected_time":27000000000,"state":"spawning","ping":145},{"user_id":169,"name":"brizzard","steam_id":76561198048438653,"connected_time":3000000000000,"state":"active","ping":55},{"user_id":180,"name":"The Piss Man","steam_id":76561198136685157,"connected_time":1817000000000,"state":"active","ping":57},{"user_id":171,"name":"Krayken","steam_id":76561197997933283,"connected_time":2694000000000,"state":"active","ping":124},{"user_id":155,"name":"Momoxhien","steam_id":76561198414997429,"connected_time":4499000000000,"state":"active","ping":56},{"user_id":149,"name":"im_0ff","steam_id":76561198339346695,"connected_time":4703000000000,"state":"active","ping":127},{"user_id":151,"name":"MsD IV","steam_id":76561198059707655,"connected_time":4579000000000,"state":"active","ping":78},{"user_id":194,"name":"average weed enjoyer","steam_id":76561199086337830,"connected_time":494000000000,"state":"active","ping":121},{"user_id":161,"name":"Az21","steam_id":76561198258046956,"connected_time":4208000000000,"state":"active","ping":116},{"user_id":160,"name":"Leroy","steam_id":76561199137927625,"connected_time":4231000000000,"state":"active","ping":96}]},{"server_id":1,"name":"Uncletopia | Los Angeles | 1 | All Maps","name_short":"lax-1","host":"lax-1.us.uncletopia.com","port":27015,"enabled":true,"region":"us-west","cc":"us","latitude":33.94279,"longitude":-118.41004,"reserved":0,"last_update":"0001-01-01T00:00:00Z","name_a2s":"Uncletopia | Los Angeles | 1 | All Maps","protocol":17,"map":"cp_snakewater_final1","folder":"tf","game":"Team Fortress","app_id":440,"player_count":0,"max_players":24,"Bots":0,"server_type":"Dedicated","server_os":"Linux","password":true,"vac":true,"version":"7757534","steam_id":85568392924469991,"keywords":["cp","nocrits","nodmgspread","uncletopia"],"game_id":440,"stv_port":27016,"stv_name":"Uncletopia | Los Angeles | 1 | All Maps | STV","players":null},{"server_id":112,"name":"Uncletopia | Los Angeles | 2 | All Maps","name_short":"lax-2","host":"lax-1.us.uncletopia.com","port":27025,"enabled":true,"region":"us-west","cc":"us","latitude":33.94279,"longitude":-118.41004,"reserved":0,"last_update":"0001-01-01T00:00:00Z","name_a2s":"Uncletopia | Los Angeles | 2 | All Maps","protocol":17,"map":"pl_pier","folder":"tf","game":"Team Fortress","app_id":440,"player_count":24,"max_players":24,"Bots":0,"server_type":"Dedicated","server_os":"Linux","password":true,"vac":true,"version":"7757534","steam_id":85568392924469992,"keywords":["nocrits","nodmgspread","payload","uncletopia"],"game_id":440,"stv_port":27026,"stv_name":"Uncletopia | Los Angeles | 2 | All Maps | STV","players":[{"user_id":310,"name":"ovenfresh01","steam_id":76561199086062124,"connected_time":1573000000000,"state":"active","ping":82},{"user_id":328,"name":"Punished Jeff #NeverSimpAgain","steam_id":76561198304252584,"connected_time":519000000000,"state":"active","ping":59},{"user_id":281,"name":"bok","steam_id":76561197999411826,"connected_time":4447000000000,"state":"active","ping":46},{"user_id":217,"name":"The Deders","steam_id":76561198002639950,"connected_time":8433000000000,"state":"active","ping":96},{"user_id":319,"name":"Her Majesty's Secret Service","steam_id":76561198348770994,"connected_time":1295000000000,"state":"active","ping":79},{"user_id":329,"name":"Mr. Sauce","steam_id":76561198055512324,"connected_time":476000000000,"state":"active","ping":107},{"user_id":322,"name":"LetsNotPlease","steam_id":76561198008528235,"connected_time":1090000000000,"state":"active","ping":101},{"user_id":325,"name":"Toxic Medic Main","steam_id":76561198009314845,"connected_time":977000000000,"state":"active","ping":103},{"user_id":330,"name":"ManicButtonMasher","steam_id":76561198026725131,"connected_time":407000000000,"state":"active","ping":98},{"user_id":339,"name":"Atlas Fugged :DD","steam_id":76561198018753989,"connected_time":144000000000,"state":"active","ping":68},{"user_id":302,"name":"i have teeth","steam_id":76561198014008520,"connected_time":2963000000000,"state":"active","ping":49},{"user_id":332,"name":"Scrux","steam_id":76561198129763115,"connected_time":342000000000,"state":"active","ping":54},{"user_id":280,"name":"Hakuyer","steam_id":76561198098618247,"connected_time":4512000000000,"state":"active","ping":71},{"user_id":321,"name":"HAT-WEARING‚Ñ¢ Maggot Gamer Cat","steam_id":76561197973992705,"connected_time":1155000000000,"state":"active","ping":68},{"user_id":324,"name":"Bug","steam_id":76561198424563663,"connected_time":1078000000000,"state":"active","ping":112},{"user_id":333,"name":"Rodent","steam_id":76561198033801957,"connected_time":329000000000,"state":"active","ping":72},{"user_id":334,"name":"Golddick Lewisson","steam_id":76561198054719949,"connected_time":324000000000,"state":"active","ping":122},{"user_id":286,"name":"faye","steam_id":76561198254541066,"connected_time":4073000000000,"state":"active","ping":51},{"user_id":335,"name":"Dastardly Vagabond","steam_id":76561198286504674,"connected_time":304000000000,"state":"active","ping":100},{"user_id":279,"name":"a homeless cat","steam_id":76561198058388903,"connected_time":4652000000000,"state":"active","ping":71},{"user_id":336,"name":"Vexal","steam_id":76561198319534082,"connected_time":297000000000,"state":"active","ping":67},{"user_id":320,"name":"Arizona","steam_id":76561198113748347,"connected_time":1274000000000,"state":"active","ping":94},{"user_id":340,"name":"‚ù§Graphite Muncher‚ù§","steam_id":76561199200969139,"connected_time":141000000000,"state":"active","ping":128},{"user_id":341,"name":"Wendigoon","steam_id":76561198213677789,"connected_time":134000000000,"state":"active","ping":76}]},{"server_id":324,"name":"Uncletopia | Los Angeles | 3 | All Maps","name_short":"lax-3","host":"lax-1.us.uncletopia.com","port":27035,"enabled":true,"region":"us-west","cc":"us","latitude":33.94279,"longitude":-118.41004,"reserved":0,"last_update":"0001-01-01T00:00:00Z","name_a2s":"Uncletopia | Los Angeles | 3 | All Maps","protocol":17,"map":"cp_steel","folder":"tf","game":"Team Fortress","app_id":440,"player_count":0,"max_players":24,"Bots":0,"server_type":"Dedicated","server_os":"Linux","password":true,"vac":true,"version":"7757534","steam_id":85568392924510198,"keywords":["cp","nocrits","nodmgspread","uncletopia"],"game_id":440,"stv_port":27036,"stv_name":"Uncletopia | Los Angeles | 3 | All Maps | STV","players":null},{"server_id":25,"name":"Uncletopia | Los Angeles | 4 | Stopwatch Beta","name_short":"lax-4","host":"lax-1.us.uncletopia.com","port":27045,"enabled":true,"region":"us-west","cc":"us","latitude":33.94279,"longitude":-118.41004,"reserved":0,"last_update":"0001-01-01T00:00:00Z","name_a2s":"Uncletopia | Los Angeles | 4 | Stopwatch Beta","protocol":17,"map":"koth_viaduct","folder":"tf","game":"Team Fortress","app_id":440,"player_count":0,"max_players":24,"Bots":0,"server_type":"Dedicated","server_os":"Linux","password":true,"vac":true,"version":"7757534","steam_id":85568392924510199,"keywords":["cp","nocrits","nodmgspread","uncletopia"],"game_id":440,"stv_port":27046,"stv_name":"Uncletopia | Los Angeles | 4 | Stopwatch Beta | STV","players":null},{"server_id":11,"name":"Uncletopia | London | 1 | All Maps","name_short":"lon-1","host":"lon-1.uk.uncletopia.com","port":27015,"enabled":true,"region":"eu","cc":"gb","latitude":51.509865,"longitude":-0.118092,"reserved":0,"last_update":"0001-01-01T00:00:00Z","name_a2s":"Uncletopia | London | 1 | All Maps","protocol":17,"map":"pl_swiftwater_final1","folder":"tf","game":"Team Fortress","app_id":440,"player_count":24,"max_players":24,"Bots":0,"server_type":"Dedicated","server_os":"Linux","password":true,"vac":true,"version":"7757534","steam_id":85568392924367362,"keywords":["nocrits","nodmgspread","payload","uncletopia"],"game_id":440,"stv_port":27016,"stv_name":"Uncletopia | London | 1 | All Maps | STV","players":[{"user_id":29,"name":"Melon","steam_id":76561198150893860,"connected_time":8823000000000,"state":"active","ping":87},{"user_id":140,"name":"Ben Doverr","steam_id":76561198034264020,"connected_time":727000000000,"state":"active","ping":120},{"user_id":120,"name":"night.s","steam_id":76561198326287823,"connected_time":2007000000000,"state":"active","ping":68},{"user_id":88,"name":"pl_z≈Çawoda","steam_id":76561198040588109,"connected_time":4197000000000,"state":"active","ping":75},{"user_id":116,"name":"^1Che e","steam_id":76561198440909486,"connected_time":2255000000000,"state":"active","ping":118},{"user_id":143,"name":"–£—Ç–∏–ª–∏–∑–∞—Ç–æ—Ä","steam_id":76561198001490104,"connected_time":655000000000,"state":"active","ping":90},{"user_id":142,"name":"jaime8D","steam_id":76561197980590671,"connected_time":681000000000,"state":"active","ping":87},{"user_id":136,"name":"Stepoface","steam_id":76561198091569863,"connected_time":929000000000,"state":"active","ping":62},{"user_id":138,"name":"ayu","steam_id":76561198871342329,"connected_time":838000000000,"state":"active","ping":103},{"user_id":112,"name":"FNF","steam_id":76561199151422826,"connected_time":2516000000000,"state":"active","ping":114},{"user_id":137,"name":"Control Point Commando","steam_id":76561198119439177,"connected_time":894000000000,"state":"active","ping":68},{"user_id":121,"name":"Anzu","steam_id":76561198043953503,"connected_time":2005000000000,"state":"active","ping":80},{"user_id":146,"name":"ricky pee pee","steam_id":76561198152620745,"connected_time":505000000000,"state":"active","ping":54},{"user_id":114,"name":"knyazF","steam_id":76561198163278585,"connected_time":2450000000000,"state":"active","ping":80},{"user_id":145,"name":"kovat ajat","steam_id":76561198037672220,"connected_time":596000000000,"state":"active","ping":70},{"user_id":92,"name":"Xx_ProBitch420_xX","steam_id":76561198918525723,"connected_time":4188000000000,"state":"active","ping":90},{"user_id":99,"name":"ugly","steam_id":76561199050412617,"connected_time":3763000000000,"state":"active","ping":111},{"user_id":147,"name":"bhop.rip raki-","steam_id":76561199105063476,"connected_time":473000000000,"state":"active","ping":56},{"user_id":124,"name":"yeldad","steam_id":76561198447264153,"connected_time":1958000000000,"state":"active","ping":121},{"user_id":133,"name":"remove cars","steam_id":76561199433578516,"connected_time":1395000000000,"state":"active","ping":88},{"user_id":127,"name":"Gus the sniper main","steam_id":76561199073802389,"connected_time":1848000000000,"state":"active","ping":93},{"user_id":64,"name":"BalSock","steam_id":76561198165339392,"connected_time":6537000000000,"state":"active","ping":95},{"user_id":139,"name":"luma","steam_id":76561198081649669,"connected_time":744000000000,"state":"active","ping":78},{"user_id":144,"name":"Mata","steam_id":76561198308191713,"connected_time":655000000000,"state":"active","ping":68}]},{"server_id":114,"name":"Uncletopia | London | 2 | All Maps","name_short":"lon-2","host":"lon-1.uk.uncletopia.com","port":27025,"enabled":true,"region":"eu","cc":"gb","latitude":51.509865,"longitude":-0.118092,"reserved":0,"last_update":"0001-01-01T00:00:00Z","name_a2s":"Uncletopia | London | 2 | All Maps","protocol":17,"map":"pl_snowycoast","folder":"tf","game":"Team Fortress","app_id":440,"player_count":0,"max_players":24,"Bots":0,"server_type":"Dedicated","server_os":"Linux","password":true,"vac":true,"version":"7757534","steam_id":85568392924470941,"keywords":["nocrits","nodmgspread","payload","uncletopia"],"game_id":440,"stv_port":27026,"stv_name":"Uncletopia | London | 2 | All Maps | STV","players":null},{"server_id":320,"name":"Uncletopia | London | 3 | All Maps","name_short":"lon-3","host":"lon-1.uk.uncletopia.com","port":27035,"enabled":true,"region":"eu","cc":"gb","latitude":51.509865,"longitude":-0.118092,"reserved":0,"last_update":"0001-01-01T00:00:00Z","name_a2s":"Uncletopia | London | 3 | All Maps","protocol":17,"map":"pl_badwater","folder":"tf","game":"Team Fortress","app_id":440,"player_count":0,"max_players":24,"Bots":0,"server_type":"Dedicated","server_os":"Linux","password":true,"vac":true,"version":"7757534","steam_id":85568392924510192,"keywords":["nocrits","nodmgspread","payload","uncletopia"],"game_id":440,"stv_port":27036,"stv_name":"Uncletopia | London | 3 | All Maps | STV","players":null},{"server_id":321,"name":"Uncletopia | London | 4 | All Maps","name_short":"lon-4","host":"lon-1.uk.uncletopia.com","port":27045,"enabled":true,"region":"eu","cc":"gb","latitude":51.509865,"longitude":-0.118092,"reserved":0,"last_update":"0001-01-01T00:00:00Z","name_a2s":"Uncletopia | London | 4 | All Maps","protocol":17,"map":"cp_snakewater_final1","folder":"tf","game":"Team Fortress","app_id":440,"player_count":0,"max_players":24,"Bots":0,"server_type":"Dedicated","server_os":"Linux","password":true,"vac":true,"version":"7757534","steam_id":85568392924510193,"keywords":["cp","nocrits","nodmgspread","uncletopia"],"game_id":440,"stv_port":27046,"stv_name":"Uncletopia | London | 4 | All Maps | STV","players":null},{"server_id":21,"name":"Uncletopia | London | 5 | All Maps","name_short":"lon-5","host":"lon-1.uk.uncletopia.com","port":27055,"enabled":true,"region":"eu","cc":"gb","latitude":51.509865,"longitude":-0.118092,"reserved":0,"last_update":"0001-01-01T00:00:00Z","name_a2s":"Uncletopia | London | 5 | All Maps","protocol":17,"map":"pl_snowycoast","folder":"tf","game":"Team Fortress","app_id":440,"player_count":0,"max_players":24,"Bots":0,"server_type":"Dedicated","server_os":"Linux","password":true,"vac":true,"version":"7757534","steam_id":85568392924742829,"keywords":["nocrits","nodmgspread","payload","uncletopia"],"game_id":440,"stv_port":27056,"stv_name":"Uncletopia | London | 5 | All Maps | STV","players":null},{"server_id":22,"name":"Uncletopia | London | 6 | All Maps","name_short":"lon-6","host":"lon-1.uk.uncletopia.com","port":27065,"enabled":true,"region":"eu","cc":"gb","latitude":51.509865,"longitude":-0.118092,"reserved":0,"last_update":"0001-01-01T00:00:00Z","name_a2s":"Uncletopia | London | 6 | All Maps","protocol":17,"map":"koth_cascade","folder":"tf","game":"Team Fortress","app_id":440,"player_count":0,"max_players":24,"Bots":0,"server_type":"Dedicated","server_os":"Linux","password":true,"vac":true,"version":"7757534","steam_id":85568392924742830,"keywords":["cp","nocrits","nodmgspread","uncletopia"],"game_id":440,"stv_port":27066,"stv_name":"Uncletopia | London | 6 | All Maps | STV","players":null},{"server_id":40,"name":"Uncletopia | London | 7 | No Payload","name_short":"lon-7","host":"lon-1.uk.uncletopia.com","port":27075,"enabled":true,"region":"eu","cc":"gb","latitude":51.509865,"longitude":-0.118092,"reserved":0,"last_update":"0001-01-01T00:00:00Z","name_a2s":"Uncletopia | London | 7 | No Payload","protocol":17,"map":"pl_upward","folder":"tf","game":"Team Fortress","app_id":440,"player_count":0,"max_players":24,"Bots":0,"server_type":"Dedicated","server_os":"Linux","password":true,"vac":true,"version":"7757534","steam_id":85568392924964314,"keywords":["nocrits","nodmgspread","payload","uncletopia"],"game_id":440,"stv_port":27076,"stv_name":"Uncletopia | London | 7 | No Payload | STV","players":null},{"server_id":41,"name":"Uncletopia | London | 8 | Community","name_short":"lon-8","host":"lon-1.uk.uncletopia.com","port":27085,"enabled":true,"region":"eu","cc":"gb","latitude":51.509865,"longitude":-0.118092,"reserved":0,"last_update":"0001-01-01T00:00:00Z","name_a2s":"Uncletopia | London | 8 | Community","protocol":17,"map":"workshop/koth_product_final.ugc454272353","folder":"tf","game":"Team Fortress","app_id":440,"player_count":0,"max_players":24,"Bots":0,"server_type":"Dedicated","server_os":"Linux","password":true,"vac":true,"version":"7757534","steam_id":85568392924964315,"keywords":["cp","nocrits","nodmgspread","uncletopia"],"game_id":440,"stv_port":27086,"stv_name":"Uncletopia | London | 8 | Community | STV","players":null},{"server_id":300,"name":"Uncletopia | Montr√©al | 1 | All Maps","name_short":"mtl-1","host":"mtl-1.ca.uncletopia.com","port":27015,"enabled":true,"region":"us-east","cc":"ca","latitude":45.50889,"longitude":-73.56167,"reserved":0,"last_update":"0001-01-01T00:00:00Z","name_a2s":"Uncletopia | Montr√©al | 1 | All Maps","protocol":17,"map":"koth_lakeside_final","folder":"tf","game":"Team Fortress","app_id":440,"player_count":0,"max_players":24,"Bots":0,"server_type":"Dedicated","server_os":"Linux","password":true,"vac":true,"version":"7757534","steam_id":85568392924500087,"keywords":["cp","nocrits","nodmgspread","uncletopia"],"game_id":440,"stv_port":27016,"stv_name":"Uncletopia | Montr√©al | 1 | All Maps | STV","players":null},{"server_id":301,"name":"Uncletopia | Montr√©al | 2 | All Maps","name_short":"mtl-2","host":"mtl-1.ca.uncletopia.com","port":27025,"enabled":true,"region":"us-east","cc":"ca","latitude":45.50889,"longitude":-73.56167,"reserved":0,"last_update":"0001-01-01T00:00:00Z","name_a2s":"Uncletopia | Montr√©al | 2 | All Maps","protocol":17,"map":"pl_borneo","folder":"tf","game":"Team Fortress","app_id":440,"player_count":0,"max_players":24,"Bots":0,"server_type":"Dedicated","server_os":"Linux","password":true,"vac":true,"version":"7757534","steam_id":85568392924500088,"keywords":["nocrits","nodmgspread","payload","uncletopia"],"game_id":440,"stv_port":27026,"stv_name":"Uncletopia | Montr√©al | 2 | All Maps | STV","players":null},{"server_id":302,"name":"Uncletopia | Montr√©al | 3 | All Maps","name_short":"mtl-3","host":"mtl-1.ca.uncletopia.com","port":27035,"enabled":true,"region":"us-east","cc":"ca","latitude":45.50889,"longitude":-73.56167,"reserved":0,"last_update":"0001-01-01T00:00:00Z","name_a2s":"Uncletopia | Montr√©al | 3 | All Maps","protocol":17,"map":"cp_sunshine","folder":"tf","game":"Team Fortress","app_id":440,"player_count":0,"max_players":24,"Bots":0,"server_type":"Dedicated","server_os":"Linux","password":true,"vac":true,"version":"7757534","steam_id":85568392924500089,"keywords":["cp","nocrits","nodmgspread","uncletopia"],"game_id":440,"stv_port":27036,"stv_name":"Uncletopia | Montr√©al | 3 | All Maps | STV","players":null},{"server_id":303,"name":"Uncletopia | Montr√©al | 4 | No Payload","name_short":"mtl-4","host":"mtl-1.ca.uncletopia.com","port":27045,"enabled":true,"region":"us-east","cc":"ca","latitude":45.50889,"longitude":-73.56167,"reserved":0,"last_update":"0001-01-01T00:00:00Z","name_a2s":"Uncletopia | Montr√©al | 4 | No Payload","protocol":17,"map":"koth_lakeside_final","folder":"tf","game":"Team Fortress","app_id":440,"player_count":0,"max_players":24,"Bots":0,"server_type":"Dedicated","server_os":"Linux","password":true,"vac":true,"version":"7757534","steam_id":85568392924500090,"keywords":["cp","nocrits","nodmgspread","uncletopia"],"game_id":440,"stv_port":27046,"stv_name":"Uncletopia | Montr√©al | 4 | No Payload | STV","players":null},{"server_id":13,"name":"Uncletopia | New York City | 1 | All Maps","name_short":"nyc-1","host":"nyc-1.us.uncletopia.com","port":27015,"enabled":true,"region":"us-east","cc":"us","latitude":40.73061,"longitude":-73.93524,"reserved":0,"last_update":"0001-01-01T00:00:00Z","name_a2s":"Uncletopia | New York City | 1 | All Maps","protocol":17,"map":"pl_barnblitz","folder":"tf","game":"Team Fortress","app_id":440,"player_count":2,"max_players":24,"Bots":0,"server_type":"Dedicated","server_os":"Linux","password":true,"vac":true,"version":"7757534","steam_id":85568392924469993,"keywords":["nocrits","nodmgspread","payload","uncletopia"],"game_id":440,"stv_port":27016,"stv_name":"Uncletopia | New York City | 1 | All Maps | STV","players":[{"user_id":406,"name":"ghostgary","steam_id":76561198178466361,"connected_time":70000000000,"state":"active","ping":130},{"user_id":401,"name":"Venom Fate","steam_id":76561199086196283,"connected_time":829000000000,"state":"active","ping":189}]},{"server_id":14,"name":"Uncletopia | New York City | 2 | All Maps","name_short":"nyc-2","host":"nyc-1.us.uncletopia.com","port":27025,"enabled":true,"region":"us-east","cc":"us","latitude":40.73061,"longitude":-73.93524,"reserved":0,"last_update":"0001-01-01T00:00:00Z","name_a2s":"Uncletopia | New York City | 2 | All Maps","protocol":17,"map":"cp_altitude","folder":"tf","game":"Team Fortress","app_id":440,"player_count":0,"max_players":24,"Bots":0,"server_type":"Dedicated","server_os":"Linux","password":true,"vac":true,"version":"7757534","steam_id":85568392924469994,"keywords":["cp","nocrits","nodmgspread","uncletopia"],"game_id":440,"stv_port":27026,"stv_name":"Uncletopia | New York City | 2 | All Maps | STV","players":null},{"server_id":15,"name":"Uncletopia | New York City | 3 | Stopwatch Beta","name_short":"nyc-3","host":"nyc-1.us.uncletopia.com","port":27035,"enabled":true,"region":"us-east","cc":"us","latitude":40.73061,"longitude":-73.93524,"reserved":0,"last_update":"0001-01-01T00:00:00Z","name_a2s":"Uncletopia | New York City | 3 | Stopwatch Beta","protocol":17,"map":"pl_upward","folder":"tf","game":"Team Fortress","app_id":440,"player_count":0,"max_players":24,"Bots":0,"server_type":"Dedicated","server_os":"Linux","password":true,"vac":true,"version":"7757534","steam_id":85568392924742820,"keywords":["nocrits","nodmgspread","payload","uncletopia"],"game_id":440,"stv_port":27036,"stv_name":"Uncletopia | New York City | 3 | Stopwatch Beta | STV","players":null},{"server_id":16,"name":"Uncletopia | New York City | 4 | Community","name_short":"nyc-4","host":"nyc-1.us.uncletopia.com","port":27045,"enabled":true,"region":"us-east","cc":"us","latitude":40.73061,"longitude":-73.93524,"reserved":0,"last_update":"0001-01-01T00:00:00Z","name_a2s":"Uncletopia | New York City | 4 | Community","protocol":17,"map":"workshop/rd_asteroid_redux_b1.ugc2154902912","folder":"tf","game":"Team Fortress","app_id":440,"player_count":0,"max_players":24,"Bots":0,"server_type":"Dedicated","server_os":"Linux","password":true,"vac":true,"version":"7757534","steam_id":85568392924742821,"keywords":["beta","nocrits","nodmgspread","rd","uncletopia"],"game_id":440,"stv_port":27046,"stv_name":"Uncletopia | New York City | 4 | Community | STV","players":null},{"server_id":142,"name":"Uncletopia | S√£o Paulo | 1 | All Maps","name_short":"sao-1","host":"sao-1.br.uncletopia.com","port":27015,"enabled":true,"region":"sa","cc":"br","latitude":-23.533773,"longitude":-46.62529,"reserved":0,"last_update":"0001-01-01T00:00:00Z","name_a2s":"Uncletopia | S√£o Paulo | 1 | All Maps","protocol":17,"map":"pl_upward","folder":"tf","game":"Team Fortress","app_id":440,"player_count":0,"max_players":24,"Bots":0,"server_type":"Dedicated","server_os":"Linux","password":true,"vac":true,"version":"7757534","steam_id":85568392924469996,"keywords":["nocrits","nodmgspread","payload","uncletopia"],"game_id":440,"stv_port":27016,"stv_name":"Uncletopia | S√£o Paulo | 1 | All Maps | STV","players":null},{"server_id":143,"name":"Uncletopia | S√£o Paulo | 2 | All Maps","name_short":"sao-2","host":"sao-2.br.uncletopia.com","port":27015,"enabled":true,"region":"sa","cc":"br","latitude":-23.533773,"longitude":-46.62529,"reserved":0,"last_update":"0001-01-01T00:00:00Z","name_a2s":"Uncletopia | S√£o Paulo | 2 | All Maps","protocol":17,"map":"koth_viaduct","folder":"tf","game":"Team Fortress","app_id":440,"player_count":0,"max_players":24,"Bots":0,"server_type":"Dedicated","server_os":"Linux","password":true,"vac":true,"version":"7757534","steam_id":85568392924485349,"keywords":["cp","nocrits","nodmgspread","uncletopia"],"game_id":440,"stv_port":27016,"stv_name":"Uncletopia | S√£o Paulo | 2 | All Maps | STV","players":null},{"server_id":7,"name":"Uncletopia | Seattle | 1 | All Maps","name_short":"sea-1","host":"sea-1.us.uncletopia.com","port":27015,"enabled":true,"region":"us-west","cc":"us","latitude":47.608013,"longitude":-122.33517,"reserved":0,"last_update":"0001-01-01T00:00:00Z","name_a2s":"Uncletopia | Seattle | 1 | All Maps","protocol":17,"map":"cp_freight_final1","folder":"tf","game":"Team Fortress","app_id":440,"player_count":24,"max_players":24,"Bots":0,"server_type":"Dedicated","server_os":"Linux","password":true,"vac":true,"version":"7757534","steam_id":85568392924469997,"keywords":["cp","nocrits","nodmgspread","uncletopia"],"game_id":440,"stv_port":27016,"stv_name":"Uncletopia | Seattle | 1 | All Maps | STV","players":[{"user_id":359,"name":"CHARGE FAST HIT GRASS","steam_id":76561198866629645,"connected_time":6362000000000,"state":"active","ping":58},{"user_id":412,"name":"Finkly","steam_id":76561198049828110,"connected_time":987000000000,"state":"active","ping":45},{"user_id":390,"name":"video game director cuts","steam_id":76561198038142791,"connected_time":3167000000000,"state":"active","ping":61},{"user_id":413,"name":"Mara Roo","steam_id":76561198279341789,"connected_time":950000000000,"state":"active","ping":147},{"user_id":404,"name":"blizz","steam_id":76561199139715539,"connected_time":2015000000000,"state":"active","ping":70},{"user_id":348,"name":"Mystic man of potatoe","steam_id":76561198027267207,"connected_time":7166000000000,"state":"active","ping":95},{"user_id":393,"name":"Ayayahuasca","steam_id":76561199002906056,"connected_time":2730000000000,"state":"active","ping":48},{"user_id":367,"name":"Revco","steam_id":76561198175894878,"connected_time":5802000000000,"state":"active","ping":131},{"user_id":374,"name":"doopsies","steam_id":76561198083000867,"connected_time":4858000000000,"state":"active","ping":51},{"user_id":394,"name":"profile name","steam_id":76561198032625036,"connected_time":2717000000000,"state":"active","ping":60},{"user_id":417,"name":"Samsiel","steam_id":76561198094134951,"connected_time":594000000000,"state":"active","ping":142},{"user_id":373,"name":"Trent Reznor","steam_id":76561198029396836,"connected_time":5422000000000,"state":"active","ping":35},{"user_id":411,"name":"Sly Marbo","steam_id":76561198135271741,"connected_time":1042000000000,"state":"active","ping":48},{"user_id":397,"name":"Brynkiwi","steam_id":76561198052177917,"connected_time":2664000000000,"state":"active","ping":94},{"user_id":419,"name":"RandomIsName","steam_id":76561198351446249,"connected_time":406000000000,"state":"active","ping":83},{"user_id":370,"name":"no audio 1/5/23 uncletopia","steam_id":76561198325306660,"connected_time":5590000000000,"state":"active","ping":52},{"user_id":409,"name":"Unnamed Jon","steam_id":76561198424248616,"connected_time":1234000000000,"state":"active","ping":86},{"user_id":421,"name":"Mr8bittripper","steam_id":76561198133894229,"connected_time":280000000000,"state":"active","ping":67},{"user_id":414,"name":"AlaNo","steam_id":76561198133099582,"connected_time":854000000000,"state":"active","ping":84},{"user_id":363,"name":"i had sex on your couch","steam_id":76561198025454291,"connected_time":6227000000000,"state":"active","ping":34},{"user_id":407,"name":"AceSea","steam_id":76561198851176490,"connected_time":1594000000000,"state":"active","ping":50},{"user_id":415,"name":"Sly Ramen","steam_id":76561198043075361,"connected_time":771000000000,"state":"active","ping":103},{"user_id":416,"name":"scrapheap","steam_id":76561198202407087,"connected_time":717000000000,"state":"active","ping":132},{"user_id":418,"name":"Honeybadger","steam_id":76561198075944319,"connected_time":560000000000,"state":"active","ping":132}]},{"server_id":119,"name":"Uncletopia | Seattle | 2 | All Maps","name_short":"sea-2","host":"sea-1.us.uncletopia.com","port":27025,"enabled":true,"region":"us-west","cc":"us","latitude":47.608013,"longitude":-122.33517,"reserved":0,"last_update":"0001-01-01T00:00:00Z","name_a2s":"Uncletopia | Seattle | 2 | All Maps","protocol":17,"map":"pl_rumford_event","folder":"tf","game":"Team Fortress","app_id":440,"player_count":24,"max_players":24,"Bots":0,"server_type":"Dedicated","server_os":"Linux","password":true,"vac":true,"version":"7757534","steam_id":85568392924469998,"keywords":["nocrits","nodmgspread","payload","uncletopia"],"game_id":440,"stv_port":27026,"stv_name":"Uncletopia | Seattle | 2 | All Maps | STV","players":[{"user_id":378,"name":"SkyLark","steam_id":76561198303618132,"connected_time":1236000000000,"state":"active","ping":64},{"user_id":374,"name":"‚ùÑBrrr-azorn‚ùÑ","steam_id":76561198096327396,"connected_time":2299000000000,"state":"active","ping":117},{"user_id":383,"name":"Naffers","steam_id":76561198195957335,"connected_time":817000000000,"state":"active","ping":45},{"user_id":382,"name":"Defeat","steam_id":76561198065203818,"connected_time":933000000000,"state":"active","ping":45},{"user_id":391,"name":"alleopold","steam_id":76561199055478676,"connected_time":5000000000,"state":"spawning","ping":298},{"user_id":370,"name":"twitch.tv/abaddon_amog","steam_id":76561198268581959,"connected_time":2966000000000,"state":"active","ping":61},{"user_id":322,"name":"-","steam_id":76561198021308963,"connected_time":6084000000000,"state":"active","ping":75},{"user_id":333,"name":"Hindmost","steam_id":76561199081837220,"connected_time":5579000000000,"state":"active","ping":82},{"user_id":384,"name":"Bubbamanme","steam_id":76561198119778504,"connected_time":804000000000,"state":"active","ping":60},{"user_id":385,"name":"Kromeousible","steam_id":76561198087317232,"connected_time":590000000000,"state":"active","ping":107},{"user_id":364,"name":"lana_del_rey.com","steam_id":76561198172447621,"connected_time":3075000000000,"state":"active","ping":85},{"user_id":386,"name":"finger","steam_id":76561198119224484,"connected_time":533000000000,"state":"active","ping":120},{"user_id":387,"name":"smeasly","steam_id":76561198028718812,"connected_time":520000000000,"state":"active","ping":34},{"user_id":330,"name":"Bryce Gobo","steam_id":76561199411560141,"connected_time":5678000000000,"state":"active","ping":47},{"user_id":336,"name":"Mr. Twister","steam_id":76561198016791916,"connected_time":5464000000000,"state":"active","ping":84},{"user_id":302,"name":"goldhed","steam_id":76561198051751133,"connected_time":6829000000000,"state":"active","ping":58},{"user_id":377,"name":"void","steam_id":76561198107501413,"connected_time":1487000000000,"state":"active","ping":90},{"user_id":388,"name":"Air Fryer - $39.99 (4 Payments)","steam_id":76561198043572048,"connected_time":392000000000,"state":"active","ping":124},{"user_id":376,"name":"Maniacal Rage","steam_id":76561197970758925,"connected_time":2083000000000,"state":"active","ping":88},{"user_id":343,"name":"PopcornNinja101","steam_id":76561198330680181,"connected_time":4971000000000,"state":"active","ping":45},{"user_id":369,"name":"Velika, Necro Master","steam_id":76561198063445881,"connected_time":2985000000000,"state":"active","ping":67},{"user_id":344,"name":"......","steam_id":76561198067612741,"connected_time":4919000000000,"state":"active","ping":45},{"user_id":375,"name":"What Dunpeal Hunter?","steam_id":76561198062243094,"connected_time":2298000000000,"state":"active","ping":69},{"user_id":368,"name":"Magpie, frugal trader","steam_id":76561198057143937,"connected_time":3034000000000,"state":"active","ping":46}]},{"server_id":406,"name":"Uncletopia | Seattle | 3 | Stopwatch Beta","name_short":"sea-3","host":"sea-1.us.uncletopia.com","port":27035,"enabled":true,"region":"us-west","cc":"us","latitude":47.608013,"longitude":-122.33517,"reserved":0,"last_update":"0001-01-01T00:00:00Z","name_a2s":"Uncletopia | Seattle | 3 | Stopwatch Beta","protocol":17,"map":"workshop/koth_clearcut_b15.ugc2107050255","folder":"tf","game":"Team Fortress","app_id":440,"player_count":0,"max_players":24,"Bots":0,"server_type":"Dedicated","server_os":"Linux","password":true,"vac":true,"version":"7757534","steam_id":85568392924515217,"keywords":["cp","nocrits","nodmgspread","uncletopia"],"game_id":440,"stv_port":27036,"stv_name":"Uncletopia | Seattle | 3 | Stopwatch Beta | STV","players":null},{"server_id":17,"name":"Uncletopia | San Francisco | 1 | All Maps","name_short":"sfo-1","host":"sfo-1.us.uncletopia.com","port":27015,"enabled":true,"region":"us-west","cc":"us","latitude":37.77397,"longitude":-122.4313,"reserved":0,"last_update":"0001-01-01T00:00:00Z","name_a2s":"Uncletopia | San Francisco | 1 | All Maps","protocol":17,"map":"cp_altitude","folder":"tf","game":"Team Fortress","app_id":440,"player_count":0,"max_players":24,"Bots":0,"server_type":"Dedicated","server_os":"Linux","password":true,"vac":true,"version":"7757534","steam_id":85568392924469999,"keywords":["cp","nocrits","nodmgspread","uncletopia"],"game_id":440,"stv_port":27016,"stv_name":"Uncletopia | San Francisco | 1 | All Maps | STV","players":null},{"server_id":18,"name":"Uncletopia | San Francisco | 2 | All Maps","name_short":"sfo-2","host":"sfo-1.us.uncletopia.com","port":27025,"enabled":true,"region":"us-west","cc":"us","latitude":37.77397,"longitude":-122.4313,"reserved":0,"last_update":"0001-01-01T00:00:00Z","name_a2s":"Uncletopia | San Francisco | 2 | All Maps","protocol":17,"map":"koth_cascade","folder":"tf","game":"Team Fortress","app_id":440,"player_count":3,"max_players":24,"Bots":0,"server_type":"Dedicated","server_os":"Linux","password":true,"vac":true,"version":"7757534","steam_id":85568392924470000,"keywords":["cp","nocrits","nodmgspread","uncletopia"],"game_id":440,"stv_port":27026,"stv_name":"Uncletopia | San Francisco | 2 | All Maps | STV","players":[{"user_id":9,"name":"QueeQuee","steam_id":76561198070804012,"connected_time":4957000000000,"state":"active","ping":69},{"user_id":10,"name":"sly1","steam_id":76561198049014977,"connected_time":4957000000000,"state":"active","ping":66},{"user_id":13,"name":"Noobot9k","steam_id":76561198067338651,"connected_time":4950000000000,"state":"active","ping":70}]},{"server_id":19,"name":"Uncletopia | San Francisco | 3 | Stopwatch Beta","name_short":"sfo-3","host":"sfo-1.us.uncletopia.com","port":27035,"enabled":true,"region":"us-west","cc":"us","latitude":37.77397,"longitude":-122.4313,"reserved":0,"last_update":"0001-01-01T00:00:00Z","name_a2s":"Uncletopia | San Francisco | 3 | Stopwatch Beta","protocol":17,"map":"koth_viaduct","folder":"tf","game":"Team Fortress","app_id":440,"player_count":0,"max_players":24,"Bots":0,"server_type":"Dedicated","server_os":"Linux","password":true,"vac":true,"version":"7757534","steam_id":85568392924742824,"keywords":["cp","nocrits","nodmgspread","uncletopia"],"game_id":440,"stv_port":27036,"stv_name":"Uncletopia | San Francisco | 3 | Stopwatch Beta | STV","players":null},{"server_id":20,"name":"Uncletopia | San Francisco | 4 | Community","name_short":"sfo-4","host":"sfo-1.us.uncletopia.com","port":27045,"enabled":true,"region":"us-west","cc":"us","latitude":37.77397,"longitude":-122.4313,"reserved":0,"last_update":"0001-01-01T00:00:00Z","name_a2s":"Uncletopia | San Francisco | 4 | Community","protocol":17,"map":"workshop/koth_bagel_rc5.ugc2514036946","folder":"tf","game":"Team Fortress","app_id":440,"player_count":0,"max_players":24,"Bots":0,"server_type":"Dedicated","server_os":"Linux","password":true,"vac":true,"version":"7757534","steam_id":85568392924742826,"keywords":["cp","nocrits","nodmgspread","uncletopia"],"game_id":440,"stv_port":27046,"stv_name":"Uncletopia | San Francisco | 4 | Community | STV","players":null},{"server_id":141,"name":"Uncletopia | Sydney | 1 | All Maps","name_short":"syd-1","host":"syd-1.au.uncletopia.com","port":27015,"enabled":true,"region":"au","cc":"au","latitude":-33.865143,"longitude":151.2099,"reserved":0,"last_update":"0001-01-01T00:00:00Z","name_a2s":"Uncletopia | Sydney | 1 | All Maps","protocol":17,"map":"pl_snowycoast","folder":"tf","game":"Team Fortress","app_id":440,"player_count":23,"max_players":24,"Bots":0,"server_type":"Dedicated","server_os":"Linux","password":true,"vac":true,"version":"7757534","steam_id":85568392924470001,"keywords":["nocrits","nodmgspread","payload","uncletopia"],"game_id":440,"stv_port":27016,"stv_name":"Uncletopia | Sydney | 1 | All Maps | STV","players":[{"user_id":372,"name":"jim :)","steam_id":76561198127508905,"connected_time":243000000000,"state":"active","ping":35},{"user_id":376,"name":"Momru","steam_id":76561198275587172,"connected_time":127000000000,"state":"active","ping":175},{"user_id":367,"name":"Trevor‚ò≠snip‚ò≠snip‚ò≠","steam_id":76561198977373167,"connected_time":459000000000,"state":"active","ping":109},{"user_id":340,"name":"Garry's Mod Rod","steam_id":76561197977993958,"connected_time":1927000000000,"state":"active","ping":45},{"user_id":368,"name":"bird","steam_id":76561198258514103,"connected_time":451000000000,"state":"active","ping":68},{"user_id":347,"name":"michael","steam_id":76561198052848358,"connected_time":1541000000000,"state":"active","ping":62},{"user_id":369,"name":"KingQuin","steam_id":76561198880363423,"connected_time":425000000000,"state":"active","ping":114},{"user_id":350,"name":"kimiko","steam_id":76561199057568663,"connected_time":1496000000000,"state":"active","ping":54},{"user_id":263,"name":"Worst Sniper","steam_id":76561198025733081,"connected_time":7637000000000,"state":"active","ping":74},{"user_id":349,"name":"ten thousand bees","steam_id":76561199099744527,"connected_time":1507000000000,"state":"active","ping":45},{"user_id":373,"name":"Smae ‚éä ‚éä","steam_id":76561198161497327,"connected_time":182000000000,"state":"active","ping":67},{"user_id":378,"name":"JustGaming","steam_id":76561198086431902,"connected_time":42000000000,"state":"active","ping":51},{"user_id":364,"name":"Enchanted Cat","steam_id":76561198866538028,"connected_time":639000000000,"state":"active","ping":86},{"user_id":359,"name":"beth.cubitt","steam_id":76561198454733447,"connected_time":1214000000000,"state":"active","ping":91},{"user_id":358,"name":"MR Martian","steam_id":76561198157854561,"connected_time":1236000000000,"state":"active","ping":90},{"user_id":354,"name":"SubHam","steam_id":76561198071578622,"connected_time":1432000000000,"state":"active","ping":73},{"user_id":320,"name":"KeeperOfBalance","steam_id":76561198028070089,"connected_time":4136000000000,"state":"active","ping":87},{"user_id":365,"name":"twitch.tv/DrTreggles","steam_id":76561198042806226,"connected_time":569000000000,"state":"active","ping":84},{"user_id":318,"name":"‡∏∏bifcheg","steam_id":76561198319806610,"connected_time":4432000000000,"state":"active","ping":69},{"user_id":335,"name":"zen","steam_id":76561198302670452,"connected_time":2438000000000,"state":"active","ping":58},{"user_id":361,"name":"EpicGuy4227","steam_id":76561198094132328,"connected_time":772000000000,"state":"active","ping":53},{"user_id":375,"name":"Turbo_dip","steam_id":76561198446508846,"connected_time":170000000000,"state":"active","ping":66},{"user_id":363,"name":"formatic","steam_id":76561198316573006,"connected_time":684000000000,"state":"active","ping":66}]},{"server_id":123,"name":"Uncletopia | Sydney | 2 | All Maps","name_short":"syd-2","host":"syd-1.au.uncletopia.com","port":27025,"enabled":true,"region":"au","cc":"au","latitude":-33.865143,"longitude":151.2099,"reserved":0,"last_update":"0001-01-01T00:00:00Z","name_a2s":"Uncletopia | Sydney | 2 | All Maps","protocol":17,"map":"koth_viaduct","folder":"tf","game":"Team Fortress","app_id":440,"player_count":0,"max_players":24,"Bots":0,"server_type":"Dedicated","server_os":"Linux","password":true,"vac":true,"version":"7757534","steam_id":85568392924470002,"keywords":["cp","nocrits","nodmgspread","uncletopia"],"game_id":440,"stv_port":27026,"stv_name":"Uncletopia | Sydney | 2 | All Maps | STV","players":null},{"server_id":395,"name":"Uncletopia | Sydney | 3 | All Maps","name_short":"syd-3","host":"syd-1.au.uncletopia.com","port":27035,"enabled":true,"region":"au","cc":"au","latitude":-33.865143,"longitude":151.2099,"reserved":0,"last_update":"0001-01-01T00:00:00Z","name_a2s":"Uncletopia | Sydney | 3 | All Maps","protocol":17,"map":"pl_pier","folder":"tf","game":"Team Fortress","app_id":440,"player_count":0,"max_players":24,"Bots":0,"server_type":"Dedicated","server_os":"Linux","password":true,"vac":true,"version":"7757534","steam_id":85568392925194467,"keywords":["nocrits","nodmgspread","payload","uncletopia"],"game_id":440,"stv_port":27036,"stv_name":"Uncletopia | Sydney | 3 | All Maps | STV","players":null},{"server_id":396,"name":"Uncletopia | Sydney | 4 | All Maps","name_short":"syd-4","host":"syd-1.au.uncletopia.com","port":27045,"enabled":true,"region":"au","cc":"au","latitude":-33.865143,"longitude":151.2099,"reserved":0,"last_update":"0001-01-01T00:00:00Z","name_a2s":"Uncletopia | Sydney | 4 | All Maps","protocol":17,"map":"koth_viaduct","folder":"tf","game":"Team Fortress","app_id":440,"player_count":0,"max_players":24,"Bots":0,"server_type":"Dedicated","server_os":"Linux","password":true,"vac":true,"version":"7757534","steam_id":85568392925397958,"keywords":["cp","nocrits","nodmgspread","uncletopia"],"game_id":440,"stv_port":27046,"stv_name":"Uncletopia | Sydney | 4 | All Maps | STV","players":null},{"server_id":58,"name":"Uncletopia | Sydney | 5 | Stopwatch Beta","name_short":"syd-5","host":"syd-1.au.uncletopia.com","port":27055,"enabled":true,"region":"au","cc":"au","latitude":-33.865143,"longitude":151.2099,"reserved":0,"last_update":"0001-01-01T00:00:00Z","name_a2s":"Uncletopia | Sydney | 5 | Stopwatch Beta","protocol":17,"map":"pl_barnblitz","folder":"tf","game":"Team Fortress","app_id":440,"player_count":0,"max_players":24,"Bots":0,"server_type":"Dedicated","server_os":"Linux","password":true,"vac":true,"version":"7757534","steam_id":85568392925397959,"keywords":["nocrits","nodmgspread","payload","uncletopia"],"game_id":440,"stv_port":27056,"stv_name":"Uncletopia | Sydney | 5 | Stopwatch Beta | STV","players":null},{"server_id":59,"name":"Uncletopia | Sydney | 6 | Community","name_short":"syd-6","host":"syd-1.au.uncletopia.com","port":27065,"enabled":true,"region":"au","cc":"au","latitude":-33.865143,"longitude":151.2099,"reserved":0,"last_update":"0001-01-01T00:00:00Z","name_a2s":"Uncletopia | Sydney | 6 | Community","protocol":17,"map":"workshop/koth_synthetic_rc6a.ugc1549817316","folder":"tf","game":"Team Fortress","app_id":440,"player_count":5,"max_players":24,"Bots":0,"server_type":"Dedicated","server_os":"Linux","password":true,"vac":true,"version":"7757534","steam_id":85568392925397960,"keywords":["cp","nocrits","nodmgspread","uncletopia"],"game_id":440,"stv_port":27066,"stv_name":"Uncletopia | Sydney | 6 | Community | STV","players":[{"user_id":8,"name":"rylan.chen","steam_id":76561199152151734,"connected_time":7574000000000,"state":"active","ping":68},{"user_id":14,"name":"AWrySmile","steam_id":76561199222574216,"connected_time":7058000000000,"state":"active","ping":58},{"user_id":38,"name":"floop flub","steam_id":76561198418968979,"connected_time":848000000000,"state":"active","ping":104},{"user_id":29,"name":"gun spy TF2","steam_id":76561199446773766,"connected_time":2059000000000,"state":"active","ping":261},{"user_id":31,"name":"Vindelo's Will Of Fire","steam_id":76561198177680054,"connected_time":1999000000000,"state":"active","ping":66}]},{"server_id":49,"name":"Uncletopia | Warsaw | 1 | All Maps","name_short":"waw-1","host":"waw-1.pl.uncletopia.com","port":27015,"enabled":true,"region":"eu","cc":"pl","latitude":52.2297,"longitude":21.017532,"reserved":0,"last_update":"0001-01-01T00:00:00Z","name_a2s":"","protocol":0,"map":"","folder":"","game":"","app_id":0,"player_count":0,"max_players":0,"Bots":0,"server_type":"","server_os":"","password":false,"vac":false,"version":"","steam_id":0,"keywords":null,"game_id":0,"stv_port":0,"stv_name":"","players":null},{"server_id":50,"name":"Uncletopia | Warsaw | 2 | All Maps","name_short":"waw-2","host":"waw-1.pl.uncletopia.com","port":27025,"enabled":true,"region":"eu","cc":"pl","latitude":52.2297,"longitude":21.017532,"reserved":0,"last_update":"0001-01-01T00:00:00Z","name_a2s":"Uncletopia | Warsaw | 2 | All Maps","protocol":17,"map":"koth_viaduct","folder":"tf","game":"Team Fortress","app_id":440,"player_count":0,"max_players":24,"Bots":0,"server_type":"Dedicated","server_os":"Linux","password":true,"vac":true,"version":"7757534","steam_id":85568392925397851,"keywords":["cp","nocrits","nodmgspread","uncletopia"],"game_id":440,"stv_port":27026,"stv_name":"Uncletopia | Warsaw | 2 | All Maps | STV","players":null},{"server_id":51,"name":"Uncletopia | Warsaw | 3 | All Maps","name_short":"waw-3","host":"waw-1.pl.uncletopia.com","port":27035,"enabled":true,"region":"eu","cc":"pl","latitude":52.2297,"longitude":21.017532,"reserved":0,"last_update":"0001-01-01T00:00:00Z","name_a2s":"Uncletopia | Warsaw | 3 | All Maps","protocol":17,"map":"cp_snakewater_final1","folder":"tf","game":"Team Fortress","app_id":440,"player_count":0,"max_players":24,"Bots":0,"server_type":"Dedicated","server_os":"Linux","password":true,"vac":true,"version":"7757534","steam_id":85568392925397852,"keywords":["cp","nocrits","nodmgspread","uncletopia"],"game_id":440,"stv_port":27036,"stv_name":"Uncletopia | Warsaw | 3 | All Maps | STV","players":null},{"server_id":52,"name":"Uncletopia | Warsaw | 4 | All Maps","name_short":"waw-4","host":"waw-1.pl.uncletopia.com","port":27045,"enabled":true,"region":"eu","cc":"pl","latitude":52.2297,"longitude":21.017532,"reserved":0,"last_update":"0001-01-01T00:00:00Z","name_a2s":"Uncletopia | Warsaw | 4 | All Maps","protocol":17,"map":"pl_borneo","folder":"tf","game":"Team Fortress","app_id":440,"player_count":0,"max_players":24,"Bots":0,"server_type":"Dedicated","server_os":"Linux","password":true,"vac":true,"version":"7757534","steam_id":85568392925397853,"keywords":["nocrits","nodmgspread","payload","uncletopia"],"game_id":440,"stv_port":27046,"stv_name":"Uncletopia | Warsaw | 4 | All Maps | STV","players":null},{"server_id":53,"name":"Uncletopia | Warsaw | 5 | Stopwatch Beta","name_short":"waw-5","host":"waw-1.pl.uncletopia.com","port":27055,"enabled":true,"region":"eu","cc":"pl","latitude":52.2297,"longitude":21.017532,"reserved":0,"last_update":"0001-01-01T00:00:00Z","name_a2s":"Uncletopia | Warsaw | 5 | Stopwatch Beta","protocol":17,"map":"pl_upward","folder":"tf","game":"Team Fortress","app_id":440,"player_count":0,"max_players":24,"Bots":0,"server_type":"Dedicated","server_os":"Linux","password":true,"vac":true,"version":"7757534","steam_id":85568392925397854,"keywords":["nocrits","nodmgspread","payload","uncletopia"],"game_id":440,"stv_port":27056,"stv_name":"Uncletopia | Warsaw | 5 | Stopwatch Beta | STV","players":null},{"server_id":54,"name":"Uncletopia | Warsaw | 6 | Community","name_short":"waw-6","host":"waw-1.pl.uncletopia.com","port":27065,"enabled":true,"region":"eu","cc":"pl","latitude":52.2297,"longitude":21.017532,"reserved":0,"last_update":"0001-01-01T00:00:00Z","name_a2s":"Uncletopia | Warsaw | 6 | Community","protocol":17,"map":"pl_barnblitz","folder":"tf","game":"Team Fortress","app_id":440,"player_count":0,"max_players":24,"Bots":0,"server_type":"Dedicated","server_os":"Linux","password":true,"vac":true,"version":"7757534","steam_id":85568392925397856,"keywords":["nocrits","nodmgspread","payload","uncletopia"],"game_id":440,"stv_port":27066,"stv_name":"Uncletopia | Warsaw | 6 | Community | STV","players":null}]}