{"status":true,"message":"","result":[{"server_id":9,"name":"Uncletopia | Atlanta | 1 | All Maps","name_short":"atl-1","host":"atl-1.us.uncletopia.com","port":27015,"enabled":true,"region":"us-east","cc":"us","latitude":33.753746,"longitude":-84.38633,"reserved":0,"last_update":"0001-01-01T00:00:00Z","name_a2s":"Uncletopia | Atlanta | 1 | All Maps","protocol":17,"map":"pl_badwater","folder":"tf","game":"Team Fortress","app_id":440,"player_count":24,"max_players":24,"Bots":0,"server_type":"Dedicated","server_os":"Linux","password":true,"vac":true,"version":"7961495","steam_id":85568392924469982,"keywords":["nocrits","nodmgspread","payload","uncletopia"],"game_id":440,"stv_port":27016,"stv_name":"Uncletopia | Atlanta | 1 | All Maps | STV","players":[{"user_id":17,"name":"Dim","steam_id":76561198061411324,"connected_time":1696000000000,"state":"active","ping":95},{"user_id":7,"name":"Reekraft","steam_id":76561198997624264,"connected_time":2737000000000,"state":"active","ping":63},{"user_id":47,"name":"Moosey98","steam_id":76561198871877283,"connected_time":403000000000,"state":"active","ping":57},{"user_id":18,"name":"Frank","steam_id":76561198334730055,"connected_time":1693000000000,"state":"active","ping":77},{"user_id":11,"name":"Noncommunistuser","steam_id":76561198309306120,"connected_time":1944000000000,"state":"active","ping":43},{"user_id":12,"name":"supernumerary90","steam_id":76561199256315631,"connected_time":1936000000000,"state":"active","ping":74},{"user_id":15,"name":"MARIOPARTYDSFAN","steam_id":76561198872122117,"connected_time":1837000000000,"state":"active","ping":76},{"user_id":19,"name":"mz.maggie4","steam_id":76561198866614956,"connected_time":1689000000000,"state":"active","ping":60},{"user_id":20,"name":"Hatless","steam_id":76561198146296243,"connected_time":1684000000000,"state":"active","ping":76},{"user_id":21,"name":"ZombieSlayer77","steam_id":76561199023974356,"connected_time":1629000000000,"state":"active","ping":62},{"user_id":38,"name":"shaderoses","steam_id":76561198070800500,"connected_time":1360000000000,"state":"active","ping":66},{"user_id":23,"name":"PewPew","steam_id":76561198011299099,"connected_time":1576000000000,"state":"active","ping":60},{"user_id":24,"name":"Uh Oh!","steam_id":76561197981137624,"connected_time":1572000000000,"state":"active","ping":89},{"user_id":25,"name":"Hollownick","steam_id":76561198449261973,"connected_time":1569000000000,"state":"active","ping":168},{"user_id":48,"name":"Shulgin_4-HO_MET","steam_id":76561198038784254,"connected_time":373000000000,"state":"active","ping":78},{"user_id":40,"name":"HarryjusttHarry","steam_id":76561198982810452,"connected_time":1179000000000,"state":"active","ping":80},{"user_id":46,"name":"Lenomon","steam_id":76561198287958321,"connected_time":586000000000,"state":"active","ping":82},{"user_id":44,"name":"DRACO$","steam_id":76561198389198223,"connected_time":979000000000,"state":"active","ping":110},{"user_id":31,"name":"lucky","steam_id":76561198323426623,"connected_time":1519000000000,"state":"active","ping":88},{"user_id":49,"name":"Novu","steam_id":76561198886997024,"connected_time":340000000000,"state":"active","ping":93},{"user_id":50,"name":"Prof. Eggnog","steam_id":76561198193389166,"connected_time":237000000000,"state":"active","ping":112},{"user_id":34,"name":"BOTH | Sunshine","steam_id":76561198885528098,"connected_time":1486000000000,"state":"active","ping":75},{"user_id":35,"name":"james_bondage","steam_id":76561199476062624,"connected_time":1467000000000,"state":"active","ping":90},{"user_id":36,"name":"the keebler","steam_id":76561199486326945,"connected_time":1462000000000,"state":"active","ping":60}]},{"server_id":104,"name":"Uncletopia | Atlanta | 2 | All Maps","name_short":"atl-2","host":"atl-1.us.uncletopia.com","port":27025,"enabled":true,"region":"us-east","cc":"us","latitude":33.753746,"longitude":-84.38633,"reserved":0,"last_update":"0001-01-01T00:00:00Z","name_a2s":"Uncletopia | Atlanta | 2 | All Maps","protocol":17,"map":"cp_gorge","folder":"tf","game":"Team Fortress","app_id":440,"player_count":0,"max_players":24,"Bots":0,"server_type":"Dedicated","server_os":"Linux","password":true,"vac":true,"version":"7961495","steam_id":85568392924469983,"keywords":["cp","nocrits","nodmgspread","uncletopia"],"game_id":440,"stv_port":27026,"stv_name":"Uncletopia | Atlanta | 2 | All Maps | STV","players":null},{"server_id":400,"name":"Uncletopia | Atlanta | 3 | Stopwatch","name_short":"atl-3","host":"atl-1.us.uncletopia.com","port":27035,"enabled":true,"region":"us-east","cc":"us","latitude":33.753746,"longitude":-84.38633,"reserved":0,"last_update":"0001-01-01T00:00:00Z","name_a2s":"Uncletopia | Atlanta | 3 | Stopwatch","protocol":17,"map":"workshop/pl_badwater_pro_v12.ugc2142942074","folder":"tf","game":"Team Fortress","app_id":440,"player_count":0,"max_players":24,"Bots":0,"server_type":"Dedicated","server_os":"Linux","password":true,"vac":true,"version":"7961495","steam_id":85568392924515187,"keywords":["nocrits","nodmgspread","payload","uncletopia"],"game_id":440,"stv_port":27036,"stv_name":"Uncletopia | Atlanta | 3 | Stopwatch | STV","players":null},{"server_id":401,"name":"Uncletopia | Atlanta | 4 | Community","name_short":"atl-4","host":"atl-1.us.uncletopia.com","port":27045,"enabled":true,"region":"us-east","cc":"us","latitude":33.753746,"longitude":-84.38633,"reserved":0,"last_update":"0001-01-01T00:00:00Z","name_a2s":"Uncletopia | Atlanta | 4 | Community","protocol":17,"map":"workshop/pl_phoenix_b4a.ugc2969509359","folder":"tf","game":"Team Fortress","app_id":440,"player_count":0,"max_players":24,"Bots":0,"server_type":"Dedicated","server_os":"Linux","password":true,"vac":true,"version":"7961495","steam_id":85568392924515188,"keywords":["nocrits","nodmgspread","payload","uncletopia"],"game_id":440,"stv_port":27046,"stv_name":"Uncletopia | Atlanta | 4 | Community | STV","players":null},{"server_id":2,"name":"Uncletopia | Chicago | 1 | All Maps","name_short":"chi-1","host":"chi-1.us.uncletopia.com","port":27015,"enabled":true,"region":"us-central","cc":"us","latitude":41.881832,"longitude":-87.62318,"reserved":0,"last_update":"0001-01-01T00:00:00Z","name_a2s":"Uncletopia | Chicago | 1 | All Maps","protocol":17,"map":"koth_harvest_final","folder":"tf","game":"Team Fortress","app_id":440,"player_count":0,"max_players":24,"Bots":0,"server_type":"Dedicated","server_os":"Linux","password":true,"vac":true,"version":"7961495","steam_id":85568392924469984,"keywords":["cp","nocrits","nodmgspread","uncletopia"],"game_id":440,"stv_port":27016,"stv_name":"Uncletopia | Chicago | 1 | All Maps | STV","players":null},{"server_id":106,"name":"Uncletopia | Chicago | 2 | All Maps","name_short":"chi-2","host":"chi-1.us.uncletopia.com","port":27025,"enabled":true,"region":"us-central","cc":"us","latitude":41.881832,"longitude":-87.62318,"reserved":0,"last_update":"0001-01-01T00:00:00Z","name_a2s":"Uncletopia | Chicago | 2 | All Maps","protocol":17,"map":"koth_harvest_final","folder":"tf","game":"Team Fortress","app_id":440,"player_count":4,"max_players":24,"Bots":0,"server_type":"Dedicated","server_os":"Linux","password":true,"vac":true,"version":"7961495","steam_id":85568392924469985,"keywords":["cp","nocrits","nodmgspread","uncletopia"],"game_id":440,"stv_port":27026,"stv_name":"Uncletopia | Chicago | 2 | All Maps | STV","players":[{"user_id":5,"name":"Mifune","steam_id":76561198838596371,"connected_time":242000000000,"state":"active","ping":46},{"user_id":6,"name":"Child Chewer","steam_id":76561199509962277,"connected_time":226000000000,"state":"active","ping":51},{"user_id":7,"name":"Kindagoodplayer","steam_id":76561198814625843,"connected_time":143000000000,"state":"active","ping":59},{"user_id":9,"name":"beju","steam_id":76561198165955452,"connected_time":2000000000,"state":"spawning","ping":56}]},{"server_id":402,"name":"Uncletopia | Chicago | 3 | All Maps","name_short":"chi-3","host":"chi-1.us.uncletopia.com","port":27035,"enabled":true,"region":"us-central","cc":"us","latitude":41.881832,"longitude":-87.62318,"reserved":0,"last_update":"0001-01-01T00:00:00Z","name_a2s":"Uncletopia | Chicago | 3 | All Maps","protocol":17,"map":"koth_cascade","folder":"tf","game":"Team Fortress","app_id":440,"player_count":0,"max_players":24,"Bots":0,"server_type":"Dedicated","server_os":"Linux","password":true,"vac":true,"version":"7961495","steam_id":85568392924515191,"keywords":["cp","nocrits","nodmgspread","uncletopia"],"game_id":440,"stv_port":27036,"stv_name":"Uncletopia | Chicago | 3 | All Maps | STV","players":null},{"server_id":403,"name":"Uncletopia | Chicago | 4 | All Maps","name_short":"chi-4","host":"chi-1.us.uncletopia.com","port":27045,"enabled":true,"region":"us-central","cc":"us","latitude":41.881832,"longitude":-87.62318,"reserved":0,"last_update":"0001-01-01T00:00:00Z","name_a2s":"Uncletopia | Chicago | 4 | All Maps","protocol":17,"map":"pl_badwater","folder":"tf","game":"Team Fortress","app_id":440,"player_count":22,"max_players":24,"Bots":0,"server_type":"Dedicated","server_os":"Linux","password":true,"vac":true,"version":"7961495","steam_id":85568392924515193,"keywords":["nocrits","nodmgspread","payload","uncletopia"],"game_id":440,"stv_port":27046,"stv_name":"Uncletopia | Chicago | 4 | All Maps | STV","players":[{"user_id":98,"name":"Drinkable Milk","steam_id":76561199418706430,"connected_time":958000000000,"state":"active","ping":72},{"user_id":25,"name":"Dixxy","steam_id":76561198010760019,"connected_time":6596000000000,"state":"active","ping":75},{"user_id":51,"name":"Blaster07","steam_id":76561198067036665,"connected_time":4740000000000,"state":"active","ping":108},{"user_id":110,"name":"wads","steam_id":76561198873422077,"connected_time":53000000000,"state":"active","ping":61},{"user_id":82,"name":"AMU","steam_id":76561198092346231,"connected_time":2843000000000,"state":"active","ping":64},{"user_id":105,"name":"ThatGamingKiwi","steam_id":76561199170522237,"connected_time":365000000000,"state":"active","ping":76},{"user_id":99,"name":"Your Local Jester","steam_id":76561199120223717,"connected_time":944000000000,"state":"active","ping":72},{"user_id":108,"name":"Silverguy","steam_id":76561198261509394,"connected_time":306000000000,"state":"active","ping":56},{"user_id":107,"name":"namesaretoohard","steam_id":76561198070837837,"connected_time":341000000000,"state":"active","ping":51},{"user_id":89,"name":"mister slippery","steam_id":76561198057076267,"connected_time":1736000000000,"state":"active","ping":104},{"user_id":94,"name":"Wungus","steam_id":76561198995748555,"connected_time":1358000000000,"state":"active","ping":33},{"user_id":93,"name":"ItzzDibly","steam_id":76561197970733021,"connected_time":1416000000000,"state":"active","ping":45},{"user_id":109,"name":"Peri","steam_id":76561198255311543,"connected_time":139000000000,"state":"active","ping":102},{"user_id":86,"name":"TimTam Tom","steam_id":76561198045988062,"connected_time":2120000000000,"state":"active","ping":75},{"user_id":75,"name":"pete","steam_id":76561198203443358,"connected_time":3142000000000,"state":"active","ping":73},{"user_id":63,"name":"Dog Hands Phone","steam_id":76561198090419068,"connected_time":3667000000000,"state":"active","ping":162},{"user_id":79,"name":"11 INCH TGIRL SCHLONG","steam_id":76561198122059018,"connected_time":3021000000000,"state":"active","ping":58},{"user_id":78,"name":"The Great Eagle Scourge of 1822","steam_id":76561198325086209,"connected_time":3105000000000,"state":"active","ping":114},{"user_id":80,"name":"ゲームは終わりました","steam_id":76561198328234905,"connected_time":2970000000000,"state":"active","ping":164},{"user_id":103,"name":"garten of banban jumbo hjosh","steam_id":76561198833241668,"connected_time":661000000000,"state":"active","ping":68},{"user_id":91,"name":"richard clock","steam_id":76561198048455671,"connected_time":1494000000000,"state":"active","ping":60},{"user_id":92,"name":"you are loved","steam_id":76561198108524571,"connected_time":1494000000000,"state":"active","ping":74}]},{"server_id":36,"name":"Uncletopia | Chicago | 5 | All Maps","name_short":"chi-5","host":"chi-2.us.uncletopia.com","port":27015,"enabled":true,"region":"us-central","cc":"us","latitude":41.881832,"longitude":-87.62318,"reserved":0,"last_update":"0001-01-01T00:00:00Z","name_a2s":"Uncletopia | Chicago | 5 | All Maps","protocol":17,"map":"cp_mercenarypark","folder":"tf","game":"Team Fortress","app_id":440,"player_count":0,"max_players":24,"Bots":0,"server_type":"Dedicated","server_os":"Linux","password":true,"vac":true,"version":"7961495","steam_id":85568392924866362,"keywords":["cp","nocrits","nodmgspread","uncletopia"],"game_id":440,"stv_port":27016,"stv_name":"Uncletopia | Chicago | 5 | All Maps | STV","players":null},{"server_id":37,"name":"Uncletopia | Chicago | 6 | All Maps","name_short":"chi-6","host":"chi-2.us.uncletopia.com","port":27025,"enabled":true,"region":"us-central","cc":"us","latitude":41.881832,"longitude":-87.62318,"reserved":0,"last_update":"0001-01-01T00:00:00Z","name_a2s":"Uncletopia | Chicago | 6 | All Maps","protocol":17,"map":"pl_upward","folder":"tf","game":"Team Fortress","app_id":440,"player_count":22,"max_players":24,"Bots":0,"server_type":"Dedicated","server_os":"Linux","password":true,"vac":true,"version":"7961495","steam_id":85568392924866363,"keywords":["nocrits","nodmgspread","payload","uncletopia"],"game_id":440,"stv_port":27026,"stv_name":"Uncletopia | Chicago | 6 | All Maps | STV","players":[{"user_id":169,"name":"airy","steam_id":76561198174632198,"connected_time":2176000000000,"state":"active","ping":72},{"user_id":207,"name":"XtraCrums","steam_id":76561199230212648,"connected_time":870000000000,"state":"active","ping":73},{"user_id":208,"name":"pilk drinker","steam_id":76561198181153199,"connected_time":831000000000,"state":"active","ping":88},{"user_id":136,"name":"CaseyK420","steam_id":76561198312677076,"connected_time":5196000000000,"state":"active","ping":69},{"user_id":213,"name":"Capybara Enjoyer","steam_id":76561199147114434,"connected_time":670000000000,"state":"active","ping":117},{"user_id":181,"name":"123","steam_id":76561199093006282,"connected_time":1840000000000,"state":"active","ping":110},{"user_id":206,"name":"2cats_2curious","steam_id":76561198027143149,"connected_time":905000000000,"state":"active","ping":45},{"user_id":177,"name":"Eden","steam_id":76561198081284664,"connected_time":1973000000000,"state":"active","ping":105},{"user_id":120,"name":"RollingCow","steam_id":76561198067114237,"connected_time":6482000000000,"state":"active","ping":86},{"user_id":210,"name":"Zilgrin","steam_id":76561199192857010,"connected_time":819000000000,"state":"active","ping":76},{"user_id":215,"name":"Gotta Move That Gear Up","steam_id":76561197993467034,"connected_time":24000000000,"state":"active","ping":116},{"user_id":175,"name":"miracles","steam_id":76561198297961039,"connected_time":2085000000000,"state":"active","ping":47},{"user_id":209,"name":"Tyler Fortnite","steam_id":76561198259131021,"connected_time":831000000000,"state":"active","ping":68},{"user_id":211,"name":"Mal","steam_id":76561198066074151,"connected_time":801000000000,"state":"active","ping":77},{"user_id":162,"name":"War on Drugs Fighter","steam_id":76561198103211035,"connected_time":3169000000000,"state":"active","ping":61},{"user_id":180,"name":"RAWRWAFL","steam_id":76561198032118386,"connected_time":1854000000000,"state":"active","ping":92},{"user_id":183,"name":"aurro","steam_id":76561198315692300,"connected_time":1415000000000,"state":"active","ping":45},{"user_id":205,"name":"pootispogger69","steam_id":76561198249206656,"connected_time":1027000000000,"state":"active","ping":110},{"user_id":133,"name":"Gimme your Teeth","steam_id":76561198240523882,"connected_time":5546000000000,"state":"active","ping":97},{"user_id":165,"name":"get scrongled, idiot","steam_id":76561198115874625,"connected_time":2727000000000,"state":"active","ping":78},{"user_id":126,"name":"rickyrickyricky","steam_id":76561198041765918,"connected_time":6301000000000,"state":"active","ping":81},{"user_id":182,"name":"NEBULA3LEM123","steam_id":76561198095433728,"connected_time":1805000000000,"state":"active","ping":82}]},{"server_id":38,"name":"Uncletopia | Chicago | 7 | Stopwatch","name_short":"chi-7","host":"chi-2.us.uncletopia.com","port":27035,"enabled":true,"region":"us-central","cc":"us","latitude":41.881832,"longitude":-87.62318,"reserved":0,"last_update":"0001-01-01T00:00:00Z","name_a2s":"Uncletopia | Chicago | 7 | Stopwatch","protocol":17,"map":"workshop/pl_summercoast_rc8e.ugc1761528829","folder":"tf","game":"Team Fortress","app_id":440,"player_count":0,"max_players":24,"Bots":0,"server_type":"Dedicated","server_os":"Linux","password":true,"vac":true,"version":"7961495","steam_id":85568392924866364,"keywords":["nocrits","nodmgspread","payload","uncletopia"],"game_id":440,"stv_port":27036,"stv_name":"Uncletopia | Chicago | 7 | Stopwatch | STV","players":null},{"server_id":39,"name":"Uncletopia | Chicago | 8 | Community","name_short":"chi-8","host":"chi-2.us.uncletopia.com","port":27045,"enabled":true,"region":"us-central","cc":"us","latitude":41.881832,"longitude":-87.62318,"reserved":0,"last_update":"0001-01-01T00:00:00Z","name_a2s":"Uncletopia | Chicago | 8 | Community","protocol":17,"map":"workshop/cp_caldera_rc3.ugc2834196889","folder":"tf","game":"Team Fortress","app_id":440,"player_count":0,"max_players":24,"Bots":0,"server_type":"Dedicated","server_os":"Linux","password":true,"vac":true,"version":"7961495","steam_id":85568392924866365,"keywords":["cp","nocrits","nodmgspread","uncletopia"],"game_id":440,"stv_port":27046,"stv_name":"Uncletopia | Chicago | 8 | Community | STV","players":null},{"server_id":8,"name":"Uncletopia | Dallas | 1 | All Maps","name_short":"dal-1","host":"dal-1.us.uncletopia.com","port":27015,"enabled":true,"region":"us-central","cc":"us","latitude":32.779167,"longitude":-96.80889,"reserved":0,"last_update":"0001-01-01T00:00:00Z","name_a2s":"Uncletopia | Dallas | 1 | All Maps","protocol":17,"map":"koth_highpass","folder":"tf","game":"Team Fortress","app_id":440,"player_count":0,"max_players":24,"Bots":0,"server_type":"Dedicated","server_os":"Linux","password":true,"vac":true,"version":"7961495","steam_id":85568392924469986,"keywords":["cp","nocrits","nodmgspread","uncletopia"],"game_id":440,"stv_port":27016,"stv_name":"Uncletopia | Dallas | 1 | All Maps | STV","players":null},{"server_id":108,"name":"Uncletopia | Dallas | 2 | All Maps","name_short":"dal-2","host":"dal-1.us.uncletopia.com","port":27025,"enabled":true,"region":"us-central","cc":"us","latitude":32.779167,"longitude":-96.80889,"reserved":0,"last_update":"0001-01-01T00:00:00Z","name_a2s":"Uncletopia | Dallas | 2 | All Maps","protocol":17,"map":"koth_viaduct","folder":"tf","game":"Team Fortress","app_id":440,"player_count":0,"max_players":24,"Bots":0,"server_type":"Dedicated","server_os":"Linux","password":true,"vac":true,"version":"7961495","steam_id":85568392924469988,"keywords":["cp","nocrits","nodmgspread","uncletopia"],"game_id":440,"stv_port":27026,"stv_name":"Uncletopia | Dallas | 2 | All Maps | STV","players":null},{"server_id":404,"name":"Uncletopia | Dallas | 3 | All Maps","name_short":"dal-3","host":"dal-1.us.uncletopia.com","port":27035,"enabled":true,"region":"us-central","cc":"us","latitude":32.779167,"longitude":-96.80889,"reserved":0,"last_update":"0001-01-01T00:00:00Z","name_a2s":"Uncletopia | Dallas | 3 | All Maps","protocol":17,"map":"cp_yukon_final","folder":"tf","game":"Team Fortress","app_id":440,"player_count":0,"max_players":24,"Bots":0,"server_type":"Dedicated","server_os":"Linux","password":true,"vac":true,"version":"7961495","steam_id":85568392924515219,"keywords":["cp","nocrits","nodmgspread","uncletopia"],"game_id":440,"stv_port":27036,"stv_name":"Uncletopia | Dallas | 3 | All Maps | STV","players":null},{"server_id":405,"name":"Uncletopia | Dallas | 4 | Community","name_short":"dal-4","host":"dal-1.us.uncletopia.com","port":27045,"enabled":true,"region":"us-central","cc":"us","latitude":32.779167,"longitude":-96.80889,"reserved":0,"last_update":"0001-01-01T00:00:00Z","name_a2s":"Uncletopia | Dallas | 4 | Community","protocol":17,"map":"workshop/cp_croissant_final.ugc458840209","folder":"tf","game":"Team Fortress","app_id":440,"player_count":0,"max_players":24,"Bots":0,"server_type":"Dedicated","server_os":"Linux","password":true,"vac":true,"version":"7961495","steam_id":85568392924515220,"keywords":["cp","nocrits","nodmgspread","uncletopia"],"game_id":440,"stv_port":27046,"stv_name":"Uncletopia | Dallas | 4 | Community | STV","players":null},{"server_id":5,"name":"Uncletopia | Frankfurt | 1 | All Maps","name_short":"frk-1","host":"frk-1.de.uncletopia.com","port":27015,"enabled":true,"region":"eu","cc":"de","latitude":50.110924,"longitude":8.682127,"reserved":0,"last_update":"0001-01-01T00:00:00Z","name_a2s":"Uncletopia | Frankfurt | 1 | All Maps","protocol":17,"map":"pl_upward","folder":"tf","game":"Team Fortress","app_id":440,"player_count":24,"max_players":24,"Bots":0,"server_type":"Dedicated","server_os":"Linux","password":true,"vac":true,"version":"7961495","steam_id":85568392924469989,"keywords":["nocrits","nodmgspread","payload","uncletopia"],"game_id":440,"stv_port":27016,"stv_name":"Uncletopia | Frankfurt | 1 | All Maps | STV","players":[{"user_id":379,"name":"Mr. Mundy","steam_id":76561198132008918,"connected_time":1885000000000,"state":"active","ping":80},{"user_id":392,"name":"LEGEND FUMO.","steam_id":76561198061033903,"connected_time":248000000000,"state":"active","ping":47},{"user_id":397,"name":"Nick","steam_id":76561198036109469,"connected_time":68000000000,"state":"spawning","ping":89},{"user_id":382,"name":"Rocket Queen's consort","steam_id":76561198092995429,"connected_time":1779000000000,"state":"active","ping":134},{"user_id":323,"name":"asu","steam_id":76561197994492154,"connected_time":4929000000000,"state":"active","ping":72},{"user_id":339,"name":"Stone Cold Steve Austin","steam_id":76561199230709660,"connected_time":3974000000000,"state":"active","ping":49},{"user_id":393,"name":"Sheeveno Palpateno","steam_id":76561198208633519,"connected_time":196000000000,"state":"active","ping":100},{"user_id":360,"name":"Ablativus LFT","steam_id":76561198025698470,"connected_time":3176000000000,"state":"active","ping":74},{"user_id":367,"name":"Godjan","steam_id":76561198077554447,"connected_time":2339000000000,"state":"active","ping":135},{"user_id":385,"name":"земные желания","steam_id":76561198087023916,"connected_time":796000000000,"state":"active","ping":82},{"user_id":394,"name":"Dimitri_612","steam_id":76561199223984137,"connected_time":175000000000,"state":"active","ping":49},{"user_id":384,"name":"Emperor Mateus","steam_id":76561198263503740,"connected_time":1762000000000,"state":"active","ping":75},{"user_id":357,"name":"misterwondo","steam_id":76561198187934110,"connected_time":3304000000000,"state":"active","ping":63},{"user_id":280,"name":"daniv","steam_id":76561198148115584,"connected_time":8005000000000,"state":"active","ping":58},{"user_id":320,"name":"Pabs :D","steam_id":76561198000016962,"connected_time":5117000000000,"state":"active","ping":59},{"user_id":390,"name":"tomydjoh","steam_id":76561198077421906,"connected_time":608000000000,"state":"active","ping":59},{"user_id":391,"name":"чупачупс макимы","steam_id":76561198329055199,"connected_time":405000000000,"state":"active","ping":119},{"user_id":395,"name":"ToasT","steam_id":76561199194187612,"connected_time":125000000000,"state":"active","ping":88},{"user_id":396,"name":"Average Enjoyer","steam_id":76561198007410080,"connected_time":118000000000,"state":"active","ping":72},{"user_id":279,"name":"Spajro","steam_id":76561198257383813,"connected_time":8103000000000,"state":"active","ping":44},{"user_id":368,"name":"1963 search it up","steam_id":76561198857396812,"connected_time":2305000000000,"state":"active","ping":46},{"user_id":389,"name":"András","steam_id":76561198096947288,"connected_time":715000000000,"state":"active","ping":59},{"user_id":322,"name":"TheShadowScribe","steam_id":76561199037525945,"connected_time":4988000000000,"state":"active","ping":89},{"user_id":359,"name":"korupt","steam_id":76561198022738512,"connected_time":3300000000000,"state":"active","ping":52}]},{"server_id":110,"name":"Uncletopia | Frankfurt | 2 | All Maps","name_short":"frk-2","host":"frk-1.de.uncletopia.com","port":27025,"enabled":true,"region":"eu","cc":"de","latitude":50.110924,"longitude":8.682127,"reserved":0,"last_update":"0001-01-01T00:00:00Z","name_a2s":"Uncletopia | Frankfurt | 2 | All Maps","protocol":17,"map":"pl_snowycoast","folder":"tf","game":"Team Fortress","app_id":440,"player_count":18,"max_players":24,"Bots":0,"server_type":"Dedicated","server_os":"Linux","password":true,"vac":true,"version":"7961495","steam_id":85568392924469990,"keywords":["nocrits","nodmgspread","payload","uncletopia"],"game_id":440,"stv_port":27026,"stv_name":"Uncletopia | Frankfurt | 2 | All Maps | STV","players":[{"user_id":307,"name":"xavier","steam_id":76561198076494034,"connected_time":1555000000000,"state":"active","ping":56},{"user_id":320,"name":"DeCypher \u003c3","steam_id":76561198171992619,"connected_time":468000000000,"state":"active","ping":60},{"user_id":311,"name":"Pilaarius","steam_id":76561198120273212,"connected_time":1372000000000,"state":"active","ping":90},{"user_id":326,"name":"maxallen04","steam_id":76561198338795540,"connected_time":81000000000,"state":"active","ping":67},{"user_id":322,"name":"BOBRV","steam_id":76561198156514651,"connected_time":292000000000,"state":"active","ping":75},{"user_id":317,"name":"joebot","steam_id":76561197975606100,"connected_time":955000000000,"state":"active","ping":139},{"user_id":275,"name":"Smebiulack","steam_id":76561197982409664,"connected_time":2971000000000,"state":"active","ping":71},{"user_id":318,"name":"Huell","steam_id":76561198244062348,"connected_time":944000000000,"state":"active","ping":58},{"user_id":323,"name":"Bajas","steam_id":76561198179339326,"connected_time":283000000000,"state":"active","ping":86},{"user_id":279,"name":"monocle chicken","steam_id":76561199020106029,"connected_time":2802000000000,"state":"active","ping":78},{"user_id":324,"name":"Lunarian","steam_id":76561198055811259,"connected_time":263000000000,"state":"active","ping":60},{"user_id":327,"name":"Hotdogs","steam_id":76561199112737347,"connected_time":13000000000,"state":"spawning","ping":74},{"user_id":312,"name":"Pizza Totino's Boy","steam_id":76561198071487976,"connected_time":1296000000000,"state":"active","ping":67},{"user_id":328,"name":"Azurh","steam_id":76561199330143102,"connected_time":1000000000,"state":"spawning","ping":33},{"user_id":321,"name":"Irme","steam_id":76561198161590299,"connected_time":312000000000,"state":"active","ping":79},{"user_id":287,"name":"snake kryptonite","steam_id":76561197998673784,"connected_time":2697000000000,"state":"active","ping":45},{"user_id":303,"name":"Kenjii.","steam_id":76561198064421549,"connected_time":1927000000000,"state":"active","ping":55},{"user_id":314,"name":"WASD","steam_id":76561198278640702,"connected_time":1006000000000,"state":"active","ping":84}]},{"server_id":308,"name":"Uncletopia | Frankfurt | 3 | All Maps","name_short":"frk-3","host":"frk-1.de.uncletopia.com","port":27035,"enabled":true,"region":"eu","cc":"de","latitude":50.110924,"longitude":8.682127,"reserved":0,"last_update":"0001-01-01T00:00:00Z","name_a2s":"Uncletopia | Frankfurt | 3 | All Maps","protocol":17,"map":"cp_steel","folder":"tf","game":"Team Fortress","app_id":440,"player_count":24,"max_players":24,"Bots":0,"server_type":"Dedicated","server_os":"Linux","password":true,"vac":true,"version":"7961495","steam_id":85568392924504274,"keywords":["cp","nocrits","nodmgspread","uncletopia"],"game_id":440,"stv_port":27036,"stv_name":"Uncletopia | Frankfurt | 3 | All Maps | STV","players":[{"user_id":62,"name":"Monkey","steam_id":76561199008411791,"connected_time":1351000000000,"state":"active","ping":59},{"user_id":21,"name":"snek","steam_id":76561198393655249,"connected_time":2688000000000,"state":"active","ping":65},{"user_id":74,"name":"w","steam_id":76561198037136870,"connected_time":598000000000,"state":"active","ping":73},{"user_id":66,"name":"EllMaces","steam_id":76561198367132280,"connected_time":1286000000000,"state":"active","ping":51},{"user_id":69,"name":"Mr Fruitypebbles","steam_id":76561198133823242,"connected_time":842000000000,"state":"active","ping":68},{"user_id":57,"name":"Qwertuss","steam_id":76561198026305366,"connected_time":1469000000000,"state":"active","ping":62},{"user_id":67,"name":"Infantile Pillock","steam_id":76561198283851362,"connected_time":1219000000000,"state":"active","ping":56},{"user_id":68,"name":"MattW13","steam_id":76561199045454884,"connected_time":1127000000000,"state":"active","ping":143},{"user_id":33,"name":"roblan11","steam_id":76561198066839258,"connected_time":1954000000000,"state":"active","ping":44},{"user_id":32,"name":"Deez nuts","steam_id":76561199429562693,"connected_time":2176000000000,"state":"active","ping":78},{"user_id":56,"name":"Husaa","steam_id":76561198123514161,"connected_time":1511000000000,"state":"active","ping":65},{"user_id":75,"name":"Kenny_killer_69","steam_id":76561199465207725,"connected_time":197000000000,"state":"active","ping":88},{"user_id":70,"name":"PENGUN","steam_id":76561199015156956,"connected_time":838000000000,"state":"active","ping":99},{"user_id":39,"name":"Rezzy","steam_id":76561198410598772,"connected_time":1799000000000,"state":"active","ping":45},{"user_id":65,"name":"Tommy","steam_id":76561198103293707,"connected_time":1307000000000,"state":"active","ping":60},{"user_id":59,"name":"♥♥TGA♥♥","steam_id":76561198853016656,"connected_time":1450000000000,"state":"active","ping":59},{"user_id":43,"name":"Sex Man TF2","steam_id":76561198798657045,"connected_time":1741000000000,"state":"active","ping":62},{"user_id":44,"name":"Marukuso","steam_id":76561198154229845,"connected_time":1716000000000,"state":"active","ping":65},{"user_id":45,"name":"El_Kommadante","steam_id":76561198079551685,"connected_time":1703000000000,"state":"active","ping":60},{"user_id":46,"name":"Sham!","steam_id":76561198050434275,"connected_time":1688000000000,"state":"active","ping":51},{"user_id":60,"name":"Sicronici","steam_id":76561199054534566,"connected_time":1442000000000,"state":"active","ping":89},{"user_id":71,"name":"gaggle","steam_id":76561197988226281,"connected_time":781000000000,"state":"active","ping":59},{"user_id":51,"name":"steck","steam_id":76561197973948113,"connected_time":1660000000000,"state":"active","ping":65},{"user_id":73,"name":"Onions","steam_id":76561198150195195,"connected_time":643000000000,"state":"active","ping":66}]},{"server_id":309,"name":"Uncletopia | Frankfurt | 4 | All Maps","name_short":"frk-4","host":"frk-1.de.uncletopia.com","port":27045,"enabled":true,"region":"eu","cc":"de","latitude":50.110924,"longitude":8.682127,"reserved":0,"last_update":"0001-01-01T00:00:00Z","name_a2s":"Uncletopia | Frankfurt | 4 | All Maps","protocol":17,"map":"pl_pier","folder":"tf","game":"Team Fortress","app_id":440,"player_count":22,"max_players":24,"Bots":0,"server_type":"Dedicated","server_os":"Linux","password":true,"vac":true,"version":"7961495","steam_id":85568392924504275,"keywords":["nocrits","nodmgspread","payload","uncletopia"],"game_id":440,"stv_port":27046,"stv_name":"Uncletopia | Frankfurt | 4 | All Maps | STV","players":[{"user_id":140,"name":"Rolli","steam_id":76561198144699520,"connected_time":1978000000000,"state":"spawning","ping":72},{"user_id":183,"name":"jmp","steam_id":76561198168283286,"connected_time":9000000000,"state":"spawning","ping":65},{"user_id":165,"name":"tealoverr.190","steam_id":76561199028497703,"connected_time":685000000000,"state":"spawning","ping":111},{"user_id":166,"name":"Milfshake","steam_id":76561198208740557,"connected_time":620000000000,"state":"spawning","ping":50},{"user_id":164,"name":"NiveK","steam_id":76561197988636096,"connected_time":766000000000,"state":"spawning","ping":79},{"user_id":175,"name":"btw I use Gentoo","steam_id":76561198208463645,"connected_time":373000000000,"state":"spawning","ping":82},{"user_id":168,"name":"Companion Kyubey","steam_id":76561198012293205,"connected_time":583000000000,"state":"spawning","ping":145},{"user_id":174,"name":"_Alonso","steam_id":76561198041893314,"connected_time":460000000000,"state":"spawning","ping":61},{"user_id":179,"name":"Dromeka","steam_id":76561198963557200,"connected_time":43000000000,"state":"connecting","ping":61},{"user_id":162,"name":"Murovelho","steam_id":76561198835081622,"connected_time":960000000000,"state":"spawning","ping":91},{"user_id":148,"name":"Dr. Bombay","steam_id":76561198228537672,"connected_time":1660000000000,"state":"spawning","ping":79},{"user_id":153,"name":"Kaza","steam_id":76561198033509686,"connected_time":1310000000000,"state":"spawning","ping":61},{"user_id":149,"name":"caramel❤","steam_id":76561198819353867,"connected_time":1651000000000,"state":"spawning","ping":38},{"user_id":116,"name":"cow child","steam_id":76561199431003443,"connected_time":3557000000000,"state":"spawning","ping":47},{"user_id":177,"name":"Michael","steam_id":76561198003146906,"connected_time":316000000000,"state":"spawning","ping":49},{"user_id":181,"name":"Laru","steam_id":76561197998838438,"connected_time":28000000000,"state":"spawning","ping":68},{"user_id":171,"name":"cockroach","steam_id":76561198841841656,"connected_time":545000000000,"state":"spawning","ping":47},{"user_id":180,"name":"kickz","steam_id":76561198038453890,"connected_time":39000000000,"state":"spawning","ping":47},{"user_id":155,"name":"Heavy Duty","steam_id":76561198219594541,"connected_time":1282000000000,"state":"spawning","ping":108},{"user_id":182,"name":"4","steam_id":76561197964945192,"connected_time":15000000000,"state":"spawning","ping":57},{"user_id":163,"name":"Weegee","steam_id":76561198150308523,"connected_time":851000000000,"state":"spawning","ping":89},{"user_id":173,"name":"milwaukee pasta bandit","steam_id":76561198417793830,"connected_time":488000000000,"state":"spawning","ping":167}]},{"server_id":310,"name":"Uncletopia | Frankfurt | 5 | All Maps","name_short":"frk-5","host":"frk-1.de.uncletopia.com","port":27055,"enabled":true,"region":"eu","cc":"de","latitude":50.110924,"longitude":8.682127,"reserved":0,"last_update":"0001-01-01T00:00:00Z","name_a2s":"Uncletopia | Frankfurt | 5 | All Maps","protocol":17,"map":"pl_pier","folder":"tf","game":"Team Fortress","app_id":440,"player_count":23,"max_players":24,"Bots":0,"server_type":"Dedicated","server_os":"Linux","password":true,"vac":true,"version":"7961495","steam_id":85568392924504277,"keywords":["nocrits","nodmgspread","payload","uncletopia"],"game_id":440,"stv_port":27056,"stv_name":"Uncletopia | Frankfurt | 5 | All Maps | STV","players":[{"user_id":190,"name":"shapeshifter","steam_id":76561198052898368,"connected_time":8185000000000,"state":"active","ping":68},{"user_id":313,"name":"Cepakas","steam_id":76561198878369698,"connected_time":332000000000,"state":"active","ping":83},{"user_id":303,"name":"waluigi","steam_id":76561198215809251,"connected_time":1166000000000,"state":"active","ping":53},{"user_id":314,"name":"Storm's Foreshadow","steam_id":76561198098462526,"connected_time":321000000000,"state":"active","ping":62},{"user_id":291,"name":"Wolfie","steam_id":76561198038007462,"connected_time":2706000000000,"state":"active","ping":82},{"user_id":230,"name":"MHE_HOPM","steam_id":76561199073846518,"connected_time":5939000000000,"state":"active","ping":52},{"user_id":310,"name":"kurd","steam_id":76561198116530769,"connected_time":415000000000,"state":"active","ping":89},{"user_id":322,"name":"AleXandriX","steam_id":76561198035203950,"connected_time":14000000000,"state":"active","ping":60},{"user_id":318,"name":"Entar","steam_id":76561197968661166,"connected_time":107000000000,"state":"active","ping":158},{"user_id":319,"name":"CerealKiller154","steam_id":76561198831177630,"connected_time":95000000000,"state":"active","ping":78},{"user_id":315,"name":"Largo","steam_id":76561198844368927,"connected_time":314000000000,"state":"active","ping":74},{"user_id":299,"name":"muZ","steam_id":76561198060145190,"connected_time":2343000000000,"state":"active","ping":53},{"user_id":306,"name":"Miiukade","steam_id":76561198089157860,"connected_time":954000000000,"state":"active","ping":142},{"user_id":297,"name":"Shawty","steam_id":76561198256704286,"connected_time":2403000000000,"state":"active","ping":73},{"user_id":320,"name":"Worm","steam_id":76561198296497176,"connected_time":94000000000,"state":"active","ping":60},{"user_id":321,"name":"Çanak yalayıcı","steam_id":76561198113677852,"connected_time":81000000000,"state":"active","ping":75},{"user_id":287,"name":"Grandpa engineer","steam_id":76561199218074926,"connected_time":2835000000000,"state":"active","ping":68},{"user_id":304,"name":"r","steam_id":76561198239927434,"connected_time":1076000000000,"state":"active","ping":58},{"user_id":309,"name":"magicBoIrose","steam_id":76561198007481914,"connected_time":563000000000,"state":"active","ping":79},{"user_id":284,"name":"CrypticSymbiont","steam_id":76561198063096357,"connected_time":3123000000000,"state":"active","ping":75},{"user_id":308,"name":"VIN WEASEL","steam_id":76561198014387066,"connected_time":790000000000,"state":"active","ping":48},{"user_id":305,"name":"GregerUlander","steam_id":76561198152375055,"connected_time":1070000000000,"state":"active","ping":69},{"user_id":300,"name":"Spinya","steam_id":76561198086653667,"connected_time":2320000000000,"state":"active","ping":64}]},{"server_id":311,"name":"Uncletopia | Frankfurt | 6 | All Maps","name_short":"frk-6","host":"frk-1.de.uncletopia.com","port":27065,"enabled":true,"region":"eu","cc":"de","latitude":50.110924,"longitude":8.682127,"reserved":0,"last_update":"0001-01-01T00:00:00Z","name_a2s":"Uncletopia | Frankfurt | 6 | All Maps","protocol":17,"map":"pl_pier","folder":"tf","game":"Team Fortress","app_id":440,"player_count":9,"max_players":24,"Bots":0,"server_type":"Dedicated","server_os":"Linux","password":true,"vac":true,"version":"7961495","steam_id":85568392924504278,"keywords":["nocrits","nodmgspread","payload","uncletopia"],"game_id":440,"stv_port":27066,"stv_name":"Uncletopia | Frankfurt | 6 | All Maps | STV","players":[{"user_id":158,"name":"Graham","steam_id":76561198062668942,"connected_time":8000000000,"state":"spawning","ping":51},{"user_id":132,"name":"TheTankerofCaptins","steam_id":76561198276150712,"connected_time":1149000000000,"state":"active","ping":174},{"user_id":147,"name":"Moth","steam_id":76561198405910705,"connected_time":736000000000,"state":"active","ping":83},{"user_id":148,"name":"I-I","steam_id":76561198267969436,"connected_time":628000000000,"state":"active","ping":63},{"user_id":157,"name":"Jeffrey Harpen","steam_id":76561199073314677,"connected_time":272000000000,"state":"active","ping":65},{"user_id":153,"name":"drearyplane8","steam_id":76561198216074509,"connected_time":470000000000,"state":"active","ping":69},{"user_id":139,"name":"Mansa Musa","steam_id":76561198869564327,"connected_time":970000000000,"state":"active","ping":78},{"user_id":127,"name":"line","steam_id":76561198809697283,"connected_time":1366000000000,"state":"active","ping":49},{"user_id":143,"name":"Jotun","steam_id":76561199015161498,"connected_time":953000000000,"state":"active","ping":92}]},{"server_id":23,"name":"Uncletopia | Frankfurt | 7 | Stopwatch","name_short":"frk-7","host":"frk-1.de.uncletopia.com","port":27075,"enabled":true,"region":"eu","cc":"de","latitude":50.110924,"longitude":8.682127,"reserved":0,"last_update":"0001-01-01T00:00:00Z","name_a2s":"Uncletopia | Frankfurt | 7 | Stopwatch","protocol":17,"map":"workshop/koth_ashville_final.ugc2130459942","folder":"tf","game":"Team Fortress","app_id":440,"player_count":0,"max_players":24,"Bots":0,"server_type":"Dedicated","server_os":"Linux","password":true,"vac":true,"version":"7961495","steam_id":85568392924742827,"keywords":["cp","nocrits","nodmgspread","uncletopia"],"game_id":440,"stv_port":27076,"stv_name":"Uncletopia | Frankfurt | 7 | Stopwatch | STV","players":null},{"server_id":24,"name":"Uncletopia | Frankfurt | 8 | Community","name_short":"frk-8","host":"frk-1.de.uncletopia.com","port":27085,"enabled":true,"region":"eu","cc":"de","latitude":50.110924,"longitude":8.682127,"reserved":0,"last_update":"0001-01-01T00:00:00Z","name_a2s":"Uncletopia | Frankfurt | 8 | Community","protocol":17,"map":"workshop/cp_glassworks_rc7a.ugc454118349","folder":"tf","game":"Team Fortress","app_id":440,"player_count":0,"max_players":24,"Bots":0,"server_type":"Dedicated","server_os":"Linux","password":true,"vac":true,"version":"7961495","steam_id":85568392924742828,"keywords":["cp","nocrits","nodmgspread","uncletopia"],"game_id":440,"stv_port":27086,"stv_name":"Uncletopia | Frankfurt | 8 | Community | STV","players":null},{"server_id":202,"name":"Uncletopia | Hong Kong | 1 | All Maps","name_short":"hgk-1","host":"hgk-1.hk.uncletopia.com","port":27015,"enabled":true,"region":"asia","cc":"hk","latitude":22.302711,"longitude":114.177216,"reserved":0,"last_update":"0001-01-01T00:00:00Z","name_a2s":"Uncletopia | Hong Kong | 1 | All Maps","protocol":17,"map":"pl_badwater","folder":"tf","game":"Team Fortress","app_id":440,"player_count":24,"max_players":24,"Bots":0,"server_type":"Dedicated","server_os":"Linux","password":true,"vac":true,"version":"7961495","steam_id":85568392924494504,"keywords":["nocrits","nodmgspread","payload","uncletopia"],"game_id":440,"stv_port":27016,"stv_name":"Uncletopia | Hong Kong | 1 | All Maps | STV","players":[{"user_id":360,"name":"Impetus","steam_id":76561198213031155,"connected_time":215000000000,"state":"active","ping":100},{"user_id":327,"name":"toad♡","steam_id":76561198082199290,"connected_time":2079000000000,"state":"active","ping":44},{"user_id":328,"name":"Ivy","steam_id":76561198400698408,"connected_time":2071000000000,"state":"active","ping":93},{"user_id":329,"name":"脈絡雞","steam_id":76561198060730307,"connected_time":1936000000000,"state":"active","ping":47},{"user_id":333,"name":"Leon Spinning Kickk","steam_id":76561198006853251,"connected_time":1594000000000,"state":"active","ping":56},{"user_id":347,"name":"Minos Prime Reaction","steam_id":76561199475974790,"connected_time":951000000000,"state":"active","ping":78},{"user_id":332,"name":"Kuru kuru kururin","steam_id":76561199228570448,"connected_time":1829000000000,"state":"active","ping":72},{"user_id":335,"name":"Hải Sơn Bắc","steam_id":76561199186724484,"connected_time":1322000000000,"state":"active","ping":75},{"user_id":336,"name":"TomProPlayer","steam_id":76561199223292521,"connected_time":1287000000000,"state":"active","ping":65},{"user_id":337,"name":"mike had a dad :(","steam_id":76561199087364410,"connected_time":1204000000000,"state":"active","ping":185},{"user_id":338,"name":"StewBツ","steam_id":76561198131423270,"connected_time":1192000000000,"state":"active","ping":67},{"user_id":355,"name":"Row","steam_id":76561199076564167,"connected_time":540000000000,"state":"active","ping":70},{"user_id":340,"name":"MUHAINVICTUS","steam_id":76561199507788220,"connected_time":1057000000000,"state":"active","ping":142},{"user_id":357,"name":"母の肉団子@hao123.com","steam_id":76561198069561896,"connected_time":421000000000,"state":"active","ping":44},{"user_id":343,"name":"drd","steam_id":76561198149548170,"connected_time":1027000000000,"state":"active","ping":88},{"user_id":344,"name":"yuko","steam_id":76561198181866314,"connected_time":1027000000000,"state":"active","ping":57},{"user_id":345,"name":"DirtyDan","steam_id":76561198364890290,"connected_time":1027000000000,"state":"active","ping":70},{"user_id":350,"name":"villy","steam_id":76561198169263597,"connected_time":887000000000,"state":"active","ping":37},{"user_id":353,"name":"no vc no c","steam_id":76561197989503095,"connected_time":745000000000,"state":"active","ping":95},{"user_id":351,"name":"Morolian","steam_id":76561198015568343,"connected_time":833000000000,"state":"active","ping":106},{"user_id":352,"name":"zzz","steam_id":76561198324811195,"connected_time":796000000000,"state":"active","ping":64},{"user_id":354,"name":"Mac09","steam_id":76561198934873063,"connected_time":730000000000,"state":"active","ping":75},{"user_id":358,"name":"スツァグ","steam_id":76561198117178403,"connected_time":313000000000,"state":"active","ping":90},{"user_id":359,"name":"KOISHI","steam_id":76561198812433510,"connected_time":283000000000,"state":"active","ping":112}]},{"server_id":1,"name":"Uncletopia | Los Angeles | 1 | All Maps","name_short":"lax-1","host":"lax-1.us.uncletopia.com","port":27015,"enabled":true,"region":"us-west","cc":"us","latitude":33.94279,"longitude":-118.41004,"reserved":0,"last_update":"0001-01-01T00:00:00Z","name_a2s":"Uncletopia | Los Angeles | 1 | All Maps","protocol":17,"map":"koth_lakeside_final","folder":"tf","game":"Team Fortress","app_id":440,"player_count":0,"max_players":24,"Bots":0,"server_type":"Dedicated","server_os":"Linux","password":true,"vac":true,"version":"7961495","steam_id":85568392924469991,"keywords":["cp","nocrits","nodmgspread","uncletopia"],"game_id":440,"stv_port":27016,"stv_name":"Uncletopia | Los Angeles | 1 | All Maps | STV","players":null},{"server_id":112,"name":"Uncletopia | Los Angeles | 2 | All Maps","name_short":"lax-2","host":"lax-1.us.uncletopia.com","port":27025,"enabled":true,"region":"us-west","cc":"us","latitude":33.94279,"longitude":-118.41004,"reserved":0,"last_update":"0001-01-01T00:00:00Z","name_a2s":"Uncletopia | Los Angeles | 2 | All Maps","protocol":17,"map":"koth_lazarus","folder":"tf","game":"Team Fortress","app_id":440,"player_count":0,"max_players":24,"Bots":0,"server_type":"Dedicated","server_os":"Linux","password":true,"vac":true,"version":"7961495","steam_id":85568392924469992,"keywords":["cp","nocrits","nodmgspread","uncletopia"],"game_id":440,"stv_port":27026,"stv_name":"Uncletopia | Los Angeles | 2 | All Maps | STV","players":null},{"server_id":324,"name":"Uncletopia | Los Angeles | 3 | All Maps","name_short":"lax-3","host":"lax-1.us.uncletopia.com","port":27035,"enabled":true,"region":"us-west","cc":"us","latitude":33.94279,"longitude":-118.41004,"reserved":0,"last_update":"0001-01-01T00:00:00Z","name_a2s":"Uncletopia | Los Angeles | 3 | All Maps","protocol":17,"map":"pl_frontier_final","folder":"tf","game":"Team Fortress","app_id":440,"player_count":0,"max_players":24,"Bots":0,"server_type":"Dedicated","server_os":"Linux","password":true,"vac":true,"version":"7961495","steam_id":85568392924510198,"keywords":["nocrits","nodmgspread","payload","uncletopia"],"game_id":440,"stv_port":27036,"stv_name":"Uncletopia | Los Angeles | 3 | All Maps | STV","players":null},{"server_id":25,"name":"Uncletopia | Los Angeles | 4 | Stopwatch","name_short":"lax-4","host":"lax-1.us.uncletopia.com","port":27045,"enabled":true,"region":"us-west","cc":"us","latitude":33.94279,"longitude":-118.41004,"reserved":0,"last_update":"0001-01-01T00:00:00Z","name_a2s":"Uncletopia | Los Angeles | 4 | Stopwatch","protocol":17,"map":"pl_upward","folder":"tf","game":"Team Fortress","app_id":440,"player_count":0,"max_players":24,"Bots":0,"server_type":"Dedicated","server_os":"Linux","password":true,"vac":true,"version":"7961495","steam_id":85568392924510199,"keywords":["nocrits","nodmgspread","payload","uncletopia"],"game_id":440,"stv_port":27046,"stv_name":"Uncletopia | Los Angeles | 4 | Stopwatch | STV","players":null},{"server_id":11,"name":"Uncletopia | London | 1 | All Maps","name_short":"lon-1","host":"lon-1.uk.uncletopia.com","port":27015,"enabled":true,"region":"eu","cc":"gb","latitude":51.509865,"longitude":-0.118092,"reserved":0,"last_update":"0001-01-01T00:00:00Z","name_a2s":"Uncletopia | London | 1 | All Maps","protocol":17,"map":"pl_frontier_final","folder":"tf","game":"Team Fortress","app_id":440,"player_count":24,"max_players":24,"Bots":0,"server_type":"Dedicated","server_os":"Linux","password":true,"vac":true,"version":"7961495","steam_id":85568392924367362,"keywords":["nocrits","nodmgspread","payload","uncletopia"],"game_id":440,"stv_port":27016,"stv_name":"Uncletopia | London | 1 | All Maps | STV","players":[{"user_id":454,"name":"Inky (she/her)","steam_id":76561198334042273,"connected_time":2615000000000,"state":"active","ping":58},{"user_id":462,"name":"cumslut","steam_id":76561198086780251,"connected_time":1089000000000,"state":"active","ping":53},{"user_id":432,"name":"Soapy","steam_id":76561198111652667,"connected_time":4309000000000,"state":"active","ping":48},{"user_id":466,"name":"Bohagrius","steam_id":76561198003554034,"connected_time":763000000000,"state":"active","ping":146},{"user_id":481,"name":"sondi","steam_id":76561198045466209,"connected_time":239000000000,"state":"active","ping":74},{"user_id":471,"name":"Zlobromrd","steam_id":76561198076254924,"connected_time":632000000000,"state":"active","ping":65},{"user_id":467,"name":"Maxy Luck","steam_id":76561199009583144,"connected_time":756000000000,"state":"active","ping":106},{"user_id":477,"name":"Generál Kiwi","steam_id":76561198255946537,"connected_time":418000000000,"state":"active","ping":59},{"user_id":478,"name":"quickfast","steam_id":76561199438900919,"connected_time":279000000000,"state":"active","ping":43},{"user_id":436,"name":"Sebbe","steam_id":76561198105465619,"connected_time":4191000000000,"state":"active","ping":85},{"user_id":465,"name":"Women's lefts advocate","steam_id":76561198032359132,"connected_time":1019000000000,"state":"active","ping":44},{"user_id":458,"name":"Doloro :3","steam_id":76561198309713613,"connected_time":1962000000000,"state":"active","ping":49},{"user_id":479,"name":"The real 3 inch penis girl","steam_id":76561198267838767,"connected_time":265000000000,"state":"active","ping":38},{"user_id":468,"name":"Tomboy Mold","steam_id":76561198106455841,"connected_time":752000000000,"state":"active","ping":71},{"user_id":474,"name":"Justx","steam_id":76561197992655696,"connected_time":490000000000,"state":"active","ping":56},{"user_id":404,"name":"[P-roc] Cmm Bert","steam_id":76561198016658674,"connected_time":5990000000000,"state":"active","ping":59},{"user_id":447,"name":"plont","steam_id":76561198060105180,"connected_time":3179000000000,"state":"active","ping":68},{"user_id":461,"name":"Jam","steam_id":76561198090409013,"connected_time":1111000000000,"state":"active","ping":89},{"user_id":480,"name":"Usagi Aloahaoe","steam_id":76561198981191925,"connected_time":265000000000,"state":"active","ping":48},{"user_id":470,"name":"tafelpoot","steam_id":76561198080036024,"connected_time":678000000000,"state":"active","ping":50},{"user_id":457,"name":"Secretqwerty10","steam_id":76561198153137351,"connected_time":1976000000000,"state":"active","ping":58},{"user_id":452,"name":"clunk","steam_id":76561198836460767,"connected_time":2647000000000,"state":"active","ping":61},{"user_id":411,"name":"[P-roc] Lovely","steam_id":76561198074361075,"connected_time":5627000000000,"state":"active","ping":53}]},{"server_id":114,"name":"Uncletopia | London | 2 | All Maps","name_short":"lon-2","host":"lon-1.uk.uncletopia.com","port":27025,"enabled":true,"region":"eu","cc":"gb","latitude":51.509865,"longitude":-0.118092,"reserved":0,"last_update":"0001-01-01T00:00:00Z","name_a2s":"Uncletopia | London | 2 | All Maps","protocol":17,"map":"pl_frontier_final","folder":"tf","game":"Team Fortress","app_id":440,"player_count":0,"max_players":24,"Bots":0,"server_type":"Dedicated","server_os":"Linux","password":true,"vac":true,"version":"7961495","steam_id":85568392924470941,"keywords":["nocrits","nodmgspread","payload","uncletopia"],"game_id":440,"stv_port":27026,"stv_name":"Uncletopia | London | 2 | All Maps | STV","players":null},{"server_id":320,"name":"Uncletopia | London | 3 | All Maps","name_short":"lon-3","host":"lon-1.uk.uncletopia.com","port":27035,"enabled":true,"region":"eu","cc":"gb","latitude":51.509865,"longitude":-0.118092,"reserved":0,"last_update":"0001-01-01T00:00:00Z","name_a2s":"Uncletopia | London | 3 | All Maps","protocol":17,"map":"koth_viaduct","folder":"tf","game":"Team Fortress","app_id":440,"player_count":0,"max_players":24,"Bots":0,"server_type":"Dedicated","server_os":"Linux","password":true,"vac":true,"version":"7961495","steam_id":85568392924510192,"keywords":["cp","nocrits","nodmgspread","uncletopia"],"game_id":440,"stv_port":27036,"stv_name":"Uncletopia | London | 3 | All Maps | STV","players":null},{"server_id":321,"name":"Uncletopia | London | 4 | All Maps","name_short":"lon-4","host":"lon-1.uk.uncletopia.com","port":27045,"enabled":true,"region":"eu","cc":"gb","latitude":51.509865,"longitude":-0.118092,"reserved":0,"last_update":"0001-01-01T00:00:00Z","name_a2s":"Uncletopia | London | 4 | All Maps","protocol":17,"map":"koth_harvest_final","folder":"tf","game":"Team Fortress","app_id":440,"player_count":3,"max_players":24,"Bots":0,"server_type":"Dedicated","server_os":"Linux","password":true,"vac":true,"version":"7961495","steam_id":85568392924510193,"keywords":["cp","nocrits","nodmgspread","uncletopia"],"game_id":440,"stv_port":27046,"stv_name":"Uncletopia | London | 4 | All Maps | STV","players":[{"user_id":12,"name":"Missing_data","steam_id":76561199199194882,"connected_time":1154000000000,"state":"active","ping":129},{"user_id":13,"name":"IceFlower","steam_id":76561198207832149,"connected_time":1146000000000,"state":"active","ping":80},{"user_id":17,"name":"Kormit","steam_id":76561198977173160,"connected_time":717000000000,"state":"active","ping":56}]},{"server_id":21,"name":"Uncletopia | London | 5 | All Maps","name_short":"lon-5","host":"lon-1.uk.uncletopia.com","port":27055,"enabled":true,"region":"eu","cc":"gb","latitude":51.509865,"longitude":-0.118092,"reserved":0,"last_update":"0001-01-01T00:00:00Z","name_a2s":"Uncletopia | London | 5 | All Maps","protocol":17,"map":"pl_frontier_final","folder":"tf","game":"Team Fortress","app_id":440,"player_count":24,"max_players":24,"Bots":0,"server_type":"Dedicated","server_os":"Linux","password":true,"vac":true,"version":"7961495","steam_id":85568392924742829,"keywords":["nocrits","nodmgspread","payload","uncletopia"],"game_id":440,"stv_port":27056,"stv_name":"Uncletopia | London | 5 | All Maps | STV","players":[{"user_id":357,"name":"Saken","steam_id":76561198049075295,"connected_time":1444000000000,"state":"active","ping":60},{"user_id":373,"name":"Hunter Biden","steam_id":76561198271307753,"connected_time":370000000000,"state":"active","ping":95},{"user_id":372,"name":"the Gamingmonkey2013","steam_id":76561198838725081,"connected_time":383000000000,"state":"active","ping":49},{"user_id":367,"name":"lark","steam_id":76561198091724522,"connected_time":1081000000000,"state":"active","ping":62},{"user_id":334,"name":"Ullr","steam_id":76561198140547483,"connected_time":3000000000000,"state":"active","ping":41},{"user_id":326,"name":"Crystal Kerosene","steam_id":76561198963378933,"connected_time":3654000000000,"state":"active","ping":42},{"user_id":368,"name":"N O U F E XD","steam_id":76561199386090066,"connected_time":1076000000000,"state":"active","ping":84},{"user_id":355,"name":"Uncle Dale","steam_id":76561199144302768,"connected_time":1501000000000,"state":"active","ping":116},{"user_id":374,"name":"System","steam_id":76561199442503973,"connected_time":350000000000,"state":"active","ping":58},{"user_id":337,"name":"What is that? Sludge?","steam_id":76561198307037169,"connected_time":2822000000000,"state":"active","ping":46},{"user_id":304,"name":"stun","steam_id":76561198276681691,"connected_time":4760000000000,"state":"active","ping":48},{"user_id":361,"name":"Wellink","steam_id":76561198854204494,"connected_time":1340000000000,"state":"active","ping":75},{"user_id":370,"name":"literallyjasonx","steam_id":76561198835895387,"connected_time":580000000000,"state":"active","ping":65},{"user_id":336,"name":"hide","steam_id":76561198918282467,"connected_time":2907000000000,"state":"active","ping":35},{"user_id":371,"name":"Infinitzium","steam_id":76561198844582093,"connected_time":449000000000,"state":"active","ping":84},{"user_id":348,"name":"dsibobcat","steam_id":76561198199117446,"connected_time":1969000000000,"state":"active","ping":49},{"user_id":335,"name":"Fox","steam_id":76561199009350836,"connected_time":2939000000000,"state":"active","ping":75},{"user_id":341,"name":"The Subway Scientist","steam_id":76561198193757646,"connected_time":2574000000000,"state":"active","ping":45},{"user_id":375,"name":"yall boots hats??","steam_id":76561198097396447,"connected_time":317000000000,"state":"active","ping":60},{"user_id":352,"name":"Femboy The Third","steam_id":76561199044620386,"connected_time":1706000000000,"state":"active","ping":54},{"user_id":333,"name":"Nightdawg","steam_id":76561198046176023,"connected_time":3062000000000,"state":"active","ping":86},{"user_id":360,"name":"Truskawka","steam_id":76561198855163602,"connected_time":1358000000000,"state":"active","ping":82},{"user_id":365,"name":"cropping","steam_id":76561198026586456,"connected_time":1133000000000,"state":"active","ping":59}]},{"server_id":22,"name":"Uncletopia | London | 6 | All Maps","name_short":"lon-6","host":"lon-1.uk.uncletopia.com","port":27065,"enabled":true,"region":"eu","cc":"gb","latitude":51.509865,"longitude":-0.118092,"reserved":0,"last_update":"0001-01-01T00:00:00Z","name_a2s":"Uncletopia | London | 6 | All Maps","protocol":17,"map":"koth_harvest_final","folder":"tf","game":"Team Fortress","app_id":440,"player_count":24,"max_players":24,"Bots":0,"server_type":"Dedicated","server_os":"Linux","password":true,"vac":true,"version":"7961495","steam_id":85568392924742830,"keywords":["cp","nocrits","nodmgspread","uncletopia"],"game_id":440,"stv_port":27066,"stv_name":"Uncletopia | London | 6 | All Maps | STV","players":[{"user_id":45,"name":"levzuzius","steam_id":76561199502450909,"connected_time":651000000000,"state":"active","ping":84},{"user_id":18,"name":"Swedde","steam_id":76561198297296440,"connected_time":1655000000000,"state":"active","ping":56},{"user_id":24,"name":"Bond7o6","steam_id":76561198155718787,"connected_time":1455000000000,"state":"active","ping":57},{"user_id":13,"name":"Charlie Brown","steam_id":76561199378865926,"connected_time":2430000000000,"state":"active","ping":88},{"user_id":15,"name":"breadbear \u003c3","steam_id":76561198036895007,"connected_time":2101000000000,"state":"active","ping":85},{"user_id":53,"name":"Jazzwick","steam_id":76561198001552113,"connected_time":39000000000,"state":"active","ping":63},{"user_id":20,"name":"Mig_Chungus","steam_id":76561198053410265,"connected_time":1589000000000,"state":"active","ping":61},{"user_id":54,"name":"Eme","steam_id":76561198171619442,"connected_time":5000000000,"state":"spawning","ping":91},{"user_id":55,"name":"Arigato Gozaimasu!","steam_id":76561198052342856,"connected_time":3000000000,"state":"spawning","ping":59},{"user_id":23,"name":"transgender girl","steam_id":76561198864161505,"connected_time":1504000000000,"state":"active","ping":51},{"user_id":25,"name":"medicinal man","steam_id":76561198202668788,"connected_time":1418000000000,"state":"active","ping":64},{"user_id":29,"name":"Blar","steam_id":76561198042438229,"connected_time":1017000000000,"state":"active","ping":42},{"user_id":27,"name":"sixhundredseventy","steam_id":76561199441772083,"connected_time":1256000000000,"state":"active","ping":65},{"user_id":28,"name":"Hot milk in your area","steam_id":76561198173218318,"connected_time":1165000000000,"state":"active","ping":45},{"user_id":30,"name":"silicon based life form","steam_id":76561199127121346,"connected_time":1000000000000,"state":"active","ping":53},{"user_id":31,"name":"Eric Catman","steam_id":76561198802117294,"connected_time":976000000000,"state":"active","ping":62},{"user_id":32,"name":"Dr. Funkenstein","steam_id":76561197977816210,"connected_time":911000000000,"state":"active","ping":66},{"user_id":33,"name":"mossfan1","steam_id":76561198087525446,"connected_time":891000000000,"state":"active","ping":74},{"user_id":50,"name":"ALARM","steam_id":76561198120686521,"connected_time":123000000000,"state":"active","ping":58},{"user_id":52,"name":"Warrior555MainsGanon","steam_id":76561198388627786,"connected_time":86000000000,"state":"active","ping":58},{"user_id":48,"name":"LOBZIK","steam_id":76561198114830120,"connected_time":250000000000,"state":"active","ping":76},{"user_id":49,"name":"meirfa","steam_id":76561198157193506,"connected_time":240000000000,"state":"active","ping":134},{"user_id":41,"name":"SPONGE","steam_id":76561198040933472,"connected_time":788000000000,"state":"active","ping":60},{"user_id":42,"name":"worgeral","steam_id":76561198050781898,"connected_time":788000000000,"state":"active","ping":68}]},{"server_id":40,"name":"Uncletopia | London | 7 | Stopwatch","name_short":"lon-7","host":"lon-1.uk.uncletopia.com","port":27075,"enabled":true,"region":"eu","cc":"gb","latitude":51.509865,"longitude":-0.118092,"reserved":0,"last_update":"0001-01-01T00:00:00Z","name_a2s":"Uncletopia | London | 7 | Stopwatch","protocol":17,"map":"workshop/koth_clearcut_b15.ugc2107050255","folder":"tf","game":"Team Fortress","app_id":440,"player_count":0,"max_players":24,"Bots":0,"server_type":"Dedicated","server_os":"Linux","password":true,"vac":true,"version":"7961495","steam_id":85568392924964314,"keywords":["cp","nocrits","nodmgspread","uncletopia"],"game_id":440,"stv_port":27076,"stv_name":"Uncletopia | London | 7 | Stopwatch | STV","players":null},{"server_id":41,"name":"Uncletopia | London | 8 | Community","name_short":"lon-8","host":"lon-1.uk.uncletopia.com","port":27085,"enabled":true,"region":"eu","cc":"gb","latitude":51.509865,"longitude":-0.118092,"reserved":0,"last_update":"0001-01-01T00:00:00Z","name_a2s":"Uncletopia | London | 8 | Community","protocol":17,"map":"workshop/cp_propaganda_b18.ugc1603743849","folder":"tf","game":"Team Fortress","app_id":440,"player_count":0,"max_players":24,"Bots":0,"server_type":"Dedicated","server_os":"Linux","password":true,"vac":true,"version":"7961495","steam_id":85568392924964315,"keywords":["cp","nocrits","nodmgspread","uncletopia"],"game_id":440,"stv_port":27086,"stv_name":"Uncletopia | London | 8 | Community | STV","players":null},{"server_id":300,"name":"Uncletopia | Montréal | 1 | One Thousand Uncles","name_short":"mtl-1","host":"mtl-1.ca.uncletopia.com","port":27015,"enabled":true,"region":"us-east","cc":"ca","latitude":45.50889,"longitude":-73.56167,"reserved":0,"last_update":"0001-01-01T00:00:00Z","name_a2s":"Uncletopia | Montréal | 1 | One Thousand Uncles","protocol":17,"map":"pl_barnblitz","folder":"tf","game":"Team Fortress","app_id":440,"player_count":0,"max_players":32,"Bots":0,"server_type":"Dedicated","server_os":"Linux","password":true,"vac":true,"version":"7961495","steam_id":85568392924500087,"keywords":["alltalk","danepve","increased_maxplayers","norespawntime","payload","uncletopia"],"game_id":440,"stv_port":0,"stv_name":"","players":null},{"server_id":301,"name":"Uncletopia | Montréal | 2 | One Thousand Uncles","name_short":"mtl-2","host":"mtl-1.ca.uncletopia.com","port":27025,"enabled":true,"region":"us-east","cc":"ca","latitude":45.50889,"longitude":-73.56167,"reserved":0,"last_update":"0001-01-01T00:00:00Z","name_a2s":"Uncletopia | Montréal | 2 | One Thousand Uncles","protocol":17,"map":"cp_mossrock","folder":"tf","game":"Team Fortress","app_id":440,"player_count":0,"max_players":32,"Bots":0,"server_type":"Dedicated","server_os":"Linux","password":true,"vac":true,"version":"7961495","steam_id":85568392924500088,"keywords":["alltalk","cp","danepve","increased_maxplayers","norespawntime","uncletopia"],"game_id":440,"stv_port":0,"stv_name":"","players":null},{"server_id":302,"name":"Uncletopia | Montréal | 3 | One Thousand Uncles","name_short":"mtl-3","host":"mtl-1.ca.uncletopia.com","port":27035,"enabled":true,"region":"us-east","cc":"ca","latitude":45.50889,"longitude":-73.56167,"reserved":0,"last_update":"0001-01-01T00:00:00Z","name_a2s":"Uncletopia | Montréal | 3 | One Thousand Uncles","protocol":17,"map":"pl_pier","folder":"tf","game":"Team Fortress","app_id":440,"player_count":24,"max_players":32,"Bots":20,"server_type":"Dedicated","server_os":"Linux","password":true,"vac":true,"version":"7961495","steam_id":85568392924500089,"keywords":["alltalk","bots","danepve","increased_maxplayers","norespawntime","payload","uncletopia"],"game_id":440,"stv_port":0,"stv_name":"","players":[{"user_id":2,"name":"goobiestgoober","steam_id":76561199487899460,"connected_time":3481000000000,"state":"active","ping":131},{"user_id":23,"name":"abhorrence","steam_id":76561198208849751,"connected_time":2731000000000,"state":"active","ping":78},{"user_id":28,"name":"thorg","steam_id":76561199144740188,"connected_time":917000000000,"state":"active","ping":118},{"user_id":30,"name":"MjrMovnTARGET","steam_id":76561199125908849,"connected_time":172000000000,"state":"active","ping":69}]},{"server_id":13,"name":"Uncletopia | New York City | 1 | All Maps","name_short":"nyc-1","host":"nyc-1.us.uncletopia.com","port":27015,"enabled":true,"region":"us-east","cc":"us","latitude":40.73061,"longitude":-73.93524,"reserved":0,"last_update":"0001-01-01T00:00:00Z","name_a2s":"Uncletopia | New York City | 1 | All Maps","protocol":17,"map":"pl_badwater","folder":"tf","game":"Team Fortress","app_id":440,"player_count":24,"max_players":24,"Bots":0,"server_type":"Dedicated","server_os":"Linux","password":true,"vac":true,"version":"7961495","steam_id":85568392924469993,"keywords":["nocrits","nodmgspread","payload","uncletopia"],"game_id":440,"stv_port":27016,"stv_name":"Uncletopia | New York City | 1 | All Maps | STV","players":[{"user_id":5,"name":"googa","steam_id":76561198133130452,"connected_time":5171000000000,"state":"active","ping":42},{"user_id":88,"name":"-W3E- grim10465","steam_id":76561198045698581,"connected_time":426000000000,"state":"active","ping":30},{"user_id":87,"name":"Bucket of Chestnuts","steam_id":76561198115079427,"connected_time":434000000000,"state":"active","ping":49},{"user_id":91,"name":"Salt","steam_id":76561198418001135,"connected_time":332000000000,"state":"active","ping":68},{"user_id":90,"name":"Xraverz","steam_id":76561198008891628,"connected_time":401000000000,"state":"active","ping":75},{"user_id":92,"name":"The Odyssey Had A Purpose","steam_id":76561198408747483,"connected_time":325000000000,"state":"active","ping":100},{"user_id":83,"name":"Bill Conors","steam_id":76561199144853222,"connected_time":1392000000000,"state":"active","ping":67},{"user_id":86,"name":"squaggles!","steam_id":76561197994995011,"connected_time":445000000000,"state":"active","ping":52},{"user_id":79,"name":"thrompo","steam_id":76561197996845059,"connected_time":1436000000000,"state":"active","ping":43},{"user_id":73,"name":"oopsboom24","steam_id":76561199105248648,"connected_time":1749000000000,"state":"active","ping":86},{"user_id":93,"name":"Fightin in the MARSH","steam_id":76561198354076551,"connected_time":253000000000,"state":"active","ping":51},{"user_id":95,"name":"Mogwarrior41","steam_id":76561199388063817,"connected_time":201000000000,"state":"active","ping":98},{"user_id":67,"name":"HansBanans","steam_id":76561198167894050,"connected_time":1983000000000,"state":"active","ping":81},{"user_id":85,"name":"Duotronic","steam_id":76561198132226387,"connected_time":853000000000,"state":"active","ping":57},{"user_id":27,"name":"SpaceSanctum","steam_id":76561198805242305,"connected_time":3829000000000,"state":"active","ping":44},{"user_id":96,"name":"Very Small Giant","steam_id":76561199187337967,"connected_time":151000000000,"state":"active","ping":62},{"user_id":97,"name":"The Businessman","steam_id":76561198352531234,"connected_time":137000000000,"state":"active","ping":154},{"user_id":98,"name":"Ginger Jesus","steam_id":76561198052386458,"connected_time":107000000000,"state":"active","ping":76},{"user_id":84,"name":"firetamer2","steam_id":76561198040886980,"connected_time":1155000000000,"state":"active","ping":47},{"user_id":99,"name":"Red Falcon","steam_id":76561198986132432,"connected_time":70000000000,"state":"active","ping":78},{"user_id":76,"name":"Javaris Jamar Javarison-Lamar","steam_id":76561198146951387,"connected_time":1458000000000,"state":"active","ping":60},{"user_id":64,"name":"Karrot","steam_id":76561198058970903,"connected_time":2251000000000,"state":"active","ping":84},{"user_id":100,"name":"Sinister Sandwich","steam_id":76561198142327400,"connected_time":25000000000,"state":"active","ping":53},{"user_id":70,"name":"B.","steam_id":76561198040445907,"connected_time":1893000000000,"state":"active","ping":81}]},{"server_id":14,"name":"Uncletopia | New York City | 2 | All Maps","name_short":"nyc-2","host":"nyc-1.us.uncletopia.com","port":27025,"enabled":true,"region":"us-east","cc":"us","latitude":40.73061,"longitude":-73.93524,"reserved":0,"last_update":"0001-01-01T00:00:00Z","name_a2s":"Uncletopia | New York City | 2 | All Maps","protocol":17,"map":"pl_frontier_final","folder":"tf","game":"Team Fortress","app_id":440,"player_count":24,"max_players":24,"Bots":0,"server_type":"Dedicated","server_os":"Linux","password":true,"vac":true,"version":"7961495","steam_id":85568392924469994,"keywords":["nocrits","nodmgspread","payload","uncletopia"],"game_id":440,"stv_port":27026,"stv_name":"Uncletopia | New York City | 2 | All Maps | STV","players":[{"user_id":173,"name":"comfy.","steam_id":76561198008818346,"connected_time":455000000000,"state":"active","ping":55},{"user_id":89,"name":"*‧˚kitsu ʚ♥ɞ","steam_id":76561198091741658,"connected_time":6634000000000,"state":"active","ping":90},{"user_id":83,"name":"pea ttv/peabeanz","steam_id":76561198119551968,"connected_time":6810000000000,"state":"active","ping":70},{"user_id":162,"name":"做任何事都要努力","steam_id":76561198357118501,"connected_time":743000000000,"state":"active","ping":89},{"user_id":18,"name":"Seasoned Shrimp","steam_id":76561198405863627,"connected_time":11009000000000,"state":"active","ping":101},{"user_id":174,"name":"Moron","steam_id":76561198039662571,"connected_time":431000000000,"state":"active","ping":60},{"user_id":139,"name":"UsingXbox360Remote","steam_id":76561198258253304,"connected_time":1937000000000,"state":"active","ping":72},{"user_id":175,"name":"Ok-Par","steam_id":76561199221067945,"connected_time":293000000000,"state":"active","ping":94},{"user_id":163,"name":"Killer Kiwi","steam_id":76561197984466804,"connected_time":739000000000,"state":"active","ping":40},{"user_id":170,"name":"Cayenne","steam_id":76561198004614086,"connected_time":578000000000,"state":"active","ping":74},{"user_id":137,"name":"Xx_gam3rberg_xX","steam_id":76561199035781025,"connected_time":2027000000000,"state":"active","ping":86},{"user_id":171,"name":"Jrock","steam_id":76561198045715996,"connected_time":577000000000,"state":"active","ping":75},{"user_id":177,"name":"tiernenator","steam_id":76561198349045539,"connected_time":221000000000,"state":"active","ping":68},{"user_id":165,"name":"GibyGoby","steam_id":76561198238155164,"connected_time":707000000000,"state":"active","ping":90},{"user_id":25,"name":"inx_is_trans","steam_id":76561198223991316,"connected_time":10630000000000,"state":"active","ping":88},{"user_id":168,"name":"a pan furry","steam_id":76561199445662628,"connected_time":626000000000,"state":"active","ping":136},{"user_id":167,"name":"darts","steam_id":76561199128531654,"connected_time":655000000000,"state":"active","ping":48},{"user_id":145,"name":"He rolls his own","steam_id":76561198058162684,"connected_time":1801000000000,"state":"active","ping":59},{"user_id":154,"name":"your very own pocket medic","steam_id":76561199489320369,"connected_time":1387000000000,"state":"active","ping":60},{"user_id":125,"name":"Snoogs","steam_id":76561198444880931,"connected_time":3203000000000,"state":"active","ping":62},{"user_id":178,"name":"loscemo","steam_id":76561197994884609,"connected_time":16000000000,"state":"active","ping":58},{"user_id":172,"name":"CASR","steam_id":76561199122040210,"connected_time":556000000000,"state":"active","ping":78},{"user_id":152,"name":"cuerpo destrozado en la calle","steam_id":76561198194471251,"connected_time":1686000000000,"state":"active","ping":60},{"user_id":166,"name":"Skipikip","steam_id":76561198125019458,"connected_time":677000000000,"state":"active","ping":45}]},{"server_id":15,"name":"Uncletopia | New York City | 3 | Stopwatch","name_short":"nyc-3","host":"nyc-1.us.uncletopia.com","port":27035,"enabled":true,"region":"us-east","cc":"us","latitude":40.73061,"longitude":-73.93524,"reserved":0,"last_update":"0001-01-01T00:00:00Z","name_a2s":"Uncletopia | New York City | 3 | Stopwatch","protocol":17,"map":"workshop/koth_ashville_final.ugc2130459942","folder":"tf","game":"Team Fortress","app_id":440,"player_count":3,"max_players":24,"Bots":0,"server_type":"Dedicated","server_os":"Linux","password":true,"vac":true,"version":"7961495","steam_id":85568392924742820,"keywords":["cp","nocrits","nodmgspread","uncletopia"],"game_id":440,"stv_port":27036,"stv_name":"Uncletopia | New York City | 3 | Stopwatch | STV","players":[{"user_id":5,"name":"Atom","steam_id":76561198124762089,"connected_time":160000000000,"state":"active","ping":134},{"user_id":6,"name":"ananas_fin","steam_id":76561198173810773,"connected_time":144000000000,"state":"active","ping":136},{"user_id":7,"name":"Milshi Bubs","steam_id":76561198275754092,"connected_time":83000000000,"state":"active","ping":129}]},{"server_id":16,"name":"Uncletopia | New York City | 4 | Community","name_short":"nyc-4","host":"nyc-1.us.uncletopia.com","port":27045,"enabled":true,"region":"us-east","cc":"us","latitude":40.73061,"longitude":-73.93524,"reserved":0,"last_update":"0001-01-01T00:00:00Z","name_a2s":"Uncletopia | New York City | 4 | Community","protocol":17,"map":"workshop/cp_reckoner_rc6.ugc674719999","folder":"tf","game":"Team Fortress","app_id":440,"player_count":0,"max_players":24,"Bots":0,"server_type":"Dedicated","server_os":"Linux","password":true,"vac":true,"version":"7961495","steam_id":85568392924742821,"keywords":["cp","nocrits","nodmgspread","uncletopia"],"game_id":440,"stv_port":27046,"stv_name":"Uncletopia | New York City | 4 | Community | STV","players":null},{"server_id":142,"name":"Uncletopia | São Paulo | 1 | All Maps","name_short":"sao-1","host":"sao-1.br.uncletopia.com","port":27015,"enabled":true,"region":"sa","cc":"br","latitude":-23.533773,"longitude":-46.62529,"reserved":0,"last_update":"0001-01-01T00:00:00Z","name_a2s":"Uncletopia | São Paulo | 1 | All Maps","protocol":17,"map":"pl_borneo","folder":"tf","game":"Team Fortress","app_id":440,"player_count":0,"max_players":24,"Bots":0,"server_type":"Dedicated","server_os":"Linux","password":true,"vac":true,"version":"7961495","steam_id":85568392924469996,"keywords":["nocrits","nodmgspread","payload","uncletopia"],"game_id":440,"stv_port":27016,"stv_name":"Uncletopia | São Paulo | 1 | All Maps | STV","players":null},{"server_id":143,"name":"Uncletopia | São Paulo | 2 | Community","name_short":"sao-2","host":"sao-2.br.uncletopia.com","port":27015,"enabled":true,"region":"sa","cc":"br","latitude":-23.533773,"longitude":-46.62529,"reserved":0,"last_update":"0001-01-01T00:00:00Z","name_a2s":"Uncletopia | São Paulo | 2 | Community","protocol":17,"map":"workshop/koth_slaughter_rc1.ugc1712845210","folder":"tf","game":"Team Fortress","app_id":440,"player_count":0,"max_players":24,"Bots":0,"server_type":"Dedicated","server_os":"Linux","password":true,"vac":true,"version":"7961495","steam_id":85568392924485349,"keywords":["cp","nocrits","nodmgspread","uncletopia"],"game_id":440,"stv_port":27016,"stv_name":"Uncletopia | São Paulo | 2 | Community | STV","players":null},{"server_id":7,"name":"Uncletopia | Seattle | 1 | All Maps","name_short":"sea-1","host":"sea-1.us.uncletopia.com","port":27015,"enabled":true,"region":"us-west","cc":"us","latitude":47.608013,"longitude":-122.33517,"reserved":0,"last_update":"0001-01-01T00:00:00Z","name_a2s":"Uncletopia | Seattle | 1 | All Maps","protocol":17,"map":"koth_king","folder":"tf","game":"Team Fortress","app_id":440,"player_count":0,"max_players":24,"Bots":0,"server_type":"Dedicated","server_os":"Linux","password":true,"vac":true,"version":"7961495","steam_id":85568392924469997,"keywords":["cp","nocrits","nodmgspread","uncletopia"],"game_id":440,"stv_port":27016,"stv_name":"Uncletopia | Seattle | 1 | All Maps | STV","players":null},{"server_id":119,"name":"Uncletopia | Seattle | 2 | All Maps","name_short":"sea-2","host":"sea-1.us.uncletopia.com","port":27025,"enabled":true,"region":"us-west","cc":"us","latitude":47.608013,"longitude":-122.33517,"reserved":0,"last_update":"0001-01-01T00:00:00Z","name_a2s":"Uncletopia | Seattle | 2 | All Maps","protocol":17,"map":"cp_mountainlab","folder":"tf","game":"Team Fortress","app_id":440,"player_count":0,"max_players":24,"Bots":0,"server_type":"Dedicated","server_os":"Linux","password":true,"vac":true,"version":"7961495","steam_id":85568392924469998,"keywords":["cp","nocrits","nodmgspread","uncletopia"],"game_id":440,"stv_port":27026,"stv_name":"Uncletopia | Seattle | 2 | All Maps | STV","players":null},{"server_id":406,"name":"Uncletopia | Seattle | 3 | Stopwatch","name_short":"sea-3","host":"sea-1.us.uncletopia.com","port":27035,"enabled":true,"region":"us-west","cc":"us","latitude":47.608013,"longitude":-122.33517,"reserved":0,"last_update":"0001-01-01T00:00:00Z","name_a2s":"Uncletopia | Seattle | 3 | Stopwatch","protocol":17,"map":"cp_gullywash_final1","folder":"tf","game":"Team Fortress","app_id":440,"player_count":0,"max_players":24,"Bots":0,"server_type":"Dedicated","server_os":"Linux","password":true,"vac":true,"version":"7961495","steam_id":85568392924515217,"keywords":["cp","nocrits","nodmgspread","uncletopia"],"game_id":440,"stv_port":27036,"stv_name":"Uncletopia | Seattle | 3 | Stopwatch | STV","players":null},{"server_id":17,"name":"Uncletopia | San Francisco | 1 | All Maps","name_short":"sfo-1","host":"sfo-1.us.uncletopia.com","port":27015,"enabled":true,"region":"us-west","cc":"us","latitude":37.77397,"longitude":-122.4313,"reserved":0,"last_update":"0001-01-01T00:00:00Z","name_a2s":"Uncletopia | San Francisco | 1 | All Maps","protocol":17,"map":"cp_gullywash_final1","folder":"tf","game":"Team Fortress","app_id":440,"player_count":0,"max_players":24,"Bots":0,"server_type":"Dedicated","server_os":"Linux","password":true,"vac":true,"version":"7961495","steam_id":85568392924469999,"keywords":["cp","nocrits","nodmgspread","uncletopia"],"game_id":440,"stv_port":27016,"stv_name":"Uncletopia | San Francisco | 1 | All Maps | STV","players":null},{"server_id":18,"name":"Uncletopia | San Francisco | 2 | All Maps","name_short":"sfo-2","host":"sfo-1.us.uncletopia.com","port":27025,"enabled":true,"region":"us-west","cc":"us","latitude":37.77397,"longitude":-122.4313,"reserved":0,"last_update":"0001-01-01T00:00:00Z","name_a2s":"Uncletopia | San Francisco | 2 | All Maps","protocol":17,"map":"pl_hoodoo_final","folder":"tf","game":"Team Fortress","app_id":440,"player_count":0,"max_players":24,"Bots":0,"server_type":"Dedicated","server_os":"Linux","password":true,"vac":true,"version":"7961495","steam_id":85568392924470000,"keywords":["nocrits","nodmgspread","payload","uncletopia"],"game_id":440,"stv_port":27026,"stv_name":"Uncletopia | San Francisco | 2 | All Maps | STV","players":null},{"server_id":19,"name":"Uncletopia | San Francisco | 3 | Stopwatch","name_short":"sfo-3","host":"sfo-1.us.uncletopia.com","port":27035,"enabled":true,"region":"us-west","cc":"us","latitude":37.77397,"longitude":-122.4313,"reserved":0,"last_update":"0001-01-01T00:00:00Z","name_a2s":"Uncletopia | San Francisco | 3 | Stopwatch","protocol":17,"map":"workshop/koth_clearcut_b15.ugc2107050255","folder":"tf","game":"Team Fortress","app_id":440,"player_count":0,"max_players":24,"Bots":0,"server_type":"Dedicated","server_os":"Linux","password":true,"vac":true,"version":"7961495","steam_id":85568392924742824,"keywords":["cp","nocrits","nodmgspread","uncletopia"],"game_id":440,"stv_port":27036,"stv_name":"Uncletopia | San Francisco | 3 | Stopwatch | STV","players":null},{"server_id":20,"name":"Uncletopia | San Francisco | 4 | Community","name_short":"sfo-4","host":"sfo-1.us.uncletopia.com","port":27045,"enabled":true,"region":"us-west","cc":"us","latitude":37.77397,"longitude":-122.4313,"reserved":0,"last_update":"0001-01-01T00:00:00Z","name_a2s":"Uncletopia | San Francisco | 4 | Community","protocol":17,"map":"workshop/cp_reckoner_rc6.ugc674719999","folder":"tf","game":"Team Fortress","app_id":440,"player_count":0,"max_players":24,"Bots":0,"server_type":"Dedicated","server_os":"Linux","password":true,"vac":true,"version":"7961495","steam_id":85568392924742826,"keywords":["cp","nocrits","nodmgspread","uncletopia"],"game_id":440,"stv_port":27046,"stv_name":"Uncletopia | San Francisco | 4 | Community | STV","players":null},{"server_id":141,"name":"Uncletopia | Sydney | 1 | All Maps","name_short":"syd-1","host":"syd-1.au.uncletopia.com","port":27015,"enabled":true,"region":"au","cc":"au","latitude":-33.865143,"longitude":151.2099,"reserved":0,"last_update":"0001-01-01T00:00:00Z","name_a2s":"Uncletopia | Sydney | 1 | All Maps","protocol":17,"map":"cp_process_final","folder":"tf","game":"Team Fortress","app_id":440,"player_count":0,"max_players":24,"Bots":0,"server_type":"Dedicated","server_os":"Linux","password":true,"vac":true,"version":"7961495","steam_id":85568392924470001,"keywords":["cp","nocrits","nodmgspread","uncletopia"],"game_id":440,"stv_port":27016,"stv_name":"Uncletopia | Sydney | 1 | All Maps | STV","players":null},{"server_id":123,"name":"Uncletopia | Sydney | 2 | All Maps","name_short":"syd-2","host":"syd-1.au.uncletopia.com","port":27025,"enabled":true,"region":"au","cc":"au","latitude":-33.865143,"longitude":151.2099,"reserved":0,"last_update":"0001-01-01T00:00:00Z","name_a2s":"Uncletopia | Sydney | 2 | All Maps","protocol":17,"map":"koth_viaduct","folder":"tf","game":"Team Fortress","app_id":440,"player_count":0,"max_players":24,"Bots":0,"server_type":"Dedicated","server_os":"Linux","password":true,"vac":true,"version":"7961495","steam_id":85568392924470002,"keywords":["cp","nocrits","nodmgspread","uncletopia"],"game_id":440,"stv_port":27026,"stv_name":"Uncletopia | Sydney | 2 | All Maps | STV","players":null},{"server_id":395,"name":"Uncletopia | Sydney | 3 | All Maps","name_short":"syd-3","host":"syd-1.au.uncletopia.com","port":27035,"enabled":true,"region":"au","cc":"au","latitude":-33.865143,"longitude":151.2099,"reserved":0,"last_update":"0001-01-01T00:00:00Z","name_a2s":"Uncletopia | Sydney | 3 | All Maps","protocol":17,"map":"koth_lakeside_final","folder":"tf","game":"Team Fortress","app_id":440,"player_count":0,"max_players":24,"Bots":0,"server_type":"Dedicated","server_os":"Linux","password":true,"vac":true,"version":"7961495","steam_id":85568392925194467,"keywords":["cp","nocrits","nodmgspread","uncletopia"],"game_id":440,"stv_port":27036,"stv_name":"Uncletopia | Sydney | 3 | All Maps | STV","players":null},{"server_id":396,"name":"Uncletopia | Sydney | 4 | All Maps","name_short":"syd-4","host":"syd-1.au.uncletopia.com","port":27045,"enabled":true,"region":"au","cc":"au","latitude":-33.865143,"longitude":151.2099,"reserved":0,"last_update":"0001-01-01T00:00:00Z","name_a2s":"Uncletopia | Sydney | 4 | All Maps","protocol":17,"map":"cp_snakewater_final1","folder":"tf","game":"Team Fortress","app_id":440,"player_count":0,"max_players":24,"Bots":0,"server_type":"Dedicated","server_os":"Linux","password":true,"vac":true,"version":"7961495","steam_id":85568392925397958,"keywords":["cp","nocrits","nodmgspread","uncletopia"],"game_id":440,"stv_port":27046,"stv_name":"Uncletopia | Sydney | 4 | All Maps | STV","players":null},{"server_id":58,"name":"Uncletopia | Sydney | 5 | Stopwatch","name_short":"syd-5","host":"syd-1.au.uncletopia.com","port":27055,"enabled":true,"region":"au","cc":"au","latitude":-33.865143,"longitude":151.2099,"reserved":0,"last_update":"0001-01-01T00:00:00Z","name_a2s":"Uncletopia | Sydney | 5 | Stopwatch","protocol":17,"map":"workshop/pl_summercoast_rc8e.ugc1761528829","folder":"tf","game":"Team Fortress","app_id":440,"player_count":0,"max_players":24,"Bots":0,"server_type":"Dedicated","server_os":"Linux","password":true,"vac":true,"version":"7961495","steam_id":85568392925397959,"keywords":["nocrits","nodmgspread","payload","uncletopia"],"game_id":440,"stv_port":27056,"stv_name":"Uncletopia | Sydney | 5 | Stopwatch | STV","players":null},{"server_id":59,"name":"Uncletopia | Sydney | 6 | Community","name_short":"syd-6","host":"syd-1.au.uncletopia.com","port":27065,"enabled":true,"region":"au","cc":"au","latitude":-33.865143,"longitude":151.2099,"reserved":0,"last_update":"0001-01-01T00:00:00Z","name_a2s":"Uncletopia | Sydney | 6 | Community","protocol":17,"map":"workshop/koth_soot_final1.ugc2969540689","folder":"tf","game":"Team Fortress","app_id":440,"player_count":0,"max_players":24,"Bots":0,"server_type":"Dedicated","server_os":"Linux","password":true,"vac":true,"version":"7961495","steam_id":85568392925397960,"keywords":["cp","nocrits","nodmgspread","uncletopia"],"game_id":440,"stv_port":27066,"stv_name":"Uncletopia | Sydney | 6 | Community | STV","players":null},{"server_id":49,"name":"Uncletopia | Warsaw | 1 | One Thousand Uncles","name_short":"waw-1","host":"waw-1.pl.uncletopia.com","port":27015,"enabled":true,"region":"eu","cc":"pl","latitude":52.2297,"longitude":21.017532,"reserved":0,"last_update":"0001-01-01T00:00:00Z","name_a2s":"Uncletopia | Warsaw | 1 | One Thousand Uncles","protocol":17,"map":"pl_snowycoast","folder":"tf","game":"Team Fortress","app_id":440,"player_count":27,"max_players":32,"Bots":20,"server_type":"Dedicated","server_os":"Linux","password":true,"vac":true,"version":"7961495","steam_id":85568392925397850,"keywords":["alltalk","bots","danepve","increased_maxplayers","norespawntime","payload","uncletopia"],"game_id":440,"stv_port":0,"stv_name":"","players":[{"user_id":336,"name":"Dark Wizart","steam_id":76561198377689439,"connected_time":196000000000,"state":"active","ping":97},{"user_id":326,"name":"APGE","steam_id":76561198037063136,"connected_time":1427000000000,"state":"active","ping":75},{"user_id":333,"name":"krembergs","steam_id":76561198329728890,"connected_time":891000000000,"state":"active","ping":88},{"user_id":332,"name":"barman4you","steam_id":76561198315922012,"connected_time":931000000000,"state":"active","ping":55},{"user_id":330,"name":"cheesecake hunter","steam_id":76561198097769060,"connected_time":1055000000000,"state":"active","ping":80},{"user_id":335,"name":"judasz","steam_id":76561198057378108,"connected_time":402000000000,"state":"active","ping":109},{"user_id":259,"name":"Lavi","steam_id":76561198000911853,"connected_time":5316000000000,"state":"active","ping":83}]},{"server_id":50,"name":"Uncletopia | Warsaw | 2 | One Thousand Uncles","name_short":"waw-2","host":"waw-1.pl.uncletopia.com","port":27025,"enabled":true,"region":"eu","cc":"pl","latitude":52.2297,"longitude":21.017532,"reserved":0,"last_update":"0001-01-01T00:00:00Z","name_a2s":"Uncletopia | Warsaw | 2 | One Thousand Uncles","protocol":17,"map":"cp_dustbowl","folder":"tf","game":"Team Fortress","app_id":440,"player_count":21,"max_players":32,"Bots":20,"server_type":"Dedicated","server_os":"Linux","password":true,"vac":true,"version":"7961495","steam_id":85568392925397851,"keywords":["alltalk","bots","cp","danepve","increased_maxplayers","norespawntime","uncletopia"],"game_id":440,"stv_port":0,"stv_name":"","players":[{"user_id":320,"name":"Fubuki ♥ ❧ ❦ ❥ ❤ ❣","steam_id":76561199507551020,"connected_time":72000000000,"state":"active","ping":60}]},{"server_id":51,"name":"Uncletopia | Warsaw | 3 | All Maps","name_short":"waw-3","host":"waw-1.pl.uncletopia.com","port":27035,"enabled":true,"region":"eu","cc":"pl","latitude":52.2297,"longitude":21.017532,"reserved":0,"last_update":"0001-01-01T00:00:00Z","name_a2s":"Uncletopia | Warsaw | 3 | All Maps","protocol":17,"map":"pl_barnblitz","folder":"tf","game":"Team Fortress","app_id":440,"player_count":0,"max_players":24,"Bots":0,"server_type":"Dedicated","server_os":"Linux","password":true,"vac":true,"version":"7961495","steam_id":85568392925397852,"keywords":["nocrits","nodmgspread","payload","uncletopia"],"game_id":440,"stv_port":27036,"stv_name":"Uncletopia | Warsaw | 3 | All Maps | STV","players":null},{"server_id":52,"name":"Uncletopia | Warsaw | 4 | All Maps","name_short":"waw-4","host":"waw-1.pl.uncletopia.com","port":27045,"enabled":true,"region":"eu","cc":"pl","latitude":52.2297,"longitude":21.017532,"reserved":0,"last_update":"0001-01-01T00:00:00Z","name_a2s":"Uncletopia | Warsaw | 4 | All Maps","protocol":17,"map":"ctf_turbine","folder":"tf","game":"Team Fortress","app_id":440,"player_count":0,"max_players":24,"Bots":0,"server_type":"Dedicated","server_os":"Linux","password":true,"vac":true,"version":"7961495","steam_id":85568392925397853,"keywords":["ctf","nocrits","nodmgspread","uncletopia"],"game_id":440,"stv_port":27046,"stv_name":"Uncletopia | Warsaw | 4 | All Maps | STV","players":null},{"server_id":53,"name":"Uncletopia | Warsaw | 5 | Stopwatch","name_short":"waw-5","host":"waw-1.pl.uncletopia.com","port":27055,"enabled":true,"region":"eu","cc":"pl","latitude":52.2297,"longitude":21.017532,"reserved":0,"last_update":"0001-01-01T00:00:00Z","name_a2s":"Uncletopia | Warsaw | 5 | Stopwatch","protocol":17,"map":"workshop/koth_clearcut_b15.ugc2107050255","folder":"tf","game":"Team Fortress","app_id":440,"player_count":0,"max_players":24,"Bots":0,"server_type":"Dedicated","server_os":"Linux","password":true,"vac":true,"version":"7961495","steam_id":85568392925397854,"keywords":["cp","nocrits","nodmgspread","uncletopia"],"game_id":440,"stv_port":27056,"stv_name":"Uncletopia | Warsaw | 5 | Stopwatch | STV","players":null},{"server_id":54,"name":"Uncletopia | Warsaw | 6 | Community","name_short":"waw-6","host":"waw-1.pl.uncletopia.com","port":27065,"enabled":true,"region":"eu","cc":"pl","latitude":52.2297,"longitude":21.017532,"reserved":0,"last_update":"0001-01-01T00:00:00Z","name_a2s":"Uncletopia | Warsaw | 6 | Community","protocol":17,"map":"workshop/pl_highwood_b19.ugc1769496557","folder":"tf","game":"Team Fortress","app_id":440,"player_count":0,"max_players":24,"Bots":0,"server_type":"Dedicated","server_os":"Linux","password":true,"vac":true,"version":"7961495","steam_id":85568392925397856,"keywords":["nocrits","nodmgspread","payload","uncletopia"],"game_id":440,"stv_port":27066,"stv_name":"Uncletopia | Warsaw | 6 | Community | STV","players":null}]}