{"status":true,"message":"","result":[{"server_id":9,"name":"Uncletopia | Atlanta | 1 | All Maps","name_short":"atl-1","host":"atl-1.us.uncletopia.com","port":27015,"enabled":true,"region":"us-east","cc":"us","latitude":33.753746,"longitude":-84.38633,"reserved":0,"last_update":"0001-01-01T00:00:00Z","name_a2s":"Uncletopia | Atlanta | 1 | All Maps","protocol":17,"map":"pl_upward","folder":"tf","game":"Team Fortress","app_id":440,"player_count":19,"max_players":24,"Bots":0,"server_type":"Dedicated","server_os":"Linux","password":true,"vac":true,"version":"7961495","steam_id":85568392924469982,"keywords":["nocrits","nodmgspread","payload","uncletopia"],"game_id":440,"stv_port":27016,"stv_name":"Uncletopia | Atlanta | 1 | All Maps | STV","players":null},{"server_id":104,"name":"Uncletopia | Atlanta | 2 | All Maps","name_short":"atl-2","host":"atl-1.us.uncletopia.com","port":27025,"enabled":true,"region":"us-east","cc":"us","latitude":33.753746,"longitude":-84.38633,"reserved":0,"last_update":"0001-01-01T00:00:00Z","name_a2s":"Uncletopia | Atlanta | 2 | All Maps","protocol":17,"map":"cp_steel","folder":"tf","game":"Team Fortress","app_id":440,"player_count":22,"max_players":24,"Bots":0,"server_type":"Dedicated","server_os":"Linux","password":true,"vac":true,"version":"7961495","steam_id":85568392924469983,"keywords":["cp","nocrits","nodmgspread","uncletopia"],"game_id":440,"stv_port":27026,"stv_name":"Uncletopia | Atlanta | 2 | All Maps | STV","players":null},{"server_id":400,"name":"Uncletopia | Atlanta | 3 | Stopwatch","name_short":"atl-3","host":"atl-1.us.uncletopia.com","port":27035,"enabled":true,"region":"us-east","cc":"us","latitude":33.753746,"longitude":-84.38633,"reserved":0,"last_update":"0001-01-01T00:00:00Z","name_a2s":"Uncletopia | Atlanta | 3 | Stopwatch","protocol":17,"map":"koth_product_final","folder":"tf","game":"Team Fortress","app_id":440,"player_count":15,"max_players":24,"Bots":0,"server_type":"Dedicated","server_os":"Linux","password":true,"vac":true,"version":"7961495","steam_id":85568392924515187,"keywords":["cp","nocrits","nodmgspread","uncletopia"],"game_id":440,"stv_port":27036,"stv_name":"Uncletopia | Atlanta | 3 | Stopwatch | STV","players":null},{"server_id":401,"name":"Uncletopia | Atlanta | 4 | Community","name_short":"atl-4","host":"atl-1.us.uncletopia.com","port":27045,"enabled":true,"region":"us-east","cc":"us","latitude":33.753746,"longitude":-84.38633,"reserved":0,"last_update":"0001-01-01T00:00:00Z","name_a2s":"Uncletopia | Atlanta | 4 | Community","protocol":17,"map":"cp_snowbase_b18","folder":"tf","game":"Team Fortress","app_id":440,"player_count":0,"max_players":24,"Bots":0,"server_type":"Dedicated","server_os":"Linux","password":true,"vac":true,"version":"7961495","steam_id":85568392924515188,"keywords":["cp","nocrits","nodmgspread","uncletopia"],"game_id":440,"stv_port":27046,"stv_name":"Uncletopia | Atlanta | 4 | Community | STV","players":null},{"server_id":2,"name":"Uncletopia | Chicago | 1 | All Maps","name_short":"chi-1","host":"chi-1.us.uncletopia.com","port":27015,"enabled":true,"region":"us-central","cc":"us","latitude":41.881832,"longitude":-87.62318,"reserved":0,"last_update":"0001-01-01T00:00:00Z","name_a2s":"Uncletopia | Chicago | 1 | All Maps","protocol":17,"map":"koth_sawmill","folder":"tf","game":"Team Fortress","app_id":440,"player_count":24,"max_players":24,"Bots":0,"server_type":"Dedicated","server_os":"Linux","password":true,"vac":true,"version":"7961495","steam_id":85568392924469984,"keywords":["cp","nocrits","nodmgspread","uncletopia"],"game_id":440,"stv_port":27016,"stv_name":"Uncletopia | Chicago | 1 | All Maps | STV","players":[{"user_id":278,"name":"Nova","steam_id":76561198052502565,"connected_time":63000000000,"state":"active","ping":73},{"user_id":273,"name":"Loogus","steam_id":76561198811561721,"connected_time":422000000000,"state":"active","ping":89},{"user_id":279,"name":"Lia_Rein TTV","steam_id":76561198151569597,"connected_time":20000000000,"state":"active","ping":248},{"user_id":280,"name":"M4 SOPMOD II Enjoyer","steam_id":76561198155176802,"connected_time":5000000000,"state":"spawning","ping":57},{"user_id":268,"name":"Ras","steam_id":76561198123546775,"connected_time":682000000000,"state":"active","ping":58},{"user_id":250,"name":"TheOneZoot","steam_id":76561198121944243,"connected_time":1787000000000,"state":"active","ping":63},{"user_id":239,"name":"Thog","steam_id":76561198093699060,"connected_time":2152000000000,"state":"active","ping":65},{"user_id":137,"name":"Filthy Acts at Reasonable Price","steam_id":76561198354615890,"connected_time":11115000000000,"state":"active","ping":57},{"user_id":217,"name":"lyra","steam_id":76561198200002859,"connected_time":4319000000000,"state":"active","ping":60},{"user_id":277,"name":"transgender communist","steam_id":76561198189664639,"connected_time":76000000000,"state":"active","ping":82},{"user_id":276,"name":"Kalhoun","steam_id":76561197999648122,"connected_time":95000000000,"state":"active","ping":67},{"user_id":238,"name":"Hooked","steam_id":76561198007302139,"connected_time":2152000000000,"state":"active","ping":75},{"user_id":223,"name":"cheetaz","steam_id":76561198224614084,"connected_time":3239000000000,"state":"active","ping":69},{"user_id":266,"name":"Spy Gaming","steam_id":76561198453295613,"connected_time":741000000000,"state":"active","ping":111},{"user_id":221,"name":"Thundermonkey (SMOKE)","steam_id":76561198017631728,"connected_time":3244000000000,"state":"active","ping":80},{"user_id":251,"name":"Word To Your Mothership","steam_id":76561198034329138,"connected_time":1677000000000,"state":"active","ping":100},{"user_id":271,"name":"Hideo Kojima","steam_id":76561198082582335,"connected_time":458000000000,"state":"active","ping":71},{"user_id":196,"name":"Space","steam_id":76561198350489754,"connected_time":6338000000000,"state":"active","ping":48},{"user_id":272,"name":"AshMouse","steam_id":76561198151145819,"connected_time":449000000000,"state":"active","ping":69},{"user_id":259,"name":"Comradical","steam_id":76561197990808285,"connected_time":1298000000000,"state":"active","ping":75},{"user_id":229,"name":"Mank","steam_id":76561198189421005,"connected_time":3021000000000,"state":"active","ping":54},{"user_id":258,"name":"nrj1998pelma.six","steam_id":76561198425503395,"connected_time":1320000000000,"state":"active","ping":65},{"user_id":249,"name":"Abysa.","steam_id":76561198424398862,"connected_time":1974000000000,"state":"active","ping":123},{"user_id":275,"name":"THELootGoblin","steam_id":76561198251891962,"connected_time":388000000000,"state":"active","ping":64}]},{"server_id":106,"name":"Uncletopia | Chicago | 2 | All Maps","name_short":"chi-2","host":"chi-1.us.uncletopia.com","port":27025,"enabled":true,"region":"us-central","cc":"us","latitude":41.881832,"longitude":-87.62318,"reserved":0,"last_update":"0001-01-01T00:00:00Z","name_a2s":"Uncletopia | Chicago | 2 | All Maps","protocol":17,"map":"pl_borneo","folder":"tf","game":"Team Fortress","app_id":440,"player_count":24,"max_players":24,"Bots":0,"server_type":"Dedicated","server_os":"Linux","password":true,"vac":true,"version":"7961495","steam_id":85568392924469985,"keywords":["nocrits","nodmgspread","payload","uncletopia"],"game_id":440,"stv_port":27026,"stv_name":"Uncletopia | Chicago | 2 | All Maps | STV","players":[{"user_id":76,"name":"The Supreme Gentleman","steam_id":76561198037123203,"connected_time":5133000000000,"state":"active","ping":71},{"user_id":126,"name":"Danmar33","steam_id":76561198056453091,"connected_time":1767000000000,"state":"active","ping":46},{"user_id":136,"name":"Scita","steam_id":76561198066861559,"connected_time":846000000000,"state":"active","ping":69},{"user_id":102,"name":"Flowers","steam_id":76561198031669899,"connected_time":2918000000000,"state":"active","ping":80},{"user_id":19,"name":"chiswola","steam_id":76561198046920142,"connected_time":8167000000000,"state":"active","ping":73},{"user_id":109,"name":"The Sandwich Killer","steam_id":76561199170147545,"connected_time":2665000000000,"state":"active","ping":78},{"user_id":143,"name":"Ta5K","steam_id":76561198939558155,"connected_time":484000000000,"state":"active","ping":41},{"user_id":87,"name":"AlcoholicKitty","steam_id":76561198084763130,"connected_time":4230000000000,"state":"active","ping":65},{"user_id":133,"name":"MY LOVE DRIPS IN RED","steam_id":76561198072179483,"connected_time":1163000000000,"state":"active","ping":91},{"user_id":137,"name":"Ejaculation Zach","steam_id":76561198203765200,"connected_time":580000000000,"state":"active","ping":61},{"user_id":138,"name":"Sniper is to good","steam_id":76561199388826335,"connected_time":579000000000,"state":"active","ping":83},{"user_id":128,"name":"Telushealth","steam_id":76561199422760247,"connected_time":1718000000000,"state":"active","ping":89},{"user_id":125,"name":"BlueberryScones","steam_id":76561199423641132,"connected_time":1802000000000,"state":"active","ping":110},{"user_id":112,"name":"beats nan annan na","steam_id":76561199245717718,"connected_time":2607000000000,"state":"active","ping":53},{"user_id":144,"name":"Tots","steam_id":76561198027485007,"connected_time":193000000000,"state":"active","ping":61},{"user_id":100,"name":"Cat on Your Porch","steam_id":76561197979078330,"connected_time":3288000000000,"state":"active","ping":60},{"user_id":104,"name":"DUMBoman","steam_id":76561199010126042,"connected_time":2703000000000,"state":"active","ping":91},{"user_id":101,"name":"Fuzzy Toast","steam_id":76561198028067781,"connected_time":3245000000000,"state":"active","ping":45},{"user_id":103,"name":"AJTarcza","steam_id":76561198070800190,"connected_time":2708000000000,"state":"active","ping":83},{"user_id":146,"name":"Will5550","steam_id":76561198273838135,"connected_time":3000000000,"state":"spawning","ping":72},{"user_id":124,"name":"Carton","steam_id":76561198989473391,"connected_time":1842000000000,"state":"active","ping":65},{"user_id":130,"name":"Motreir","steam_id":76561198151717946,"connected_time":1527000000000,"state":"active","ping":80},{"user_id":134,"name":"hej","steam_id":76561197996366940,"connected_time":991000000000,"state":"active","ping":60},{"user_id":140,"name":"potatoes or potatoes","steam_id":76561198268384671,"connected_time":568000000000,"state":"active","ping":73}]},{"server_id":402,"name":"Uncletopia | Chicago | 3 | All Maps","name_short":"chi-3","host":"chi-1.us.uncletopia.com","port":27035,"enabled":true,"region":"us-central","cc":"us","latitude":41.881832,"longitude":-87.62318,"reserved":0,"last_update":"0001-01-01T00:00:00Z","name_a2s":"Uncletopia | Chicago | 3 | All Maps","protocol":17,"map":"pl_borneo","folder":"tf","game":"Team Fortress","app_id":440,"player_count":24,"max_players":24,"Bots":0,"server_type":"Dedicated","server_os":"Linux","password":true,"vac":true,"version":"7961495","steam_id":85568392924515191,"keywords":["nocrits","nodmgspread","payload","uncletopia"],"game_id":440,"stv_port":27036,"stv_name":"Uncletopia | Chicago | 3 | All Maps | STV","players":[{"user_id":110,"name":"pre nut confusion","steam_id":76561198011363677,"connected_time":1140000000000,"state":"active","ping":55},{"user_id":117,"name":"xXBongRipper420Xx","steam_id":76561198199344313,"connected_time":1010000000000,"state":"active","ping":117},{"user_id":112,"name":"Fraglin","steam_id":76561198124964000,"connected_time":1128000000000,"state":"active","ping":86},{"user_id":28,"name":"HollyBlocky","steam_id":76561198030156100,"connected_time":6123000000000,"state":"active","ping":74},{"user_id":119,"name":"SearingGustav #tG","steam_id":76561198040560786,"connected_time":938000000000,"state":"active","ping":113},{"user_id":121,"name":"i have amazing aim","steam_id":76561199222920753,"connected_time":852000000000,"state":"active","ping":55},{"user_id":89,"name":"teaspinator","steam_id":76561199069748074,"connected_time":3040000000000,"state":"active","ping":54},{"user_id":122,"name":"Anormalman","steam_id":76561199371685870,"connected_time":847000000000,"state":"active","ping":60},{"user_id":95,"name":"ryonica","steam_id":76561198100844473,"connected_time":2674000000000,"state":"active","ping":77},{"user_id":98,"name":"i only ubercharge snipers","steam_id":76561198003995600,"connected_time":2422000000000,"state":"active","ping":100},{"user_id":102,"name":"Shirm","steam_id":76561198068455981,"connected_time":1951000000000,"state":"active","ping":74},{"user_id":120,"name":"ultralisk52","steam_id":76561198051666604,"connected_time":925000000000,"state":"active","ping":64},{"user_id":88,"name":"Acro","steam_id":76561198092451804,"connected_time":3059000000000,"state":"active","ping":71},{"user_id":83,"name":"ThePalmTopSushi","steam_id":76561198847076153,"connected_time":3473000000000,"state":"active","ping":107},{"user_id":91,"name":"Franco","steam_id":76561199483952215,"connected_time":3026000000000,"state":"active","ping":121},{"user_id":123,"name":"lord of cinder","steam_id":76561198421249296,"connected_time":561000000000,"state":"active","ping":89},{"user_id":113,"name":"Dr.StrangeGlove","steam_id":76561198286114229,"connected_time":1106000000000,"state":"active","ping":62},{"user_id":124,"name":"the archmage","steam_id":76561198380018244,"connected_time":560000000000,"state":"active","ping":75},{"user_id":115,"name":"[„èà] Britsilov","steam_id":76561199170203468,"connected_time":1099000000000,"state":"active","ping":80},{"user_id":126,"name":"AliCat","steam_id":76561198308360862,"connected_time":534000000000,"state":"active","ping":175},{"user_id":129,"name":"YourGenericAsian","steam_id":76561199105467765,"connected_time":256000000000,"state":"active","ping":93},{"user_id":116,"name":"ŸäŸàÿ≥ŸÅ","steam_id":76561199061380038,"connected_time":1084000000000,"state":"active","ping":71},{"user_id":128,"name":"R O D G E D A N","steam_id":76561198226236524,"connected_time":462000000000,"state":"active","ping":75},{"user_id":80,"name":"Vazquez Perez","steam_id":76561199185750989,"connected_time":3658000000000,"state":"active","ping":128}]},{"server_id":403,"name":"Uncletopia | Chicago | 4 | All Maps","name_short":"chi-4","host":"chi-1.us.uncletopia.com","port":27045,"enabled":true,"region":"us-central","cc":"us","latitude":41.881832,"longitude":-87.62318,"reserved":0,"last_update":"0001-01-01T00:00:00Z","name_a2s":"Uncletopia | Chicago | 4 | All Maps","protocol":17,"map":"cp_mercenarypark","folder":"tf","game":"Team Fortress","app_id":440,"player_count":24,"max_players":24,"Bots":0,"server_type":"Dedicated","server_os":"Linux","password":true,"vac":true,"version":"7961495","steam_id":85568392924515193,"keywords":["cp","nocrits","nodmgspread","uncletopia"],"game_id":440,"stv_port":27046,"stv_name":"Uncletopia | Chicago | 4 | All Maps | STV","players":[{"user_id":220,"name":"Dark Lord","steam_id":76561198044199150,"connected_time":551000000000,"state":"active","ping":85},{"user_id":217,"name":"Cunt Force Trauma","steam_id":76561198086121413,"connected_time":1069000000000,"state":"active","ping":65},{"user_id":123,"name":"thecal","steam_id":76561198307893384,"connected_time":8811000000000,"state":"active","ping":51},{"user_id":224,"name":"Quark","steam_id":76561198328155605,"connected_time":197000000000,"state":"active","ping":54},{"user_id":216,"name":"Hyperactivedimwit","steam_id":76561198134221704,"connected_time":1390000000000,"state":"active","ping":43},{"user_id":125,"name":"tA.CHRONIC","steam_id":76561197960760990,"connected_time":8379000000000,"state":"active","ping":54},{"user_id":63,"name":"Toxic Ron","steam_id":76561198089302972,"connected_time":12685000000000,"state":"active","ping":66},{"user_id":206,"name":"Peepster","steam_id":76561198297854733,"connected_time":1918000000000,"state":"active","ping":72},{"user_id":203,"name":"WHEN HE, WHEN HE THE","steam_id":76561198119220289,"connected_time":2376000000000,"state":"active","ping":75},{"user_id":169,"name":"b-dot","steam_id":76561198160786631,"connected_time":5475000000000,"state":"active","ping":68},{"user_id":199,"name":"joe_lemmons","steam_id":76561198441246401,"connected_time":2942000000000,"state":"active","ping":56},{"user_id":196,"name":"poggerchamp","steam_id":76561199145124973,"connected_time":3188000000000,"state":"active","ping":77},{"user_id":207,"name":"Butters495","steam_id":76561197998689042,"connected_time":1885000000000,"state":"active","ping":85},{"user_id":213,"name":"amaz","steam_id":76561198386233160,"connected_time":1612000000000,"state":"active","ping":88},{"user_id":188,"name":"That Darned Imp","steam_id":76561198854501307,"connected_time":3878000000000,"state":"active","ping":59},{"user_id":201,"name":"Shooter of Walls","steam_id":76561197988105207,"connected_time":2655000000000,"state":"active","ping":67},{"user_id":205,"name":"balls","steam_id":76561198164619692,"connected_time":1940000000000,"state":"active","ping":91},{"user_id":218,"name":"Œ£-Áî∑","steam_id":76561199124332716,"connected_time":1027000000000,"state":"active","ping":99},{"user_id":107,"name":"schnedwob","steam_id":76561197999146588,"connected_time":9985000000000,"state":"active","ping":75},{"user_id":208,"name":"Zalthair","steam_id":76561198052698533,"connected_time":1877000000000,"state":"active","ping":152},{"user_id":221,"name":"a victim of soicumstance","steam_id":76561198375575841,"connected_time":502000000000,"state":"active","ping":58},{"user_id":193,"name":"og biden pack cart","steam_id":76561198253731826,"connected_time":3209000000000,"state":"active","ping":60},{"user_id":223,"name":"frank","steam_id":76561198137777483,"connected_time":483000000000,"state":"active","ping":73},{"user_id":200,"name":"Coms","steam_id":76561198204995668,"connected_time":2797000000000,"state":"active","ping":86}]},{"server_id":36,"name":"Uncletopia | Chicago | 5 | All Maps","name_short":"chi-5","host":"chi-2.us.uncletopia.com","port":27015,"enabled":true,"region":"us-central","cc":"us","latitude":41.881832,"longitude":-87.62318,"reserved":0,"last_update":"0001-01-01T00:00:00Z","name_a2s":"Uncletopia | Chicago | 5 | All Maps","protocol":17,"map":"pl_swiftwater_final1","folder":"tf","game":"Team Fortress","app_id":440,"player_count":23,"max_players":24,"Bots":0,"server_type":"Dedicated","server_os":"Linux","password":true,"vac":true,"version":"7961495","steam_id":85568392924866362,"keywords":["nocrits","nodmgspread","payload","uncletopia"],"game_id":440,"stv_port":27016,"stv_name":"Uncletopia | Chicago | 5 | All Maps | STV","players":[{"user_id":90,"name":"Nicopico","steam_id":76561198080371321,"connected_time":891000000000,"state":"active","ping":61},{"user_id":69,"name":"phantom","steam_id":76561197963860777,"connected_time":3104000000000,"state":"active","ping":60},{"user_id":58,"name":"Fluffeline","steam_id":76561198352909489,"connected_time":4017000000000,"state":"active","ping":141},{"user_id":88,"name":"MayKaye","steam_id":76561199016092265,"connected_time":926000000000,"state":"active","ping":100},{"user_id":84,"name":"robin_","steam_id":76561198049732731,"connected_time":1919000000000,"state":"active","ping":178},{"user_id":60,"name":"blobb","steam_id":76561198950448488,"connected_time":3742000000000,"state":"active","ping":54},{"user_id":87,"name":"cloaker","steam_id":76561199453618642,"connected_time":1174000000000,"state":"active","ping":86},{"user_id":61,"name":"party baby","steam_id":76561198347613238,"connected_time":3714000000000,"state":"active","ping":78},{"user_id":79,"name":"rudy","steam_id":76561198088712799,"connected_time":2310000000000,"state":"active","ping":70},{"user_id":73,"name":"Catnap","steam_id":76561197991738817,"connected_time":2751000000000,"state":"active","ping":102},{"user_id":75,"name":"Cranial Brain Trauma","steam_id":76561198055876398,"connected_time":2336000000000,"state":"active","ping":59},{"user_id":91,"name":"eco","steam_id":76561198149608360,"connected_time":754000000000,"state":"active","ping":113},{"user_id":83,"name":"Onion","steam_id":76561199071839835,"connected_time":1929000000000,"state":"active","ping":66},{"user_id":93,"name":"BigNugs","steam_id":76561198056402610,"connected_time":252000000000,"state":"active","ping":66},{"user_id":64,"name":"Aeris","steam_id":76561198287271028,"connected_time":3676000000000,"state":"active","ping":57},{"user_id":52,"name":"DistantJragon","steam_id":76561198117563641,"connected_time":5130000000000,"state":"active","ping":44},{"user_id":94,"name":"dicksnip","steam_id":76561198356515396,"connected_time":13000000000,"state":"spawning","ping":60},{"user_id":38,"name":"Lucon","steam_id":76561198067147724,"connected_time":5510000000000,"state":"active","ping":62},{"user_id":55,"name":"Ceige LFT","steam_id":76561198068538473,"connected_time":5057000000000,"state":"active","ping":75},{"user_id":57,"name":"Myn","steam_id":76561198055438857,"connected_time":4864000000000,"state":"active","ping":81},{"user_id":78,"name":"Goober","steam_id":76561198988863807,"connected_time":2333000000000,"state":"active","ping":82},{"user_id":45,"name":"|WS| Don't_Taze_Me_Bro","steam_id":76561198043289495,"connected_time":5454000000000,"state":"active","ping":62},{"user_id":82,"name":"Tuffcookie34","steam_id":76561198309031637,"connected_time":2055000000000,"state":"active","ping":66}]},{"server_id":37,"name":"Uncletopia | Chicago | 6 | All Maps","name_short":"chi-6","host":"chi-2.us.uncletopia.com","port":27025,"enabled":true,"region":"us-central","cc":"us","latitude":41.881832,"longitude":-87.62318,"reserved":0,"last_update":"0001-01-01T00:00:00Z","name_a2s":"Uncletopia | Chicago | 6 | All Maps","protocol":17,"map":"pl_badwater","folder":"tf","game":"Team Fortress","app_id":440,"player_count":23,"max_players":24,"Bots":0,"server_type":"Dedicated","server_os":"Linux","password":true,"vac":true,"version":"7961495","steam_id":85568392924866363,"keywords":["nocrits","nodmgspread","payload","uncletopia"],"game_id":440,"stv_port":27026,"stv_name":"Uncletopia | Chicago | 6 | All Maps | STV","players":[{"user_id":26,"name":"Crusade","steam_id":76561199192979051,"connected_time":808000000000,"state":"active","ping":95},{"user_id":50,"name":"Glue Gulper","steam_id":76561198158014525,"connected_time":384000000000,"state":"active","ping":61},{"user_id":20,"name":"crushy spike ceiling","steam_id":76561198241793002,"connected_time":1309000000000,"state":"active","ping":64},{"user_id":54,"name":"Max_Attack","steam_id":76561198944028607,"connected_time":207000000000,"state":"active","ping":80},{"user_id":51,"name":"wu","steam_id":76561198074700528,"connected_time":339000000000,"state":"active","ping":41},{"user_id":35,"name":"Onion","steam_id":76561197993583701,"connected_time":759000000000,"state":"active","ping":65},{"user_id":53,"name":"Dragus","steam_id":76561198032967285,"connected_time":295000000000,"state":"active","ping":54},{"user_id":55,"name":"Pomson Gaming","steam_id":76561199200442395,"connected_time":184000000000,"state":"active","ping":181},{"user_id":28,"name":"Hitlinemoss","steam_id":76561198155435669,"connected_time":801000000000,"state":"active","ping":71},{"user_id":29,"name":"KING","steam_id":76561198122223730,"connected_time":800000000000,"state":"active","ping":67},{"user_id":56,"name":"Jombi","steam_id":76561198427813097,"connected_time":95000000000,"state":"active","ping":73},{"user_id":59,"name":"Tuvok Shakur","steam_id":76561198018875334,"connected_time":10000000000,"state":"spawning","ping":81},{"user_id":58,"name":"smartguyt12","steam_id":76561198847036042,"connected_time":47000000000,"state":"active","ping":128},{"user_id":33,"name":"confuzzeldpeeps","steam_id":76561198361267349,"connected_time":778000000000,"state":"active","ping":57},{"user_id":34,"name":"-W3E- grim10465","steam_id":76561198045698581,"connected_time":771000000000,"state":"active","ping":56},{"user_id":37,"name":"cyclops","steam_id":76561197970370198,"connected_time":749000000000,"state":"active","ping":54},{"user_id":39,"name":"sugoiboi48","steam_id":76561198060056280,"connected_time":705000000000,"state":"active","ping":53},{"user_id":40,"name":"sears","steam_id":76561198215559840,"connected_time":704000000000,"state":"active","ping":63},{"user_id":41,"name":"TrenchcoatCraig","steam_id":76561198295599533,"connected_time":700000000000,"state":"active","ping":52},{"user_id":42,"name":"LegendaireNic","steam_id":76561198211753861,"connected_time":682000000000,"state":"active","ping":71},{"user_id":43,"name":"Andrew","steam_id":76561198070615190,"connected_time":665000000000,"state":"active","ping":59},{"user_id":45,"name":"radiation","steam_id":76561198001157602,"connected_time":599000000000,"state":"active","ping":84},{"user_id":48,"name":"spyrogaming","steam_id":76561198879961615,"connected_time":477000000000,"state":"active","ping":70}]},{"server_id":38,"name":"Uncletopia | Chicago | 7 | Stopwatch","name_short":"chi-7","host":"chi-2.us.uncletopia.com","port":27035,"enabled":true,"region":"us-central","cc":"us","latitude":41.881832,"longitude":-87.62318,"reserved":0,"last_update":"0001-01-01T00:00:00Z","name_a2s":"Uncletopia | Chicago | 7 | Stopwatch","protocol":17,"map":"pl_upward","folder":"tf","game":"Team Fortress","app_id":440,"player_count":0,"max_players":24,"Bots":0,"server_type":"Dedicated","server_os":"Linux","password":true,"vac":true,"version":"7961495","steam_id":85568392924866364,"keywords":["nocrits","nodmgspread","payload","uncletopia"],"game_id":440,"stv_port":27036,"stv_name":"Uncletopia | Chicago | 7 | Stopwatch | STV","players":null},{"server_id":39,"name":"Uncletopia | Chicago | 8 | Community","name_short":"chi-8","host":"chi-2.us.uncletopia.com","port":27045,"enabled":true,"region":"us-central","cc":"us","latitude":41.881832,"longitude":-87.62318,"reserved":0,"last_update":"0001-01-01T00:00:00Z","name_a2s":"Uncletopia | Chicago | 8 | Community","protocol":17,"map":"workshop/koth_ramjam_rc1.ugc459778887","folder":"tf","game":"Team Fortress","app_id":440,"player_count":0,"max_players":24,"Bots":0,"server_type":"Dedicated","server_os":"Linux","password":true,"vac":true,"version":"7961495","steam_id":85568392924866365,"keywords":["cp","nocrits","nodmgspread","uncletopia"],"game_id":440,"stv_port":27046,"stv_name":"Uncletopia | Chicago | 8 | Community | STV","players":null},{"server_id":8,"name":"Uncletopia | Dallas | 1 | All Maps","name_short":"dal-1","host":"dal-1.us.uncletopia.com","port":27015,"enabled":true,"region":"us-central","cc":"us","latitude":32.779167,"longitude":-96.80889,"reserved":0,"last_update":"0001-01-01T00:00:00Z","name_a2s":"Uncletopia | Dallas | 1 | All Maps","protocol":17,"map":"pl_goldrush","folder":"tf","game":"Team Fortress","app_id":440,"player_count":24,"max_players":24,"Bots":0,"server_type":"Dedicated","server_os":"Linux","password":true,"vac":true,"version":"7961495","steam_id":85568392924469986,"keywords":["nocrits","nodmgspread","payload","uncletopia"],"game_id":440,"stv_port":27016,"stv_name":"Uncletopia | Dallas | 1 | All Maps | STV","players":[{"user_id":215,"name":"corned beef","steam_id":76561199366782761,"connected_time":130000000000,"state":"active","ping":157},{"user_id":206,"name":"Lzuli","steam_id":76561198799610915,"connected_time":794000000000,"state":"active","ping":97},{"user_id":204,"name":"webaline  =Ôºæ‚óè ‚ãè ‚óèÔºæ=","steam_id":76561199052450127,"connected_time":1018000000000,"state":"active","ping":74},{"user_id":212,"name":"Inflation Jumpscare","steam_id":76561198137862444,"connected_time":554000000000,"state":"active","ping":47},{"user_id":213,"name":"clmatt6","steam_id":76561198027812938,"connected_time":373000000000,"state":"active","ping":69},{"user_id":191,"name":"Mega Madness","steam_id":76561198204862037,"connected_time":2097000000000,"state":"active","ping":47},{"user_id":125,"name":"Gem","steam_id":76561198106330075,"connected_time":6184000000000,"state":"active","ping":64},{"user_id":172,"name":"TheGirthquake","steam_id":76561198238895056,"connected_time":2932000000000,"state":"active","ping":49},{"user_id":211,"name":"Nicko","steam_id":76561198328490503,"connected_time":656000000000,"state":"active","ping":143},{"user_id":135,"name":"FanaticSalt","steam_id":76561199380123059,"connected_time":5616000000000,"state":"active","ping":39},{"user_id":214,"name":"Dog","steam_id":76561198450992953,"connected_time":342000000000,"state":"active","ping":93},{"user_id":187,"name":"Gary Busey","steam_id":76561197970096950,"connected_time":2153000000000,"state":"active","ping":39},{"user_id":200,"name":"Pawn Cushman","steam_id":76561198221635676,"connected_time":1122000000000,"state":"active","ping":86},{"user_id":32,"name":"Smashy","steam_id":76561198030704307,"connected_time":12903000000000,"state":"active","ping":110},{"user_id":203,"name":"pomson gaming","steam_id":76561199204379390,"connected_time":1073000000000,"state":"active","ping":82},{"user_id":177,"name":"your little goofy homie","steam_id":76561198967158026,"connected_time":2714000000000,"state":"active","ping":76},{"user_id":205,"name":"Gigacheat","steam_id":76561198862843572,"connected_time":1003000000000,"state":"active","ping":66},{"user_id":159,"name":"songcreator","steam_id":76561198076822464,"connected_time":4214000000000,"state":"active","ping":77},{"user_id":194,"name":"WyrdClover","steam_id":76561198363687592,"connected_time":1817000000000,"state":"active","ping":53},{"user_id":138,"name":"FizzTom","steam_id":76561199200953916,"connected_time":5533000000000,"state":"active","ping":99},{"user_id":197,"name":"Rob","steam_id":76561199187786660,"connected_time":1761000000000,"state":"active","ping":57},{"user_id":153,"name":"LampMan","steam_id":76561198079857527,"connected_time":4596000000000,"state":"active","ping":57},{"user_id":207,"name":"Se√±or_Awesome","steam_id":76561197995206768,"connected_time":745000000000,"state":"active","ping":76},{"user_id":208,"name":"Mainyx","steam_id":76561198811844438,"connected_time":744000000000,"state":"active","ping":105}]},{"server_id":108,"name":"Uncletopia | Dallas | 2 | All Maps","name_short":"dal-2","host":"dal-1.us.uncletopia.com","port":27025,"enabled":true,"region":"us-central","cc":"us","latitude":32.779167,"longitude":-96.80889,"reserved":0,"last_update":"0001-01-01T00:00:00Z","name_a2s":"Uncletopia | Dallas | 2 | All Maps","protocol":17,"map":"pl_pier","folder":"tf","game":"Team Fortress","app_id":440,"player_count":24,"max_players":24,"Bots":0,"server_type":"Dedicated","server_os":"Linux","password":true,"vac":true,"version":"7961495","steam_id":85568392924469988,"keywords":["nocrits","nodmgspread","payload","uncletopia"],"game_id":440,"stv_port":27026,"stv_name":"Uncletopia | Dallas | 2 | All Maps | STV","players":[{"user_id":10,"name":"Insizhen","steam_id":76561198051352605,"connected_time":9536000000000,"state":"active","ping":50},{"user_id":112,"name":"cozy","steam_id":76561199044037628,"connected_time":2804000000000,"state":"active","ping":87},{"user_id":142,"name":"Bobby Ray","steam_id":76561198044131188,"connected_time":238000000000,"state":"active","ping":76},{"user_id":132,"name":"Tritium","steam_id":76561198043305626,"connected_time":713000000000,"state":"active","ping":99},{"user_id":125,"name":"Stryder","steam_id":76561199387418697,"connected_time":1153000000000,"state":"active","ping":73},{"user_id":115,"name":"CHIEF_JUSTICE_FUCKASS","steam_id":76561199261675844,"connected_time":2609000000000,"state":"active","ping":115},{"user_id":111,"name":"hyazZaZa","steam_id":76561199100342013,"connected_time":2864000000000,"state":"active","ping":78},{"user_id":138,"name":"Dude","steam_id":76561199058616824,"connected_time":323000000000,"state":"active","ping":61},{"user_id":119,"name":"Monty","steam_id":76561197993567253,"connected_time":1249000000000,"state":"active","ping":100},{"user_id":139,"name":"Baker","steam_id":76561198055196430,"connected_time":298000000000,"state":"active","ping":127},{"user_id":140,"name":"gmarrt23","steam_id":76561198301150171,"connected_time":278000000000,"state":"active","ping":88},{"user_id":134,"name":"Magnet Dood","steam_id":76561198364178746,"connected_time":592000000000,"state":"active","ping":85},{"user_id":123,"name":"Fewny","steam_id":76561198225977000,"connected_time":1185000000000,"state":"active","ping":74},{"user_id":96,"name":"for the king","steam_id":76561197973488858,"connected_time":3865000000000,"state":"active","ping":75},{"user_id":38,"name":"Justy","steam_id":76561198044014069,"connected_time":8541000000000,"state":"active","ping":62},{"user_id":94,"name":"Horse","steam_id":76561198004583631,"connected_time":4249000000000,"state":"active","ping":91},{"user_id":143,"name":"Joshy","steam_id":76561198061405421,"connected_time":211000000000,"state":"active","ping":91},{"user_id":39,"name":"firestabber","steam_id":76561198057055577,"connected_time":8507000000000,"state":"active","ping":102},{"user_id":129,"name":"Stupid Rat (Extra Stupid)","steam_id":76561199091290729,"connected_time":968000000000,"state":"active","ping":71},{"user_id":41,"name":"bobkattbro","steam_id":76561199009438984,"connected_time":8484000000000,"state":"active","ping":131},{"user_id":144,"name":"UwU","steam_id":76561198971629959,"connected_time":190000000000,"state":"active","ping":135},{"user_id":128,"name":"sagekiss","steam_id":76561198038831240,"connected_time":1024000000000,"state":"active","ping":114},{"user_id":124,"name":"Grand Piano Tuna","steam_id":76561198135137213,"connected_time":1185000000000,"state":"active","ping":56},{"user_id":137,"name":"I hate the anti-Christ","steam_id":76561198286792807,"connected_time":405000000000,"state":"active","ping":70}]},{"server_id":404,"name":"Uncletopia | Dallas | 3 | All Maps","name_short":"dal-3","host":"dal-1.us.uncletopia.com","port":27035,"enabled":true,"region":"us-central","cc":"us","latitude":32.779167,"longitude":-96.80889,"reserved":0,"last_update":"0001-01-01T00:00:00Z","name_a2s":"Uncletopia | Dallas | 3 | All Maps","protocol":17,"map":"koth_viaduct","folder":"tf","game":"Team Fortress","app_id":440,"player_count":5,"max_players":24,"Bots":0,"server_type":"Dedicated","server_os":"Linux","password":true,"vac":true,"version":"7961495","steam_id":85568392924515219,"keywords":["cp","nocrits","nodmgspread","uncletopia"],"game_id":440,"stv_port":27036,"stv_name":"Uncletopia | Dallas | 3 | All Maps | STV","players":[{"user_id":8,"name":"worlds worst spy","steam_id":76561198821314557,"connected_time":242000000000,"state":"active","ping":85},{"user_id":9,"name":"he/they Pyro Truther","steam_id":76561198893358191,"connected_time":238000000000,"state":"active","ping":90},{"user_id":10,"name":"Gas Can","steam_id":76561198162853003,"connected_time":152000000000,"state":"active","ping":83},{"user_id":11,"name":"BobRossDaMobBoss","steam_id":76561198799262066,"connected_time":144000000000,"state":"active","ping":96},{"user_id":12,"name":"hubert","steam_id":76561198288604502,"connected_time":133000000000,"state":"active","ping":90}]},{"server_id":405,"name":"Uncletopia | Dallas | 4 | Community","name_short":"dal-4","host":"dal-1.us.uncletopia.com","port":27045,"enabled":true,"region":"us-central","cc":"us","latitude":32.779167,"longitude":-96.80889,"reserved":0,"last_update":"0001-01-01T00:00:00Z","name_a2s":"Uncletopia | Dallas | 4 | Community","protocol":17,"map":"pl_pier","folder":"tf","game":"Team Fortress","app_id":440,"player_count":0,"max_players":24,"Bots":0,"server_type":"Dedicated","server_os":"Linux","password":true,"vac":true,"version":"7961495","steam_id":85568392924515220,"keywords":["nocrits","nodmgspread","payload","uncletopia"],"game_id":440,"stv_port":27046,"stv_name":"Uncletopia | Dallas | 4 | Community | STV","players":null},{"server_id":5,"name":"Uncletopia | Frankfurt | 1 | All Maps","name_short":"frk-1","host":"frk-1.de.uncletopia.com","port":27015,"enabled":true,"region":"eu","cc":"de","latitude":50.110924,"longitude":8.682127,"reserved":0,"last_update":"0001-01-01T00:00:00Z","name_a2s":"Uncletopia | Frankfurt | 1 | All Maps","protocol":17,"map":"cp_snakewater_final1","folder":"tf","game":"Team Fortress","app_id":440,"player_count":24,"max_players":24,"Bots":0,"server_type":"Dedicated","server_os":"Linux","password":true,"vac":true,"version":"7961495","steam_id":85568392924469989,"keywords":["cp","nocrits","nodmgspread","uncletopia"],"game_id":440,"stv_port":27016,"stv_name":"Uncletopia | Frankfurt | 1 | All Maps | STV","players":[{"user_id":714,"name":"Robie","steam_id":76561198914744938,"connected_time":2823000000000,"state":"active","ping":157},{"user_id":743,"name":"mr.bertik","steam_id":76561199090893519,"connected_time":26000000000,"state":"spawning","ping":134},{"user_id":736,"name":"cuba","steam_id":76561197999119363,"connected_time":685000000000,"state":"active","ping":51},{"user_id":702,"name":"Mischail","steam_id":76561198016127010,"connected_time":3533000000000,"state":"active","ping":60},{"user_id":691,"name":"n-ski","steam_id":76561198020550849,"connected_time":4416000000000,"state":"active","ping":75},{"user_id":693,"name":"–ë—ã–¥–ª–∞ –≤–æ–π","steam_id":76561198041371314,"connected_time":4371000000000,"state":"active","ping":124},{"user_id":630,"name":"AdeAAa","steam_id":76561198974207724,"connected_time":10040000000000,"state":"active","ping":100},{"user_id":703,"name":"Reljadin","steam_id":76561198054997553,"connected_time":3528000000000,"state":"active","ping":86},{"user_id":656,"name":"TheDeath","steam_id":76561198265038954,"connected_time":7820000000000,"state":"active","ping":66},{"user_id":720,"name":"Drovecz_Hun","steam_id":76561198054703214,"connected_time":2376000000000,"state":"active","ping":73},{"user_id":729,"name":"humble genius","steam_id":76561198243808680,"connected_time":1007000000000,"state":"active","ping":59},{"user_id":690,"name":"ozz-man","steam_id":76561198084676522,"connected_time":4425000000000,"state":"active","ping":93},{"user_id":719,"name":"keb","steam_id":76561198276137088,"connected_time":2409000000000,"state":"active","ping":90},{"user_id":728,"name":"the Spycrab","steam_id":76561198043480678,"connected_time":1430000000000,"state":"active","ping":45},{"user_id":738,"name":"joachym","steam_id":76561198428579761,"connected_time":393000000000,"state":"active","ping":108},{"user_id":737,"name":"Baldan","steam_id":76561198158576123,"connected_time":683000000000,"state":"active","ping":60},{"user_id":739,"name":"Greenfinite","steam_id":76561198117895151,"connected_time":383000000000,"state":"active","ping":59},{"user_id":741,"name":"XPullaHiiri","steam_id":76561198031652375,"connected_time":69000000000,"state":"active","ping":93},{"user_id":735,"name":"everchanging","steam_id":76561199441196540,"connected_time":753000000000,"state":"active","ping":58},{"user_id":734,"name":"√æy ùîèùî¨ùîµ","steam_id":76561199093964226,"connected_time":768000000000,"state":"active","ping":97},{"user_id":740,"name":"Ash","steam_id":76561198148738525,"connected_time":296000000000,"state":"active","ping":105},{"user_id":604,"name":"John","steam_id":76561198121630215,"connected_time":12145000000000,"state":"active","ping":60},{"user_id":726,"name":"Gruset","steam_id":76561198327512432,"connected_time":1907000000000,"state":"active","ping":76},{"user_id":742,"name":"exRage","steam_id":76561198449953655,"connected_time":68000000000,"state":"active","ping":65}]},{"server_id":110,"name":"Uncletopia | Frankfurt | 2 | All Maps","name_short":"frk-2","host":"frk-1.de.uncletopia.com","port":27025,"enabled":true,"region":"eu","cc":"de","latitude":50.110924,"longitude":8.682127,"reserved":0,"last_update":"0001-01-01T00:00:00Z","name_a2s":"Uncletopia | Frankfurt | 2 | All Maps","protocol":17,"map":"pl_frontier_final","folder":"tf","game":"Team Fortress","app_id":440,"player_count":24,"max_players":24,"Bots":0,"server_type":"Dedicated","server_os":"Linux","password":true,"vac":true,"version":"7961495","steam_id":85568392924469990,"keywords":["nocrits","nodmgspread","payload","uncletopia"],"game_id":440,"stv_port":27026,"stv_name":"Uncletopia | Frankfurt | 2 | All Maps | STV","players":[{"user_id":191,"name":"snowball","steam_id":76561198026525289,"connected_time":203000000000,"state":"active","ping":85},{"user_id":192,"name":"ChaosCadence","steam_id":76561198446324621,"connected_time":131000000000,"state":"active","ping":74},{"user_id":185,"name":"Soulman25 (FIN)","steam_id":76561198103611974,"connected_time":983000000000,"state":"active","ping":98},{"user_id":164,"name":"Micha≈Ç","steam_id":76561198320346362,"connected_time":2517000000000,"state":"active","ping":55},{"user_id":190,"name":"Zm4j","steam_id":76561198259465946,"connected_time":435000000000,"state":"active","ping":76},{"user_id":105,"name":"Caruzon - Obismal","steam_id":76561198036211170,"connected_time":6115000000000,"state":"active","ping":75},{"user_id":177,"name":"Rimx","steam_id":76561198053034840,"connected_time":1538000000000,"state":"active","ping":97},{"user_id":187,"name":"Scout","steam_id":76561198992898803,"connected_time":963000000000,"state":"active","ping":67},{"user_id":165,"name":"smetc","steam_id":76561198240696986,"connected_time":2505000000000,"state":"active","ping":161},{"user_id":110,"name":"SocialistBacon","steam_id":76561198055872267,"connected_time":6072000000000,"state":"active","ping":104},{"user_id":173,"name":"Toasty5050","steam_id":76561198073540881,"connected_time":2017000000000,"state":"active","ping":42},{"user_id":49,"name":"Macci - Obismal","steam_id":76561198050485404,"connected_time":9246000000000,"state":"active","ping":75},{"user_id":154,"name":"Finnish Farmer","steam_id":76561198205366043,"connected_time":3404000000000,"state":"active","ping":81},{"user_id":120,"name":"fakerman","steam_id":76561198350473059,"connected_time":5202000000000,"state":"active","ping":77},{"user_id":157,"name":"Jezal dan Luthar","steam_id":76561198989449047,"connected_time":2992000000000,"state":"active","ping":128},{"user_id":176,"name":"galaxy","steam_id":76561198164819022,"connected_time":1629000000000,"state":"active","ping":67},{"user_id":181,"name":"t.tv/KaizokuHaru","steam_id":76561198209223023,"connected_time":1282000000000,"state":"active","ping":60},{"user_id":172,"name":"Illy","steam_id":76561198045537823,"connected_time":2039000000000,"state":"active","ping":70},{"user_id":143,"name":"‡πá","steam_id":76561198071226013,"connected_time":4286000000000,"state":"active","ping":76},{"user_id":97,"name":"Space","steam_id":76561198021572167,"connected_time":6676000000000,"state":"active","ping":57},{"user_id":188,"name":"[PzJR]dustwrld","steam_id":76561198152576682,"connected_time":944000000000,"state":"active","ping":71},{"user_id":171,"name":"Kamikrazy","steam_id":76561198044254918,"connected_time":2164000000000,"state":"active","ping":71},{"user_id":78,"name":"R8N - Obismal","steam_id":76561198007482714,"connected_time":8161000000000,"state":"active","ping":74},{"user_id":180,"name":"Kylul_","steam_id":76561198042981061,"connected_time":1353000000000,"state":"active","ping":48}]},{"server_id":308,"name":"Uncletopia | Frankfurt | 3 | All Maps","name_short":"frk-3","host":"frk-1.de.uncletopia.com","port":27035,"enabled":true,"region":"eu","cc":"de","latitude":50.110924,"longitude":8.682127,"reserved":0,"last_update":"0001-01-01T00:00:00Z","name_a2s":"Uncletopia | Frankfurt | 3 | All Maps","protocol":17,"map":"cp_process_final","folder":"tf","game":"Team Fortress","app_id":440,"player_count":24,"max_players":24,"Bots":0,"server_type":"Dedicated","server_os":"Linux","password":true,"vac":true,"version":"7961495","steam_id":85568392924504274,"keywords":["cp","nocrits","nodmgspread","uncletopia"],"game_id":440,"stv_port":27036,"stv_name":"Uncletopia | Frankfurt | 3 | All Maps | STV","players":[{"user_id":468,"name":"Lodgercat","steam_id":76561198297495558,"connected_time":63000000000,"state":"active","ping":69},{"user_id":453,"name":"Red Dynamite","steam_id":76561199073167935,"connected_time":1764000000000,"state":"active","ping":167},{"user_id":427,"name":"lurid","steam_id":76561198063159528,"connected_time":3777000000000,"state":"active","ping":53},{"user_id":460,"name":"stunner10","steam_id":76561198119230998,"connected_time":642000000000,"state":"active","ping":77},{"user_id":461,"name":"SPONGE","steam_id":76561198040933472,"connected_time":619000000000,"state":"active","ping":59},{"user_id":469,"name":"the one who grips","steam_id":76561198381106289,"connected_time":12000000000,"state":"spawning","ping":79},{"user_id":421,"name":"my mom","steam_id":76561199225201569,"connected_time":4286000000000,"state":"active","ping":143},{"user_id":446,"name":"Sakari","steam_id":76561197997811299,"connected_time":3041000000000,"state":"active","ping":47},{"user_id":442,"name":"R4yzan","steam_id":76561198085146731,"connected_time":3336000000000,"state":"active","ping":55},{"user_id":429,"name":"PyBOP","steam_id":76561198039583834,"connected_time":3749000000000,"state":"active","ping":62},{"user_id":462,"name":"cheddar","steam_id":76561199072919985,"connected_time":605000000000,"state":"active","ping":84},{"user_id":463,"name":"Master Of Noob","steam_id":76561198217926783,"connected_time":605000000000,"state":"active","ping":65},{"user_id":464,"name":"Q.tip_","steam_id":76561198066492390,"connected_time":584000000000,"state":"active","ping":60},{"user_id":457,"name":"DryWater","steam_id":76561198260857681,"connected_time":1056000000000,"state":"active","ping":59},{"user_id":447,"name":"Nithle","steam_id":76561198025372740,"connected_time":2900000000000,"state":"active","ping":47},{"user_id":467,"name":"THE REAL, LORD KEVIN","steam_id":76561198992520519,"connected_time":345000000000,"state":"active","ping":68},{"user_id":433,"name":"I-I","steam_id":76561198267969436,"connected_time":3604000000000,"state":"active","ping":61},{"user_id":444,"name":"HAMtastic","steam_id":76561198879769410,"connected_time":3138000000000,"state":"active","ping":69},{"user_id":448,"name":"DrunkHungarian","steam_id":76561198853346540,"connected_time":2788000000000,"state":"active","ping":51},{"user_id":452,"name":"tony","steam_id":76561199382978934,"connected_time":2092000000000,"state":"active","ping":90},{"user_id":422,"name":"Vee","steam_id":76561198173065294,"connected_time":4224000000000,"state":"active","ping":60},{"user_id":454,"name":"Solima","steam_id":76561198045349099,"connected_time":1455000000000,"state":"active","ping":45},{"user_id":466,"name":"Kepucz","steam_id":76561197977634244,"connected_time":522000000000,"state":"active","ping":61},{"user_id":412,"name":"anders McFlanders","steam_id":76561198022811995,"connected_time":5005000000000,"state":"active","ping":69}]},{"server_id":309,"name":"Uncletopia | Frankfurt | 4 | All Maps","name_short":"frk-4","host":"frk-1.de.uncletopia.com","port":27045,"enabled":true,"region":"eu","cc":"de","latitude":50.110924,"longitude":8.682127,"reserved":0,"last_update":"0001-01-01T00:00:00Z","name_a2s":"Uncletopia | Frankfurt | 4 | All Maps","protocol":17,"map":"pl_pier","folder":"tf","game":"Team Fortress","app_id":440,"player_count":24,"max_players":24,"Bots":0,"server_type":"Dedicated","server_os":"Linux","password":true,"vac":true,"version":"7961495","steam_id":85568392924504275,"keywords":["nocrits","nodmgspread","payload","uncletopia"],"game_id":440,"stv_port":27046,"stv_name":"Uncletopia | Frankfurt | 4 | All Maps | STV","players":[{"user_id":599,"name":"Solymr ibn Wali Barad","steam_id":76561198044008976,"connected_time":1487000000000,"state":"active","ping":70},{"user_id":610,"name":"Gyt","steam_id":76561198014431968,"connected_time":530000000000,"state":"active","ping":72},{"user_id":605,"name":"Predrag218","steam_id":76561199242439630,"connected_time":1151000000000,"state":"active","ping":119},{"user_id":581,"name":"The Ass Slapper","steam_id":76561198904469197,"connected_time":3040000000000,"state":"active","ping":76},{"user_id":607,"name":"Anton Stormbreaker","steam_id":76561198041426778,"connected_time":848000000000,"state":"active","ping":67},{"user_id":609,"name":"bernkastel","steam_id":76561198030909125,"connected_time":602000000000,"state":"active","ping":90},{"user_id":608,"name":"Gr√∏nkj√¶r","steam_id":76561198041075280,"connected_time":827000000000,"state":"active","ping":75},{"user_id":606,"name":"Mza28","steam_id":76561198873993324,"connected_time":1093000000000,"state":"active","ping":60},{"user_id":600,"name":"noided","steam_id":76561198111134021,"connected_time":1456000000000,"state":"active","ping":75},{"user_id":569,"name":"Mammut","steam_id":76561198056773933,"connected_time":3902000000000,"state":"active","ping":44},{"user_id":543,"name":"Szeregowy LowiRyb","steam_id":76561198855967762,"connected_time":6430000000000,"state":"active","ping":120},{"user_id":583,"name":"The Green Uncle","steam_id":76561198257163156,"connected_time":2932000000000,"state":"active","ping":65},{"user_id":582,"name":"QR code 78","steam_id":76561198073749509,"connected_time":3004000000000,"state":"active","ping":70},{"user_id":530,"name":"biohazard","steam_id":76561198162873354,"connected_time":7826000000000,"state":"active","ping":114},{"user_id":602,"name":"Cabbch","steam_id":76561198045955679,"connected_time":1431000000000,"state":"active","ping":58},{"user_id":593,"name":"willus212","steam_id":76561199182615246,"connected_time":2065000000000,"state":"active","ping":101},{"user_id":501,"name":"john fortress","steam_id":76561198013237629,"connected_time":9300000000000,"state":"active","ping":97},{"user_id":578,"name":"tequila sunset","steam_id":76561198315969106,"connected_time":3180000000000,"state":"active","ping":105},{"user_id":571,"name":"windowsinfinitev2","steam_id":76561199120867639,"connected_time":3856000000000,"state":"active","ping":136},{"user_id":598,"name":"EdgyKItro","steam_id":76561199018665986,"connected_time":1579000000000,"state":"active","ping":97},{"user_id":573,"name":"Donki Wonki","steam_id":76561198327761273,"connected_time":3808000000000,"state":"active","ping":73},{"user_id":611,"name":"Spawn room medic","steam_id":76561198137744600,"connected_time":175000000000,"state":"active","ping":62},{"user_id":603,"name":"Vinexx","steam_id":76561198044024405,"connected_time":1311000000000,"state":"active","ping":67},{"user_id":537,"name":"KFD","steam_id":76561198157183003,"connected_time":7120000000000,"state":"active","ping":82}]},{"server_id":310,"name":"Uncletopia | Frankfurt | 5 | All Maps","name_short":"frk-5","host":"frk-1.de.uncletopia.com","port":27055,"enabled":true,"region":"eu","cc":"de","latitude":50.110924,"longitude":8.682127,"reserved":0,"last_update":"0001-01-01T00:00:00Z","name_a2s":"Uncletopia | Frankfurt | 5 | All Maps","protocol":17,"map":"pl_borneo","folder":"tf","game":"Team Fortress","app_id":440,"player_count":24,"max_players":24,"Bots":0,"server_type":"Dedicated","server_os":"Linux","password":true,"vac":true,"version":"7961495","steam_id":85568392924504277,"keywords":["nocrits","nodmgspread","payload","uncletopia"],"game_id":440,"stv_port":27056,"stv_name":"Uncletopia | Frankfurt | 5 | All Maps | STV","players":[{"user_id":522,"name":"Dolcelatte","steam_id":76561198038501770,"connected_time":492000000000,"state":"active","ping":58},{"user_id":517,"name":"Erection Man","steam_id":76561198021714542,"connected_time":1303000000000,"state":"active","ping":59},{"user_id":519,"name":"_Alonso","steam_id":76561198041893314,"connected_time":802000000000,"state":"active","ping":45},{"user_id":527,"name":"FurbyZone","steam_id":76561198268344503,"connected_time":225000000000,"state":"active","ping":56},{"user_id":521,"name":"ramirez","steam_id":76561198117060048,"connected_time":513000000000,"state":"active","ping":54},{"user_id":528,"name":"Ben Dover","steam_id":76561199213629970,"connected_time":184000000000,"state":"active","ping":112},{"user_id":529,"name":"Ashley","steam_id":76561198056152479,"connected_time":176000000000,"state":"active","ping":44},{"user_id":514,"name":"Jucatron","steam_id":76561198044259577,"connected_time":1538000000000,"state":"active","ping":85},{"user_id":530,"name":"Bruhn","steam_id":76561198106133548,"connected_time":172000000000,"state":"active","ping":63},{"user_id":487,"name":"S Ka Y","steam_id":76561197993423450,"connected_time":3160000000000,"state":"active","ping":56},{"user_id":524,"name":"Dill Killem","steam_id":76561199071571354,"connected_time":453000000000,"state":"active","ping":69},{"user_id":526,"name":"Chicken pot pie","steam_id":76561198084997090,"connected_time":236000000000,"state":"active","ping":53},{"user_id":518,"name":"lulu","steam_id":76561199147764133,"connected_time":1138000000000,"state":"active","ping":73},{"user_id":509,"name":"Cammers","steam_id":76561199121995011,"connected_time":1951000000000,"state":"active","ping":143},{"user_id":535,"name":"gaming gamer","steam_id":76561198212488780,"connected_time":86000000000,"state":"active","ping":59},{"user_id":516,"name":"kreeekz","steam_id":76561198014431602,"connected_time":1369000000000,"state":"active","ping":73},{"user_id":490,"name":"john","steam_id":76561199020106029,"connected_time":3108000000000,"state":"active","ping":103},{"user_id":492,"name":"tzlil","steam_id":76561198399916290,"connected_time":3043000000000,"state":"active","ping":101},{"user_id":531,"name":"bob","steam_id":76561198353212719,"connected_time":171000000000,"state":"active","ping":59},{"user_id":532,"name":"QuZe","steam_id":76561198842739551,"connected_time":166000000000,"state":"active","ping":82},{"user_id":435,"name":"Fuvuk","steam_id":76561198044458593,"connected_time":5952000000000,"state":"active","ping":88},{"user_id":533,"name":"dorel.costica.facebook.41","steam_id":76561199497304797,"connected_time":164000000000,"state":"active","ping":134},{"user_id":501,"name":"Warkzt","steam_id":76561198098166869,"connected_time":2956000000000,"state":"active","ping":76},{"user_id":534,"name":"Fade","steam_id":76561198044801253,"connected_time":164000000000,"state":"active","ping":75}]},{"server_id":311,"name":"Uncletopia | Frankfurt | 6 | All Maps","name_short":"frk-6","host":"frk-1.de.uncletopia.com","port":27065,"enabled":true,"region":"eu","cc":"de","latitude":50.110924,"longitude":8.682127,"reserved":0,"last_update":"0001-01-01T00:00:00Z","name_a2s":"Uncletopia | Frankfurt | 6 | All Maps","protocol":17,"map":"pl_upward","folder":"tf","game":"Team Fortress","app_id":440,"player_count":24,"max_players":24,"Bots":0,"server_type":"Dedicated","server_os":"Linux","password":true,"vac":true,"version":"7961495","steam_id":85568392924504278,"keywords":["nocrits","nodmgspread","payload","uncletopia"],"game_id":440,"stv_port":27066,"stv_name":"Uncletopia | Frankfurt | 6 | All Maps | STV","players":[{"user_id":385,"name":"Jahlil D'armequanius Finglenut","steam_id":76561198855897385,"connected_time":1927000000000,"state":"active","ping":70},{"user_id":399,"name":"BoPoe","steam_id":76561198093333882,"connected_time":1553000000000,"state":"active","ping":108},{"user_id":432,"name":"Alice (on the scoreboard)","steam_id":76561198052410860,"connected_time":416000000000,"state":"active","ping":135},{"user_id":400,"name":"emir","steam_id":76561198113089831,"connected_time":1546000000000,"state":"active","ping":90},{"user_id":435,"name":"Michael","steam_id":76561198003146906,"connected_time":327000000000,"state":"active","ping":54},{"user_id":415,"name":"I.AM.THE.BOOP.WHICH.IS.APROACHI","steam_id":76561198049342507,"connected_time":1066000000000,"state":"active","ping":79},{"user_id":436,"name":"OceanCow","steam_id":76561198343428913,"connected_time":148000000000,"state":"active","ping":72},{"user_id":433,"name":"Naeso","steam_id":76561198068602498,"connected_time":369000000000,"state":"active","ping":45},{"user_id":413,"name":"Bad Dev","steam_id":76561197970632049,"connected_time":1294000000000,"state":"active","ping":96},{"user_id":427,"name":"Not Sussy Tanuki","steam_id":76561198137289375,"connected_time":726000000000,"state":"active","ping":96},{"user_id":437,"name":"randompixel","steam_id":76561198003941207,"connected_time":118000000000,"state":"active","ping":69},{"user_id":428,"name":"Waffles","steam_id":76561199086942763,"connected_time":663000000000,"state":"active","ping":81},{"user_id":438,"name":"Eujekas","steam_id":76561198010527145,"connected_time":104000000000,"state":"active","ping":90},{"user_id":429,"name":"Puhaur","steam_id":76561198404557509,"connected_time":657000000000,"state":"active","ping":51},{"user_id":381,"name":"paypig","steam_id":76561198035137115,"connected_time":3066000000000,"state":"active","ping":60},{"user_id":405,"name":"Battle Medic","steam_id":76561198167539381,"connected_time":1432000000000,"state":"active","ping":62},{"user_id":417,"name":"Scuig","steam_id":76561198849166982,"connected_time":1011000000000,"state":"active","ping":80},{"user_id":423,"name":"least weird romanian","steam_id":76561198170609049,"connected_time":901000000000,"state":"active","ping":74},{"user_id":410,"name":"Sheen (Khang)","steam_id":76561198371062974,"connected_time":1390000000000,"state":"active","ping":84},{"user_id":439,"name":"Hideouz","steam_id":76561199270673456,"connected_time":63000000000,"state":"active","ping":102},{"user_id":424,"name":"pizzaboob (im funny)","steam_id":76561198097507847,"connected_time":885000000000,"state":"active","ping":76},{"user_id":414,"name":"Gator","steam_id":76561198065624683,"connected_time":1238000000000,"state":"active","ping":94},{"user_id":431,"name":"BGH1009","steam_id":76561198894761820,"connected_time":622000000000,"state":"active","ping":70},{"user_id":440,"name":"Malewife","steam_id":76561199061368442,"connected_time":63000000000,"state":"active","ping":74}]},{"server_id":23,"name":"Uncletopia | Frankfurt | 7 | Stopwatch","name_short":"frk-7","host":"frk-1.de.uncletopia.com","port":27075,"enabled":true,"region":"eu","cc":"de","latitude":50.110924,"longitude":8.682127,"reserved":0,"last_update":"0001-01-01T00:00:00Z","name_a2s":"Uncletopia | Frankfurt | 7 | Stopwatch","protocol":17,"map":"workshop/koth_ashville_final.ugc2130459942","folder":"tf","game":"Team Fortress","app_id":440,"player_count":0,"max_players":24,"Bots":0,"server_type":"Dedicated","server_os":"Linux","password":true,"vac":true,"version":"7961495","steam_id":85568392924742827,"keywords":["cp","nocrits","nodmgspread","uncletopia"],"game_id":440,"stv_port":27076,"stv_name":"Uncletopia | Frankfurt | 7 | Stopwatch | STV","players":null},{"server_id":24,"name":"Uncletopia | Frankfurt | 8 | Community","name_short":"frk-8","host":"frk-1.de.uncletopia.com","port":27085,"enabled":true,"region":"eu","cc":"de","latitude":50.110924,"longitude":8.682127,"reserved":0,"last_update":"0001-01-01T00:00:00Z","name_a2s":"Uncletopia | Frankfurt | 8 | Community","protocol":17,"map":"workshop/pl_cactuscanyon_redux_final2.ugc2579644293","folder":"tf","game":"Team Fortress","app_id":440,"player_count":0,"max_players":24,"Bots":0,"server_type":"Dedicated","server_os":"Linux","password":true,"vac":true,"version":"7961495","steam_id":85568392924742828,"keywords":["nocrits","nodmgspread","payload","uncletopia"],"game_id":440,"stv_port":27086,"stv_name":"Uncletopia | Frankfurt | 8 | Community | STV","players":null},{"server_id":202,"name":"Uncletopia | Hong Kong | 1 | All Maps","name_short":"hgk-1","host":"hgk-1.hk.uncletopia.com","port":27015,"enabled":true,"region":"asia","cc":"hk","latitude":22.302711,"longitude":114.177216,"reserved":0,"last_update":"0001-01-01T00:00:00Z","name_a2s":"Uncletopia | Hong Kong | 1 | All Maps","protocol":17,"map":"pl_snowycoast","folder":"tf","game":"Team Fortress","app_id":440,"player_count":0,"max_players":24,"Bots":0,"server_type":"Dedicated","server_os":"Linux","password":true,"vac":true,"version":"7961495","steam_id":85568392924494504,"keywords":["nocrits","nodmgspread","payload","uncletopia"],"game_id":440,"stv_port":27016,"stv_name":"Uncletopia | Hong Kong | 1 | All Maps | STV","players":null},{"server_id":1,"name":"Uncletopia | Los Angeles | 1 | All Maps","name_short":"lax-1","host":"lax-1.us.uncletopia.com","port":27015,"enabled":true,"region":"us-west","cc":"us","latitude":33.94279,"longitude":-118.41004,"reserved":0,"last_update":"0001-01-01T00:00:00Z","name_a2s":"Uncletopia | Los Angeles | 1 | All Maps","protocol":17,"map":"cp_steel","folder":"tf","game":"Team Fortress","app_id":440,"player_count":24,"max_players":24,"Bots":0,"server_type":"Dedicated","server_os":"Linux","password":true,"vac":true,"version":"7961495","steam_id":85568392924469991,"keywords":["cp","nocrits","nodmgspread","uncletopia"],"game_id":440,"stv_port":27016,"stv_name":"Uncletopia | Los Angeles | 1 | All Maps | STV","players":[{"user_id":264,"name":"ena - d","steam_id":76561198072329335,"connected_time":3308000000000,"state":"active","ping":105},{"user_id":313,"name":"spherewithahat","steam_id":76561199122192660,"connected_time":941000000000,"state":"active","ping":124},{"user_id":314,"name":"jcq","steam_id":76561198342480009,"connected_time":925000000000,"state":"active","ping":52},{"user_id":309,"name":"mr555","steam_id":76561199128375354,"connected_time":1160000000000,"state":"active","ping":149},{"user_id":316,"name":"reko","steam_id":76561198278020887,"connected_time":799000000000,"state":"active","ping":74},{"user_id":285,"name":"Fah B. Loo","steam_id":76561199072749328,"connected_time":2522000000000,"state":"active","ping":99},{"user_id":315,"name":"roach","steam_id":76561198354811369,"connected_time":906000000000,"state":"active","ping":45},{"user_id":322,"name":"NFL.com","steam_id":76561198113405376,"connected_time":675000000000,"state":"active","ping":47},{"user_id":317,"name":"thisisSteve","steam_id":76561198420882318,"connected_time":787000000000,"state":"active","ping":60},{"user_id":266,"name":"[√òWQJ√ò]chubacaalatake","steam_id":76561198136201697,"connected_time":3263000000000,"state":"active","ping":87},{"user_id":318,"name":"Rock Kickass","steam_id":76561198450510841,"connected_time":766000000000,"state":"active","ping":84},{"user_id":320,"name":"cringemobile","steam_id":76561198795950093,"connected_time":707000000000,"state":"active","ping":102},{"user_id":321,"name":"Rustyorion","steam_id":76561198439186347,"connected_time":696000000000,"state":"active","ping":76},{"user_id":323,"name":"coomerbot","steam_id":76561198082532552,"connected_time":633000000000,"state":"active","ping":85},{"user_id":324,"name":"nascarfan1966@hotmail.com","steam_id":76561198046972750,"connected_time":618000000000,"state":"active","ping":55},{"user_id":325,"name":"mastercylinder","steam_id":76561197993700163,"connected_time":579000000000,"state":"active","ping":59},{"user_id":225,"name":"Sunkenthree51","steam_id":76561198300781307,"connected_time":6390000000000,"state":"active","ping":56},{"user_id":326,"name":"PrimalExplosion","steam_id":76561199230044159,"connected_time":544000000000,"state":"active","ping":92},{"user_id":327,"name":"Interrobang","steam_id":76561198385044529,"connected_time":475000000000,"state":"active","ping":96},{"user_id":328,"name":"pup","steam_id":76561198145921847,"connected_time":466000000000,"state":"active","ping":74},{"user_id":330,"name":"Jango","steam_id":76561198084589742,"connected_time":391000000000,"state":"active","ping":107},{"user_id":331,"name":"Giddy","steam_id":76561198271951969,"connected_time":375000000000,"state":"active","ping":59},{"user_id":311,"name":"mmmmmmmmmmmmmmmmmm","steam_id":76561199267742979,"connected_time":1145000000000,"state":"active","ping":61}]},{"server_id":112,"name":"Uncletopia | Los Angeles | 2 | All Maps","name_short":"lax-2","host":"lax-1.us.uncletopia.com","port":27025,"enabled":true,"region":"us-west","cc":"us","latitude":33.94279,"longitude":-118.41004,"reserved":0,"last_update":"0001-01-01T00:00:00Z","name_a2s":"Uncletopia | Los Angeles | 2 | All Maps","protocol":17,"map":"koth_viaduct","folder":"tf","game":"Team Fortress","app_id":440,"player_count":0,"max_players":24,"Bots":0,"server_type":"Dedicated","server_os":"Linux","password":true,"vac":true,"version":"7961495","steam_id":85568392924469992,"keywords":["cp","nocrits","nodmgspread","uncletopia"],"game_id":440,"stv_port":27026,"stv_name":"Uncletopia | Los Angeles | 2 | All Maps | STV","players":null},{"server_id":324,"name":"Uncletopia | Los Angeles | 3 | All Maps","name_short":"lax-3","host":"lax-1.us.uncletopia.com","port":27035,"enabled":true,"region":"us-west","cc":"us","latitude":33.94279,"longitude":-118.41004,"reserved":0,"last_update":"0001-01-01T00:00:00Z","name_a2s":"Uncletopia | Los Angeles | 3 | All Maps","protocol":17,"map":"pl_frontier_final","folder":"tf","game":"Team Fortress","app_id":440,"player_count":1,"max_players":24,"Bots":0,"server_type":"Dedicated","server_os":"Linux","password":true,"vac":true,"version":"7961495","steam_id":85568392924510198,"keywords":["nocrits","nodmgspread","payload","uncletopia"],"game_id":440,"stv_port":27036,"stv_name":"Uncletopia | Los Angeles | 3 | All Maps | STV","players":[{"user_id":6,"name":"Destroyer1004","steam_id":76561199367685913,"connected_time":72000000000,"state":"active","ping":70}]},{"server_id":25,"name":"Uncletopia | Los Angeles | 4 | Stopwatch","name_short":"lax-4","host":"lax-1.us.uncletopia.com","port":27045,"enabled":true,"region":"us-west","cc":"us","latitude":33.94279,"longitude":-118.41004,"reserved":0,"last_update":"0001-01-01T00:00:00Z","name_a2s":"Uncletopia | Los Angeles | 4 | Stopwatch","protocol":17,"map":"pl_barnblitz","folder":"tf","game":"Team Fortress","app_id":440,"player_count":0,"max_players":24,"Bots":0,"server_type":"Dedicated","server_os":"Linux","password":true,"vac":true,"version":"7961495","steam_id":85568392924510199,"keywords":["nocrits","nodmgspread","payload","uncletopia"],"game_id":440,"stv_port":27046,"stv_name":"Uncletopia | Los Angeles | 4 | Stopwatch | STV","players":null},{"server_id":11,"name":"Uncletopia | London | 1 | All Maps","name_short":"lon-1","host":"lon-1.uk.uncletopia.com","port":27015,"enabled":true,"region":"eu","cc":"gb","latitude":51.509865,"longitude":-0.118092,"reserved":0,"last_update":"0001-01-01T00:00:00Z","name_a2s":"Uncletopia | London | 1 | All Maps","protocol":17,"map":"pl_upward","folder":"tf","game":"Team Fortress","app_id":440,"player_count":24,"max_players":24,"Bots":0,"server_type":"Dedicated","server_os":"Linux","password":true,"vac":true,"version":"7961495","steam_id":85568392924367362,"keywords":["nocrits","nodmgspread","payload","uncletopia"],"game_id":440,"stv_port":27016,"stv_name":"Uncletopia | London | 1 | All Maps | STV","players":[{"user_id":477,"name":"laser","steam_id":76561198036030697,"connected_time":1292000000000,"state":"active","ping":66},{"user_id":474,"name":"MEDiUM","steam_id":76561198112328561,"connected_time":1470000000000,"state":"active","ping":80},{"user_id":450,"name":"Maks","steam_id":76561198315278876,"connected_time":3635000000000,"state":"active","ping":51},{"user_id":436,"name":"Kahvi","steam_id":76561198723244199,"connected_time":4501000000000,"state":"active","ping":76},{"user_id":408,"name":"hi guys it's me","steam_id":76561198997586136,"connected_time":6418000000000,"state":"active","ping":130},{"user_id":489,"name":"Yuval","steam_id":76561198241802390,"connected_time":857000000000,"state":"active","ping":120},{"user_id":482,"name":"Keho","steam_id":76561198087962709,"connected_time":1260000000000,"state":"active","ping":82},{"user_id":386,"name":"Mini","steam_id":76561197968634073,"connected_time":8417000000000,"state":"active","ping":89},{"user_id":369,"name":"shooer!","steam_id":76561198110531281,"connected_time":10070000000000,"state":"active","ping":68},{"user_id":428,"name":"KermSlinger","steam_id":76561198854027069,"connected_time":4893000000000,"state":"active","ping":69},{"user_id":440,"name":"T√° pr√°ta√≠ go maith","steam_id":76561198372536459,"connected_time":4380000000000,"state":"active","ping":57},{"user_id":460,"name":"png.png","steam_id":76561198444446521,"connected_time":2643000000000,"state":"active","ping":108},{"user_id":483,"name":"Alexandre","steam_id":76561198121784446,"connected_time":1257000000000,"state":"active","ping":44},{"user_id":491,"name":"psychogoat101","steam_id":76561198156146805,"connected_time":754000000000,"state":"active","ping":44},{"user_id":430,"name":"Ullr","steam_id":76561198140547483,"connected_time":4850000000000,"state":"active","ping":45},{"user_id":485,"name":"‚ôõC4xSupreme‚ôõ","steam_id":76561199246030190,"connected_time":1181000000000,"state":"active","ping":70},{"user_id":486,"name":"drifter","steam_id":76561197998271149,"connected_time":1116000000000,"state":"active","ping":70},{"user_id":476,"name":"Stunner John Mode! „ÉÑ","steam_id":76561199085822219,"connected_time":1384000000000,"state":"active","ping":79},{"user_id":449,"name":"most sane mentalist","steam_id":76561198310095220,"connected_time":3762000000000,"state":"active","ping":40},{"user_id":448,"name":"Klaus","steam_id":76561198150394201,"connected_time":3826000000000,"state":"active","ping":87},{"user_id":494,"name":"Anri Okita's Massive Milkers","steam_id":76561199186352720,"connected_time":234000000000,"state":"active","ping":62},{"user_id":492,"name":"Iwatermelons","steam_id":76561198061126658,"connected_time":737000000000,"state":"active","ping":55},{"user_id":480,"name":"ShawnDawn2","steam_id":76561198165013522,"connected_time":1269000000000,"state":"active","ping":31},{"user_id":465,"name":"sushii","steam_id":76561198297987372,"connected_time":2588000000000,"state":"active","ping":55}]},{"server_id":114,"name":"Uncletopia | London | 2 | All Maps","name_short":"lon-2","host":"lon-1.uk.uncletopia.com","port":27025,"enabled":true,"region":"eu","cc":"gb","latitude":51.509865,"longitude":-0.118092,"reserved":0,"last_update":"0001-01-01T00:00:00Z","name_a2s":"Uncletopia | London | 2 | All Maps","protocol":17,"map":"pl_upward","folder":"tf","game":"Team Fortress","app_id":440,"player_count":24,"max_players":24,"Bots":0,"server_type":"Dedicated","server_os":"Linux","password":true,"vac":true,"version":"7961495","steam_id":85568392924470941,"keywords":["nocrits","nodmgspread","payload","uncletopia"],"game_id":440,"stv_port":27026,"stv_name":"Uncletopia | London | 2 | All Maps | STV","players":[{"user_id":447,"name":"Fissure","steam_id":76561198272595481,"connected_time":4979000000000,"state":"active","ping":57},{"user_id":496,"name":"Fatmagic Mukbang ASMR","steam_id":76561198063492110,"connected_time":839000000000,"state":"active","ping":82},{"user_id":487,"name":"Filip","steam_id":76561198852826447,"connected_time":1451000000000,"state":"active","ping":71},{"user_id":455,"name":"soap lore 18","steam_id":76561198058879767,"connected_time":3599000000000,"state":"active","ping":41},{"user_id":494,"name":"Joo ‚ô¶","steam_id":76561197987609203,"connected_time":1004000000000,"state":"active","ping":69},{"user_id":500,"name":"Ascended Noob","steam_id":76561198079411460,"connected_time":412000000000,"state":"active","ping":51},{"user_id":503,"name":"dagaminking","steam_id":76561198144209072,"connected_time":220000000000,"state":"active","ping":39},{"user_id":479,"name":"Rapnoc","steam_id":76561198255884546,"connected_time":1709000000000,"state":"active","ping":83},{"user_id":499,"name":"Borazilla","steam_id":76561198083626821,"connected_time":429000000000,"state":"active","ping":114},{"user_id":473,"name":"meriones","steam_id":76561198034234373,"connected_time":1979000000000,"state":"active","ping":37},{"user_id":505,"name":"Locke","steam_id":76561198339408300,"connected_time":170000000000,"state":"active","ping":59},{"user_id":493,"name":"WMP‚Ñ¢","steam_id":76561198001376594,"connected_time":1033000000000,"state":"active","ping":84},{"user_id":324,"name":"dash.","steam_id":76561198084796149,"connected_time":13822000000000,"state":"active","ping":47},{"user_id":497,"name":"clean carp","steam_id":76561198127053294,"connected_time":832000000000,"state":"active","ping":64},{"user_id":449,"name":"Jams","steam_id":76561198118316970,"connected_time":4881000000000,"state":"active","ping":76},{"user_id":502,"name":"Kaibz","steam_id":76561197975012611,"connected_time":332000000000,"state":"active","ping":41},{"user_id":501,"name":"VORTEX(COMMS OPEN)","steam_id":76561199074746528,"connected_time":386000000000,"state":"active","ping":80},{"user_id":483,"name":"HetNet","steam_id":76561198207584963,"connected_time":1653000000000,"state":"active","ping":80},{"user_id":484,"name":"Tin","steam_id":76561198022201818,"connected_time":1651000000000,"state":"active","ping":44},{"user_id":476,"name":"hipster_doofus","steam_id":76561197970902697,"connected_time":1766000000000,"state":"active","ping":59},{"user_id":506,"name":"Akopi","steam_id":76561198110765486,"connected_time":5000000000,"state":"spawning","ping":180},{"user_id":489,"name":"Muffin","steam_id":76561198134575280,"connected_time":1336000000000,"state":"active","ping":68},{"user_id":486,"name":"medic gaming","steam_id":76561198866194704,"connected_time":1619000000000,"state":"active","ping":86},{"user_id":425,"name":"gamerkiddo","steam_id":76561198047380360,"connected_time":6107000000000,"state":"active","ping":66}]},{"server_id":320,"name":"Uncletopia | London | 3 | All Maps","name_short":"lon-3","host":"lon-1.uk.uncletopia.com","port":27035,"enabled":true,"region":"eu","cc":"gb","latitude":51.509865,"longitude":-0.118092,"reserved":0,"last_update":"0001-01-01T00:00:00Z","name_a2s":"Uncletopia | London | 3 | All Maps","protocol":17,"map":"koth_highpass","folder":"tf","game":"Team Fortress","app_id":440,"player_count":22,"max_players":24,"Bots":0,"server_type":"Dedicated","server_os":"Linux","password":true,"vac":true,"version":"7961495","steam_id":85568392924510192,"keywords":["cp","nocrits","nodmgspread","uncletopia"],"game_id":440,"stv_port":27036,"stv_name":"Uncletopia | London | 3 | All Maps | STV","players":[{"user_id":412,"name":"Lorincel","steam_id":76561198314022154,"connected_time":461000000000,"state":"active","ping":90},{"user_id":386,"name":"laza","steam_id":76561199074095198,"connected_time":2216000000000,"state":"active","ping":109},{"user_id":414,"name":"Alfred","steam_id":76561198348799252,"connected_time":379000000000,"state":"active","ping":48},{"user_id":371,"name":"Semtilion","steam_id":76561198107642445,"connected_time":2806000000000,"state":"active","ping":106},{"user_id":406,"name":"Bombilla","steam_id":76561198084281798,"connected_time":750000000000,"state":"active","ping":82},{"user_id":419,"name":"AudioFall","steam_id":76561198208814216,"connected_time":2000000000,"state":"spawning","ping":88},{"user_id":384,"name":"Dan Dan the Furious","steam_id":76561198091032527,"connected_time":2297000000000,"state":"active","ping":53},{"user_id":415,"name":"Sandvich Enthusiast","steam_id":76561198241275578,"connected_time":266000000000,"state":"active","ping":45},{"user_id":416,"name":"oskaroku00","steam_id":76561199025360128,"connected_time":255000000000,"state":"active","ping":60},{"user_id":389,"name":"BROOMSTER","steam_id":76561198344833818,"connected_time":1765000000000,"state":"active","ping":66},{"user_id":405,"name":"Majima Scout","steam_id":76561198317182197,"connected_time":772000000000,"state":"active","ping":126},{"user_id":380,"name":"Benny the Ball","steam_id":76561198043104532,"connected_time":2453000000000,"state":"active","ping":44},{"user_id":399,"name":"Macro","steam_id":76561199442846226,"connected_time":1384000000000,"state":"active","ping":154},{"user_id":374,"name":"BigZZZ","steam_id":76561197998461614,"connected_time":2576000000000,"state":"active","ping":61},{"user_id":367,"name":"cyanic","steam_id":76561198047828651,"connected_time":3091000000000,"state":"active","ping":45},{"user_id":408,"name":"Moose","steam_id":76561198352381052,"connected_time":697000000000,"state":"active","ping":78},{"user_id":409,"name":"Bird On Your Window","steam_id":76561198081933130,"connected_time":694000000000,"state":"active","ping":58},{"user_id":410,"name":"Creative","steam_id":76561198835034247,"connected_time":677000000000,"state":"active","ping":85},{"user_id":306,"name":"Trapezoid","steam_id":76561198059369295,"connected_time":7419000000000,"state":"active","ping":75},{"user_id":387,"name":"summer","steam_id":76561198170056395,"connected_time":1922000000000,"state":"active","ping":56},{"user_id":385,"name":"Salih","steam_id":76561198287934839,"connected_time":2262000000000,"state":"active","ping":68},{"user_id":402,"name":"ExtraFlames","steam_id":76561199136146246,"connected_time":832000000000,"state":"active","ping":57}]},{"server_id":321,"name":"Uncletopia | London | 4 | All Maps","name_short":"lon-4","host":"lon-1.uk.uncletopia.com","port":27045,"enabled":true,"region":"eu","cc":"gb","latitude":51.509865,"longitude":-0.118092,"reserved":0,"last_update":"0001-01-01T00:00:00Z","name_a2s":"Uncletopia | London | 4 | All Maps","protocol":17,"map":"koth_viaduct","folder":"tf","game":"Team Fortress","app_id":440,"player_count":10,"max_players":24,"Bots":0,"server_type":"Dedicated","server_os":"Linux","password":true,"vac":true,"version":"7961495","steam_id":85568392924510193,"keywords":["cp","nocrits","nodmgspread","uncletopia"],"game_id":440,"stv_port":27046,"stv_name":"Uncletopia | London | 4 | All Maps | STV","players":[{"user_id":224,"name":"outd","steam_id":76561198872414531,"connected_time":325000000000,"state":"active","ping":55},{"user_id":226,"name":"NovaByte","steam_id":76561199024222387,"connected_time":163000000000,"state":"active","ping":53},{"user_id":211,"name":"TheFluffyCrano","steam_id":76561198058832960,"connected_time":1014000000000,"state":"active","ping":43},{"user_id":225,"name":"fence_","steam_id":76561198150386379,"connected_time":267000000000,"state":"active","ping":44},{"user_id":227,"name":"Milk","steam_id":76561198125876588,"connected_time":143000000000,"state":"active","ping":38},{"user_id":228,"name":"toomas2018 (real)(official)","steam_id":76561199105796083,"connected_time":64000000000,"state":"active","ping":95},{"user_id":229,"name":"very cool","steam_id":76561198388030855,"connected_time":48000000000,"state":"active","ping":100},{"user_id":230,"name":"enbamb","steam_id":76561198999384317,"connected_time":25000000000,"state":"active","ping":79},{"user_id":185,"name":"Certified Hood pybro (ua)","steam_id":76561198970562699,"connected_time":3632000000000,"state":"active","ping":50},{"user_id":188,"name":"Jeffrey Harpen","steam_id":76561199073314677,"connected_time":3569000000000,"state":"active","ping":75}]},{"server_id":21,"name":"Uncletopia | London | 5 | All Maps","name_short":"lon-5","host":"lon-1.uk.uncletopia.com","port":27055,"enabled":true,"region":"eu","cc":"gb","latitude":51.509865,"longitude":-0.118092,"reserved":0,"last_update":"0001-01-01T00:00:00Z","name_a2s":"Uncletopia | London | 5 | All Maps","protocol":17,"map":"pl_badwater","folder":"tf","game":"Team Fortress","app_id":440,"player_count":24,"max_players":24,"Bots":0,"server_type":"Dedicated","server_os":"Linux","password":true,"vac":true,"version":"7961495","steam_id":85568392924742829,"keywords":["nocrits","nodmgspread","payload","uncletopia"],"game_id":440,"stv_port":27056,"stv_name":"Uncletopia | London | 5 | All Maps | STV","players":[{"user_id":157,"name":"Oblivion","steam_id":76561198352683491,"connected_time":432000000000,"state":"active","ping":38},{"user_id":154,"name":"MaypulSoyrup","steam_id":76561199213966821,"connected_time":614000000000,"state":"active","ping":76},{"user_id":43,"name":"Weegad Wobus","steam_id":76561199429562693,"connected_time":7277000000000,"state":"active","ping":70},{"user_id":153,"name":"clock tower","steam_id":76561199394371317,"connected_time":709000000000,"state":"active","ping":68},{"user_id":144,"name":"niandits","steam_id":76561198419798900,"connected_time":1305000000000,"state":"active","ping":127},{"user_id":143,"name":"LEGEND FUMO.","steam_id":76561198061033903,"connected_time":1378000000000,"state":"active","ping":54},{"user_id":44,"name":"Kenny_killer_69","steam_id":76561199465207725,"connected_time":7266000000000,"state":"active","ping":85},{"user_id":134,"name":"juni","steam_id":76561198036504214,"connected_time":1906000000000,"state":"active","ping":56},{"user_id":131,"name":"gagalak","steam_id":76561198089979108,"connected_time":1949000000000,"state":"active","ping":104},{"user_id":125,"name":"Leopold","steam_id":76561198020195322,"connected_time":2186000000000,"state":"active","ping":83},{"user_id":155,"name":"Daemon","steam_id":76561198007015109,"connected_time":541000000000,"state":"active","ping":53},{"user_id":123,"name":"pepper","steam_id":76561198059782462,"connected_time":2463000000000,"state":"active","ping":69},{"user_id":124,"name":"Skittles","steam_id":76561198024077569,"connected_time":2433000000000,"state":"active","ping":85},{"user_id":97,"name":"cuddle","steam_id":76561198805181599,"connected_time":4784000000000,"state":"active","ping":54},{"user_id":135,"name":"SadBambino","steam_id":76561198101989931,"connected_time":1895000000000,"state":"active","ping":56},{"user_id":159,"name":"Carlo","steam_id":76561198276491098,"connected_time":0,"state":"spawning","ping":0},{"user_id":98,"name":"Dark ^^","steam_id":76561198036241064,"connected_time":4753000000000,"state":"active","ping":74},{"user_id":158,"name":"Blupgo Beurbgunha√ºr","steam_id":76561198280566565,"connected_time":339000000000,"state":"active","ping":67},{"user_id":122,"name":"Naty","steam_id":76561198083488307,"connected_time":2492000000000,"state":"active","ping":74},{"user_id":141,"name":"Jaros≈Çaw Kaczy≈Ñski","steam_id":76561198193992077,"connected_time":1545000000000,"state":"active","ping":89},{"user_id":139,"name":"Flohr","steam_id":76561198191948841,"connected_time":1754000000000,"state":"active","ping":51},{"user_id":137,"name":"Reimu","steam_id":76561198101532240,"connected_time":1817000000000,"state":"active","ping":64},{"user_id":142,"name":"JaneDoe","steam_id":76561198067081506,"connected_time":1528000000000,"state":"active","ping":86},{"user_id":146,"name":"Grilled Jizo","steam_id":76561199250875340,"connected_time":1251000000000,"state":"active","ping":184}]},{"server_id":22,"name":"Uncletopia | London | 6 | All Maps","name_short":"lon-6","host":"lon-1.uk.uncletopia.com","port":27065,"enabled":true,"region":"eu","cc":"gb","latitude":51.509865,"longitude":-0.118092,"reserved":0,"last_update":"0001-01-01T00:00:00Z","name_a2s":"Uncletopia | London | 6 | All Maps","protocol":17,"map":"pl_swiftwater_final1","folder":"tf","game":"Team Fortress","app_id":440,"player_count":20,"max_players":24,"Bots":0,"server_type":"Dedicated","server_os":"Linux","password":true,"vac":true,"version":"7961495","steam_id":85568392924742830,"keywords":["nocrits","nodmgspread","payload","uncletopia"],"game_id":440,"stv_port":27066,"stv_name":"Uncletopia | London | 6 | All Maps | STV","players":[{"user_id":266,"name":"‚∏∏aura‚∏∏","steam_id":76561198066258544,"connected_time":254000000000,"state":"active","ping":61},{"user_id":260,"name":"Industrial Revolution","steam_id":76561198230811124,"connected_time":1639000000000,"state":"active","ping":129},{"user_id":252,"name":"cock dick gaming","steam_id":76561199042470246,"connected_time":2068000000000,"state":"active","ping":70},{"user_id":262,"name":"SodaHead13","steam_id":76561198202990635,"connected_time":1020000000000,"state":"active","ping":65},{"user_id":256,"name":"harper","steam_id":76561198188642265,"connected_time":1949000000000,"state":"active","ping":66},{"user_id":208,"name":"Ixsus\u003c3","steam_id":76561198094756869,"connected_time":5312000000000,"state":"active","ping":60},{"user_id":155,"name":"Fuck it (unhandicaps)","steam_id":76561197983095579,"connected_time":7680000000000,"state":"active","ping":81},{"user_id":263,"name":"Agon","steam_id":76561198982948437,"connected_time":879000000000,"state":"active","ping":78},{"user_id":271,"name":"bAdmon","steam_id":76561197961785793,"connected_time":15000000000,"state":"active","ping":72},{"user_id":250,"name":"Kfer :3","steam_id":76561198809708638,"connected_time":2127000000000,"state":"active","ping":93},{"user_id":267,"name":"quickfast","steam_id":76561199438900919,"connected_time":93000000000,"state":"active","ping":45},{"user_id":269,"name":"Coq Consumer","steam_id":76561198450526083,"connected_time":82000000000,"state":"active","ping":67},{"user_id":222,"name":"hazy","steam_id":76561198189686075,"connected_time":4613000000000,"state":"active","ping":45},{"user_id":268,"name":"Gluttony","steam_id":76561198243258784,"connected_time":86000000000,"state":"active","ping":73},{"user_id":235,"name":"Sza","steam_id":76561198022132105,"connected_time":3356000000000,"state":"active","ping":64},{"user_id":240,"name":"After8","steam_id":76561198090750865,"connected_time":3096000000000,"state":"active","ping":74},{"user_id":215,"name":"Rockfrenzy","steam_id":76561198005428050,"connected_time":5120000000000,"state":"active","ping":73},{"user_id":226,"name":"LordTrap.exe","steam_id":76561198318089716,"connected_time":4398000000000,"state":"active","ping":57},{"user_id":117,"name":"transgender e-girl","steam_id":76561198168589809,"connected_time":11172000000000,"state":"active","ping":45},{"user_id":259,"name":"jpsl","steam_id":76561198137512197,"connected_time":1930000000000,"state":"active","ping":98}]},{"server_id":40,"name":"Uncletopia | London | 7 | Stopwatch","name_short":"lon-7","host":"lon-1.uk.uncletopia.com","port":27075,"enabled":true,"region":"eu","cc":"gb","latitude":51.509865,"longitude":-0.118092,"reserved":0,"last_update":"0001-01-01T00:00:00Z","name_a2s":"Uncletopia | London | 7 | Stopwatch","protocol":17,"map":"cp_snakewater_final1","folder":"tf","game":"Team Fortress","app_id":440,"player_count":4,"max_players":24,"Bots":0,"server_type":"Dedicated","server_os":"Linux","password":true,"vac":true,"version":"7961495","steam_id":85568392924964314,"keywords":["cp","nocrits","nodmgspread","uncletopia"],"game_id":440,"stv_port":27076,"stv_name":"Uncletopia | London | 7 | Stopwatch | STV","players":[{"user_id":121,"name":"RainbowPikachu","steam_id":76561199077898674,"connected_time":739000000000,"state":"active","ping":63},{"user_id":122,"name":"finlay2008","steam_id":76561199447321722,"connected_time":732000000000,"state":"active","ping":72},{"user_id":123,"name":"Deemask√©","steam_id":76561199225833593,"connected_time":634000000000,"state":"active","ping":45},{"user_id":124,"name":"weeeerut","steam_id":76561199090471211,"connected_time":203000000000,"state":"active","ping":50}]},{"server_id":41,"name":"Uncletopia | London | 8 | Community","name_short":"lon-8","host":"lon-1.uk.uncletopia.com","port":27085,"enabled":true,"region":"eu","cc":"gb","latitude":51.509865,"longitude":-0.118092,"reserved":0,"last_update":"0001-01-01T00:00:00Z","name_a2s":"Uncletopia | London | 8 | Community","protocol":17,"map":"workshop/koth_trenchfoot_b1a.ugc731436616","folder":"tf","game":"Team Fortress","app_id":440,"player_count":0,"max_players":24,"Bots":0,"server_type":"Dedicated","server_os":"Linux","password":true,"vac":true,"version":"7961495","steam_id":85568392924964315,"keywords":["cp","nocrits","nodmgspread","uncletopia"],"game_id":440,"stv_port":27086,"stv_name":"Uncletopia | London | 8 | Community | STV","players":null},{"server_id":300,"name":"Uncletopia | Montr√©al | 1 | One Thousand Uncles","name_short":"mtl-1","host":"mtl-1.ca.uncletopia.com","port":27015,"enabled":true,"region":"us-east","cc":"ca","latitude":45.50889,"longitude":-73.56167,"reserved":0,"last_update":"0001-01-01T00:00:00Z","name_a2s":"","protocol":0,"map":"","folder":"","game":"","app_id":0,"player_count":1,"max_players":0,"Bots":0,"server_type":"","server_os":"","password":false,"vac":false,"version":"","steam_id":0,"keywords":null,"game_id":0,"stv_port":0,"stv_name":"","players":[{"user_id":147,"name":"DrMisteryous2","steam_id":76561198336307012,"connected_time":109000000000,"state":"active","ping":164}]},{"server_id":301,"name":"Uncletopia | Montr√©al | 2 | One Thousand Uncles","name_short":"mtl-2","host":"mtl-1.ca.uncletopia.com","port":27025,"enabled":true,"region":"us-east","cc":"ca","latitude":45.50889,"longitude":-73.56167,"reserved":0,"last_update":"0001-01-01T00:00:00Z","name_a2s":"","protocol":0,"map":"","folder":"","game":"","app_id":0,"player_count":7,"max_players":0,"Bots":0,"server_type":"","server_os":"","password":false,"vac":false,"version":"","steam_id":0,"keywords":null,"game_id":0,"stv_port":0,"stv_name":"","players":[{"user_id":35,"name":"The Fragrance of Dark Coffee","steam_id":76561198013111370,"connected_time":2510000000000,"state":"active","ping":61},{"user_id":36,"name":"Jimmy Pubetron","steam_id":76561198077634776,"connected_time":2504000000000,"state":"active","ping":192},{"user_id":53,"name":"Adding Gfuel to the Fire","steam_id":76561198059202536,"connected_time":2288000000000,"state":"active","ping":77},{"user_id":54,"name":"Fanfiction Historian","steam_id":76561199048699541,"connected_time":2269000000000,"state":"active","ping":83},{"user_id":74,"name":"Sergeant_Umbreon","steam_id":76561198084188758,"connected_time":590000000000,"state":"active","ping":122},{"user_id":75,"name":"Officer Oxlong","steam_id":76561199110430036,"connected_time":182000000000,"state":"active","ping":70},{"user_id":76,"name":"Professional Brohamad","steam_id":76561198824025210,"connected_time":112000000000,"state":"active","ping":64}]},{"server_id":302,"name":"Uncletopia | Montr√©al | 3 | One Thousand Uncles","name_short":"mtl-3","host":"mtl-1.ca.uncletopia.com","port":27035,"enabled":true,"region":"us-east","cc":"ca","latitude":45.50889,"longitude":-73.56167,"reserved":0,"last_update":"0001-01-01T00:00:00Z","name_a2s":"","protocol":0,"map":"","folder":"","game":"","app_id":0,"player_count":10,"max_players":0,"Bots":0,"server_type":"","server_os":"","password":false,"vac":false,"version":"","steam_id":0,"keywords":null,"game_id":0,"stv_port":0,"stv_name":"","players":[{"user_id":197,"name":"Mysterious Stranger","steam_id":76561198027779564,"connected_time":9231000000000,"state":"active","ping":67},{"user_id":222,"name":"some tree","steam_id":76561198166093346,"connected_time":6662000000000,"state":"active","ping":39},{"user_id":290,"name":"Qwerty","steam_id":76561198023525894,"connected_time":856000000000,"state":"active","ping":158},{"user_id":161,"name":"Yep","steam_id":76561198041437251,"connected_time":13456000000000,"state":"active","ping":61},{"user_id":285,"name":"BOB","steam_id":76561198000787196,"connected_time":1888000000000,"state":"active","ping":122},{"user_id":276,"name":"Lumokup","steam_id":76561199188237143,"connected_time":2627000000000,"state":"active","ping":50},{"user_id":292,"name":"Ginger Jesus","steam_id":76561198052386458,"connected_time":509000000000,"state":"active","ping":60},{"user_id":289,"name":"Hoovy","steam_id":76561198409907417,"connected_time":1007000000000,"state":"active","ping":113},{"user_id":251,"name":"HappyMonkey","steam_id":76561199131602359,"connected_time":3371000000000,"state":"active","ping":61},{"user_id":281,"name":"The Mug Man","steam_id":76561198283468122,"connected_time":2549000000000,"state":"active","ping":46}]},{"server_id":13,"name":"Uncletopia | New York City | 1 | All Maps","name_short":"nyc-1","host":"nyc-1.us.uncletopia.com","port":27015,"enabled":true,"region":"us-east","cc":"us","latitude":40.73061,"longitude":-73.93524,"reserved":0,"last_update":"0001-01-01T00:00:00Z","name_a2s":"Uncletopia | New York City | 1 | All Maps","protocol":17,"map":"pl_swiftwater_final1","folder":"tf","game":"Team Fortress","app_id":440,"player_count":23,"max_players":24,"Bots":0,"server_type":"Dedicated","server_os":"Linux","password":true,"vac":true,"version":"7961495","steam_id":85568392924469993,"keywords":["nocrits","nodmgspread","payload","uncletopia"],"game_id":440,"stv_port":27016,"stv_name":"Uncletopia | New York City | 1 | All Maps | STV","players":[{"user_id":169,"name":"chrissweep","steam_id":76561198072826791,"connected_time":2182000000000,"state":"active","ping":51},{"user_id":157,"name":"space man","steam_id":76561198066333670,"connected_time":3694000000000,"state":"active","ping":71},{"user_id":171,"name":"dcqwerty","steam_id":76561198964101426,"connected_time":1985000000000,"state":"active","ping":43},{"user_id":170,"name":"Top Quacker","steam_id":76561198261316128,"connected_time":2058000000000,"state":"active","ping":50},{"user_id":182,"name":"Wique","steam_id":76561198071217597,"connected_time":742000000000,"state":"active","ping":70},{"user_id":117,"name":"Your Loyal Familiar","steam_id":76561198106476075,"connected_time":5901000000000,"state":"active","ping":77},{"user_id":118,"name":"jaytheking05","steam_id":76561198856419769,"connected_time":5899000000000,"state":"active","ping":52},{"user_id":173,"name":"dj magdogrozen","steam_id":76561198984131011,"connected_time":1943000000000,"state":"active","ping":62},{"user_id":174,"name":"MitcheyHD","steam_id":76561198066489645,"connected_time":1468000000000,"state":"active","ping":70},{"user_id":140,"name":"bachphong760 | Ham Mafia |","steam_id":76561199433780443,"connected_time":5341000000000,"state":"active","ping":86},{"user_id":172,"name":"Icaras","steam_id":76561198416724843,"connected_time":1985000000000,"state":"active","ping":119},{"user_id":175,"name":"Porcupine's Revenge!","steam_id":76561199121615234,"connected_time":1467000000000,"state":"active","ping":43},{"user_id":90,"name":"--_Cook_--","steam_id":76561198080855748,"connected_time":8290000000000,"state":"active","ping":57},{"user_id":176,"name":"Daksuki","steam_id":76561198084127751,"connected_time":1422000000000,"state":"active","ping":91},{"user_id":181,"name":"irritable vowel syndrome","steam_id":76561198117033273,"connected_time":1108000000000,"state":"active","ping":121},{"user_id":113,"name":"henry","steam_id":76561198313364985,"connected_time":6144000000000,"state":"active","ping":100},{"user_id":86,"name":"Raptorria","steam_id":76561198105613110,"connected_time":8331000000000,"state":"active","ping":60},{"user_id":83,"name":"A Puppy","steam_id":76561198828184456,"connected_time":8365000000000,"state":"active","ping":51},{"user_id":160,"name":"BaguetteThief","steam_id":76561197962257656,"connected_time":2985000000000,"state":"active","ping":64},{"user_id":105,"name":"oxycodone","steam_id":76561198188722751,"connected_time":6464000000000,"state":"active","ping":119},{"user_id":149,"name":"Great","steam_id":76561198895516433,"connected_time":4921000000000,"state":"active","ping":60},{"user_id":168,"name":"eeper guy","steam_id":76561198392539722,"connected_time":2377000000000,"state":"active","ping":77},{"user_id":133,"name":"freyjaaaaaaaaaaaaaaaaaaaaaaaaaa","steam_id":76561198249206656,"connected_time":5633000000000,"state":"active","ping":74}]},{"server_id":14,"name":"Uncletopia | New York City | 2 | All Maps","name_short":"nyc-2","host":"nyc-1.us.uncletopia.com","port":27025,"enabled":true,"region":"us-east","cc":"us","latitude":40.73061,"longitude":-73.93524,"reserved":0,"last_update":"0001-01-01T00:00:00Z","name_a2s":"Uncletopia | New York City | 2 | All Maps","protocol":17,"map":"pl_swiftwater_final1","folder":"tf","game":"Team Fortress","app_id":440,"player_count":24,"max_players":24,"Bots":0,"server_type":"Dedicated","server_os":"Linux","password":true,"vac":true,"version":"7961495","steam_id":85568392924469994,"keywords":["nocrits","nodmgspread","payload","uncletopia"],"game_id":440,"stv_port":27026,"stv_name":"Uncletopia | New York City | 2 | All Maps | STV","players":[{"user_id":298,"name":"WhackyOrc","steam_id":76561199470020355,"connected_time":873000000000,"state":"active","ping":101},{"user_id":250,"name":"Bussy Bandit","steam_id":76561198034028769,"connected_time":4208000000000,"state":"active","ping":75},{"user_id":297,"name":"whosieno1","steam_id":76561199144980038,"connected_time":1063000000000,"state":"active","ping":67},{"user_id":264,"name":"Chord","steam_id":76561198110874021,"connected_time":2553000000000,"state":"active","ping":81},{"user_id":266,"name":"lwyr","steam_id":76561198007982579,"connected_time":2529000000000,"state":"active","ping":44},{"user_id":307,"name":"obama gerald sr.","steam_id":76561198073269122,"connected_time":319000000000,"state":"active","ping":47},{"user_id":299,"name":"cobhlaith","steam_id":76561198039851829,"connected_time":866000000000,"state":"active","ping":65},{"user_id":305,"name":"tlm","steam_id":76561198178457461,"connected_time":605000000000,"state":"active","ping":87},{"user_id":304,"name":"VerrucktMedic","steam_id":76561198093144226,"connected_time":626000000000,"state":"active","ping":101},{"user_id":276,"name":"StraySheep","steam_id":76561198256003811,"connected_time":1715000000000,"state":"active","ping":59},{"user_id":277,"name":"Rune","steam_id":76561198098778453,"connected_time":1708000000000,"state":"active","ping":68},{"user_id":302,"name":"Chernov","steam_id":76561198014463424,"connected_time":690000000000,"state":"active","ping":45},{"user_id":308,"name":"getaround1","steam_id":76561198200906771,"connected_time":299000000000,"state":"active","ping":45},{"user_id":301,"name":"Lin","steam_id":76561198143746480,"connected_time":706000000000,"state":"active","ping":128},{"user_id":282,"name":"Dreszerg","steam_id":76561198838757422,"connected_time":1551000000000,"state":"active","ping":79},{"user_id":284,"name":"I Like Cheese","steam_id":76561198006265659,"connected_time":1481000000000,"state":"active","ping":83},{"user_id":285,"name":"Fish","steam_id":76561199258053772,"connected_time":1447000000000,"state":"active","ping":76},{"user_id":306,"name":"get scrongled, idiot","steam_id":76561198115874625,"connected_time":583000000000,"state":"active","ping":54},{"user_id":296,"name":"rat (cheese)","steam_id":76561198041277031,"connected_time":1092000000000,"state":"active","ping":76},{"user_id":309,"name":"spooning your brain","steam_id":76561199039152146,"connected_time":188000000000,"state":"active","ping":65},{"user_id":294,"name":"Just PYE","steam_id":76561199439622967,"connected_time":1187000000000,"state":"active","ping":92},{"user_id":290,"name":"FliturbiousRex","steam_id":76561199217583334,"connected_time":1328000000000,"state":"active","ping":66},{"user_id":291,"name":"Chestnut","steam_id":76561198078198968,"connected_time":1315000000000,"state":"active","ping":72},{"user_id":300,"name":"alphatwo","steam_id":76561198012511255,"connected_time":731000000000,"state":"active","ping":71}]},{"server_id":15,"name":"Uncletopia | New York City | 3 | Stopwatch","name_short":"nyc-3","host":"nyc-1.us.uncletopia.com","port":27035,"enabled":true,"region":"us-east","cc":"us","latitude":40.73061,"longitude":-73.93524,"reserved":0,"last_update":"0001-01-01T00:00:00Z","name_a2s":"Uncletopia | New York City | 3 | Stopwatch","protocol":17,"map":"cp_snakewater_final1","folder":"tf","game":"Team Fortress","app_id":440,"player_count":0,"max_players":24,"Bots":0,"server_type":"Dedicated","server_os":"Linux","password":true,"vac":true,"version":"7961495","steam_id":85568392924742820,"keywords":["cp","nocrits","nodmgspread","uncletopia"],"game_id":440,"stv_port":27036,"stv_name":"Uncletopia | New York City | 3 | Stopwatch | STV","players":null},{"server_id":16,"name":"Uncletopia | New York City | 4 | Community","name_short":"nyc-4","host":"nyc-1.us.uncletopia.com","port":27045,"enabled":true,"region":"us-east","cc":"us","latitude":40.73061,"longitude":-73.93524,"reserved":0,"last_update":"0001-01-01T00:00:00Z","name_a2s":"Uncletopia | New York City | 4 | Community","protocol":17,"map":"workshop/koth_bagel_rc6.ugc2514036946","folder":"tf","game":"Team Fortress","app_id":440,"player_count":11,"max_players":24,"Bots":0,"server_type":"Dedicated","server_os":"Linux","password":true,"vac":true,"version":"7961495","steam_id":85568392924742821,"keywords":["cp","nocrits","nodmgspread","uncletopia"],"game_id":440,"stv_port":27046,"stv_name":"Uncletopia | New York City | 4 | Community | STV","players":[{"user_id":47,"name":"ComputeCore167","steam_id":76561198301250353,"connected_time":571000000000,"state":"active","ping":78},{"user_id":36,"name":"Hemiphix","steam_id":76561198329316429,"connected_time":1890000000000,"state":"active","ping":53},{"user_id":51,"name":"gideon nav my beloved","steam_id":76561198259092181,"connected_time":131000000000,"state":"active","ping":72},{"user_id":50,"name":"Stoned Kriegsman","steam_id":76561199038566105,"connected_time":291000000000,"state":"active","ping":102},{"user_id":52,"name":"RedForger","steam_id":76561199054855854,"connected_time":116000000000,"state":"active","ping":48},{"user_id":41,"name":"sweglord227","steam_id":76561198415510262,"connected_time":1234000000000,"state":"active","ping":76},{"user_id":42,"name":"mild amusement","steam_id":76561198274631806,"connected_time":1145000000000,"state":"active","ping":120},{"user_id":53,"name":".jpg","steam_id":76561198137237377,"connected_time":104000000000,"state":"active","ping":54},{"user_id":26,"name":"mush","steam_id":76561198310089797,"connected_time":2530000000000,"state":"active","ping":74},{"user_id":45,"name":"leer.","steam_id":76561198864458303,"connected_time":1024000000000,"state":"active","ping":60},{"user_id":35,"name":"muchwowsodoge","steam_id":76561198128458439,"connected_time":2003000000000,"state":"active","ping":118}]},{"server_id":142,"name":"Uncletopia | S√£o Paulo | 1 | All Maps","name_short":"sao-1","host":"sao-1.br.uncletopia.com","port":27015,"enabled":true,"region":"sa","cc":"br","latitude":-23.533773,"longitude":-46.62529,"reserved":0,"last_update":"0001-01-01T00:00:00Z","name_a2s":"Uncletopia | S√£o Paulo | 1 | All Maps","protocol":17,"map":"koth_lakeside_final","folder":"tf","game":"Team Fortress","app_id":440,"player_count":0,"max_players":24,"Bots":0,"server_type":"Dedicated","server_os":"Linux","password":true,"vac":true,"version":"7961495","steam_id":85568392924469996,"keywords":["cp","nocrits","nodmgspread","uncletopia"],"game_id":440,"stv_port":27016,"stv_name":"Uncletopia | S√£o Paulo | 1 | All Maps | STV","players":null},{"server_id":143,"name":"Uncletopia | S√£o Paulo | 2 | Community","name_short":"sao-2","host":"sao-2.br.uncletopia.com","port":27015,"enabled":true,"region":"sa","cc":"br","latitude":-23.533773,"longitude":-46.62529,"reserved":0,"last_update":"0001-01-01T00:00:00Z","name_a2s":"Uncletopia | S√£o Paulo | 2 | Community","protocol":17,"map":"workshop/pl_divulgence_b4b.ugc2884808746","folder":"tf","game":"Team Fortress","app_id":440,"player_count":2,"max_players":24,"Bots":0,"server_type":"Dedicated","server_os":"Linux","password":true,"vac":true,"version":"7961495","steam_id":85568392924485349,"keywords":["nocrits","nodmgspread","payload","uncletopia"],"game_id":440,"stv_port":27016,"stv_name":"Uncletopia | S√£o Paulo | 2 | Community | STV","players":[{"user_id":12,"name":"Bossman","steam_id":76561198989109613,"connected_time":91000000000,"state":"spawning","ping":168},{"user_id":13,"name":"Eletrycity","steam_id":76561198438061708,"connected_time":85000000000,"state":"spawning","ping":187}]},{"server_id":7,"name":"Uncletopia | Seattle | 1 | All Maps","name_short":"sea-1","host":"sea-1.us.uncletopia.com","port":27015,"enabled":true,"region":"us-west","cc":"us","latitude":47.608013,"longitude":-122.33517,"reserved":0,"last_update":"0001-01-01T00:00:00Z","name_a2s":"Uncletopia | Seattle | 1 | All Maps","protocol":17,"map":"koth_harvest_final","folder":"tf","game":"Team Fortress","app_id":440,"player_count":23,"max_players":24,"Bots":0,"server_type":"Dedicated","server_os":"Linux","password":true,"vac":true,"version":"7961495","steam_id":85568392924469997,"keywords":["cp","nocrits","nodmgspread","uncletopia"],"game_id":440,"stv_port":27016,"stv_name":"Uncletopia | Seattle | 1 | All Maps | STV","players":[{"user_id":272,"name":"Grand","steam_id":76561198290143399,"connected_time":318000000000,"state":"active","ping":75},{"user_id":259,"name":"DBosch","steam_id":76561198064290290,"connected_time":1459000000000,"state":"active","ping":94},{"user_id":254,"name":"Level 99 Mudcrab","steam_id":76561198077452771,"connected_time":1658000000000,"state":"active","ping":88},{"user_id":266,"name":"NeptuneÀñ‚Å∫ÔΩ°Àö‚ãÜÀô‚ô•","steam_id":76561199054203198,"connected_time":569000000000,"state":"active","ping":120},{"user_id":196,"name":"O","steam_id":76561198450073779,"connected_time":6818000000000,"state":"active","ping":45},{"user_id":233,"name":"amagicowl","steam_id":76561199060487814,"connected_time":3266000000000,"state":"active","ping":47},{"user_id":265,"name":"Kc","steam_id":76561198210734407,"connected_time":652000000000,"state":"active","ping":117},{"user_id":262,"name":"rappsnitchknishe","steam_id":76561198080935428,"connected_time":1377000000000,"state":"active","ping":76},{"user_id":240,"name":"Sasha The Foxgirl","steam_id":76561198018403555,"connected_time":2618000000000,"state":"active","ping":40},{"user_id":251,"name":"Fluffy","steam_id":76561198115952540,"connected_time":1945000000000,"state":"active","ping":46},{"user_id":212,"name":"UserLeft","steam_id":76561197998297379,"connected_time":4821000000000,"state":"active","ping":67},{"user_id":238,"name":"Level 3 hotdog enjoyer","steam_id":76561198870649125,"connected_time":2888000000000,"state":"active","ping":88},{"user_id":256,"name":"grape","steam_id":76561197993980328,"connected_time":1629000000000,"state":"active","ping":118},{"user_id":261,"name":"Grunt","steam_id":76561198200758903,"connected_time":1412000000000,"state":"active","ping":73},{"user_id":234,"name":"=Silver=","steam_id":76561198292307127,"connected_time":3261000000000,"state":"active","ping":72},{"user_id":257,"name":"wooper","steam_id":76561198953870572,"connected_time":1566000000000,"state":"active","ping":128},{"user_id":235,"name":"boffo","steam_id":76561198096978718,"connected_time":3259000000000,"state":"active","ping":64},{"user_id":243,"name":"Kaluka","steam_id":76561198036861445,"connected_time":2399000000000,"state":"active","ping":135},{"user_id":258,"name":"i see ghosts","steam_id":76561198415314898,"connected_time":1510000000000,"state":"active","ping":125},{"user_id":195,"name":"some nerd","steam_id":76561198297272878,"connected_time":6911000000000,"state":"active","ping":75},{"user_id":179,"name":"Preston","steam_id":76561198255721392,"connected_time":8863000000000,"state":"active","ping":111},{"user_id":209,"name":"Tom Skirrett","steam_id":76561198014600788,"connected_time":4911000000000,"state":"active","ping":62},{"user_id":264,"name":"Xain35","steam_id":76561198121834307,"connected_time":698000000000,"state":"active","ping":59}]},{"server_id":119,"name":"Uncletopia | Seattle | 2 | All Maps","name_short":"sea-2","host":"sea-1.us.uncletopia.com","port":27025,"enabled":true,"region":"us-west","cc":"us","latitude":47.608013,"longitude":-122.33517,"reserved":0,"last_update":"0001-01-01T00:00:00Z","name_a2s":"Uncletopia | Seattle | 2 | All Maps","protocol":17,"map":"cp_snakewater_final1","folder":"tf","game":"Team Fortress","app_id":440,"player_count":19,"max_players":24,"Bots":0,"server_type":"Dedicated","server_os":"Linux","password":true,"vac":true,"version":"7961495","steam_id":85568392924469998,"keywords":["cp","nocrits","nodmgspread","uncletopia"],"game_id":440,"stv_port":27026,"stv_name":"Uncletopia | Seattle | 2 | All Maps | STV","players":[{"user_id":76,"name":"LeefLett","steam_id":76561199166178308,"connected_time":310000000000,"state":"active","ping":79},{"user_id":77,"name":"amish","steam_id":76561199033484246,"connected_time":273000000000,"state":"active","ping":72},{"user_id":17,"name":"jacob.antonmx","steam_id":76561198973846951,"connected_time":4663000000000,"state":"active","ping":147},{"user_id":60,"name":"Feldspaten","steam_id":76561199122059102,"connected_time":1756000000000,"state":"active","ping":77},{"user_id":39,"name":"YoursTruely","steam_id":76561198072129131,"connected_time":3049000000000,"state":"active","ping":69},{"user_id":75,"name":"Cebula33","steam_id":76561197984964095,"connected_time":345000000000,"state":"active","ping":70},{"user_id":50,"name":"Bostonstapler","steam_id":76561197996334971,"connected_time":2151000000000,"state":"active","ping":73},{"user_id":79,"name":"Vlad","steam_id":76561198072334604,"connected_time":147000000000,"state":"active","ping":45},{"user_id":80,"name":"Applesauce","steam_id":76561198047011689,"connected_time":141000000000,"state":"active","ping":74},{"user_id":64,"name":"MacchuPeachu","steam_id":76561199093242587,"connected_time":1351000000000,"state":"active","ping":57},{"user_id":81,"name":"ronald","steam_id":76561197960691622,"connected_time":81000000000,"state":"active","ping":62},{"user_id":82,"name":"901 Milk","steam_id":76561198332647911,"connected_time":79000000000,"state":"active","ping":60},{"user_id":67,"name":"Satori Komeiji","steam_id":76561198158211423,"connected_time":1133000000000,"state":"active","ping":63},{"user_id":52,"name":"Radio","steam_id":76561198194821053,"connected_time":2134000000000,"state":"active","ping":55},{"user_id":55,"name":"Thequirka","steam_id":76561198968058652,"connected_time":1981000000000,"state":"active","ping":52},{"user_id":72,"name":"doro","steam_id":76561198099041747,"connected_time":969000000000,"state":"active","ping":75},{"user_id":71,"name":"the man","steam_id":76561198389268114,"connected_time":1017000000000,"state":"active","ping":108},{"user_id":66,"name":"CQBS25","steam_id":76561199068623664,"connected_time":1219000000000,"state":"active","ping":60},{"user_id":59,"name":"Yurei","steam_id":76561198088750661,"connected_time":1943000000000,"state":"active","ping":73}]},{"server_id":406,"name":"Uncletopia | Seattle | 3 | Stopwatch","name_short":"sea-3","host":"sea-1.us.uncletopia.com","port":27035,"enabled":true,"region":"us-west","cc":"us","latitude":47.608013,"longitude":-122.33517,"reserved":0,"last_update":"0001-01-01T00:00:00Z","name_a2s":"Uncletopia | Seattle | 3 | Stopwatch","protocol":17,"map":"workshop/koth_ramjam_rc1.ugc459778887","folder":"tf","game":"Team Fortress","app_id":440,"player_count":0,"max_players":24,"Bots":0,"server_type":"Dedicated","server_os":"Linux","password":true,"vac":true,"version":"7961495","steam_id":85568392924515217,"keywords":["cp","nocrits","nodmgspread","uncletopia"],"game_id":440,"stv_port":27036,"stv_name":"Uncletopia | Seattle | 3 | Stopwatch | STV","players":null},{"server_id":17,"name":"Uncletopia | San Francisco | 1 | All Maps","name_short":"sfo-1","host":"sfo-1.us.uncletopia.com","port":27015,"enabled":true,"region":"us-west","cc":"us","latitude":37.77397,"longitude":-122.4313,"reserved":0,"last_update":"0001-01-01T00:00:00Z","name_a2s":"Uncletopia | San Francisco | 1 | All Maps","protocol":17,"map":"pl_snowycoast","folder":"tf","game":"Team Fortress","app_id":440,"player_count":24,"max_players":24,"Bots":0,"server_type":"Dedicated","server_os":"Linux","password":true,"vac":true,"version":"7961495","steam_id":85568392924469999,"keywords":["nocrits","nodmgspread","payload","uncletopia"],"game_id":440,"stv_port":27016,"stv_name":"Uncletopia | San Francisco | 1 | All Maps | STV","players":[{"user_id":22,"name":"PizzaMuncher89","steam_id":76561199121856753,"connected_time":3346000000000,"state":"active","ping":76},{"user_id":60,"name":"FumoFriend","steam_id":76561199013167718,"connected_time":183000000000,"state":"active","ping":113},{"user_id":53,"name":"Franz","steam_id":76561198041929745,"connected_time":642000000000,"state":"active","ping":52},{"user_id":25,"name":"omnislime","steam_id":76561199382475668,"connected_time":2444000000000,"state":"active","ping":99},{"user_id":55,"name":"Dongus","steam_id":76561197979056451,"connected_time":464000000000,"state":"active","ping":72},{"user_id":52,"name":"Varkrul","steam_id":76561198079657157,"connected_time":683000000000,"state":"active","ping":54},{"user_id":62,"name":"Empire J","steam_id":76561198341328049,"connected_time":179000000000,"state":"active","ping":71},{"user_id":30,"name":"SAntOrGrav","steam_id":76561199444957686,"connected_time":1795000000000,"state":"active","ping":99},{"user_id":51,"name":"FI LO","steam_id":76561198976530881,"connected_time":845000000000,"state":"active","ping":44},{"user_id":32,"name":"hypeoftim","steam_id":76561199195639694,"connected_time":1336000000000,"state":"active","ping":76},{"user_id":33,"name":"Chaseuuu","steam_id":76561197961572365,"connected_time":1311000000000,"state":"active","ping":45},{"user_id":56,"name":"PTR","steam_id":76561198237253772,"connected_time":391000000000,"state":"active","ping":80},{"user_id":57,"name":"Meekz","steam_id":76561198012562373,"connected_time":363000000000,"state":"active","ping":70},{"user_id":37,"name":"MayoMateo","steam_id":76561198360809933,"connected_time":1093000000000,"state":"active","ping":60},{"user_id":40,"name":"Jaidezt","steam_id":76561197972613110,"connected_time":1014000000000,"state":"active","ping":78},{"user_id":39,"name":"Sharkbyte","steam_id":76561198279701377,"connected_time":1056000000000,"state":"active","ping":70},{"user_id":59,"name":"jon pickle water","steam_id":76561199036212135,"connected_time":282000000000,"state":"active","ping":76},{"user_id":43,"name":"Transformouse","steam_id":76561198004669368,"connected_time":972000000000,"state":"active","ping":87},{"user_id":44,"name":"shreklover69","steam_id":76561198054070811,"connected_time":909000000000,"state":"active","ping":61},{"user_id":54,"name":"Pyrotek‚Å¥","steam_id":76561198072747672,"connected_time":518000000000,"state":"active","ping":57},{"user_id":47,"name":"Igrium","steam_id":76561198119549811,"connected_time":876000000000,"state":"active","ping":58},{"user_id":48,"name":"‚Ä∫‚Ä∫ art vandelay","steam_id":76561198065248152,"connected_time":867000000000,"state":"active","ping":70},{"user_id":49,"name":"·≤º·≤º·≤º","steam_id":76561198845246815,"connected_time":853000000000,"state":"active","ping":60},{"user_id":50,"name":"kemonostyle","steam_id":76561198054280340,"connected_time":846000000000,"state":"active","ping":73}]},{"server_id":18,"name":"Uncletopia | San Francisco | 2 | All Maps","name_short":"sfo-2","host":"sfo-1.us.uncletopia.com","port":27025,"enabled":true,"region":"us-west","cc":"us","latitude":37.77397,"longitude":-122.4313,"reserved":0,"last_update":"0001-01-01T00:00:00Z","name_a2s":"Uncletopia | San Francisco | 2 | All Maps","protocol":17,"map":"pl_frontier_final","folder":"tf","game":"Team Fortress","app_id":440,"player_count":0,"max_players":24,"Bots":0,"server_type":"Dedicated","server_os":"Linux","password":true,"vac":true,"version":"7961495","steam_id":85568392924470000,"keywords":["nocrits","nodmgspread","payload","uncletopia"],"game_id":440,"stv_port":27026,"stv_name":"Uncletopia | San Francisco | 2 | All Maps | STV","players":null},{"server_id":19,"name":"Uncletopia | San Francisco | 3 | Stopwatch","name_short":"sfo-3","host":"sfo-1.us.uncletopia.com","port":27035,"enabled":true,"region":"us-west","cc":"us","latitude":37.77397,"longitude":-122.4313,"reserved":0,"last_update":"0001-01-01T00:00:00Z","name_a2s":"Uncletopia | San Francisco | 3 | Stopwatch","protocol":17,"map":"pl_pier","folder":"tf","game":"Team Fortress","app_id":440,"player_count":0,"max_players":24,"Bots":0,"server_type":"Dedicated","server_os":"Linux","password":true,"vac":true,"version":"7961495","steam_id":85568392924742824,"keywords":["nocrits","nodmgspread","payload","uncletopia"],"game_id":440,"stv_port":27036,"stv_name":"Uncletopia | San Francisco | 3 | Stopwatch | STV","players":null},{"server_id":20,"name":"Uncletopia | San Francisco | 4 | Community","name_short":"sfo-4","host":"sfo-1.us.uncletopia.com","port":27045,"enabled":true,"region":"us-west","cc":"us","latitude":37.77397,"longitude":-122.4313,"reserved":0,"last_update":"0001-01-01T00:00:00Z","name_a2s":"Uncletopia | San Francisco | 4 | Community","protocol":17,"map":"pl_pier","folder":"tf","game":"Team Fortress","app_id":440,"player_count":0,"max_players":24,"Bots":0,"server_type":"Dedicated","server_os":"Linux","password":true,"vac":true,"version":"7961495","steam_id":85568392924742826,"keywords":["nocrits","nodmgspread","payload","uncletopia"],"game_id":440,"stv_port":27046,"stv_name":"Uncletopia | San Francisco | 4 | Community | STV","players":null},{"server_id":141,"name":"Uncletopia | Sydney | 1 | All Maps","name_short":"syd-1","host":"syd-1.au.uncletopia.com","port":27015,"enabled":true,"region":"au","cc":"au","latitude":-33.865143,"longitude":151.2099,"reserved":0,"last_update":"0001-01-01T00:00:00Z","name_a2s":"Uncletopia | Sydney | 1 | All Maps","protocol":17,"map":"koth_cascade","folder":"tf","game":"Team Fortress","app_id":440,"player_count":0,"max_players":24,"Bots":0,"server_type":"Dedicated","server_os":"Linux","password":true,"vac":true,"version":"7961495","steam_id":85568392924470001,"keywords":["cp","nocrits","nodmgspread","uncletopia"],"game_id":440,"stv_port":27016,"stv_name":"Uncletopia | Sydney | 1 | All Maps | STV","players":null},{"server_id":123,"name":"Uncletopia | Sydney | 2 | All Maps","name_short":"syd-2","host":"syd-1.au.uncletopia.com","port":27025,"enabled":true,"region":"au","cc":"au","latitude":-33.865143,"longitude":151.2099,"reserved":0,"last_update":"0001-01-01T00:00:00Z","name_a2s":"Uncletopia | Sydney | 2 | All Maps","protocol":17,"map":"pl_swiftwater_final1","folder":"tf","game":"Team Fortress","app_id":440,"player_count":0,"max_players":24,"Bots":0,"server_type":"Dedicated","server_os":"Linux","password":true,"vac":true,"version":"7961495","steam_id":85568392924470002,"keywords":["nocrits","nodmgspread","payload","uncletopia"],"game_id":440,"stv_port":27026,"stv_name":"Uncletopia | Sydney | 2 | All Maps | STV","players":null},{"server_id":395,"name":"Uncletopia | Sydney | 3 | All Maps","name_short":"syd-3","host":"syd-1.au.uncletopia.com","port":27035,"enabled":true,"region":"au","cc":"au","latitude":-33.865143,"longitude":151.2099,"reserved":0,"last_update":"0001-01-01T00:00:00Z","name_a2s":"Uncletopia | Sydney | 3 | All Maps","protocol":17,"map":"pl_borneo","folder":"tf","game":"Team Fortress","app_id":440,"player_count":0,"max_players":24,"Bots":0,"server_type":"Dedicated","server_os":"Linux","password":true,"vac":true,"version":"7961495","steam_id":85568392925194467,"keywords":["nocrits","nodmgspread","payload","uncletopia"],"game_id":440,"stv_port":27036,"stv_name":"Uncletopia | Sydney | 3 | All Maps | STV","players":null},{"server_id":396,"name":"Uncletopia | Sydney | 4 | All Maps","name_short":"syd-4","host":"syd-1.au.uncletopia.com","port":27045,"enabled":true,"region":"au","cc":"au","latitude":-33.865143,"longitude":151.2099,"reserved":0,"last_update":"0001-01-01T00:00:00Z","name_a2s":"Uncletopia | Sydney | 4 | All Maps","protocol":17,"map":"koth_lakeside_final","folder":"tf","game":"Team Fortress","app_id":440,"player_count":0,"max_players":24,"Bots":0,"server_type":"Dedicated","server_os":"Linux","password":true,"vac":true,"version":"7961495","steam_id":85568392925397958,"keywords":["cp","nocrits","nodmgspread","uncletopia"],"game_id":440,"stv_port":27046,"stv_name":"Uncletopia | Sydney | 4 | All Maps | STV","players":null},{"server_id":58,"name":"Uncletopia | Sydney | 5 | Stopwatch","name_short":"syd-5","host":"syd-1.au.uncletopia.com","port":27055,"enabled":true,"region":"au","cc":"au","latitude":-33.865143,"longitude":151.2099,"reserved":0,"last_update":"0001-01-01T00:00:00Z","name_a2s":"Uncletopia | Sydney | 5 | Stopwatch","protocol":17,"map":"workshop/cp_reckoner_rc6.ugc674719999","folder":"tf","game":"Team Fortress","app_id":440,"player_count":0,"max_players":24,"Bots":0,"server_type":"Dedicated","server_os":"Linux","password":true,"vac":true,"version":"7961495","steam_id":85568392925397959,"keywords":["cp","nocrits","nodmgspread","uncletopia"],"game_id":440,"stv_port":27056,"stv_name":"Uncletopia | Sydney | 5 | Stopwatch | STV","players":null},{"server_id":59,"name":"Uncletopia | Sydney | 6 | Community","name_short":"syd-6","host":"syd-1.au.uncletopia.com","port":27065,"enabled":true,"region":"au","cc":"au","latitude":-33.865143,"longitude":151.2099,"reserved":0,"last_update":"0001-01-01T00:00:00Z","name_a2s":"Uncletopia | Sydney | 6 | Community","protocol":17,"map":"workshop/pl_badwater_pro_v12.ugc2142942074","folder":"tf","game":"Team Fortress","app_id":440,"player_count":0,"max_players":24,"Bots":0,"server_type":"Dedicated","server_os":"Linux","password":true,"vac":true,"version":"7961495","steam_id":85568392925397960,"keywords":["nocrits","nodmgspread","payload","uncletopia"],"game_id":440,"stv_port":27066,"stv_name":"Uncletopia | Sydney | 6 | Community | STV","players":null},{"server_id":49,"name":"Uncletopia | Warsaw | 1 | One Thousand Uncles","name_short":"waw-1","host":"waw-1.pl.uncletopia.com","port":27015,"enabled":true,"region":"eu","cc":"pl","latitude":52.2297,"longitude":21.017532,"reserved":0,"last_update":"0001-01-01T00:00:00Z","name_a2s":"Uncletopia | Warsaw | 1 | One Thousand Uncles","protocol":17,"map":"pl_badwater","folder":"tf","game":"Team Fortress","app_id":440,"player_count":30,"max_players":32,"Bots":16,"server_type":"Dedicated","server_os":"Linux","password":true,"vac":true,"version":"7961495","steam_id":85568392925397850,"keywords":["alltalk","bots","danepve","increased_maxplayers","nocrits","norespawntime","payload","uncletopia"],"game_id":440,"stv_port":0,"stv_name":"","players":[{"user_id":541,"name":"( Õ†¬∞ Õü ñ Õ°¬∞)","steam_id":76561199362861027,"connected_time":1034000000000,"state":"active","ping":319},{"user_id":544,"name":"ashi","steam_id":76561198424646794,"connected_time":831000000000,"state":"active","ping":77},{"user_id":514,"name":"Enter69","steam_id":76561199049440719,"connected_time":2099000000000,"state":"active","ping":98},{"user_id":515,"name":"mud","steam_id":76561198141497461,"connected_time":2093000000000,"state":"active","ping":83},{"user_id":545,"name":"GeraldyJones65","steam_id":76561199122297098,"connected_time":445000000000,"state":"active","ping":152},{"user_id":546,"name":"CurlyPaty - [YouTube]","steam_id":76561198125025171,"connected_time":276000000000,"state":"active","ping":36},{"user_id":550,"name":"cIw","steam_id":76561198078798799,"connected_time":2000000000,"state":"spawning","ping":59},{"user_id":548,"name":"eggdoo","steam_id":76561198999089059,"connected_time":141000000000,"state":"active","ping":78},{"user_id":549,"name":"Durp Snowcrab","steam_id":76561198220375772,"connected_time":71000000000,"state":"active","ping":88},{"user_id":476,"name":"turknaskooyun","steam_id":76561199222306117,"connected_time":4159000000000,"state":"active","ping":107},{"user_id":477,"name":"Mabert","steam_id":76561198436058407,"connected_time":4156000000000,"state":"active","ping":50},{"user_id":523,"name":"Kafelka","steam_id":76561199049044189,"connected_time":1245000000000,"state":"active","ping":53},{"user_id":513,"name":"Œπ‚Ñì—ÉŒ±—è—ï‚ÑìŒ±ŒΩ","steam_id":76561198352696821,"connected_time":2358000000000,"state":"active","ping":48},{"user_id":517,"name":"dum","steam_id":76561198053386482,"connected_time":2085000000000,"state":"active","ping":164}]},{"server_id":50,"name":"Uncletopia | Warsaw | 2 | One Thousand Uncles","name_short":"waw-2","host":"waw-1.pl.uncletopia.com","port":27025,"enabled":true,"region":"eu","cc":"pl","latitude":52.2297,"longitude":21.017532,"reserved":0,"last_update":"0001-01-01T00:00:00Z","name_a2s":"Uncletopia | Warsaw | 2 | One Thousand Uncles","protocol":17,"map":"pl_goldrush","folder":"tf","game":"Team Fortress","app_id":440,"player_count":21,"max_players":32,"Bots":16,"server_type":"Dedicated","server_os":"Linux","password":true,"vac":true,"version":"7961495","steam_id":85568392925397851,"keywords":["alltalk","bots","danepve","increased_maxplayers","nocrits","norespawntime","payload","uncletopia"],"game_id":440,"stv_port":0,"stv_name":"","players":[{"user_id":32,"name":"The guy who makes ruzzian cry","steam_id":76561199252795027,"connected_time":5182000000000,"state":"active","ping":51},{"user_id":57,"name":"Jared_1120","steam_id":76561199497190226,"connected_time":283000000000,"state":"active","ping":93},{"user_id":34,"name":"heheboi","steam_id":76561198866196217,"connected_time":4680000000000,"state":"active","ping":87},{"user_id":58,"name":"Hercules","steam_id":76561198041164170,"connected_time":92000000000,"state":"active","ping":39},{"user_id":37,"name":"matvejisakov7","steam_id":76561199493568179,"connected_time":3985000000000,"state":"active","ping":115}]},{"server_id":51,"name":"Uncletopia | Warsaw | 3 | All Maps","name_short":"waw-3","host":"waw-1.pl.uncletopia.com","port":27035,"enabled":true,"region":"eu","cc":"pl","latitude":52.2297,"longitude":21.017532,"reserved":0,"last_update":"0001-01-01T00:00:00Z","name_a2s":"Uncletopia | Warsaw | 3 | All Maps","protocol":17,"map":"cp_sunshine","folder":"tf","game":"Team Fortress","app_id":440,"player_count":24,"max_players":24,"Bots":0,"server_type":"Dedicated","server_os":"Linux","password":true,"vac":true,"version":"7961495","steam_id":85568392925397852,"keywords":["cp","nocrits","nodmgspread","uncletopia"],"game_id":440,"stv_port":27036,"stv_name":"Uncletopia | Warsaw | 3 | All Maps | STV","players":[{"user_id":204,"name":"Mer","steam_id":76561198192171041,"connected_time":858000000000,"state":"active","ping":176},{"user_id":207,"name":"TylowStar","steam_id":76561198357107806,"connected_time":578000000000,"state":"active","ping":90},{"user_id":154,"name":"Eox","steam_id":76561198028179912,"connected_time":2971000000000,"state":"active","ping":66},{"user_id":155,"name":"Nogane","steam_id":76561198007075767,"connected_time":2960000000000,"state":"active","ping":78},{"user_id":156,"name":"El Dont√© Experience","steam_id":76561198009335657,"connected_time":2925000000000,"state":"active","ping":68},{"user_id":218,"name":"f4f_cricket","steam_id":76561197985879993,"connected_time":29000000000,"state":"active","ping":75},{"user_id":182,"name":"amongus2117","steam_id":76561199491841052,"connected_time":2151000000000,"state":"active","ping":65},{"user_id":205,"name":"/hm/","steam_id":76561199213268288,"connected_time":825000000000,"state":"active","ping":67},{"user_id":132,"name":"blissful overdose","steam_id":76561199092286532,"connected_time":5994000000000,"state":"active","ping":60},{"user_id":199,"name":"Lendzer","steam_id":76561199087179831,"connected_time":1030000000000,"state":"active","ping":43},{"user_id":195,"name":"GAJtheSPY","steam_id":76561198256080023,"connected_time":1271000000000,"state":"active","ping":59},{"user_id":202,"name":"Arinn","steam_id":76561198883765736,"connected_time":910000000000,"state":"active","ping":39},{"user_id":209,"name":"here's what's gonna happen","steam_id":76561198087723353,"connected_time":507000000000,"state":"active","ping":42},{"user_id":211,"name":"zymis","steam_id":76561199384473136,"connected_time":423000000000,"state":"active","ping":63},{"user_id":185,"name":"turbo shart","steam_id":76561198012351808,"connected_time":1982000000000,"state":"active","ping":88},{"user_id":217,"name":"‚ò≠TheDevilsEye‚ò≠","steam_id":76561198017379398,"connected_time":112000000000,"state":"active","ping":65},{"user_id":192,"name":"tWx","steam_id":76561198123145824,"connected_time":1401000000000,"state":"active","ping":78},{"user_id":196,"name":"Ozzie","steam_id":76561197992915315,"connected_time":1230000000000,"state":"active","ping":98},{"user_id":212,"name":"–ü–ê–ü–ê","steam_id":76561199047376761,"connected_time":381000000000,"state":"active","ping":93},{"user_id":172,"name":"Mario","steam_id":76561198053838936,"connected_time":2429000000000,"state":"active","ping":98},{"user_id":213,"name":"YuraGreek","steam_id":76561198050182252,"connected_time":310000000000,"state":"active","ping":52},{"user_id":194,"name":"cortex","steam_id":76561198839790230,"connected_time":1392000000000,"state":"active","ping":91},{"user_id":214,"name":"Û†Ä°Û†Ä°","steam_id":76561198059375315,"connected_time":283000000000,"state":"active","ping":72},{"user_id":215,"name":"Revers","steam_id":76561198026409987,"connected_time":281000000000,"state":"active","ping":74}]},{"server_id":52,"name":"Uncletopia | Warsaw | 4 | All Maps","name_short":"waw-4","host":"waw-1.pl.uncletopia.com","port":27045,"enabled":true,"region":"eu","cc":"pl","latitude":52.2297,"longitude":21.017532,"reserved":0,"last_update":"0001-01-01T00:00:00Z","name_a2s":"Uncletopia | Warsaw | 4 | All Maps","protocol":17,"map":"cp_dustbowl","folder":"tf","game":"Team Fortress","app_id":440,"player_count":0,"max_players":24,"Bots":0,"server_type":"Dedicated","server_os":"Linux","password":true,"vac":true,"version":"7961495","steam_id":85568392925397853,"keywords":["cp","nocrits","nodmgspread","uncletopia"],"game_id":440,"stv_port":27046,"stv_name":"Uncletopia | Warsaw | 4 | All Maps | STV","players":null},{"server_id":53,"name":"Uncletopia | Warsaw | 5 | Stopwatch","name_short":"waw-5","host":"waw-1.pl.uncletopia.com","port":27055,"enabled":true,"region":"eu","cc":"pl","latitude":52.2297,"longitude":21.017532,"reserved":0,"last_update":"0001-01-01T00:00:00Z","name_a2s":"Uncletopia | Warsaw | 5 | Stopwatch","protocol":17,"map":"pl_upward","folder":"tf","game":"Team Fortress","app_id":440,"player_count":0,"max_players":24,"Bots":0,"server_type":"Dedicated","server_os":"Linux","password":true,"vac":true,"version":"7961495","steam_id":85568392925397854,"keywords":["nocrits","nodmgspread","payload","uncletopia"],"game_id":440,"stv_port":27056,"stv_name":"Uncletopia | Warsaw | 5 | Stopwatch | STV","players":null},{"server_id":54,"name":"Uncletopia | Warsaw | 6 | Community","name_short":"waw-6","host":"waw-1.pl.uncletopia.com","port":27065,"enabled":true,"region":"eu","cc":"pl","latitude":52.2297,"longitude":21.017532,"reserved":0,"last_update":"0001-01-01T00:00:00Z","name_a2s":"Uncletopia | Warsaw | 6 | Community","protocol":17,"map":"workshop/koth_kemptown_rc1.ugc767410655","folder":"tf","game":"Team Fortress","app_id":440,"player_count":0,"max_players":24,"Bots":0,"server_type":"Dedicated","server_os":"Linux","password":true,"vac":true,"version":"7961495","steam_id":85568392925397856,"keywords":["cp","nocrits","nodmgspread","uncletopia"],"game_id":440,"stv_port":27066,"stv_name":"Uncletopia | Warsaw | 6 | Community | STV","players":null}]}