{"status":true,"message":"","result":[{"server_id":9,"name":"Uncletopia | Atlanta | 1 | All Maps","name_short":"atl-1","host":"atl-1.us.uncletopia.com","port":27015,"enabled":true,"region":"us-east","cc":"us","latitude":33.753746,"longitude":-84.38633,"reserved":0,"last_update":"0001-01-01T00:00:00Z","name_a2s":"Uncletopia | Atlanta | 1 | All Maps","protocol":17,"map":"pl_borneo","folder":"tf","game":"Team Fortress","app_id":440,"player_count":24,"max_players":24,"Bots":0,"server_type":"Dedicated","server_os":"Linux","password":true,"vac":true,"version":"7757534","steam_id":85568392924469982,"keywords":["nocrits","nodmgspread","payload","uncletopia"],"game_id":440,"stv_port":27016,"stv_name":"Uncletopia | Atlanta | 1 | All Maps | STV","players":[{"user_id":618,"name":"Bag","steam_id":76561198012395490,"connected_time":9207000000000,"state":"active","ping":55},{"user_id":694,"name":"Childhood Obesity","steam_id":76561198061190813,"connected_time":277000000000,"state":"active","ping":125},{"user_id":667,"name":"DFR Le4n!!!","steam_id":76561198045522596,"connected_time":3847000000000,"state":"active","ping":69},{"user_id":663,"name":"Toonice","steam_id":76561198402994885,"connected_time":4792000000000,"state":"active","ping":82},{"user_id":665,"name":"Sophie","steam_id":76561198170408057,"connected_time":3848000000000,"state":"active","ping":47},{"user_id":693,"name":"Rise for the National Spamton","steam_id":76561198138468982,"connected_time":667000000000,"state":"active","ping":116},{"user_id":625,"name":"TheRealMud","steam_id":76561198138312993,"connected_time":8800000000000,"state":"active","ping":85},{"user_id":655,"name":"one player game","steam_id":76561198200558318,"connected_time":6052000000000,"state":"active","ping":65},{"user_id":697,"name":"Nelluc","steam_id":76561198103060610,"connected_time":189000000000,"state":"active","ping":94},{"user_id":615,"name":"ATL1 | wire-guided","steam_id":76561198055407168,"connected_time":9553000000000,"state":"active","ping":54},{"user_id":640,"name":"noah","steam_id":76561198173310157,"connected_time":7583000000000,"state":"active","ping":70},{"user_id":690,"name":"southern hospitality","steam_id":76561198862785401,"connected_time":896000000000,"state":"active","ping":112},{"user_id":695,"name":"PRICEMASTER","steam_id":76561198319992602,"connected_time":260000000000,"state":"active","ping":76},{"user_id":696,"name":"sonic1394","steam_id":76561198054636788,"connected_time":206000000000,"state":"active","ping":90},{"user_id":638,"name":"BigDeac","steam_id":76561198091237274,"connected_time":7640000000000,"state":"active","ping":79},{"user_id":678,"name":"eish","steam_id":76561198089463603,"connected_time":3164000000000,"state":"active","ping":116},{"user_id":698,"name":"{ST} Oxythemoron","steam_id":76561198060089965,"connected_time":159000000000,"state":"active","ping":75},{"user_id":699,"name":"creepycrawler","steam_id":76561198352016831,"connected_time":150000000000,"state":"active","ping":77},{"user_id":700,"name":"nomad","steam_id":76561197998740399,"connected_time":143000000000,"state":"active","ping":67},{"user_id":701,"name":"FemboyNate","steam_id":76561198146636410,"connected_time":111000000000,"state":"active","ping":63},{"user_id":702,"name":"errant","steam_id":76561197961758410,"connected_time":110000000000,"state":"active","ping":60},{"user_id":660,"name":"ash","steam_id":76561198127890645,"connected_time":5252000000000,"state":"active","ping":61},{"user_id":677,"name":"Boop","steam_id":76561198376703875,"connected_time":3216000000000,"state":"active","ping":76},{"user_id":624,"name":"morphine","steam_id":76561198072124799,"connected_time":8822000000000,"state":"active","ping":90}]},{"server_id":104,"name":"Uncletopia | Atlanta | 2 | All Maps","name_short":"atl-2","host":"atl-1.us.uncletopia.com","port":27025,"enabled":true,"region":"us-east","cc":"us","latitude":33.753746,"longitude":-84.38633,"reserved":0,"last_update":"0001-01-01T00:00:00Z","name_a2s":"Uncletopia | Atlanta | 2 | All Maps","protocol":17,"map":"pl_swiftwater_final1","folder":"tf","game":"Team Fortress","app_id":440,"player_count":21,"max_players":24,"Bots":0,"server_type":"Dedicated","server_os":"Linux","password":true,"vac":true,"version":"7757534","steam_id":85568392924469983,"keywords":["nocrits","nodmgspread","payload","uncletopia"],"game_id":440,"stv_port":27026,"stv_name":"Uncletopia | Atlanta | 2 | All Maps | STV","players":[{"user_id":435,"name":":)","steam_id":76561198093921290,"connected_time":942000000000,"state":"active","ping":59},{"user_id":438,"name":"win stupid prizes","steam_id":76561198262827851,"connected_time":532000000000,"state":"active","ping":93},{"user_id":444,"name":"PhatBoi","steam_id":76561198055859578,"connected_time":150000000000,"state":"active","ping":94},{"user_id":436,"name":"sweaterfan","steam_id":76561199389567214,"connected_time":855000000000,"state":"active","ping":57},{"user_id":420,"name":"Gigazelle","steam_id":76561197997652337,"connected_time":2306000000000,"state":"active","ping":91},{"user_id":445,"name":"bengineer","steam_id":76561198171912174,"connected_time":133000000000,"state":"active","ping":110},{"user_id":379,"name":"FearFraaz","steam_id":76561198054218427,"connected_time":5622000000000,"state":"active","ping":61},{"user_id":404,"name":"Kanbaru Suruga","steam_id":76561198164782653,"connected_time":3392000000000,"state":"active","ping":75},{"user_id":424,"name":"Coach Twig","steam_id":76561198058831591,"connected_time":1914000000000,"state":"active","ping":38},{"user_id":432,"name":"halfpint","steam_id":76561198148217618,"connected_time":1137000000000,"state":"active","ping":56},{"user_id":417,"name":"schizophrenic Stack stan","steam_id":76561198214370515,"connected_time":2541000000000,"state":"active","ping":71},{"user_id":439,"name":"vertical orientation correction","steam_id":76561198007464245,"connected_time":405000000000,"state":"active","ping":60},{"user_id":433,"name":"Hindmost","steam_id":76561199081837220,"connected_time":1050000000000,"state":"active","ping":56},{"user_id":405,"name":"gerg","steam_id":76561197997127387,"connected_time":3389000000000,"state":"active","ping":106},{"user_id":402,"name":"troll","steam_id":76561198040890252,"connected_time":3463000000000,"state":"active","ping":313},{"user_id":440,"name":"Amadeus","steam_id":76561198160047173,"connected_time":388000000000,"state":"active","ping":105},{"user_id":441,"name":"Sqilluy","steam_id":76561198130993466,"connected_time":388000000000,"state":"active","ping":90},{"user_id":408,"name":"1 2 Oatmeal","steam_id":76561197999318398,"connected_time":3358000000000,"state":"active","ping":137},{"user_id":443,"name":"The Muffin Man","steam_id":76561199088286427,"connected_time":269000000000,"state":"active","ping":116},{"user_id":428,"name":"Eden","steam_id":76561198055860134,"connected_time":1798000000000,"state":"active","ping":332},{"user_id":431,"name":"SkyFlyWhite","steam_id":76561198241383126,"connected_time":1385000000000,"state":"active","ping":102}]},{"server_id":400,"name":"Uncletopia | Atlanta | 3 | Community","name_short":"atl-3","host":"atl-1.us.uncletopia.com","port":27035,"enabled":true,"region":"us-east","cc":"us","latitude":33.753746,"longitude":-84.38633,"reserved":0,"last_update":"0001-01-01T00:00:00Z","name_a2s":"Uncletopia | Atlanta | 3 | Community","protocol":17,"map":"workshop/pl_vigil_rc9.ugc1266210012","folder":"tf","game":"Team Fortress","app_id":440,"player_count":0,"max_players":24,"Bots":0,"server_type":"Dedicated","server_os":"Linux","password":true,"vac":true,"version":"7757534","steam_id":85568392924515187,"keywords":["nocrits","nodmgspread","payload","uncletopia"],"game_id":440,"stv_port":27036,"stv_name":"Uncletopia | Atlanta | 3 | Community | STV","players":null},{"server_id":401,"name":"Uncletopia | Atlanta | 4 | No Payload","name_short":"atl-4","host":"atl-1.us.uncletopia.com","port":27045,"enabled":true,"region":"us-east","cc":"us","latitude":33.753746,"longitude":-84.38633,"reserved":0,"last_update":"0001-01-01T00:00:00Z","name_a2s":"","protocol":0,"map":"","folder":"","game":"","app_id":0,"player_count":0,"max_players":0,"Bots":0,"server_type":"","server_os":"","password":false,"vac":false,"version":"","steam_id":0,"keywords":null,"game_id":0,"stv_port":0,"stv_name":"","players":null},{"server_id":2,"name":"Uncletopia | Chicago | 1 | All Maps","name_short":"chi-1","host":"chi-1.us.uncletopia.com","port":27015,"enabled":true,"region":"us-central","cc":"us","latitude":41.881832,"longitude":-87.62318,"reserved":0,"last_update":"0001-01-01T00:00:00Z","name_a2s":"Uncletopia | Chicago | 1 | All Maps","protocol":17,"map":"cp_sunshine","folder":"tf","game":"Team Fortress","app_id":440,"player_count":24,"max_players":24,"Bots":0,"server_type":"Dedicated","server_os":"Linux","password":true,"vac":true,"version":"7757534","steam_id":85568392924469984,"keywords":["cp","nocrits","nodmgspread","uncletopia"],"game_id":440,"stv_port":27016,"stv_name":"Uncletopia | Chicago | 1 | All Maps | STV","players":[{"user_id":731,"name":"Superior High Kick","steam_id":76561198122277515,"connected_time":859000000000,"state":"active","ping":79},{"user_id":723,"name":"Aegis","steam_id":76561198272052750,"connected_time":1145000000000,"state":"active","ping":78},{"user_id":725,"name":"Wendigo","steam_id":76561198031942404,"connected_time":1131000000000,"state":"active","ping":77},{"user_id":712,"name":"Mage","steam_id":76561198285026879,"connected_time":2796000000000,"state":"active","ping":79},{"user_id":727,"name":"Zelith","steam_id":76561198234980480,"connected_time":1066000000000,"state":"active","ping":48},{"user_id":728,"name":"Omega!","steam_id":76561198119448770,"connected_time":1055000000000,"state":"active","ping":86},{"user_id":738,"name":"Spaceman","steam_id":76561198349305249,"connected_time":227000000000,"state":"active","ping":142},{"user_id":729,"name":"LumaDooma","steam_id":76561198076875817,"connected_time":905000000000,"state":"active","ping":60},{"user_id":631,"name":"God","steam_id":76561198131089513,"connected_time":10192000000000,"state":"active","ping":45},{"user_id":733,"name":"swagmunch","steam_id":76561198320292713,"connected_time":852000000000,"state":"active","ping":82},{"user_id":654,"name":"Glass Joe","steam_id":76561198317365741,"connected_time":8755000000000,"state":"active","ping":63},{"user_id":730,"name":"Undercover Brother","steam_id":76561198010708247,"connected_time":870000000000,"state":"active","ping":60},{"user_id":732,"name":"seacchell.","steam_id":76561198095577483,"connected_time":857000000000,"state":"active","ping":82},{"user_id":586,"name":"i really like this dog :)","steam_id":76561198882404753,"connected_time":13809000000000,"state":"active","ping":77},{"user_id":734,"name":"ummmm, :3","steam_id":76561198118877005,"connected_time":810000000000,"state":"active","ping":43},{"user_id":695,"name":"TLG, Certified Gamer Mom","steam_id":76561198076669951,"connected_time":4636000000000,"state":"active","ping":64},{"user_id":716,"name":"DonJam√≥n","steam_id":76561198319090131,"connected_time":2407000000000,"state":"active","ping":71},{"user_id":735,"name":"frank","steam_id":76561198137777483,"connected_time":679000000000,"state":"active","ping":71},{"user_id":736,"name":"tramadol","steam_id":76561198044443985,"connected_time":624000000000,"state":"active","ping":87},{"user_id":721,"name":"resplendent miniscule","steam_id":76561198091862137,"connected_time":1730000000000,"state":"active","ping":51},{"user_id":739,"name":"pineappleslayer","steam_id":76561198126944527,"connected_time":186000000000,"state":"active","ping":94},{"user_id":737,"name":"Crazed Gunman","steam_id":76561198806972543,"connected_time":616000000000,"state":"active","ping":94},{"user_id":676,"name":"Avo","steam_id":76561197993340494,"connected_time":6508000000000,"state":"active","ping":80},{"user_id":704,"name":"s71nk3y / Stinky / Apestoso","steam_id":76561198060954715,"connected_time":3822000000000,"state":"active","ping":100}]},{"server_id":106,"name":"Uncletopia | Chicago | 2 | All Maps","name_short":"chi-2","host":"chi-1.us.uncletopia.com","port":27025,"enabled":true,"region":"us-central","cc":"us","latitude":41.881832,"longitude":-87.62318,"reserved":0,"last_update":"0001-01-01T00:00:00Z","name_a2s":"Uncletopia | Chicago | 2 | All Maps","protocol":17,"map":"pl_upward","folder":"tf","game":"Team Fortress","app_id":440,"player_count":24,"max_players":24,"Bots":0,"server_type":"Dedicated","server_os":"Linux","password":true,"vac":true,"version":"7757534","steam_id":85568392924469985,"keywords":["nocrits","nodmgspread","payload","uncletopia"],"game_id":440,"stv_port":27026,"stv_name":"Uncletopia | Chicago | 2 | All Maps | STV","players":[{"user_id":678,"name":"Jacket","steam_id":76561198125415247,"connected_time":1268000000000,"state":"active","ping":52},{"user_id":676,"name":"raya","steam_id":76561198051504581,"connected_time":1320000000000,"state":"active","ping":75},{"user_id":658,"name":"Mr.Hour's 24 Hour Island Challe","steam_id":76561198018995498,"connected_time":3023000000000,"state":"active","ping":50},{"user_id":689,"name":"Kamin","steam_id":76561198255299559,"connected_time":819000000000,"state":"active","ping":86},{"user_id":659,"name":"ATL 1 | POOP DRINKER","steam_id":76561198132372435,"connected_time":3014000000000,"state":"active","ping":81},{"user_id":700,"name":"pandoRA","steam_id":76561198075490385,"connected_time":107000000000,"state":"active","ping":95},{"user_id":699,"name":"Goofball","steam_id":76561198061211537,"connected_time":271000000000,"state":"active","ping":59},{"user_id":680,"name":"ray","steam_id":76561199211901266,"connected_time":1163000000000,"state":"active","ping":178},{"user_id":655,"name":"big shmoka","steam_id":76561198050768962,"connected_time":3088000000000,"state":"active","ping":88},{"user_id":690,"name":"LivingRaccoon","steam_id":76561198035425632,"connected_time":602000000000,"state":"active","ping":102},{"user_id":691,"name":"TallClassic","steam_id":76561198082610013,"connected_time":557000000000,"state":"active","ping":52},{"user_id":672,"name":"Notation","steam_id":76561198119509319,"connected_time":2163000000000,"state":"active","ping":60},{"user_id":686,"name":"DinoFan11902","steam_id":76561198260348654,"connected_time":875000000000,"state":"active","ping":76},{"user_id":687,"name":"monke","steam_id":76561198308289194,"connected_time":867000000000,"state":"active","ping":82},{"user_id":703,"name":"ripxyz","steam_id":76561198083075822,"connected_time":9000000000,"state":"active","ping":60},{"user_id":549,"name":"Dr. Ôº¥ÔΩâÔΩçÔΩìÔΩãÔΩÅ","steam_id":76561198272075712,"connected_time":12018000000000,"state":"active","ping":64},{"user_id":701,"name":"Jellojiggler","steam_id":76561198094320477,"connected_time":104000000000,"state":"active","ping":71},{"user_id":688,"name":"eimer","steam_id":76561198030559064,"connected_time":862000000000,"state":"active","ping":154},{"user_id":702,"name":"Yogsto-dude","steam_id":76561199180079018,"connected_time":24000000000,"state":"active","ping":175},{"user_id":547,"name":"Cheese Master","steam_id":76561198189176634,"connected_time":12074000000000,"state":"active","ping":81},{"user_id":692,"name":"Cam","steam_id":76561198139174433,"connected_time":550000000000,"state":"active","ping":88},{"user_id":695,"name":"Plato","steam_id":76561198200429330,"connected_time":467000000000,"state":"active","ping":59},{"user_id":638,"name":"Spygie","steam_id":76561198218573049,"connected_time":4496000000000,"state":"active","ping":55},{"user_id":697,"name":"do you produce sugar?","steam_id":76561198035698704,"connected_time":304000000000,"state":"active","ping":99}]},{"server_id":402,"name":"Uncletopia | Chicago | 3 | All Maps","name_short":"chi-3","host":"chi-1.us.uncletopia.com","port":27035,"enabled":true,"region":"us-central","cc":"us","latitude":41.881832,"longitude":-87.62318,"reserved":0,"last_update":"0001-01-01T00:00:00Z","name_a2s":"Uncletopia | Chicago | 3 | All Maps","protocol":17,"map":"pl_snowycoast","folder":"tf","game":"Team Fortress","app_id":440,"player_count":0,"max_players":24,"Bots":0,"server_type":"Dedicated","server_os":"Linux","password":true,"vac":true,"version":"7757534","steam_id":85568392924515191,"keywords":["nocrits","nodmgspread","payload","uncletopia"],"game_id":440,"stv_port":27036,"stv_name":"Uncletopia | Chicago | 3 | All Maps | STV","players":null},{"server_id":403,"name":"Uncletopia | Chicago | 4 | All Maps","name_short":"chi-4","host":"chi-1.us.uncletopia.com","port":27045,"enabled":true,"region":"us-central","cc":"us","latitude":41.881832,"longitude":-87.62318,"reserved":0,"last_update":"0001-01-01T00:00:00Z","name_a2s":"Uncletopia | Chicago | 4 | All Maps","protocol":17,"map":"pl_barnblitz","folder":"tf","game":"Team Fortress","app_id":440,"player_count":14,"max_players":24,"Bots":0,"server_type":"Dedicated","server_os":"Linux","password":true,"vac":true,"version":"7757534","steam_id":85568392924515193,"keywords":["nocrits","nodmgspread","payload","uncletopia"],"game_id":440,"stv_port":27046,"stv_name":"Uncletopia | Chicago | 4 | All Maps | STV","players":[{"user_id":540,"name":"Lerny_Bander69","steam_id":76561199467619936,"connected_time":737000000000,"state":"active","ping":121},{"user_id":507,"name":"his flatulence","steam_id":76561198799404824,"connected_time":3684000000000,"state":"active","ping":73},{"user_id":541,"name":"Nekro Kitty","steam_id":76561198025054596,"connected_time":645000000000,"state":"active","ping":80},{"user_id":508,"name":"squids a Grandmaster","steam_id":76561199200296010,"connected_time":3634000000000,"state":"active","ping":80},{"user_id":503,"name":"volta","steam_id":76561199214283884,"connected_time":4070000000000,"state":"active","ping":91},{"user_id":520,"name":"Czar","steam_id":76561198165585182,"connected_time":2581000000000,"state":"active","ping":57},{"user_id":545,"name":"sunny","steam_id":76561198069380992,"connected_time":269000000000,"state":"active","ping":76},{"user_id":521,"name":"Shaw Han","steam_id":76561198204259015,"connected_time":2581000000000,"state":"active","ping":54},{"user_id":476,"name":"der iz no change n za plan","steam_id":76561198043617388,"connected_time":7048000000000,"state":"active","ping":69},{"user_id":543,"name":"üÖúüÖîüÖîüÖöüÖ¢üÖ£üÖî\ufffd\ufffd\ufffd","steam_id":76561197999748343,"connected_time":530000000000,"state":"active","ping":74},{"user_id":546,"name":"Metapod","steam_id":76561198008725465,"connected_time":38000000000,"state":"active","ping":74},{"user_id":537,"name":"yeffey","steam_id":76561198019532326,"connected_time":1612000000000,"state":"active","ping":112},{"user_id":518,"name":"Srattinee","steam_id":76561198199840395,"connected_time":2650000000000,"state":"active","ping":56},{"user_id":536,"name":"lich gaming","steam_id":76561198299094088,"connected_time":2048000000000,"state":"active","ping":60}]},{"server_id":36,"name":"Uncletopia | Chicago | 5 | All Maps","name_short":"chi-5","host":"chi-2.us.uncletopia.com","port":27015,"enabled":true,"region":"us-central","cc":"us","latitude":41.881832,"longitude":-87.62318,"reserved":0,"last_update":"0001-01-01T00:00:00Z","name_a2s":"Uncletopia | Chicago | 5 | All Maps","protocol":17,"map":"koth_highpass","folder":"tf","game":"Team Fortress","app_id":440,"player_count":0,"max_players":24,"Bots":0,"server_type":"Dedicated","server_os":"Linux","password":true,"vac":true,"version":"7757534","steam_id":85568392924866362,"keywords":["cp","nocrits","nodmgspread","uncletopia"],"game_id":440,"stv_port":27016,"stv_name":"Uncletopia | Chicago | 5 | All Maps | STV","players":null},{"server_id":37,"name":"Uncletopia | Chicago | 6 | All Maps","name_short":"chi-6","host":"chi-2.us.uncletopia.com","port":27025,"enabled":true,"region":"us-central","cc":"us","latitude":41.881832,"longitude":-87.62318,"reserved":0,"last_update":"0001-01-01T00:00:00Z","name_a2s":"Uncletopia | Chicago | 6 | All Maps","protocol":17,"map":"pl_swiftwater_final1","folder":"tf","game":"Team Fortress","app_id":440,"player_count":19,"max_players":24,"Bots":0,"server_type":"Dedicated","server_os":"Linux","password":true,"vac":true,"version":"7757534","steam_id":85568392924866363,"keywords":["nocrits","nodmgspread","payload","uncletopia"],"game_id":440,"stv_port":27026,"stv_name":"Uncletopia | Chicago | 6 | All Maps | STV","players":[{"user_id":497,"name":"Chief Diggery K.","steam_id":76561198066629137,"connected_time":2048000000000,"state":"active","ping":102},{"user_id":494,"name":"TheSmokingMan","steam_id":76561198032652995,"connected_time":2697000000000,"state":"active","ping":82},{"user_id":467,"name":"cringe","steam_id":76561198104086771,"connected_time":5303000000000,"state":"active","ping":99},{"user_id":506,"name":"King_Duck","steam_id":76561198147969424,"connected_time":1315000000000,"state":"active","ping":64},{"user_id":507,"name":"ilikecorn78","steam_id":76561198838784551,"connected_time":1267000000000,"state":"active","ping":65},{"user_id":505,"name":"TheCheeseWizard","steam_id":76561198058931315,"connected_time":1348000000000,"state":"active","ping":54},{"user_id":521,"name":"puppy :3","steam_id":76561198011196264,"connected_time":178000000000,"state":"active","ping":45},{"user_id":512,"name":"Taelaro","steam_id":76561198087562051,"connected_time":625000000000,"state":"active","ping":81},{"user_id":514,"name":"Mr. Sauce","steam_id":76561198055512324,"connected_time":457000000000,"state":"active","ping":66},{"user_id":484,"name":"Spring Beans","steam_id":76561197978546259,"connected_time":3658000000000,"state":"active","ping":56},{"user_id":519,"name":"MintyT21","steam_id":76561198293395470,"connected_time":300000000000,"state":"active","ping":110},{"user_id":513,"name":"Kawai","steam_id":76561198422942348,"connected_time":588000000000,"state":"active","ping":189},{"user_id":500,"name":"CaptainKn1ght","steam_id":76561198018979695,"connected_time":2032000000000,"state":"active","ping":104},{"user_id":488,"name":"pel","steam_id":76561198021224745,"connected_time":3497000000000,"state":"active","ping":55},{"user_id":520,"name":"Rico Freako","steam_id":76561198064402738,"connected_time":297000000000,"state":"active","ping":78},{"user_id":517,"name":"Fuzz_God","steam_id":76561198135774000,"connected_time":411000000000,"state":"active","ping":81},{"user_id":510,"name":"Allotrope","steam_id":76561197998450103,"connected_time":1141000000000,"state":"active","ping":44},{"user_id":502,"name":"Ash_Follow3","steam_id":76561199150479264,"connected_time":2019000000000,"state":"active","ping":62},{"user_id":350,"name":"Wimojimo12","steam_id":76561198370459596,"connected_time":15903000000000,"state":"active","ping":64}]},{"server_id":38,"name":"Uncletopia | Chicago | 7 | Stopwatch Beta","name_short":"chi-7","host":"chi-2.us.uncletopia.com","port":27035,"enabled":true,"region":"us-central","cc":"us","latitude":41.881832,"longitude":-87.62318,"reserved":0,"last_update":"0001-01-01T00:00:00Z","name_a2s":"Uncletopia | Chicago | 7 | Stopwatch Beta","protocol":17,"map":"cp_sunshine","folder":"tf","game":"Team Fortress","app_id":440,"player_count":4,"max_players":24,"Bots":0,"server_type":"Dedicated","server_os":"Linux","password":true,"vac":true,"version":"7757534","steam_id":85568392924866364,"keywords":["cp","nocrits","nodmgspread","uncletopia"],"game_id":440,"stv_port":27036,"stv_name":"Uncletopia | Chicago | 7 | Stopwatch Beta | STV","players":[{"user_id":173,"name":"Lope","steam_id":76561198169381232,"connected_time":8576000000000,"state":"active","ping":88},{"user_id":242,"name":"Digital Lummox","steam_id":76561198136198600,"connected_time":3855000000000,"state":"active","ping":69},{"user_id":252,"name":"Acrimonate TTV","steam_id":76561198354012673,"connected_time":2881000000000,"state":"active","ping":72},{"user_id":261,"name":"ÔΩÇÔΩïÔΩéÔΩéÔΩâ","steam_id":76561198119896247,"connected_time":2379000000000,"state":"active","ping":103}]},{"server_id":39,"name":"Uncletopia | Chicago | 8 | Community","name_short":"chi-8","host":"chi-2.us.uncletopia.com","port":27045,"enabled":true,"region":"us-central","cc":"us","latitude":41.881832,"longitude":-87.62318,"reserved":0,"last_update":"0001-01-01T00:00:00Z","name_a2s":"Uncletopia | Chicago | 8 | Community","protocol":17,"map":"workshop/pl_vigil_rc9.ugc1266210012","folder":"tf","game":"Team Fortress","app_id":440,"player_count":0,"max_players":24,"Bots":0,"server_type":"Dedicated","server_os":"Linux","password":true,"vac":true,"version":"7757534","steam_id":85568392924866365,"keywords":["nocrits","nodmgspread","payload","uncletopia"],"game_id":440,"stv_port":27046,"stv_name":"Uncletopia | Chicago | 8 | Community | STV","players":null},{"server_id":8,"name":"Uncletopia | Dallas | 1 | All Maps","name_short":"dal-1","host":"dal-1.us.uncletopia.com","port":27015,"enabled":true,"region":"us-central","cc":"us","latitude":32.779167,"longitude":-96.80889,"reserved":0,"last_update":"0001-01-01T00:00:00Z","name_a2s":"Uncletopia | Dallas | 1 | All Maps","protocol":17,"map":"koth_lakeside_final","folder":"tf","game":"Team Fortress","app_id":440,"player_count":0,"max_players":24,"Bots":0,"server_type":"Dedicated","server_os":"Linux","password":true,"vac":true,"version":"7757534","steam_id":85568392924469986,"keywords":["cp","nocrits","nodmgspread","uncletopia"],"game_id":440,"stv_port":27016,"stv_name":"Uncletopia | Dallas | 1 | All Maps | STV","players":null},{"server_id":108,"name":"Uncletopia | Dallas | 2 | All Maps","name_short":"dal-2","host":"dal-1.us.uncletopia.com","port":27025,"enabled":true,"region":"us-central","cc":"us","latitude":32.779167,"longitude":-96.80889,"reserved":0,"last_update":"0001-01-01T00:00:00Z","name_a2s":"Uncletopia | Dallas | 2 | All Maps","protocol":17,"map":"cp_sunshine","folder":"tf","game":"Team Fortress","app_id":440,"player_count":3,"max_players":24,"Bots":0,"server_type":"Dedicated","server_os":"Linux","password":true,"vac":true,"version":"7757534","steam_id":85568392924469988,"keywords":["cp","nocrits","nodmgspread","uncletopia"],"game_id":440,"stv_port":27026,"stv_name":"Uncletopia | Dallas | 2 | All Maps | STV","players":[{"user_id":947,"name":"catrinaisahuman","steam_id":76561198281355729,"connected_time":362000000000,"state":"active","ping":60},{"user_id":937,"name":"Gilded_Warrior","steam_id":76561199055082197,"connected_time":1839000000000,"state":"active","ping":98},{"user_id":935,"name":"Project_Counter","steam_id":76561198152786076,"connected_time":1971000000000,"state":"active","ping":45}]},{"server_id":5,"name":"Uncletopia | Frankfurt | 1 | All Maps","name_short":"frk-1","host":"frk-1.de.uncletopia.com","port":27015,"enabled":true,"region":"eu","cc":"de","latitude":50.110924,"longitude":8.682127,"reserved":0,"last_update":"0001-01-01T00:00:00Z","name_a2s":"Uncletopia | Frankfurt | 1 | All Maps","protocol":17,"map":"pl_snowycoast","folder":"tf","game":"Team Fortress","app_id":440,"player_count":0,"max_players":24,"Bots":0,"server_type":"Dedicated","server_os":"Linux","password":true,"vac":true,"version":"7757534","steam_id":85568392924469989,"keywords":["nocrits","nodmgspread","payload","uncletopia"],"game_id":440,"stv_port":27016,"stv_name":"Uncletopia | Frankfurt | 1 | All Maps | STV","players":null},{"server_id":110,"name":"Uncletopia | Frankfurt | 2 | All Maps","name_short":"frk-2","host":"frk-1.de.uncletopia.com","port":27025,"enabled":true,"region":"eu","cc":"de","latitude":50.110924,"longitude":8.682127,"reserved":0,"last_update":"0001-01-01T00:00:00Z","name_a2s":"Uncletopia | Frankfurt | 2 | All Maps","protocol":17,"map":"cp_snakewater_final1","folder":"tf","game":"Team Fortress","app_id":440,"player_count":0,"max_players":24,"Bots":0,"server_type":"Dedicated","server_os":"Linux","password":true,"vac":true,"version":"7757534","steam_id":85568392924469990,"keywords":["cp","nocrits","nodmgspread","uncletopia"],"game_id":440,"stv_port":27026,"stv_name":"Uncletopia | Frankfurt | 2 | All Maps | STV","players":null},{"server_id":308,"name":"Uncletopia | Frankfurt | 3 | All Maps","name_short":"frk-3","host":"frk-1.de.uncletopia.com","port":27035,"enabled":true,"region":"eu","cc":"de","latitude":50.110924,"longitude":8.682127,"reserved":0,"last_update":"0001-01-01T00:00:00Z","name_a2s":"Uncletopia | Frankfurt | 3 | All Maps","protocol":17,"map":"pl_swiftwater_final1","folder":"tf","game":"Team Fortress","app_id":440,"player_count":0,"max_players":24,"Bots":0,"server_type":"Dedicated","server_os":"Linux","password":true,"vac":true,"version":"7757534","steam_id":85568392924504274,"keywords":["nocrits","nodmgspread","payload","uncletopia"],"game_id":440,"stv_port":27036,"stv_name":"Uncletopia | Frankfurt | 3 | All Maps | STV","players":null},{"server_id":309,"name":"Uncletopia | Frankfurt | 4 | All Maps","name_short":"frk-4","host":"frk-1.de.uncletopia.com","port":27045,"enabled":true,"region":"eu","cc":"de","latitude":50.110924,"longitude":8.682127,"reserved":0,"last_update":"0001-01-01T00:00:00Z","name_a2s":"Uncletopia | Frankfurt | 4 | All Maps","protocol":17,"map":"koth_viaduct","folder":"tf","game":"Team Fortress","app_id":440,"player_count":0,"max_players":24,"Bots":0,"server_type":"Dedicated","server_os":"Linux","password":true,"vac":true,"version":"7757534","steam_id":85568392924504275,"keywords":["cp","nocrits","nodmgspread","uncletopia"],"game_id":440,"stv_port":27046,"stv_name":"Uncletopia | Frankfurt | 4 | All Maps | STV","players":null},{"server_id":310,"name":"Uncletopia | Frankfurt | 5 | All Maps","name_short":"frk-5","host":"frk-1.de.uncletopia.com","port":27055,"enabled":true,"region":"eu","cc":"de","latitude":50.110924,"longitude":8.682127,"reserved":0,"last_update":"0001-01-01T00:00:00Z","name_a2s":"Uncletopia | Frankfurt | 5 | All Maps","protocol":17,"map":"koth_lakeside_final","folder":"tf","game":"Team Fortress","app_id":440,"player_count":0,"max_players":24,"Bots":0,"server_type":"Dedicated","server_os":"Linux","password":true,"vac":true,"version":"7757534","steam_id":85568392924504277,"keywords":["cp","nocrits","nodmgspread","uncletopia"],"game_id":440,"stv_port":27056,"stv_name":"Uncletopia | Frankfurt | 5 | All Maps | STV","players":null},{"server_id":311,"name":"Uncletopia | Frankfurt | 6 | All Maps","name_short":"frk-6","host":"frk-1.de.uncletopia.com","port":27065,"enabled":true,"region":"eu","cc":"de","latitude":50.110924,"longitude":8.682127,"reserved":0,"last_update":"0001-01-01T00:00:00Z","name_a2s":"Uncletopia | Frankfurt | 6 | All Maps","protocol":17,"map":"pl_frontier_final","folder":"tf","game":"Team Fortress","app_id":440,"player_count":0,"max_players":24,"Bots":0,"server_type":"Dedicated","server_os":"Linux","password":true,"vac":true,"version":"7757534","steam_id":85568392924504278,"keywords":["nocrits","nodmgspread","payload","uncletopia"],"game_id":440,"stv_port":27066,"stv_name":"Uncletopia | Frankfurt | 6 | All Maps | STV","players":null},{"server_id":23,"name":"Uncletopia | Frankfurt | 7 | Stopwatch Beta","name_short":"frk-7","host":"frk-1.de.uncletopia.com","port":27075,"enabled":true,"region":"eu","cc":"de","latitude":50.110924,"longitude":8.682127,"reserved":0,"last_update":"0001-01-01T00:00:00Z","name_a2s":"Uncletopia | Frankfurt | 7 | Stopwatch Beta","protocol":17,"map":"cp_sunshine","folder":"tf","game":"Team Fortress","app_id":440,"player_count":0,"max_players":24,"Bots":0,"server_type":"Dedicated","server_os":"Linux","password":true,"vac":true,"version":"7757534","steam_id":85568392924742827,"keywords":["cp","nocrits","nodmgspread","uncletopia"],"game_id":440,"stv_port":27076,"stv_name":"Uncletopia | Frankfurt | 7 | Stopwatch Beta | STV","players":null},{"server_id":24,"name":"Uncletopia | Frankfurt | 8 | Community","name_short":"frk-8","host":"frk-1.de.uncletopia.com","port":27085,"enabled":true,"region":"eu","cc":"de","latitude":50.110924,"longitude":8.682127,"reserved":0,"last_update":"0001-01-01T00:00:00Z","name_a2s":"Uncletopia | Frankfurt | 8 | Community","protocol":17,"map":"koth_lakeside_final","folder":"tf","game":"Team Fortress","app_id":440,"player_count":0,"max_players":24,"Bots":0,"server_type":"Dedicated","server_os":"Linux","password":true,"vac":true,"version":"7757534","steam_id":85568392924742828,"keywords":["cp","nocrits","nodmgspread","uncletopia"],"game_id":440,"stv_port":27086,"stv_name":"Uncletopia | Frankfurt | 8 | Community | STV","players":null},{"server_id":202,"name":"Uncletopia | Hong Kong | 1 | All Maps","name_short":"hgk-1","host":"hgk-1.hk.uncletopia.com","port":27015,"enabled":true,"region":"asia","cc":"hk","latitude":22.302711,"longitude":114.177216,"reserved":0,"last_update":"0001-01-01T00:00:00Z","name_a2s":"Uncletopia | Hong Kong | 1 | All Maps","protocol":17,"map":"koth_highpass","folder":"tf","game":"Team Fortress","app_id":440,"player_count":0,"max_players":24,"Bots":0,"server_type":"Dedicated","server_os":"Linux","password":true,"vac":true,"version":"7757534","steam_id":85568392924494504,"keywords":["cp","nocrits","nodmgspread","uncletopia"],"game_id":440,"stv_port":27016,"stv_name":"Uncletopia | Hong Kong | 1 | All Maps | STV","players":null},{"server_id":1,"name":"Uncletopia | Los Angeles | 1 | All Maps","name_short":"lax-1","host":"lax-1.us.uncletopia.com","port":27015,"enabled":true,"region":"us-west","cc":"us","latitude":33.94279,"longitude":-118.41004,"reserved":0,"last_update":"0001-01-01T00:00:00Z","name_a2s":"Uncletopia | Los Angeles | 1 | All Maps","protocol":17,"map":"cp_mountainlab","folder":"tf","game":"Team Fortress","app_id":440,"player_count":24,"max_players":24,"Bots":0,"server_type":"Dedicated","server_os":"Linux","password":true,"vac":true,"version":"7757534","steam_id":85568392924469991,"keywords":["cp","nocrits","nodmgspread","uncletopia"],"game_id":440,"stv_port":27016,"stv_name":"Uncletopia | Los Angeles | 1 | All Maps | STV","players":[{"user_id":536,"name":"shoe","steam_id":76561198451476220,"connected_time":1540000000000,"state":"active","ping":75},{"user_id":525,"name":"yellow ·óúÀ¨·óú","steam_id":76561198366474647,"connected_time":2227000000000,"state":"active","ping":43},{"user_id":542,"name":"hambringer55","steam_id":76561199067067145,"connected_time":1048000000000,"state":"active","ping":70},{"user_id":553,"name":"zaza addict","steam_id":76561198202982780,"connected_time":631000000000,"state":"active","ping":107},{"user_id":527,"name":"GuyGoom","steam_id":76561198254522178,"connected_time":2116000000000,"state":"active","ping":102},{"user_id":490,"name":"Gruntic","steam_id":76561198170396647,"connected_time":4942000000000,"state":"active","ping":55},{"user_id":538,"name":"Shamrock Shake Oct.10.2020 @8pm","steam_id":76561198833313201,"connected_time":1456000000000,"state":"active","ping":62},{"user_id":544,"name":"BorstchBag","steam_id":76561198155294045,"connected_time":1026000000000,"state":"active","ping":98},{"user_id":500,"name":"Samurai JackOff","steam_id":76561198165160011,"connected_time":4351000000000,"state":"active","ping":75},{"user_id":491,"name":"turtle head erection","steam_id":76561197961396512,"connected_time":4921000000000,"state":"active","ping":50},{"user_id":545,"name":"A Walnut","steam_id":76561198136655837,"connected_time":1023000000000,"state":"active","ping":72},{"user_id":492,"name":"guanxiale","steam_id":76561198077632948,"connected_time":4914000000000,"state":"active","ping":44},{"user_id":534,"name":"Professional idiot","steam_id":76561199093293306,"connected_time":1727000000000,"state":"active","ping":49},{"user_id":546,"name":"Keyboardbreaker","steam_id":76561198372836132,"connected_time":979000000000,"state":"active","ping":72},{"user_id":512,"name":"Volati!e","steam_id":76561198020147226,"connected_time":3387000000000,"state":"active","ping":98},{"user_id":547,"name":"Peter, what are you doing?","steam_id":76561198066452726,"connected_time":962000000000,"state":"active","ping":52},{"user_id":494,"name":"Hans Jerkov","steam_id":76561198016437601,"connected_time":4876000000000,"state":"active","ping":55},{"user_id":513,"name":"Love Waffle","steam_id":76561197990077189,"connected_time":3331000000000,"state":"active","ping":72},{"user_id":548,"name":"Shawn","steam_id":76561199199772083,"connected_time":961000000000,"state":"active","ping":82},{"user_id":530,"name":"chanoc","steam_id":76561198026734746,"connected_time":1826000000000,"state":"active","ping":54},{"user_id":549,"name":"Slapapple","steam_id":76561199052470166,"connected_time":933000000000,"state":"active","ping":81},{"user_id":550,"name":"St. Michael","steam_id":76561198037611052,"connected_time":888000000000,"state":"active","ping":76},{"user_id":521,"name":"Jpzarde","steam_id":76561197978240364,"connected_time":2958000000000,"state":"active","ping":105},{"user_id":552,"name":"PS1","steam_id":76561198206922028,"connected_time":813000000000,"state":"active","ping":47}]},{"server_id":112,"name":"Uncletopia | Los Angeles | 2 | All Maps","name_short":"lax-2","host":"lax-1.us.uncletopia.com","port":27025,"enabled":true,"region":"us-west","cc":"us","latitude":33.94279,"longitude":-118.41004,"reserved":0,"last_update":"0001-01-01T00:00:00Z","name_a2s":"Uncletopia | Los Angeles | 2 | All Maps","protocol":17,"map":"cp_process_final","folder":"tf","game":"Team Fortress","app_id":440,"player_count":23,"max_players":24,"Bots":0,"server_type":"Dedicated","server_os":"Linux","password":true,"vac":true,"version":"7757534","steam_id":85568392924469992,"keywords":["cp","nocrits","nodmgspread","uncletopia"],"game_id":440,"stv_port":27026,"stv_name":"Uncletopia | Los Angeles | 2 | All Maps | STV","players":[{"user_id":547,"name":"IAmMrMan","steam_id":76561198846689660,"connected_time":647000000000,"state":"active","ping":46},{"user_id":508,"name":"serious jester","steam_id":76561198079609974,"connected_time":3584000000000,"state":"active","ping":56},{"user_id":514,"name":"Big Jon","steam_id":76561198402285099,"connected_time":2850000000000,"state":"active","ping":69},{"user_id":515,"name":"[CIS] CaligulaSux41","steam_id":76561198071297093,"connected_time":2849000000000,"state":"active","ping":68},{"user_id":544,"name":"reverie","steam_id":76561198168158637,"connected_time":824000000000,"state":"active","ping":72},{"user_id":559,"name":"FROYO b4nny","steam_id":76561197970669109,"connected_time":139000000000,"state":"active","ping":44},{"user_id":495,"name":"Little Shuriken","steam_id":76561199020477560,"connected_time":4499000000000,"state":"active","ping":38},{"user_id":558,"name":"P.I.Staker","steam_id":76561198087096559,"connected_time":155000000000,"state":"active","ping":92},{"user_id":560,"name":"Danger McHazard","steam_id":76561198059451274,"connected_time":117000000000,"state":"active","ping":44},{"user_id":561,"name":"Garfelf","steam_id":76561198419850129,"connected_time":111000000000,"state":"active","ping":75},{"user_id":548,"name":"FI LO","steam_id":76561198976530881,"connected_time":615000000000,"state":"active","ping":30},{"user_id":549,"name":"Wacks","steam_id":76561198079476100,"connected_time":393000000000,"state":"active","ping":52},{"user_id":557,"name":"FreshlyMilked","steam_id":76561198070396745,"connected_time":198000000000,"state":"active","ping":65},{"user_id":531,"name":"ena - d","steam_id":76561198072329335,"connected_time":1797000000000,"state":"active","ping":101},{"user_id":553,"name":"Tanuki in your attic.","steam_id":76561198027487285,"connected_time":301000000000,"state":"active","ping":113},{"user_id":552,"name":"G.bo","steam_id":76561198085176270,"connected_time":320000000000,"state":"active","ping":83},{"user_id":562,"name":"orio","steam_id":76561198116550170,"connected_time":111000000000,"state":"active","ping":51},{"user_id":554,"name":"Sir Nope (TSS)","steam_id":76561198035935649,"connected_time":286000000000,"state":"active","ping":64},{"user_id":555,"name":"Blackbeard","steam_id":76561198046952265,"connected_time":216000000000,"state":"active","ping":76},{"user_id":556,"name":"Mayxaroni","steam_id":76561198170642041,"connected_time":205000000000,"state":"active","ping":47},{"user_id":563,"name":"oil","steam_id":76561198099980149,"connected_time":52000000000,"state":"active","ping":61},{"user_id":523,"name":"Gammaplex","steam_id":76561198981228176,"connected_time":2545000000000,"state":"active","ping":104},{"user_id":537,"name":"CeoVortex","steam_id":76561198035679805,"connected_time":1713000000000,"state":"active","ping":52}]},{"server_id":324,"name":"Uncletopia | Los Angeles | 3 | All Maps","name_short":"lax-3","host":"lax-1.us.uncletopia.com","port":27035,"enabled":true,"region":"us-west","cc":"us","latitude":33.94279,"longitude":-118.41004,"reserved":0,"last_update":"0001-01-01T00:00:00Z","name_a2s":"Uncletopia | Los Angeles | 3 | All Maps","protocol":17,"map":"pl_upward","folder":"tf","game":"Team Fortress","app_id":440,"player_count":11,"max_players":24,"Bots":0,"server_type":"Dedicated","server_os":"Linux","password":true,"vac":true,"version":"7757534","steam_id":85568392924510198,"keywords":["nocrits","nodmgspread","payload","uncletopia"],"game_id":440,"stv_port":27036,"stv_name":"Uncletopia | Los Angeles | 3 | All Maps | STV","players":[{"user_id":335,"name":"borkus","steam_id":76561198167174088,"connected_time":630000000000,"state":"active","ping":92},{"user_id":344,"name":"Feel the bern","steam_id":76561198078824519,"connected_time":123000000000,"state":"active","ping":79},{"user_id":341,"name":"I THINK COOLSVILLE SUCKS","steam_id":76561198066855998,"connected_time":139000000000,"state":"active","ping":76},{"user_id":340,"name":"h a r t","steam_id":76561198046073848,"connected_time":172000000000,"state":"active","ping":66},{"user_id":342,"name":"JOMDAZ","steam_id":76561198124381461,"connected_time":136000000000,"state":"active","ping":87},{"user_id":239,"name":"Rommel2007","steam_id":76561198041744631,"connected_time":8047000000000,"state":"active","ping":52},{"user_id":343,"name":"Bl4ackDmon","steam_id":76561198288482730,"connected_time":134000000000,"state":"active","ping":45},{"user_id":297,"name":"your jordans are FAKE!!!!!!","steam_id":76561198143132686,"connected_time":4572000000000,"state":"active","ping":77},{"user_id":304,"name":"Pee-Pee Storm","steam_id":76561198101442649,"connected_time":3668000000000,"state":"active","ping":73},{"user_id":319,"name":"üê∫-Iwky-ü¶ä","steam_id":76561198185616311,"connected_time":2521000000000,"state":"active","ping":95},{"user_id":334,"name":"FriskyDemon","steam_id":76561198043684646,"connected_time":790000000000,"state":"active","ping":71}]},{"server_id":25,"name":"Uncletopia | Los Angeles | 4 | Stopwatch Beta","name_short":"lax-4","host":"lax-1.us.uncletopia.com","port":27045,"enabled":true,"region":"us-west","cc":"us","latitude":33.94279,"longitude":-118.41004,"reserved":0,"last_update":"0001-01-01T00:00:00Z","name_a2s":"Uncletopia | Los Angeles | 4 | Stopwatch Beta","protocol":17,"map":"pl_swiftwater_final1","folder":"tf","game":"Team Fortress","app_id":440,"player_count":0,"max_players":24,"Bots":0,"server_type":"Dedicated","server_os":"Linux","password":true,"vac":true,"version":"7757534","steam_id":85568392924510199,"keywords":["nocrits","nodmgspread","payload","uncletopia"],"game_id":440,"stv_port":27046,"stv_name":"Uncletopia | Los Angeles | 4 | Stopwatch Beta | STV","players":null},{"server_id":11,"name":"Uncletopia | London | 1 | All Maps","name_short":"lon-1","host":"lon-1.uk.uncletopia.com","port":27015,"enabled":true,"region":"eu","cc":"gb","latitude":51.509865,"longitude":-0.118092,"reserved":0,"last_update":"0001-01-01T00:00:00Z","name_a2s":"Uncletopia | London | 1 | All Maps","protocol":17,"map":"cp_steel","folder":"tf","game":"Team Fortress","app_id":440,"player_count":24,"max_players":24,"Bots":0,"server_type":"Dedicated","server_os":"Linux","password":true,"vac":true,"version":"7757534","steam_id":85568392924367362,"keywords":["cp","nocrits","nodmgspread","uncletopia"],"game_id":440,"stv_port":27016,"stv_name":"Uncletopia | London | 1 | All Maps | STV","players":[{"user_id":48,"name":"Belk","steam_id":76561198320575302,"connected_time":1634000000000,"state":"active","ping":106},{"user_id":57,"name":"dlatgirp","steam_id":76561198417137724,"connected_time":463000000000,"state":"active","ping":181},{"user_id":5,"name":"Killing","steam_id":76561198107392931,"connected_time":4479000000000,"state":"active","ping":38},{"user_id":6,"name":"duplicated","steam_id":76561198344952248,"connected_time":4477000000000,"state":"active","ping":58},{"user_id":44,"name":"Hedge Knight","steam_id":76561198989449047,"connected_time":1683000000000,"state":"active","ping":131},{"user_id":56,"name":"Osama bin Laden","steam_id":76561198135689951,"connected_time":518000000000,"state":"active","ping":47},{"user_id":52,"name":"BONK-TEC!","steam_id":76561198272667029,"connected_time":965000000000,"state":"active","ping":49},{"user_id":47,"name":"Titar Industries","steam_id":76561198143078476,"connected_time":1646000000000,"state":"active","ping":136},{"user_id":11,"name":"cooler bones","steam_id":76561199480942903,"connected_time":4432000000000,"state":"active","ping":93},{"user_id":41,"name":"female medic (REAL)","steam_id":76561198404802175,"connected_time":2044000000000,"state":"active","ping":133},{"user_id":54,"name":"A Shiny Meat Bicycle","steam_id":76561198358757709,"connected_time":738000000000,"state":"active","ping":173},{"user_id":59,"name":"Emma","steam_id":76561198076724979,"connected_time":362000000000,"state":"active","ping":62},{"user_id":45,"name":"poopie penis","steam_id":76561199360189459,"connected_time":1659000000000,"state":"active","ping":68},{"user_id":17,"name":"It's time","steam_id":76561198061197114,"connected_time":4247000000000,"state":"active","ping":75},{"user_id":50,"name":"–Ø –ù–û–†–ú–ê–õ–¨–ù–´–ô","steam_id":76561198354708713,"connected_time":1343000000000,"state":"active","ping":90},{"user_id":34,"name":"vadim_kotler","steam_id":76561199016634369,"connected_time":2691000000000,"state":"active","ping":105},{"user_id":40,"name":"pidgeonlord","steam_id":76561198297290160,"connected_time":2186000000000,"state":"active","ping":77},{"user_id":22,"name":"...jla","steam_id":76561198052435481,"connected_time":3690000000000,"state":"active","ping":58},{"user_id":43,"name":"Tortes","steam_id":76561199049185884,"connected_time":1791000000000,"state":"active","ping":96},{"user_id":24,"name":"marsel","steam_id":76561198116168271,"connected_time":3627000000000,"state":"active","ping":75},{"user_id":30,"name":"TheKromeDome","steam_id":76561198288951592,"connected_time":3028000000000,"state":"active","ping":85},{"user_id":35,"name":"NoPfizer","steam_id":76561198307914381,"connected_time":2648000000000,"state":"active","ping":57},{"user_id":51,"name":",","steam_id":76561199121842872,"connected_time":1231000000000,"state":"active","ping":53},{"user_id":37,"name":"TheHero_","steam_id":76561198155262213,"connected_time":2542000000000,"state":"active","ping":166}]},{"server_id":114,"name":"Uncletopia | London | 2 | All Maps","name_short":"lon-2","host":"lon-1.uk.uncletopia.com","port":27025,"enabled":true,"region":"eu","cc":"gb","latitude":51.509865,"longitude":-0.118092,"reserved":0,"last_update":"0001-01-01T00:00:00Z","name_a2s":"Uncletopia | London | 2 | All Maps","protocol":17,"map":"koth_viaduct","folder":"tf","game":"Team Fortress","app_id":440,"player_count":0,"max_players":24,"Bots":0,"server_type":"Dedicated","server_os":"Linux","password":true,"vac":true,"version":"7757534","steam_id":85568392924470941,"keywords":["cp","nocrits","nodmgspread","uncletopia"],"game_id":440,"stv_port":27026,"stv_name":"Uncletopia | London | 2 | All Maps | STV","players":null},{"server_id":320,"name":"Uncletopia | London | 3 | All Maps","name_short":"lon-3","host":"lon-1.uk.uncletopia.com","port":27035,"enabled":true,"region":"eu","cc":"gb","latitude":51.509865,"longitude":-0.118092,"reserved":0,"last_update":"0001-01-01T00:00:00Z","name_a2s":"Uncletopia | London | 3 | All Maps","protocol":17,"map":"cp_dustbowl","folder":"tf","game":"Team Fortress","app_id":440,"player_count":0,"max_players":24,"Bots":0,"server_type":"Dedicated","server_os":"Linux","password":true,"vac":true,"version":"7757534","steam_id":85568392924510192,"keywords":["cp","nocrits","nodmgspread","uncletopia"],"game_id":440,"stv_port":27036,"stv_name":"Uncletopia | London | 3 | All Maps | STV","players":null},{"server_id":321,"name":"Uncletopia | London | 4 | All Maps","name_short":"lon-4","host":"lon-1.uk.uncletopia.com","port":27045,"enabled":true,"region":"eu","cc":"gb","latitude":51.509865,"longitude":-0.118092,"reserved":0,"last_update":"0001-01-01T00:00:00Z","name_a2s":"Uncletopia | London | 4 | All Maps","protocol":17,"map":"cp_dustbowl","folder":"tf","game":"Team Fortress","app_id":440,"player_count":0,"max_players":24,"Bots":0,"server_type":"Dedicated","server_os":"Linux","password":true,"vac":true,"version":"7757534","steam_id":85568392924510193,"keywords":["cp","nocrits","nodmgspread","uncletopia"],"game_id":440,"stv_port":27046,"stv_name":"Uncletopia | London | 4 | All Maps | STV","players":null},{"server_id":21,"name":"Uncletopia | London | 5 | All Maps","name_short":"lon-5","host":"lon-1.uk.uncletopia.com","port":27055,"enabled":true,"region":"eu","cc":"gb","latitude":51.509865,"longitude":-0.118092,"reserved":0,"last_update":"0001-01-01T00:00:00Z","name_a2s":"Uncletopia | London | 5 | All Maps","protocol":17,"map":"cp_altitude","folder":"tf","game":"Team Fortress","app_id":440,"player_count":0,"max_players":24,"Bots":0,"server_type":"Dedicated","server_os":"Linux","password":true,"vac":true,"version":"7757534","steam_id":85568392924742829,"keywords":["cp","nocrits","nodmgspread","uncletopia"],"game_id":440,"stv_port":27056,"stv_name":"Uncletopia | London | 5 | All Maps | STV","players":null},{"server_id":22,"name":"Uncletopia | London | 6 | All Maps","name_short":"lon-6","host":"lon-1.uk.uncletopia.com","port":27065,"enabled":true,"region":"eu","cc":"gb","latitude":51.509865,"longitude":-0.118092,"reserved":0,"last_update":"0001-01-01T00:00:00Z","name_a2s":"Uncletopia | London | 6 | All Maps","protocol":17,"map":"cp_mountainlab","folder":"tf","game":"Team Fortress","app_id":440,"player_count":0,"max_players":24,"Bots":0,"server_type":"Dedicated","server_os":"Linux","password":true,"vac":true,"version":"7757534","steam_id":85568392924742830,"keywords":["cp","nocrits","nodmgspread","uncletopia"],"game_id":440,"stv_port":27066,"stv_name":"Uncletopia | London | 6 | All Maps | STV","players":null},{"server_id":40,"name":"Uncletopia | London | 7 | No Payload","name_short":"lon-7","host":"lon-1.uk.uncletopia.com","port":27075,"enabled":true,"region":"eu","cc":"gb","latitude":51.509865,"longitude":-0.118092,"reserved":0,"last_update":"0001-01-01T00:00:00Z","name_a2s":"Uncletopia | London | 7 | No Payload","protocol":17,"map":"pl_badwater","folder":"tf","game":"Team Fortress","app_id":440,"player_count":0,"max_players":24,"Bots":0,"server_type":"Dedicated","server_os":"Linux","password":true,"vac":true,"version":"7757534","steam_id":85568392924964314,"keywords":["nocrits","nodmgspread","payload","uncletopia"],"game_id":440,"stv_port":27076,"stv_name":"Uncletopia | London | 7 | No Payload | STV","players":null},{"server_id":41,"name":"Uncletopia | London | 8 | Community","name_short":"lon-8","host":"lon-1.uk.uncletopia.com","port":27085,"enabled":true,"region":"eu","cc":"gb","latitude":51.509865,"longitude":-0.118092,"reserved":0,"last_update":"0001-01-01T00:00:00Z","name_a2s":"Uncletopia | London | 8 | Community","protocol":17,"map":"pl_barnblitz","folder":"tf","game":"Team Fortress","app_id":440,"player_count":0,"max_players":24,"Bots":0,"server_type":"Dedicated","server_os":"Linux","password":true,"vac":true,"version":"7757534","steam_id":85568392924964315,"keywords":["nocrits","nodmgspread","payload","uncletopia"],"game_id":440,"stv_port":27086,"stv_name":"Uncletopia | London | 8 | Community | STV","players":null},{"server_id":300,"name":"Uncletopia | Montr√©al | 1 | All Maps","name_short":"mtl-1","host":"mtl-1.ca.uncletopia.com","port":27015,"enabled":true,"region":"us-east","cc":"ca","latitude":45.50889,"longitude":-73.56167,"reserved":0,"last_update":"0001-01-01T00:00:00Z","name_a2s":"Uncletopia | Montr√©al | 1 | All Maps","protocol":17,"map":"pl_snowycoast","folder":"tf","game":"Team Fortress","app_id":440,"player_count":0,"max_players":24,"Bots":0,"server_type":"Dedicated","server_os":"Linux","password":true,"vac":true,"version":"7757534","steam_id":85568392924500087,"keywords":["nocrits","nodmgspread","payload","uncletopia"],"game_id":440,"stv_port":27016,"stv_name":"Uncletopia | Montr√©al | 1 | All Maps | STV","players":null},{"server_id":301,"name":"Uncletopia | Montr√©al | 2 | All Maps","name_short":"mtl-2","host":"mtl-1.ca.uncletopia.com","port":27025,"enabled":true,"region":"us-east","cc":"ca","latitude":45.50889,"longitude":-73.56167,"reserved":0,"last_update":"0001-01-01T00:00:00Z","name_a2s":"Uncletopia | Montr√©al | 2 | All Maps","protocol":17,"map":"cp_snakewater_final1","folder":"tf","game":"Team Fortress","app_id":440,"player_count":0,"max_players":24,"Bots":0,"server_type":"Dedicated","server_os":"Linux","password":true,"vac":true,"version":"7757534","steam_id":85568392924500088,"keywords":["cp","nocrits","nodmgspread","uncletopia"],"game_id":440,"stv_port":27026,"stv_name":"Uncletopia | Montr√©al | 2 | All Maps | STV","players":null},{"server_id":302,"name":"Uncletopia | Montr√©al | 3 | All Maps","name_short":"mtl-3","host":"mtl-1.ca.uncletopia.com","port":27035,"enabled":true,"region":"us-east","cc":"ca","latitude":45.50889,"longitude":-73.56167,"reserved":0,"last_update":"0001-01-01T00:00:00Z","name_a2s":"Uncletopia | Montr√©al | 3 | All Maps","protocol":17,"map":"pl_borneo","folder":"tf","game":"Team Fortress","app_id":440,"player_count":0,"max_players":24,"Bots":0,"server_type":"Dedicated","server_os":"Linux","password":true,"vac":true,"version":"7757534","steam_id":85568392924500089,"keywords":["nocrits","nodmgspread","payload","uncletopia"],"game_id":440,"stv_port":27036,"stv_name":"Uncletopia | Montr√©al | 3 | All Maps | STV","players":null},{"server_id":303,"name":"Uncletopia | Montr√©al | 4 | No Payload","name_short":"mtl-4","host":"mtl-1.ca.uncletopia.com","port":27045,"enabled":true,"region":"us-east","cc":"ca","latitude":45.50889,"longitude":-73.56167,"reserved":0,"last_update":"0001-01-01T00:00:00Z","name_a2s":"Uncletopia | Montr√©al | 4 | No Payload","protocol":17,"map":"ctf_2fort","folder":"tf","game":"Team Fortress","app_id":440,"player_count":0,"max_players":24,"Bots":0,"server_type":"Dedicated","server_os":"Linux","password":true,"vac":true,"version":"7757534","steam_id":85568392924500090,"keywords":["ctf","nocrits","nodmgspread","uncletopia"],"game_id":440,"stv_port":27046,"stv_name":"Uncletopia | Montr√©al | 4 | No Payload | STV","players":null},{"server_id":13,"name":"Uncletopia | New York City | 1 | All Maps","name_short":"nyc-1","host":"nyc-1.us.uncletopia.com","port":27015,"enabled":true,"region":"us-east","cc":"us","latitude":40.73061,"longitude":-73.93524,"reserved":0,"last_update":"0001-01-01T00:00:00Z","name_a2s":"Uncletopia | New York City | 1 | All Maps","protocol":17,"map":"koth_viaduct","folder":"tf","game":"Team Fortress","app_id":440,"player_count":0,"max_players":24,"Bots":0,"server_type":"Dedicated","server_os":"Linux","password":true,"vac":true,"version":"7757534","steam_id":85568392924469993,"keywords":["cp","nocrits","nodmgspread","uncletopia"],"game_id":440,"stv_port":27016,"stv_name":"Uncletopia | New York City | 1 | All Maps | STV","players":null},{"server_id":14,"name":"Uncletopia | New York City | 2 | All Maps","name_short":"nyc-2","host":"nyc-1.us.uncletopia.com","port":27025,"enabled":true,"region":"us-east","cc":"us","latitude":40.73061,"longitude":-73.93524,"reserved":0,"last_update":"0001-01-01T00:00:00Z","name_a2s":"Uncletopia | New York City | 2 | All Maps","protocol":17,"map":"pl_frontier_final","folder":"tf","game":"Team Fortress","app_id":440,"player_count":22,"max_players":24,"Bots":0,"server_type":"Dedicated","server_os":"Linux","password":true,"vac":true,"version":"7757534","steam_id":85568392924469994,"keywords":["nocrits","nodmgspread","payload","uncletopia"],"game_id":440,"stv_port":27026,"stv_name":"Uncletopia | New York City | 2 | All Maps | STV","players":[{"user_id":634,"name":"NeoN","steam_id":76561198117608366,"connected_time":2486000000000,"state":"active","ping":26},{"user_id":651,"name":"Hentai Lord","steam_id":76561199030449654,"connected_time":1160000000000,"state":"active","ping":262},{"user_id":652,"name":"silver_lama","steam_id":76561198101132894,"connected_time":1124000000000,"state":"active","ping":68},{"user_id":603,"name":"evdoke","steam_id":76561198044555219,"connected_time":4745000000000,"state":"active","ping":46},{"user_id":649,"name":"fartmenk the viking raider","steam_id":76561199046766295,"connected_time":1339000000000,"state":"active","ping":53},{"user_id":627,"name":"Vera","steam_id":76561198090552029,"connected_time":2934000000000,"state":"active","ping":56},{"user_id":659,"name":"BlackholeJ_Media","steam_id":76561199031406531,"connected_time":742000000000,"state":"active","ping":132},{"user_id":660,"name":"lker","steam_id":76561197976975075,"connected_time":555000000000,"state":"active","ping":60},{"user_id":666,"name":"dying","steam_id":76561198044612407,"connected_time":92000000000,"state":"active","ping":51},{"user_id":560,"name":"Periculosum PhD in Funny","steam_id":76561198123370914,"connected_time":6883000000000,"state":"active","ping":92},{"user_id":643,"name":"oat milf","steam_id":76561198805266653,"connected_time":1678000000000,"state":"active","ping":78},{"user_id":654,"name":"FoxyTheFish","steam_id":76561199074190919,"connected_time":991000000000,"state":"active","ping":127},{"user_id":613,"name":"Legnarius","steam_id":76561198090842475,"connected_time":3632000000000,"state":"active","ping":109},{"user_id":655,"name":"Disasterday","steam_id":76561198044767090,"connected_time":952000000000,"state":"active","ping":134},{"user_id":665,"name":"TransFUNKe","steam_id":76561199234098237,"connected_time":180000000000,"state":"active","ping":79},{"user_id":656,"name":"Aribari (She/Her)","steam_id":76561198117327938,"connected_time":878000000000,"state":"active","ping":86},{"user_id":663,"name":"mr.edderkopper","steam_id":76561198152614478,"connected_time":311000000000,"state":"active","ping":66},{"user_id":664,"name":"mop","steam_id":76561198083853538,"connected_time":310000000000,"state":"active","ping":64},{"user_id":661,"name":"Skadewsh","steam_id":76561198102772209,"connected_time":529000000000,"state":"active","ping":64},{"user_id":625,"name":"NotThatGuyPal","steam_id":76561199127607812,"connected_time":3035000000000,"state":"active","ping":162},{"user_id":629,"name":"Cake-TEC","steam_id":76561198195351298,"connected_time":2836000000000,"state":"active","ping":121},{"user_id":647,"name":"NoobPwner","steam_id":76561199122289629,"connected_time":1456000000000,"state":"active","ping":131}]},{"server_id":15,"name":"Uncletopia | New York City | 3 | Stopwatch Beta","name_short":"nyc-3","host":"nyc-1.us.uncletopia.com","port":27035,"enabled":true,"region":"us-east","cc":"us","latitude":40.73061,"longitude":-73.93524,"reserved":0,"last_update":"0001-01-01T00:00:00Z","name_a2s":"Uncletopia | New York City | 3 | Stopwatch Beta","protocol":17,"map":"cp_gullywash_final1","folder":"tf","game":"Team Fortress","app_id":440,"player_count":0,"max_players":24,"Bots":0,"server_type":"Dedicated","server_os":"Linux","password":true,"vac":true,"version":"7757534","steam_id":85568392924742820,"keywords":["cp","nocrits","nodmgspread","uncletopia"],"game_id":440,"stv_port":27036,"stv_name":"Uncletopia | New York City | 3 | Stopwatch Beta | STV","players":null},{"server_id":16,"name":"Uncletopia | New York City | 4 | Community","name_short":"nyc-4","host":"nyc-1.us.uncletopia.com","port":27045,"enabled":true,"region":"us-east","cc":"us","latitude":40.73061,"longitude":-73.93524,"reserved":0,"last_update":"0001-01-01T00:00:00Z","name_a2s":"Uncletopia | New York City | 4 | Community","protocol":17,"map":"workshop/pl_divulgence_b4b.ugc2884808746","folder":"tf","game":"Team Fortress","app_id":440,"player_count":0,"max_players":24,"Bots":0,"server_type":"Dedicated","server_os":"Linux","password":true,"vac":true,"version":"7757534","steam_id":85568392924742821,"keywords":["nocrits","nodmgspread","payload","uncletopia"],"game_id":440,"stv_port":27046,"stv_name":"Uncletopia | New York City | 4 | Community | STV","players":null},{"server_id":142,"name":"Uncletopia | S√£o Paulo | 1 | All Maps","name_short":"sao-1","host":"sao-1.br.uncletopia.com","port":27015,"enabled":true,"region":"sa","cc":"br","latitude":-23.533773,"longitude":-46.62529,"reserved":0,"last_update":"0001-01-01T00:00:00Z","name_a2s":"Uncletopia | S√£o Paulo | 1 | All Maps","protocol":17,"map":"koth_highpass","folder":"tf","game":"Team Fortress","app_id":440,"player_count":0,"max_players":24,"Bots":0,"server_type":"Dedicated","server_os":"Linux","password":true,"vac":true,"version":"7757534","steam_id":85568392924469996,"keywords":["cp","nocrits","nodmgspread","uncletopia"],"game_id":440,"stv_port":27016,"stv_name":"Uncletopia | S√£o Paulo | 1 | All Maps | STV","players":null},{"server_id":143,"name":"Uncletopia | S√£o Paulo | 2 | All Maps","name_short":"sao-2","host":"sao-2.br.uncletopia.com","port":27015,"enabled":true,"region":"sa","cc":"br","latitude":-23.533773,"longitude":-46.62529,"reserved":0,"last_update":"0001-01-01T00:00:00Z","name_a2s":"Uncletopia | S√£o Paulo | 2 | All Maps","protocol":17,"map":"cp_dustbowl","folder":"tf","game":"Team Fortress","app_id":440,"player_count":0,"max_players":24,"Bots":0,"server_type":"Dedicated","server_os":"Linux","password":true,"vac":true,"version":"7757534","steam_id":85568392924485349,"keywords":["cp","nocrits","nodmgspread","uncletopia"],"game_id":440,"stv_port":27016,"stv_name":"Uncletopia | S√£o Paulo | 2 | All Maps | STV","players":null},{"server_id":7,"name":"Uncletopia | Seattle | 1 | All Maps","name_short":"sea-1","host":"sea-1.us.uncletopia.com","port":27015,"enabled":true,"region":"us-west","cc":"us","latitude":47.608013,"longitude":-122.33517,"reserved":0,"last_update":"0001-01-01T00:00:00Z","name_a2s":"Uncletopia | Seattle | 1 | All Maps","protocol":17,"map":"pl_borneo","folder":"tf","game":"Team Fortress","app_id":440,"player_count":24,"max_players":24,"Bots":0,"server_type":"Dedicated","server_os":"Linux","password":true,"vac":true,"version":"7757534","steam_id":85568392924469997,"keywords":["nocrits","nodmgspread","payload","uncletopia"],"game_id":440,"stv_port":27016,"stv_name":"Uncletopia | Seattle | 1 | All Maps | STV","players":[{"user_id":921,"name":"Keamy","steam_id":76561199471434875,"connected_time":1263000000000,"state":"active","ping":41},{"user_id":938,"name":"what da dog doin","steam_id":76561198090573639,"connected_time":569000000000,"state":"active","ping":70},{"user_id":931,"name":"Algerian Egirl :3c","steam_id":76561198349345477,"connected_time":971000000000,"state":"active","ping":100},{"user_id":897,"name":"NuclearPotato","steam_id":76561198144492000,"connected_time":2200000000000,"state":"active","ping":63},{"user_id":885,"name":"FidelGuevara","steam_id":76561198368296171,"connected_time":3447000000000,"state":"active","ping":111},{"user_id":925,"name":"mu","steam_id":76561197997530228,"connected_time":1063000000000,"state":"active","ping":53},{"user_id":811,"name":"‚ô•haunti","steam_id":76561199235580556,"connected_time":8608000000000,"state":"active","ping":48},{"user_id":932,"name":"AzuriousAlex","steam_id":76561198158026405,"connected_time":954000000000,"state":"active","ping":87},{"user_id":927,"name":"Shimmy","steam_id":76561198004702936,"connected_time":1052000000000,"state":"active","ping":119},{"user_id":935,"name":"ChuChu","steam_id":76561199443647976,"connected_time":747000000000,"state":"active","ping":107},{"user_id":942,"name":"Iluvasianmommies","steam_id":76561199025394467,"connected_time":144000000000,"state":"active","ping":66},{"user_id":933,"name":"forest (girldick)","steam_id":76561198157960257,"connected_time":881000000000,"state":"active","ping":48},{"user_id":937,"name":"Leidon","steam_id":76561198078386945,"connected_time":642000000000,"state":"active","ping":82},{"user_id":916,"name":"Grassman (Cc)","steam_id":76561198026488532,"connected_time":1734000000000,"state":"active","ping":61},{"user_id":904,"name":"Drake from State Farm","steam_id":76561199069029812,"connected_time":1918000000000,"state":"active","ping":73},{"user_id":912,"name":"King Lionidus","steam_id":76561199085352588,"connected_time":1739000000000,"state":"active","ping":61},{"user_id":920,"name":"HalfLifeFan2309","steam_id":76561199032414180,"connected_time":1638000000000,"state":"active","ping":54},{"user_id":941,"name":"littlerikky","steam_id":76561199054130346,"connected_time":268000000000,"state":"active","ping":54},{"user_id":917,"name":"TRex","steam_id":76561199085081982,"connected_time":1732000000000,"state":"active","ping":76},{"user_id":939,"name":"tobrehto","steam_id":76561198097544038,"connected_time":444000000000,"state":"active","ping":86},{"user_id":940,"name":"kips","steam_id":76561198047171706,"connected_time":432000000000,"state":"active","ping":46},{"user_id":803,"name":"SvicidalBug","steam_id":76561198221390504,"connected_time":9228000000000,"state":"active","ping":69},{"user_id":930,"name":"Ekuseebia","steam_id":76561198037504112,"connected_time":1016000000000,"state":"active","ping":84},{"user_id":919,"name":"yawn","steam_id":76561198067753179,"connected_time":1719000000000,"state":"active","ping":65}]},{"server_id":119,"name":"Uncletopia | Seattle | 2 | All Maps","name_short":"sea-2","host":"sea-1.us.uncletopia.com","port":27025,"enabled":true,"region":"us-west","cc":"us","latitude":47.608013,"longitude":-122.33517,"reserved":0,"last_update":"0001-01-01T00:00:00Z","name_a2s":"Uncletopia | Seattle | 2 | All Maps","protocol":17,"map":"pl_snowycoast","folder":"tf","game":"Team Fortress","app_id":440,"player_count":24,"max_players":24,"Bots":0,"server_type":"Dedicated","server_os":"Linux","password":true,"vac":true,"version":"7757534","steam_id":85568392924469998,"keywords":["nocrits","nodmgspread","payload","uncletopia"],"game_id":440,"stv_port":27026,"stv_name":"Uncletopia | Seattle | 2 | All Maps | STV","players":[{"user_id":698,"name":"Buswolley","steam_id":76561197995205571,"connected_time":5401000000000,"state":"active","ping":67},{"user_id":712,"name":"PinguEnjoyer6","steam_id":76561199186723516,"connected_time":3960000000000,"state":"active","ping":67},{"user_id":753,"name":"(TPT) Ghost","steam_id":76561198123262873,"connected_time":631000000000,"state":"active","ping":87},{"user_id":740,"name":"i love macdonad","steam_id":76561198975706117,"connected_time":1062000000000,"state":"active","ping":69},{"user_id":760,"name":"ferby","steam_id":76561198028229594,"connected_time":419000000000,"state":"active","ping":62},{"user_id":745,"name":"Finkly","steam_id":76561198049828110,"connected_time":957000000000,"state":"active","ping":45},{"user_id":727,"name":"goongremlin","steam_id":76561198278196215,"connected_time":2301000000000,"state":"active","ping":66},{"user_id":757,"name":"Thexx ‚ù§","steam_id":76561198113823050,"connected_time":544000000000,"state":"active","ping":48},{"user_id":759,"name":"Goat","steam_id":76561198130683707,"connected_time":425000000000,"state":"active","ping":76},{"user_id":761,"name":"mippa","steam_id":76561198019033274,"connected_time":305000000000,"state":"active","ping":52},{"user_id":661,"name":"‚ô¶Benji‚ô¶","steam_id":76561198313529973,"connected_time":7617000000000,"state":"active","ping":43},{"user_id":710,"name":"SolarusD","steam_id":76561198029279861,"connected_time":4188000000000,"state":"active","ping":61},{"user_id":746,"name":"Rustyorion","steam_id":76561198439186347,"connected_time":898000000000,"state":"active","ping":53},{"user_id":758,"name":"‡πñ√êiestow","steam_id":76561198046662484,"connected_time":509000000000,"state":"active","ping":140},{"user_id":762,"name":"Currentdoor","steam_id":76561198046681520,"connected_time":261000000000,"state":"active","ping":124},{"user_id":749,"name":"XxX420UwUMaster666XxX","steam_id":76561199351137762,"connected_time":824000000000,"state":"active","ping":57},{"user_id":750,"name":"Amazing476","steam_id":76561198103937489,"connected_time":818000000000,"state":"active","ping":101},{"user_id":752,"name":"diversity hire","steam_id":76561198022967929,"connected_time":703000000000,"state":"active","ping":78},{"user_id":754,"name":"CreamFreaker","steam_id":76561198320293423,"connected_time":627000000000,"state":"active","ping":56},{"user_id":755,"name":"TacoKaiju","steam_id":76561198374190188,"connected_time":579000000000,"state":"active","ping":136},{"user_id":731,"name":"Skagerecked","steam_id":76561198006578524,"connected_time":2127000000000,"state":"active","ping":58},{"user_id":763,"name":"DAYTONA","steam_id":76561198061975847,"connected_time":236000000000,"state":"active","ping":81},{"user_id":764,"name":"RED","steam_id":76561198030282308,"connected_time":113000000000,"state":"active","ping":70},{"user_id":722,"name":"boczek","steam_id":76561198093165317,"connected_time":3239000000000,"state":"active","ping":62}]},{"server_id":406,"name":"Uncletopia | Seattle | 3 | Stopwatch Beta","name_short":"sea-3","host":"sea-1.us.uncletopia.com","port":27035,"enabled":true,"region":"us-west","cc":"us","latitude":47.608013,"longitude":-122.33517,"reserved":0,"last_update":"0001-01-01T00:00:00Z","name_a2s":"Uncletopia | Seattle | 3 | Stopwatch Beta","protocol":17,"map":"cp_gullywash_final1","folder":"tf","game":"Team Fortress","app_id":440,"player_count":0,"max_players":24,"Bots":0,"server_type":"Dedicated","server_os":"Linux","password":true,"vac":true,"version":"7757534","steam_id":85568392924515217,"keywords":["cp","nocrits","nodmgspread","uncletopia"],"game_id":440,"stv_port":27036,"stv_name":"Uncletopia | Seattle | 3 | Stopwatch Beta | STV","players":null},{"server_id":17,"name":"Uncletopia | San Francisco | 1 | All Maps","name_short":"sfo-1","host":"sfo-1.us.uncletopia.com","port":27015,"enabled":true,"region":"us-west","cc":"us","latitude":37.77397,"longitude":-122.4313,"reserved":0,"last_update":"0001-01-01T00:00:00Z","name_a2s":"Uncletopia | San Francisco | 1 | All Maps","protocol":17,"map":"pl_swiftwater_final1","folder":"tf","game":"Team Fortress","app_id":440,"player_count":19,"max_players":24,"Bots":0,"server_type":"Dedicated","server_os":"Linux","password":true,"vac":true,"version":"7757534","steam_id":85568392924469999,"keywords":["nocrits","nodmgspread","payload","uncletopia"],"game_id":440,"stv_port":27016,"stv_name":"Uncletopia | San Francisco | 1 | All Maps | STV","players":[{"user_id":333,"name":"Crunchy","steam_id":76561198240523882,"connected_time":137000000000,"state":"active","ping":59},{"user_id":336,"name":"Ian","steam_id":76561198159334435,"connected_time":10000000000,"state":"active","ping":185},{"user_id":332,"name":"brian griffin","steam_id":76561198846480611,"connected_time":299000000000,"state":"active","ping":53},{"user_id":326,"name":"Nova Academy of Salmon Action","steam_id":76561198021842526,"connected_time":1123000000000,"state":"active","ping":58},{"user_id":335,"name":"Jezzus","steam_id":76561199289676387,"connected_time":94000000000,"state":"active","ping":104},{"user_id":295,"name":"mega","steam_id":76561198089520959,"connected_time":4411000000000,"state":"active","ping":101},{"user_id":329,"name":"mela ‚ô°","steam_id":76561198301598124,"connected_time":675000000000,"state":"active","ping":83},{"user_id":328,"name":"vanillain","steam_id":76561198058617608,"connected_time":981000000000,"state":"active","ping":60},{"user_id":306,"name":"KOOLAID","steam_id":76561198062775462,"connected_time":3331000000000,"state":"active","ping":50},{"user_id":246,"name":"THE DOUBLE DONKER","steam_id":76561199442139670,"connected_time":7790000000000,"state":"active","ping":114},{"user_id":337,"name":"owl","steam_id":76561198105374054,"connected_time":3000000000,"state":"spawning","ping":64},{"user_id":309,"name":"cringy","steam_id":76561198323000455,"connected_time":2246000000000,"state":"active","ping":74},{"user_id":318,"name":"Gm_Trash","steam_id":76561199445091548,"connected_time":2144000000000,"state":"active","ping":69},{"user_id":316,"name":"hardfork","steam_id":76561197960958019,"connected_time":2178000000000,"state":"active","ping":60},{"user_id":331,"name":"Maid 'n' China","steam_id":76561198423392976,"connected_time":468000000000,"state":"active","ping":56},{"user_id":317,"name":"Livin' Like Larry","steam_id":76561198313360974,"connected_time":2160000000000,"state":"active","ping":35},{"user_id":247,"name":"Mango Pod","steam_id":76561199093733603,"connected_time":7785000000000,"state":"active","ping":58},{"user_id":327,"name":"ü§®","steam_id":76561199365672047,"connected_time":1121000000000,"state":"active","ping":130},{"user_id":301,"name":"wlfgng","steam_id":76561198316639499,"connected_time":4053000000000,"state":"active","ping":21}]},{"server_id":18,"name":"Uncletopia | San Francisco | 2 | All Maps","name_short":"sfo-2","host":"sfo-1.us.uncletopia.com","port":27025,"enabled":true,"region":"us-west","cc":"us","latitude":37.77397,"longitude":-122.4313,"reserved":0,"last_update":"0001-01-01T00:00:00Z","name_a2s":"Uncletopia | San Francisco | 2 | All Maps","protocol":17,"map":"koth_cascade","folder":"tf","game":"Team Fortress","app_id":440,"player_count":0,"max_players":24,"Bots":0,"server_type":"Dedicated","server_os":"Linux","password":true,"vac":true,"version":"7757534","steam_id":85568392924470000,"keywords":["cp","nocrits","nodmgspread","uncletopia"],"game_id":440,"stv_port":27026,"stv_name":"Uncletopia | San Francisco | 2 | All Maps | STV","players":null},{"server_id":19,"name":"Uncletopia | San Francisco | 3 | Stopwatch Beta","name_short":"sfo-3","host":"sfo-1.us.uncletopia.com","port":27035,"enabled":true,"region":"us-west","cc":"us","latitude":37.77397,"longitude":-122.4313,"reserved":0,"last_update":"0001-01-01T00:00:00Z","name_a2s":"Uncletopia | San Francisco | 3 | Stopwatch Beta","protocol":17,"map":"koth_highpass","folder":"tf","game":"Team Fortress","app_id":440,"player_count":0,"max_players":24,"Bots":0,"server_type":"Dedicated","server_os":"Linux","password":true,"vac":true,"version":"7757534","steam_id":85568392924742824,"keywords":["cp","nocrits","nodmgspread","uncletopia"],"game_id":440,"stv_port":27036,"stv_name":"Uncletopia | San Francisco | 3 | Stopwatch Beta | STV","players":null},{"server_id":20,"name":"Uncletopia | San Francisco | 4 | Community","name_short":"sfo-4","host":"sfo-1.us.uncletopia.com","port":27045,"enabled":true,"region":"us-west","cc":"us","latitude":37.77397,"longitude":-122.4313,"reserved":0,"last_update":"0001-01-01T00:00:00Z","name_a2s":"Uncletopia | San Francisco | 4 | Community","protocol":17,"map":"workshop/koth_product_final.ugc454272353","folder":"tf","game":"Team Fortress","app_id":440,"player_count":0,"max_players":24,"Bots":0,"server_type":"Dedicated","server_os":"Linux","password":true,"vac":true,"version":"7757534","steam_id":85568392924742826,"keywords":["cp","nocrits","nodmgspread","uncletopia"],"game_id":440,"stv_port":27046,"stv_name":"Uncletopia | San Francisco | 4 | Community | STV","players":null},{"server_id":141,"name":"Uncletopia | Sydney | 1 | All Maps","name_short":"syd-1","host":"syd-1.au.uncletopia.com","port":27015,"enabled":true,"region":"au","cc":"au","latitude":-33.865143,"longitude":151.2099,"reserved":0,"last_update":"0001-01-01T00:00:00Z","name_a2s":"Uncletopia | Sydney | 1 | All Maps","protocol":17,"map":"koth_harvest_final","folder":"tf","game":"Team Fortress","app_id":440,"player_count":16,"max_players":24,"Bots":0,"server_type":"Dedicated","server_os":"Linux","password":true,"vac":true,"version":"7757534","steam_id":85568392924470001,"keywords":["cp","nocrits","nodmgspread","uncletopia"],"game_id":440,"stv_port":27016,"stv_name":"Uncletopia | Sydney | 1 | All Maps | STV","players":[{"user_id":159,"name":"Mr Doctor","steam_id":76561198081415999,"connected_time":2890000000000,"state":"active","ping":68},{"user_id":192,"name":"YOU'RE WRONG ! SULFIRIC ACID!","steam_id":76561199174449723,"connected_time":237000000000,"state":"active","ping":160},{"user_id":194,"name":"blicky","steam_id":76561198029829077,"connected_time":111000000000,"state":"active","ping":95},{"user_id":143,"name":"Shadow Puppeteer","steam_id":76561198151121997,"connected_time":4084000000000,"state":"active","ping":75},{"user_id":174,"name":"korn","steam_id":76561198022563294,"connected_time":1898000000000,"state":"active","ping":100},{"user_id":133,"name":"Eugene (built different)","steam_id":76561198079108027,"connected_time":4790000000000,"state":"active","ping":55},{"user_id":74,"name":"Rashid Of The Dank Memes","steam_id":76561198281398078,"connected_time":8746000000000,"state":"active","ping":63},{"user_id":188,"name":"Cyrome","steam_id":76561198049602369,"connected_time":462000000000,"state":"active","ping":106},{"user_id":184,"name":"Comedy Mode","steam_id":76561198293250088,"connected_time":1112000000000,"state":"active","ping":108},{"user_id":161,"name":"Rodan","steam_id":76561198038401873,"connected_time":2807000000000,"state":"active","ping":83},{"user_id":156,"name":"Jodelk√∂nig Franzl Lang","steam_id":76561198007667830,"connected_time":3238000000000,"state":"active","ping":45},{"user_id":185,"name":"itsnothenry","steam_id":76561197966455767,"connected_time":924000000000,"state":"active","ping":55},{"user_id":179,"name":"FrotLord","steam_id":76561198808858006,"connected_time":1524000000000,"state":"active","ping":57},{"user_id":93,"name":"Marmalade Cat","steam_id":76561198086309767,"connected_time":7833000000000,"state":"active","ping":61},{"user_id":187,"name":"wackel","steam_id":76561198091003826,"connected_time":469000000000,"state":"active","ping":60},{"user_id":139,"name":"eekynetwo(F2P Piss Sniper)","steam_id":76561198990017441,"connected_time":4522000000000,"state":"active","ping":148}]},{"server_id":123,"name":"Uncletopia | Sydney | 2 | All Maps","name_short":"syd-2","host":"syd-1.au.uncletopia.com","port":27025,"enabled":true,"region":"au","cc":"au","latitude":-33.865143,"longitude":151.2099,"reserved":0,"last_update":"0001-01-01T00:00:00Z","name_a2s":"Uncletopia | Sydney | 2 | All Maps","protocol":17,"map":"pl_pier","folder":"tf","game":"Team Fortress","app_id":440,"player_count":13,"max_players":24,"Bots":0,"server_type":"Dedicated","server_os":"Linux","password":true,"vac":true,"version":"7757534","steam_id":85568392924470002,"keywords":["nocrits","nodmgspread","payload","uncletopia"],"game_id":440,"stv_port":27026,"stv_name":"Uncletopia | Sydney | 2 | All Maps | STV","players":[{"user_id":20,"name":"smite","steam_id":76561198845304189,"connected_time":909000000000,"state":"active","ping":83},{"user_id":22,"name":"CypressFluff (She/Her)","steam_id":76561198174667818,"connected_time":777000000000,"state":"active","ping":54},{"user_id":36,"name":"Candler","steam_id":76561198302841509,"connected_time":28000000000,"state":"active","ping":59},{"user_id":15,"name":"blaze","steam_id":76561198241303512,"connected_time":1181000000000,"state":"active","ping":52},{"user_id":19,"name":"you have been deemed, Gilbert","steam_id":76561198301282416,"connected_time":930000000000,"state":"active","ping":50},{"user_id":33,"name":"Phobia¬≤","steam_id":76561198038833524,"connected_time":261000000000,"state":"active","ping":52},{"user_id":24,"name":"Livid","steam_id":76561198060024585,"connected_time":698000000000,"state":"active","ping":38},{"user_id":27,"name":"the frail","steam_id":76561198025099660,"connected_time":582000000000,"state":"active","ping":39},{"user_id":26,"name":"perturb","steam_id":76561198085124297,"connected_time":652000000000,"state":"active","ping":45},{"user_id":28,"name":"skrungly lil guy","steam_id":76561198048064049,"connected_time":573000000000,"state":"active","ping":79},{"user_id":30,"name":"horrid creature ·òõ‚ÅêÃ§·ïê·ê∑","steam_id":76561198061998379,"connected_time":396000000000,"state":"active","ping":52},{"user_id":32,"name":"google image search BLADEE","steam_id":76561198836003115,"connected_time":363000000000,"state":"active","ping":63},{"user_id":35,"name":"L.ion","steam_id":76561198261172910,"connected_time":136000000000,"state":"active","ping":50}]},{"server_id":395,"name":"Uncletopia | Sydney | 3 | All Maps","name_short":"syd-3","host":"syd-1.au.uncletopia.com","port":27035,"enabled":true,"region":"au","cc":"au","latitude":-33.865143,"longitude":151.2099,"reserved":0,"last_update":"0001-01-01T00:00:00Z","name_a2s":"Uncletopia | Sydney | 3 | All Maps","protocol":17,"map":"pl_swiftwater_final1","folder":"tf","game":"Team Fortress","app_id":440,"player_count":5,"max_players":24,"Bots":0,"server_type":"Dedicated","server_os":"Linux","password":true,"vac":true,"version":"7757534","steam_id":85568392925194467,"keywords":["nocrits","nodmgspread","payload","uncletopia"],"game_id":440,"stv_port":27036,"stv_name":"Uncletopia | Sydney | 3 | All Maps | STV","players":[{"user_id":7,"name":"pixerler2point0","steam_id":76561199102787464,"connected_time":643000000000,"state":"active","ping":61},{"user_id":8,"name":"SuperNinja1273","steam_id":76561199447087375,"connected_time":532000000000,"state":"active","ping":56},{"user_id":9,"name":"Dumpster Dwarf","steam_id":76561198402700754,"connected_time":440000000000,"state":"active","ping":65},{"user_id":10,"name":"MININinja1308","steam_id":76561199040303660,"connected_time":280000000000,"state":"active","ping":52},{"user_id":11,"name":"Crow73","steam_id":76561199103450863,"connected_time":11000000000,"state":"spawning","ping":296}]},{"server_id":396,"name":"Uncletopia | Sydney | 4 | All Maps","name_short":"syd-4","host":"syd-1.au.uncletopia.com","port":27045,"enabled":true,"region":"au","cc":"au","latitude":-33.865143,"longitude":151.2099,"reserved":0,"last_update":"0001-01-01T00:00:00Z","name_a2s":"Uncletopia | Sydney | 4 | All Maps","protocol":17,"map":"koth_highpass","folder":"tf","game":"Team Fortress","app_id":440,"player_count":0,"max_players":24,"Bots":0,"server_type":"Dedicated","server_os":"Linux","password":true,"vac":true,"version":"7757534","steam_id":85568392925397958,"keywords":["cp","nocrits","nodmgspread","uncletopia"],"game_id":440,"stv_port":27046,"stv_name":"Uncletopia | Sydney | 4 | All Maps | STV","players":null},{"server_id":58,"name":"Uncletopia | Sydney | 5 | Stopwatch Beta","name_short":"syd-5","host":"syd-1.au.uncletopia.com","port":27055,"enabled":true,"region":"au","cc":"au","latitude":-33.865143,"longitude":151.2099,"reserved":0,"last_update":"0001-01-01T00:00:00Z","name_a2s":"Uncletopia | Sydney | 5 | Stopwatch Beta","protocol":17,"map":"koth_cascade","folder":"tf","game":"Team Fortress","app_id":440,"player_count":0,"max_players":24,"Bots":0,"server_type":"Dedicated","server_os":"Linux","password":true,"vac":true,"version":"7757534","steam_id":85568392925397959,"keywords":["cp","nocrits","nodmgspread","uncletopia"],"game_id":440,"stv_port":27056,"stv_name":"Uncletopia | Sydney | 5 | Stopwatch Beta | STV","players":null},{"server_id":59,"name":"Uncletopia | Sydney | 6 | Community","name_short":"syd-6","host":"syd-1.au.uncletopia.com","port":27065,"enabled":true,"region":"au","cc":"au","latitude":-33.865143,"longitude":151.2099,"reserved":0,"last_update":"0001-01-01T00:00:00Z","name_a2s":"Uncletopia | Sydney | 6 | Community","protocol":17,"map":"workshop/pl_corrode_rc2.ugc546577989","folder":"tf","game":"Team Fortress","app_id":440,"player_count":0,"max_players":24,"Bots":0,"server_type":"Dedicated","server_os":"Linux","password":true,"vac":true,"version":"7757534","steam_id":85568392925397960,"keywords":["nocrits","nodmgspread","payload","uncletopia"],"game_id":440,"stv_port":27066,"stv_name":"Uncletopia | Sydney | 6 | Community | STV","players":null},{"server_id":49,"name":"Uncletopia | Warsaw | 1 | All Maps","name_short":"waw-1","host":"waw-1.pl.uncletopia.com","port":27015,"enabled":true,"region":"eu","cc":"pl","latitude":52.2297,"longitude":21.017532,"reserved":0,"last_update":"0001-01-01T00:00:00Z","name_a2s":"","protocol":0,"map":"","folder":"","game":"","app_id":0,"player_count":0,"max_players":0,"Bots":0,"server_type":"","server_os":"","password":false,"vac":false,"version":"","steam_id":0,"keywords":null,"game_id":0,"stv_port":0,"stv_name":"","players":null},{"server_id":50,"name":"Uncletopia | Warsaw | 2 | All Maps","name_short":"waw-2","host":"waw-1.pl.uncletopia.com","port":27025,"enabled":true,"region":"eu","cc":"pl","latitude":52.2297,"longitude":21.017532,"reserved":0,"last_update":"0001-01-01T00:00:00Z","name_a2s":"Uncletopia | Warsaw | 2 | All Maps","protocol":17,"map":"koth_viaduct","folder":"tf","game":"Team Fortress","app_id":440,"player_count":0,"max_players":24,"Bots":0,"server_type":"Dedicated","server_os":"Linux","password":true,"vac":true,"version":"7757534","steam_id":85568392925397851,"keywords":["cp","nocrits","nodmgspread","uncletopia"],"game_id":440,"stv_port":27026,"stv_name":"Uncletopia | Warsaw | 2 | All Maps | STV","players":null},{"server_id":51,"name":"Uncletopia | Warsaw | 3 | All Maps","name_short":"waw-3","host":"waw-1.pl.uncletopia.com","port":27035,"enabled":true,"region":"eu","cc":"pl","latitude":52.2297,"longitude":21.017532,"reserved":0,"last_update":"0001-01-01T00:00:00Z","name_a2s":"Uncletopia | Warsaw | 3 | All Maps","protocol":17,"map":"pl_badwater","folder":"tf","game":"Team Fortress","app_id":440,"player_count":0,"max_players":24,"Bots":0,"server_type":"Dedicated","server_os":"Linux","password":true,"vac":true,"version":"7757534","steam_id":85568392925397852,"keywords":["nocrits","nodmgspread","payload","uncletopia"],"game_id":440,"stv_port":27036,"stv_name":"Uncletopia | Warsaw | 3 | All Maps | STV","players":null},{"server_id":52,"name":"Uncletopia | Warsaw | 4 | All Maps","name_short":"waw-4","host":"waw-1.pl.uncletopia.com","port":27045,"enabled":true,"region":"eu","cc":"pl","latitude":52.2297,"longitude":21.017532,"reserved":0,"last_update":"0001-01-01T00:00:00Z","name_a2s":"Uncletopia | Warsaw | 4 | All Maps","protocol":17,"map":"koth_lakeside_final","folder":"tf","game":"Team Fortress","app_id":440,"player_count":0,"max_players":24,"Bots":0,"server_type":"Dedicated","server_os":"Linux","password":true,"vac":true,"version":"7757534","steam_id":85568392925397853,"keywords":["cp","nocrits","nodmgspread","uncletopia"],"game_id":440,"stv_port":27046,"stv_name":"Uncletopia | Warsaw | 4 | All Maps | STV","players":null},{"server_id":53,"name":"Uncletopia | Warsaw | 5 | Stopwatch Beta","name_short":"waw-5","host":"waw-1.pl.uncletopia.com","port":27055,"enabled":true,"region":"eu","cc":"pl","latitude":52.2297,"longitude":21.017532,"reserved":0,"last_update":"0001-01-01T00:00:00Z","name_a2s":"Uncletopia | Warsaw | 5 | Stopwatch Beta","protocol":17,"map":"pl_borneo","folder":"tf","game":"Team Fortress","app_id":440,"player_count":0,"max_players":24,"Bots":0,"server_type":"Dedicated","server_os":"Linux","password":true,"vac":true,"version":"7757534","steam_id":85568392925397854,"keywords":["nocrits","nodmgspread","payload","uncletopia"],"game_id":440,"stv_port":27056,"stv_name":"Uncletopia | Warsaw | 5 | Stopwatch Beta | STV","players":null},{"server_id":54,"name":"Uncletopia | Warsaw | 6 | Community","name_short":"waw-6","host":"waw-1.pl.uncletopia.com","port":27065,"enabled":true,"region":"eu","cc":"pl","latitude":52.2297,"longitude":21.017532,"reserved":0,"last_update":"0001-01-01T00:00:00Z","name_a2s":"Uncletopia | Warsaw | 6 | Community","protocol":17,"map":"koth_lakeside_final","folder":"tf","game":"Team Fortress","app_id":440,"player_count":0,"max_players":24,"Bots":0,"server_type":"Dedicated","server_os":"Linux","password":true,"vac":true,"version":"7757534","steam_id":85568392925397856,"keywords":["cp","nocrits","nodmgspread","uncletopia"],"game_id":440,"stv_port":27066,"stv_name":"Uncletopia | Warsaw | 6 | Community | STV","players":null}]}