{"status":true,"message":"","result":[{"server_id":9,"name":"Uncletopia | Atlanta | 1 | All Maps","name_short":"atl-1","host":"atl-1.us.uncletopia.com","port":27015,"enabled":true,"region":"us-east","cc":"us","latitude":33.753746,"longitude":-84.38633,"reserved":0,"last_update":"0001-01-01T00:00:00Z","name_a2s":"Uncletopia | Atlanta | 1 | All Maps","protocol":17,"map":"koth_cascade","folder":"tf","game":"Team Fortress","app_id":440,"player_count":0,"max_players":24,"Bots":0,"server_type":"Dedicated","server_os":"Linux","password":true,"vac":true,"version":"7695204","steam_id":85568392924469982,"keywords":["cp","nocrits","nodmgspread","uncletopia"],"game_id":440,"stv_port":0,"stv_name":"","players":null},{"server_id":400,"name":"Uncletopia | Atlanta | 3 | All Maps","name_short":"atl-3","host":"atl-1.us.uncletopia.com","port":27035,"enabled":true,"region":"us-east","cc":"us","latitude":33.753746,"longitude":-84.38633,"reserved":0,"last_update":"0001-01-01T00:00:00Z","name_a2s":"Uncletopia | Atlanta | 3 | All Maps","protocol":17,"map":"pl_frontier_final","folder":"tf","game":"Team Fortress","app_id":440,"player_count":0,"max_players":24,"Bots":0,"server_type":"Dedicated","server_os":"Linux","password":true,"vac":true,"version":"7695204","steam_id":85568392924515187,"keywords":["nocrits","nodmgspread","payload","uncletopia"],"game_id":440,"stv_port":0,"stv_name":"","players":null},{"server_id":401,"name":"Uncletopia | Atlanta | 4 | No Payload","name_short":"atl-4","host":"atl-1.us.uncletopia.com","port":27045,"enabled":true,"region":"us-east","cc":"us","latitude":33.753746,"longitude":-84.38633,"reserved":0,"last_update":"0001-01-01T00:00:00Z","name_a2s":"Uncletopia | Atlanta | 4 | No Payload","protocol":17,"map":"cp_snakewater_final1","folder":"tf","game":"Team Fortress","app_id":440,"player_count":0,"max_players":24,"Bots":0,"server_type":"Dedicated","server_os":"Linux","password":true,"vac":true,"version":"7695204","steam_id":85568392924515188,"keywords":["cp","nocrits","nodmgspread","uncletopia"],"game_id":440,"stv_port":0,"stv_name":"","players":null},{"server_id":2,"name":"Uncletopia | Chicago | 1 | All Maps","name_short":"chi-1","host":"chi-1.us.uncletopia.com","port":27015,"enabled":true,"region":"us-central","cc":"us","latitude":41.881832,"longitude":-87.62318,"reserved":0,"last_update":"0001-01-01T00:00:00Z","name_a2s":"Uncletopia | Chicago | 1 | All Maps","protocol":17,"map":"koth_cascade","folder":"tf","game":"Team Fortress","app_id":440,"player_count":0,"max_players":24,"Bots":0,"server_type":"Dedicated","server_os":"Linux","password":true,"vac":true,"version":"7695204","steam_id":85568392924469984,"keywords":["cp","nocrits","nodmgspread","uncletopia"],"game_id":440,"stv_port":27016,"stv_name":"Uncletopia | Chicago | 1 | All Maps | STV","players":null},{"server_id":106,"name":"Uncletopia | Chicago | 2 | All Maps","name_short":"chi-2","host":"chi-1.us.uncletopia.com","port":27025,"enabled":true,"region":"us-central","cc":"us","latitude":41.881832,"longitude":-87.62318,"reserved":0,"last_update":"0001-01-01T00:00:00Z","name_a2s":"Uncletopia | Chicago | 2 | All Maps","protocol":17,"map":"pl_swiftwater_final1","folder":"tf","game":"Team Fortress","app_id":440,"player_count":0,"max_players":24,"Bots":0,"server_type":"Dedicated","server_os":"Linux","password":true,"vac":true,"version":"7695204","steam_id":85568392924469985,"keywords":["nocrits","nodmgspread","payload","uncletopia"],"game_id":440,"stv_port":27026,"stv_name":"Uncletopia | Chicago | 2 | All Maps | STV","players":null},{"server_id":402,"name":"Uncletopia | Chicago | 3 | All Maps","name_short":"chi-3","host":"chi-1.us.uncletopia.com","port":27035,"enabled":true,"region":"us-central","cc":"us","latitude":41.881832,"longitude":-87.62318,"reserved":0,"last_update":"0001-01-01T00:00:00Z","name_a2s":"Uncletopia | Chicago | 3 | All Maps","protocol":17,"map":"koth_highpass","folder":"tf","game":"Team Fortress","app_id":440,"player_count":0,"max_players":24,"Bots":0,"server_type":"Dedicated","server_os":"Linux","password":true,"vac":true,"version":"7695204","steam_id":85568392924515191,"keywords":["cp","nocrits","nodmgspread","uncletopia"],"game_id":440,"stv_port":27036,"stv_name":"Uncletopia | Chicago | 3 | All Maps | STV","players":null},{"server_id":403,"name":"Uncletopia | Chicago | 4 | All Maps","name_short":"chi-4","host":"chi-1.us.uncletopia.com","port":27045,"enabled":true,"region":"us-central","cc":"us","latitude":41.881832,"longitude":-87.62318,"reserved":0,"last_update":"0001-01-01T00:00:00Z","name_a2s":"Uncletopia | Chicago | 4 | All Maps","protocol":17,"map":"pl_swiftwater_final1","folder":"tf","game":"Team Fortress","app_id":440,"player_count":0,"max_players":24,"Bots":0,"server_type":"Dedicated","server_os":"Linux","password":true,"vac":true,"version":"7695204","steam_id":85568392924515193,"keywords":["nocrits","nodmgspread","payload","uncletopia"],"game_id":440,"stv_port":27046,"stv_name":"Uncletopia | Chicago | 4 | All Maps | STV","players":null},{"server_id":36,"name":"Uncletopia | Chicago | 5 | All Maps","name_short":"chi-5","host":"chi-2.us.uncletopia.com","port":27015,"enabled":true,"region":"us-central","cc":"us","latitude":41.881832,"longitude":-87.62318,"reserved":0,"last_update":"0001-01-01T00:00:00Z","name_a2s":"Uncletopia | Chicago | 5 | All Maps","protocol":17,"map":"cp_mountainlab","folder":"tf","game":"Team Fortress","app_id":440,"player_count":0,"max_players":24,"Bots":0,"server_type":"Dedicated","server_os":"Linux","password":true,"vac":true,"version":"7695204","steam_id":85568392924866362,"keywords":["cp","nocrits","nodmgspread","uncletopia"],"game_id":440,"stv_port":27016,"stv_name":"Uncletopia | Chicago | 5 | All Maps | STV","players":null},{"server_id":37,"name":"Uncletopia | Chicago | 6 | All Maps","name_short":"chi-6","host":"chi-2.us.uncletopia.com","port":27025,"enabled":true,"region":"us-central","cc":"us","latitude":41.881832,"longitude":-87.62318,"reserved":0,"last_update":"0001-01-01T00:00:00Z","name_a2s":"Uncletopia | Chicago | 6 | All Maps","protocol":17,"map":"pl_frontier_final","folder":"tf","game":"Team Fortress","app_id":440,"player_count":0,"max_players":24,"Bots":0,"server_type":"Dedicated","server_os":"Linux","password":true,"vac":true,"version":"7695204","steam_id":85568392924866363,"keywords":["nocrits","nodmgspread","payload","uncletopia"],"game_id":440,"stv_port":27026,"stv_name":"Uncletopia | Chicago | 6 | All Maps | STV","players":null},{"server_id":38,"name":"Uncletopia | Chicago | 7 | No Payload","name_short":"chi-7","host":"chi-2.us.uncletopia.com","port":27035,"enabled":true,"region":"us-central","cc":"us","latitude":41.881832,"longitude":-87.62318,"reserved":0,"last_update":"0001-01-01T00:00:00Z","name_a2s":"Uncletopia | Chicago | 7 | No Payload","protocol":17,"map":"koth_lakeside_final","folder":"tf","game":"Team Fortress","app_id":440,"player_count":0,"max_players":24,"Bots":0,"server_type":"Dedicated","server_os":"Linux","password":true,"vac":true,"version":"7695204","steam_id":85568392924866364,"keywords":["cp","nocrits","nodmgspread","uncletopia"],"game_id":440,"stv_port":27036,"stv_name":"Uncletopia | Chicago | 7 | No Payload | STV","players":null},{"server_id":39,"name":"Uncletopia | Chicago | 8 | Community","name_short":"chi-8","host":"chi-2.us.uncletopia.com","port":27045,"enabled":true,"region":"us-central","cc":"us","latitude":41.881832,"longitude":-87.62318,"reserved":0,"last_update":"0001-01-01T00:00:00Z","name_a2s":"Uncletopia | Chicago | 8 | Community","protocol":17,"map":"workshop/cp_reckoner_rc6.ugc674719999","folder":"tf","game":"Team Fortress","app_id":440,"player_count":0,"max_players":24,"Bots":0,"server_type":"Dedicated","server_os":"Linux","password":true,"vac":true,"version":"7695204","steam_id":85568392924866365,"keywords":["cp","nocrits","nodmgspread","uncletopia"],"game_id":440,"stv_port":27046,"stv_name":"Uncletopia | Chicago | 8 | Community | STV","players":null},{"server_id":8,"name":"Uncletopia | Dallas | 1 | All Maps","name_short":"dal-1","host":"dal-1.us.uncletopia.com","port":27015,"enabled":true,"region":"us-central","cc":"us","latitude":32.779167,"longitude":-96.80889,"reserved":0,"last_update":"0001-01-01T00:00:00Z","name_a2s":"Uncletopia | Dallas | 1 | All Maps","protocol":17,"map":"pl_borneo","folder":"tf","game":"Team Fortress","app_id":440,"player_count":24,"max_players":24,"Bots":0,"server_type":"Dedicated","server_os":"Linux","password":true,"vac":true,"version":"7695204","steam_id":85568392924469986,"keywords":["nocrits","nodmgspread","payload","uncletopia"],"game_id":440,"stv_port":27016,"stv_name":"Uncletopia | Dallas | 1 | All Maps | STV","players":[{"user_id":654,"name":"able","steam_id":76561198292552182,"connected_time":2325000000000,"state":"active","ping":75},{"user_id":674,"name":"грустный","steam_id":76561198274550638,"connected_time":391000000000,"state":"active","ping":58},{"user_id":662,"name":"Scroomple","steam_id":76561198383810614,"connected_time":1472000000000,"state":"active","ping":44},{"user_id":644,"name":"The Caretaker","steam_id":76561198125241411,"connected_time":3638000000000,"state":"active","ping":103},{"user_id":637,"name":"RURU","steam_id":76561198039758987,"connected_time":4591000000000,"state":"active","ping":106},{"user_id":677,"name":"pt","steam_id":76561198143023330,"connected_time":194000000000,"state":"active","ping":75},{"user_id":671,"name":"remina","steam_id":76561198046091954,"connected_time":851000000000,"state":"active","ping":68},{"user_id":655,"name":"RawLawson","steam_id":76561198398752800,"connected_time":2320000000000,"state":"active","ping":49},{"user_id":673,"name":"rose","steam_id":76561198048882285,"connected_time":394000000000,"state":"active","ping":80},{"user_id":670,"name":"hellstar","steam_id":76561198065877269,"connected_time":948000000000,"state":"active","ping":75},{"user_id":675,"name":"Kerosene","steam_id":76561198978778718,"connected_time":358000000000,"state":"active","ping":138},{"user_id":652,"name":"Sad Sapling","steam_id":76561198075612150,"connected_time":2502000000000,"state":"active","ping":87},{"user_id":665,"name":"Jw. www.vaticancatholic.com","steam_id":76561198190170075,"connected_time":1345000000000,"state":"active","ping":75},{"user_id":639,"name":"Callahan","steam_id":76561197976928457,"connected_time":4520000000000,"state":"active","ping":102},{"user_id":657,"name":"Lord_Manship","steam_id":76561198045168765,"connected_time":2025000000000,"state":"active","ping":100},{"user_id":669,"name":"Angry Loona","steam_id":76561198282296334,"connected_time":1018000000000,"state":"active","ping":74},{"user_id":663,"name":"Shnakes","steam_id":76561198201649518,"connected_time":1384000000000,"state":"active","ping":86},{"user_id":664,"name":"Variks' Little Pogchamp","steam_id":76561198266921028,"connected_time":1378000000000,"state":"active","ping":83},{"user_id":666,"name":"Failsafe's Little Pogchamp","steam_id":76561198163556576,"connected_time":1324000000000,"state":"active","ping":82},{"user_id":667,"name":"♦WestHarlow♦","steam_id":76561198251977820,"connected_time":1281000000000,"state":"active","ping":170},{"user_id":676,"name":"Kanyitler","steam_id":76561198176618461,"connected_time":331000000000,"state":"active","ping":77},{"user_id":678,"name":"Cinn","steam_id":76561198091650021,"connected_time":85000000000,"state":"active","ping":94},{"user_id":641,"name":"+","steam_id":76561198262422184,"connected_time":4332000000000,"state":"active","ping":55},{"user_id":656,"name":"an oarmazing cockswain","steam_id":76561198014326643,"connected_time":2320000000000,"state":"active","ping":92}]},{"server_id":108,"name":"Uncletopia | Dallas | 2 | All Maps","name_short":"dal-2","host":"dal-1.us.uncletopia.com","port":27025,"enabled":true,"region":"us-central","cc":"us","latitude":32.779167,"longitude":-96.80889,"reserved":0,"last_update":"0001-01-01T00:00:00Z","name_a2s":"Uncletopia | Dallas | 2 | All Maps","protocol":17,"map":"koth_viaduct","folder":"tf","game":"Team Fortress","app_id":440,"player_count":0,"max_players":24,"Bots":0,"server_type":"Dedicated","server_os":"Linux","password":true,"vac":true,"version":"7695204","steam_id":85568392924469988,"keywords":["cp","nocrits","nodmgspread","uncletopia"],"game_id":440,"stv_port":27026,"stv_name":"Uncletopia | Dallas | 2 | All Maps | STV","players":null},{"server_id":5,"name":"Uncletopia | Frankfurt | 1 | All Maps","name_short":"frk-1","host":"frk-1.de.uncletopia.com","port":27015,"enabled":true,"region":"eu","cc":"de","latitude":50.110924,"longitude":8.682127,"reserved":0,"last_update":"0001-01-01T00:00:00Z","name_a2s":"Uncletopia | Frankfurt | 1 | All Maps","protocol":17,"map":"cp_dustbowl","folder":"tf","game":"Team Fortress","app_id":440,"player_count":24,"max_players":24,"Bots":0,"server_type":"Dedicated","server_os":"Linux","password":true,"vac":true,"version":"7695204","steam_id":85568392924469989,"keywords":["cp","nocrits","nodmgspread","uncletopia"],"game_id":440,"stv_port":27016,"stv_name":"Uncletopia | Frankfurt | 1 | All Maps | STV","players":[{"user_id":69,"name":"Guru","steam_id":76561198093853069,"connected_time":2475000000000,"state":"active","ping":59},{"user_id":65,"name":"Dkz","steam_id":76561197970673402,"connected_time":2591000000000,"state":"active","ping":47},{"user_id":75,"name":".jar.","steam_id":76561198042545701,"connected_time":2059000000000,"state":"active","ping":76},{"user_id":92,"name":"ZRD83[FR]","steam_id":76561198411341922,"connected_time":857000000000,"state":"active","ping":62},{"user_id":90,"name":"KGiorgios_Bully","steam_id":76561198825392728,"connected_time":1082000000000,"state":"active","ping":117},{"user_id":95,"name":"jovi_","steam_id":76561198449280552,"connected_time":652000000000,"state":"active","ping":59},{"user_id":83,"name":"Nyanzey","steam_id":76561198872362188,"connected_time":1581000000000,"state":"active","ping":44},{"user_id":93,"name":"Umberto Bossi","steam_id":76561198136150267,"connected_time":699000000000,"state":"active","ping":51},{"user_id":57,"name":"fector","steam_id":76561199204249586,"connected_time":2976000000000,"state":"active","ping":140},{"user_id":34,"name":"where is my egg?","steam_id":76561198172542535,"connected_time":4256000000000,"state":"active","ping":65},{"user_id":88,"name":"Umbro","steam_id":76561198087930438,"connected_time":1340000000000,"state":"active","ping":74},{"user_id":84,"name":"Octis","steam_id":76561198015536917,"connected_time":1562000000000,"state":"active","ping":104},{"user_id":85,"name":"DB841","steam_id":76561198328063504,"connected_time":1522000000000,"state":"active","ping":57},{"user_id":101,"name":"mental","steam_id":76561198235959132,"connected_time":303000000000,"state":"active","ping":75},{"user_id":63,"name":"The Imperial","steam_id":76561198374118102,"connected_time":2725000000000,"state":"active","ping":58},{"user_id":79,"name":"Deacon Dracul","steam_id":76561198046880663,"connected_time":1745000000000,"state":"active","ping":118},{"user_id":102,"name":"Tutel","steam_id":76561198944058412,"connected_time":262000000000,"state":"active","ping":45},{"user_id":82,"name":"Alfiine","steam_id":76561198206082887,"connected_time":1650000000000,"state":"active","ping":67},{"user_id":104,"name":"Kolanciasty ♥","steam_id":76561198020042179,"connected_time":185000000000,"state":"active","ping":80},{"user_id":78,"name":"Sylbar","steam_id":76561198065379590,"connected_time":1836000000000,"state":"active","ping":58},{"user_id":41,"name":"cappy","steam_id":76561198231859236,"connected_time":3865000000000,"state":"active","ping":104},{"user_id":103,"name":"Machandelbaum","steam_id":76561199281115916,"connected_time":262000000000,"state":"active","ping":127},{"user_id":50,"name":"drippin jimmy","steam_id":76561198219243969,"connected_time":3430000000000,"state":"active","ping":54},{"user_id":58,"name":"BigB","steam_id":76561198210678091,"connected_time":2944000000000,"state":"active","ping":69}]},{"server_id":110,"name":"Uncletopia | Frankfurt | 2 | All Maps","name_short":"frk-2","host":"frk-1.de.uncletopia.com","port":27025,"enabled":true,"region":"eu","cc":"de","latitude":50.110924,"longitude":8.682127,"reserved":0,"last_update":"0001-01-01T00:00:00Z","name_a2s":"Uncletopia | Frankfurt | 2 | All Maps","protocol":17,"map":"cp_altitude","folder":"tf","game":"Team Fortress","app_id":440,"player_count":0,"max_players":24,"Bots":0,"server_type":"Dedicated","server_os":"Linux","password":true,"vac":true,"version":"7695204","steam_id":85568392924469990,"keywords":["cp","nocrits","nodmgspread","uncletopia"],"game_id":440,"stv_port":0,"stv_name":"","players":null},{"server_id":308,"name":"Uncletopia | Frankfurt | 3 | All Maps","name_short":"frk-3","host":"frk-1.de.uncletopia.com","port":27035,"enabled":true,"region":"eu","cc":"de","latitude":50.110924,"longitude":8.682127,"reserved":0,"last_update":"0001-01-01T00:00:00Z","name_a2s":"Uncletopia | Frankfurt | 3 | All Maps","protocol":17,"map":"cp_process_final","folder":"tf","game":"Team Fortress","app_id":440,"player_count":24,"max_players":24,"Bots":0,"server_type":"Dedicated","server_os":"Linux","password":true,"vac":true,"version":"7695204","steam_id":85568392924504274,"keywords":["cp","nocrits","nodmgspread","uncletopia"],"game_id":440,"stv_port":27036,"stv_name":"Uncletopia | Frankfurt | 3 | All Maps | STV","players":[{"user_id":10,"name":"M_Or","steam_id":76561199000442784,"connected_time":790000000000,"state":"active","ping":72},{"user_id":34,"name":"zdrej00","steam_id":76561198093296423,"connected_time":10000000000,"state":"active","ping":90},{"user_id":8,"name":"Lawliet","steam_id":76561199222526598,"connected_time":1331000000000,"state":"active","ping":56},{"user_id":9,"name":"CutiepieGamerC:","steam_id":76561198296497176,"connected_time":1278000000000,"state":"active","ping":75},{"user_id":11,"name":"mc1432","steam_id":76561198114920406,"connected_time":789000000000,"state":"active","ping":62},{"user_id":12,"name":"Are you crying?","steam_id":76561199037890512,"connected_time":783000000000,"state":"active","ping":95},{"user_id":13,"name":"Anti_Dragon","steam_id":76561198969060607,"connected_time":713000000000,"state":"active","ping":101},{"user_id":14,"name":"Kapitan Polska","steam_id":76561197968069413,"connected_time":646000000000,"state":"active","ping":60},{"user_id":21,"name":"Florua","steam_id":76561198182297846,"connected_time":388000000000,"state":"active","ping":51},{"user_id":16,"name":"Leibeigener","steam_id":76561199275478305,"connected_time":527000000000,"state":"active","ping":42},{"user_id":17,"name":"Car Gear","steam_id":76561199183213205,"connected_time":523000000000,"state":"active","ping":60},{"user_id":18,"name":"NZN_pro","steam_id":76561198862334903,"connected_time":488000000000,"state":"active","ping":142},{"user_id":22,"name":"Equinox","steam_id":76561199055592635,"connected_time":325000000000,"state":"active","ping":61},{"user_id":20,"name":"Semik","steam_id":76561199088506542,"connected_time":436000000000,"state":"active","ping":56},{"user_id":23,"name":"Musket Man","steam_id":76561198985647263,"connected_time":312000000000,"state":"active","ping":63},{"user_id":24,"name":"highwayman","steam_id":76561199230709660,"connected_time":301000000000,"state":"active","ping":45},{"user_id":25,"name":"kaT","steam_id":76561198879664338,"connected_time":254000000000,"state":"active","ping":59},{"user_id":31,"name":"hubbles","steam_id":76561197961142646,"connected_time":151000000000,"state":"active","ping":46},{"user_id":27,"name":"Ixsus\u003c3","steam_id":76561198094756869,"connected_time":236000000000,"state":"active","ping":61},{"user_id":28,"name":"W.J","steam_id":76561198390535689,"connected_time":201000000000,"state":"active","ping":71},{"user_id":29,"name":"Sim","steam_id":76561198086641180,"connected_time":183000000000,"state":"active","ping":93},{"user_id":30,"name":"Biały","steam_id":76561197996016988,"connected_time":176000000000,"state":"active","ping":69},{"user_id":32,"name":"( ]KROAN[ )","steam_id":76561198022840710,"connected_time":102000000000,"state":"active","ping":74},{"user_id":33,"name":"Mclovin567","steam_id":76561198799105302,"connected_time":100000000000,"state":"active","ping":50}]},{"server_id":309,"name":"Uncletopia | Frankfurt | 4 | All Maps","name_short":"frk-4","host":"frk-1.de.uncletopia.com","port":27045,"enabled":true,"region":"eu","cc":"de","latitude":50.110924,"longitude":8.682127,"reserved":0,"last_update":"0001-01-01T00:00:00Z","name_a2s":"Uncletopia | Frankfurt | 4 | All Maps","protocol":17,"map":"koth_highpass","folder":"tf","game":"Team Fortress","app_id":440,"player_count":0,"max_players":24,"Bots":0,"server_type":"Dedicated","server_os":"Linux","password":true,"vac":true,"version":"7695204","steam_id":85568392924504275,"keywords":["cp","nocrits","nodmgspread","uncletopia"],"game_id":440,"stv_port":0,"stv_name":"","players":null},{"server_id":310,"name":"Uncletopia | Frankfurt | 5 | All Maps","name_short":"frk-5","host":"frk-1.de.uncletopia.com","port":27055,"enabled":true,"region":"eu","cc":"de","latitude":50.110924,"longitude":8.682127,"reserved":0,"last_update":"0001-01-01T00:00:00Z","name_a2s":"Uncletopia | Frankfurt | 5 | All Maps","protocol":17,"map":"koth_highpass","folder":"tf","game":"Team Fortress","app_id":440,"player_count":3,"max_players":24,"Bots":0,"server_type":"Dedicated","server_os":"Linux","password":true,"vac":true,"version":"7695204","steam_id":85568392924504277,"keywords":["cp","nocrits","nodmgspread","uncletopia"],"game_id":440,"stv_port":27056,"stv_name":"Uncletopia | Frankfurt | 5 | All Maps | STV","players":[{"user_id":5,"name":"Mar","steam_id":76561198127633424,"connected_time":1192000000000,"state":"active","ping":67},{"user_id":7,"name":"GAZZOLX","steam_id":76561199239470712,"connected_time":854000000000,"state":"active","ping":53},{"user_id":11,"name":"Mr.Schnittlauch","steam_id":76561198295868113,"connected_time":34000000000,"state":"active","ping":47}]},{"server_id":311,"name":"Uncletopia | Frankfurt | 6 | All Maps","name_short":"frk-6","host":"frk-1.de.uncletopia.com","port":27065,"enabled":true,"region":"eu","cc":"de","latitude":50.110924,"longitude":8.682127,"reserved":0,"last_update":"0001-01-01T00:00:00Z","name_a2s":"Uncletopia | Frankfurt | 6 | All Maps","protocol":17,"map":"pl_badwater","folder":"tf","game":"Team Fortress","app_id":440,"player_count":0,"max_players":24,"Bots":0,"server_type":"Dedicated","server_os":"Linux","password":true,"vac":true,"version":"7695204","steam_id":85568392924504278,"keywords":["nocrits","nodmgspread","payload","uncletopia"],"game_id":440,"stv_port":27066,"stv_name":"Uncletopia | Frankfurt | 6 | All Maps | STV","players":null},{"server_id":23,"name":"Uncletopia | Frankfurt | 7 | No Payload","name_short":"frk-7","host":"frk-1.de.uncletopia.com","port":27075,"enabled":true,"region":"eu","cc":"de","latitude":50.110924,"longitude":8.682127,"reserved":0,"last_update":"0001-01-01T00:00:00Z","name_a2s":"Uncletopia | Frankfurt | 7 | No Payload","protocol":17,"map":"cp_granary","folder":"tf","game":"Team Fortress","app_id":440,"player_count":5,"max_players":24,"Bots":0,"server_type":"Dedicated","server_os":"Linux","password":true,"vac":true,"version":"7695204","steam_id":85568392924742827,"keywords":["cp","nocrits","nodmgspread","uncletopia"],"game_id":440,"stv_port":27076,"stv_name":"Uncletopia | Frankfurt | 7 | No Payload | STV","players":[{"user_id":58,"name":"Him","steam_id":76561198086400484,"connected_time":4102000000000,"state":"active","ping":66},{"user_id":110,"name":"DavKey","steam_id":76561198891671273,"connected_time":6000000000,"state":"spawning","ping":86},{"user_id":101,"name":"EBU","steam_id":76561198360939651,"connected_time":1805000000000,"state":"active","ping":108},{"user_id":49,"name":"XfarisGamerX","steam_id":76561198367579380,"connected_time":4574000000000,"state":"active","ping":127},{"user_id":93,"name":"benifis163","steam_id":76561198420973492,"connected_time":2227000000000,"state":"active","ping":96}]},{"server_id":24,"name":"Uncletopia | Frankfurt | 8 | Community","name_short":"frk-8","host":"frk-1.de.uncletopia.com","port":27085,"enabled":true,"region":"eu","cc":"de","latitude":50.110924,"longitude":8.682127,"reserved":0,"last_update":"0001-01-01T00:00:00Z","name_a2s":"Uncletopia | Frankfurt | 8 | Community","protocol":17,"map":"koth_lakeside_final","folder":"tf","game":"Team Fortress","app_id":440,"player_count":0,"max_players":24,"Bots":0,"server_type":"Dedicated","server_os":"Linux","password":true,"vac":true,"version":"7695204","steam_id":85568392924742828,"keywords":["cp","nocrits","nodmgspread","uncletopia"],"game_id":440,"stv_port":0,"stv_name":"","players":null},{"server_id":202,"name":"Uncletopia | Hong Kong | 1 | All Maps","name_short":"hgk-1","host":"hgk-1.hk.uncletopia.com","port":27015,"enabled":true,"region":"asia","cc":"hk","latitude":22.302711,"longitude":114.177216,"reserved":0,"last_update":"0001-01-01T00:00:00Z","name_a2s":"Uncletopia | Hong Kong | 1 | All Maps","protocol":17,"map":"pl_upward","folder":"tf","game":"Team Fortress","app_id":440,"player_count":24,"max_players":24,"Bots":0,"server_type":"Dedicated","server_os":"Linux","password":true,"vac":true,"version":"7695204","steam_id":85568392924494504,"keywords":["nocrits","nodmgspread","payload","uncletopia"],"game_id":440,"stv_port":27016,"stv_name":"Uncletopia | Hong Kong | 1 | All Maps | STV","players":[{"user_id":422,"name":"ellz","steam_id":76561199216074568,"connected_time":2053000000000,"state":"active","ping":69},{"user_id":409,"name":"TonXD","steam_id":76561199024372559,"connected_time":2946000000000,"state":"active","ping":99},{"user_id":430,"name":"DerpApple","steam_id":76561199190641852,"connected_time":1476000000000,"state":"active","ping":63},{"user_id":444,"name":"terrybl","steam_id":76561198055553140,"connected_time":288000000000,"state":"active","ping":78},{"user_id":419,"name":"TomProPlayer","steam_id":76561199223292521,"connected_time":2118000000000,"state":"active","ping":66},{"user_id":445,"name":"Vladimir Spencer Pootis","steam_id":76561198144686119,"connected_time":288000000000,"state":"active","ping":59},{"user_id":417,"name":"the sex","steam_id":76561198129661272,"connected_time":2132000000000,"state":"active","ping":60},{"user_id":421,"name":"suicide bomber","steam_id":76561199420453519,"connected_time":2107000000000,"state":"active","ping":78},{"user_id":420,"name":"LimitsUP_","steam_id":76561199104828789,"connected_time":2118000000000,"state":"active","ping":95},{"user_id":437,"name":"unchi","steam_id":76561197969873415,"connected_time":515000000000,"state":"active","ping":104},{"user_id":392,"name":"Pug_Lord","steam_id":76561199090153442,"connected_time":4716000000000,"state":"active","ping":117},{"user_id":414,"name":"Oral Cigarettes","steam_id":76561198347418251,"connected_time":2399000000000,"state":"active","ping":70},{"user_id":440,"name":"Wakiiiz","steam_id":76561198850134590,"connected_time":322000000000,"state":"active","ping":60},{"user_id":434,"name":"2232","steam_id":76561198074339034,"connected_time":1154000000000,"state":"active","ping":75},{"user_id":441,"name":"Degenerate With Standards!!!!!","steam_id":76561199174449723,"connected_time":321000000000,"state":"active","ping":89},{"user_id":425,"name":"Lym0n","steam_id":76561199192420260,"connected_time":1971000000000,"state":"active","ping":108},{"user_id":426,"name":"Saggle","steam_id":76561198056075147,"connected_time":1935000000000,"state":"active","ping":123},{"user_id":427,"name":"ArcticDolphin","steam_id":76561198203626319,"connected_time":1825000000000,"state":"active","ping":136},{"user_id":436,"name":"idiot normie","steam_id":76561198397662124,"connected_time":702000000000,"state":"active","ping":75},{"user_id":435,"name":"Gab","steam_id":76561198863909723,"connected_time":1049000000000,"state":"active","ping":76},{"user_id":447,"name":"skvk","steam_id":76561198152588681,"connected_time":112000000000,"state":"active","ping":85},{"user_id":391,"name":"MASLACK","steam_id":76561198039787857,"connected_time":4841000000000,"state":"active","ping":124},{"user_id":394,"name":"Momoxhien","steam_id":76561198414997429,"connected_time":4455000000000,"state":"active","ping":63},{"user_id":448,"name":"Fish","steam_id":76561198971351426,"connected_time":112000000000,"state":"active","ping":130}]},{"server_id":1,"name":"Uncletopia | Los Angeles | 1 | All Maps","name_short":"lax-1","host":"lax-1.us.uncletopia.com","port":27015,"enabled":true,"region":"us-west","cc":"us","latitude":33.94279,"longitude":-118.41004,"reserved":0,"last_update":"0001-01-01T00:00:00Z","name_a2s":"Uncletopia | Los Angeles | 1 | All Maps","protocol":17,"map":"koth_nucleus","folder":"tf","game":"Team Fortress","app_id":440,"player_count":0,"max_players":24,"Bots":0,"server_type":"Dedicated","server_os":"Linux","password":true,"vac":true,"version":"7695204","steam_id":85568392924469991,"keywords":["cp","nocrits","nodmgspread","uncletopia"],"game_id":440,"stv_port":27016,"stv_name":"Uncletopia | Los Angeles | 1 | All Maps | STV","players":null},{"server_id":112,"name":"Uncletopia | Los Angeles | 2 | All Maps","name_short":"lax-2","host":"lax-1.us.uncletopia.com","port":27025,"enabled":true,"region":"us-west","cc":"us","latitude":33.94279,"longitude":-118.41004,"reserved":0,"last_update":"0001-01-01T00:00:00Z","name_a2s":"Uncletopia | Los Angeles | 2 | All Maps","protocol":17,"map":"koth_viaduct","folder":"tf","game":"Team Fortress","app_id":440,"player_count":0,"max_players":24,"Bots":0,"server_type":"Dedicated","server_os":"Linux","password":true,"vac":true,"version":"7695204","steam_id":85568392924469992,"keywords":["cp","nocrits","nodmgspread","uncletopia"],"game_id":440,"stv_port":27026,"stv_name":"Uncletopia | Los Angeles | 2 | All Maps | STV","players":null},{"server_id":324,"name":"Uncletopia | Los Angeles | 3 | All Maps","name_short":"lax-3","host":"lax-1.us.uncletopia.com","port":27035,"enabled":true,"region":"us-west","cc":"us","latitude":33.94279,"longitude":-118.41004,"reserved":0,"last_update":"0001-01-01T00:00:00Z","name_a2s":"Uncletopia | Los Angeles | 3 | All Maps","protocol":17,"map":"koth_cascade","folder":"tf","game":"Team Fortress","app_id":440,"player_count":0,"max_players":24,"Bots":0,"server_type":"Dedicated","server_os":"Linux","password":true,"vac":true,"version":"7695204","steam_id":85568392924510198,"keywords":["cp","nocrits","nodmgspread","uncletopia"],"game_id":440,"stv_port":27036,"stv_name":"Uncletopia | Los Angeles | 3 | All Maps | STV","players":null},{"server_id":25,"name":"Uncletopia | Los Angeles | 4 | No Payload","name_short":"lax-4","host":"lax-1.us.uncletopia.com","port":27045,"enabled":true,"region":"us-west","cc":"us","latitude":33.94279,"longitude":-118.41004,"reserved":0,"last_update":"0001-01-01T00:00:00Z","name_a2s":"Uncletopia | Los Angeles | 4 | No Payload","protocol":17,"map":"koth_harvest_final","folder":"tf","game":"Team Fortress","app_id":440,"player_count":0,"max_players":24,"Bots":0,"server_type":"Dedicated","server_os":"Linux","password":true,"vac":true,"version":"7695204","steam_id":85568392924510199,"keywords":["cp","nocrits","nodmgspread","uncletopia"],"game_id":440,"stv_port":27046,"stv_name":"Uncletopia | Los Angeles | 4 | No Payload | STV","players":null},{"server_id":11,"name":"Uncletopia | London | 1 | All Maps","name_short":"lon-1","host":"lon-1.uk.uncletopia.com","port":27015,"enabled":true,"region":"eu","cc":"gb","latitude":51.509865,"longitude":-0.118092,"reserved":0,"last_update":"0001-01-01T00:00:00Z","name_a2s":"Uncletopia | London | 1 | All Maps","protocol":17,"map":"pl_barnblitz","folder":"tf","game":"Team Fortress","app_id":440,"player_count":0,"max_players":24,"Bots":0,"server_type":"Dedicated","server_os":"Linux","password":true,"vac":true,"version":"7695204","steam_id":85568392924367362,"keywords":["nocrits","nodmgspread","payload","uncletopia"],"game_id":440,"stv_port":27016,"stv_name":"Uncletopia | London | 1 | All Maps | STV","players":null},{"server_id":114,"name":"Uncletopia | London | 2 | All Maps","name_short":"lon-2","host":"lon-1.uk.uncletopia.com","port":27025,"enabled":true,"region":"eu","cc":"gb","latitude":51.509865,"longitude":-0.118092,"reserved":0,"last_update":"0001-01-01T00:00:00Z","name_a2s":"Uncletopia | London | 2 | All Maps","protocol":17,"map":"cp_sunshine","folder":"tf","game":"Team Fortress","app_id":440,"player_count":0,"max_players":24,"Bots":0,"server_type":"Dedicated","server_os":"Linux","password":true,"vac":true,"version":"7695204","steam_id":85568392924470941,"keywords":["cp","nocrits","nodmgspread","uncletopia"],"game_id":440,"stv_port":0,"stv_name":"","players":null},{"server_id":320,"name":"Uncletopia | London | 3 | All Maps","name_short":"lon-3","host":"lon-1.uk.uncletopia.com","port":27035,"enabled":true,"region":"eu","cc":"gb","latitude":51.509865,"longitude":-0.118092,"reserved":0,"last_update":"0001-01-01T00:00:00Z","name_a2s":"Uncletopia | London | 3 | All Maps","protocol":17,"map":"pl_pier","folder":"tf","game":"Team Fortress","app_id":440,"player_count":0,"max_players":24,"Bots":0,"server_type":"Dedicated","server_os":"Linux","password":true,"vac":true,"version":"7695204","steam_id":85568392924510192,"keywords":["nocrits","nodmgspread","payload","uncletopia"],"game_id":440,"stv_port":27036,"stv_name":"Uncletopia | London | 3 | All Maps | STV","players":null},{"server_id":321,"name":"Uncletopia | London | 4 | All Maps","name_short":"lon-4","host":"lon-1.uk.uncletopia.com","port":27045,"enabled":true,"region":"eu","cc":"gb","latitude":51.509865,"longitude":-0.118092,"reserved":0,"last_update":"0001-01-01T00:00:00Z","name_a2s":"Uncletopia | London | 4 | All Maps","protocol":17,"map":"pl_upward","folder":"tf","game":"Team Fortress","app_id":440,"player_count":24,"max_players":24,"Bots":0,"server_type":"Dedicated","server_os":"Linux","password":true,"vac":true,"version":"7695204","steam_id":85568392924510193,"keywords":["nocrits","nodmgspread","payload","uncletopia"],"game_id":440,"stv_port":27046,"stv_name":"Uncletopia | London | 4 | All Maps | STV","players":[{"user_id":54,"name":"DarthPaul8181","steam_id":76561198373050455,"connected_time":889000000000,"state":"active","ping":40},{"user_id":44,"name":"Shelly1052","steam_id":76561199043551053,"connected_time":1659000000000,"state":"active","ping":33},{"user_id":59,"name":"professional kid gaslighter","steam_id":76561198941142018,"connected_time":655000000000,"state":"active","ping":174},{"user_id":60,"name":"Paulie Walnuts","steam_id":76561198146194820,"connected_time":611000000000,"state":"active","ping":49},{"user_id":9,"name":"jtnrif8dVITifirD8","steam_id":76561198057833760,"connected_time":3394000000000,"state":"active","ping":70},{"user_id":49,"name":"[T]aKer","steam_id":76561198001778013,"connected_time":1417000000000,"state":"active","ping":47},{"user_id":39,"name":"Insanitybomb","steam_id":76561198048707708,"connected_time":2026000000000,"state":"active","ping":59},{"user_id":43,"name":"ciliorkun18","steam_id":76561198228942500,"connected_time":1669000000000,"state":"active","ping":92},{"user_id":41,"name":"[Gen.]ProPicanac","steam_id":76561198360070600,"connected_time":1850000000000,"state":"active","ping":80},{"user_id":62,"name":"nynon","steam_id":76561197998432126,"connected_time":190000000000,"state":"active","ping":97},{"user_id":51,"name":"Tyco","steam_id":76561197978414167,"connected_time":1354000000000,"state":"active","ping":147},{"user_id":46,"name":"V★ren","steam_id":76561198063138371,"connected_time":1624000000000,"state":"active","ping":54},{"user_id":63,"name":"panakid","steam_id":76561198364121077,"connected_time":187000000000,"state":"active","ping":91},{"user_id":52,"name":"Grim the lemon","steam_id":76561199083433988,"connected_time":1070000000000,"state":"active","ping":49},{"user_id":57,"name":"Simping for Pizza-san","steam_id":76561198067204908,"connected_time":792000000000,"state":"active","ping":57},{"user_id":28,"name":"Horseman enjoyer","steam_id":76561199070569941,"connected_time":2671000000000,"state":"active","ping":63},{"user_id":24,"name":"goprit","steam_id":76561198072518761,"connected_time":2722000000000,"state":"active","ping":82},{"user_id":64,"name":"random_player691","steam_id":76561199209946306,"connected_time":176000000000,"state":"active","ping":72},{"user_id":55,"name":"hyper #saveTF2","steam_id":76561198278194944,"connected_time":887000000000,"state":"active","ping":71},{"user_id":56,"name":"Ceasar","steam_id":76561198056590853,"connected_time":808000000000,"state":"active","ping":63},{"user_id":65,"name":"d u k k i","steam_id":76561198071807437,"connected_time":123000000000,"state":"active","ping":87},{"user_id":58,"name":"LOBZIK","steam_id":76561198114830120,"connected_time":779000000000,"state":"active","ping":84},{"user_id":68,"name":"「◆Raku• 」","steam_id":76561198059283183,"connected_time":6000000000,"state":"spawning","ping":89},{"user_id":34,"name":"Rin-Nakaret","steam_id":76561197971051188,"connected_time":2270000000000,"state":"active","ping":64}]},{"server_id":21,"name":"Uncletopia | London | 5 | All Maps","name_short":"lon-5","host":"lon-1.uk.uncletopia.com","port":27055,"enabled":true,"region":"eu","cc":"gb","latitude":51.509865,"longitude":-0.118092,"reserved":0,"last_update":"0001-01-01T00:00:00Z","name_a2s":"Uncletopia | London | 5 | All Maps","protocol":17,"map":"koth_cascade","folder":"tf","game":"Team Fortress","app_id":440,"player_count":0,"max_players":24,"Bots":0,"server_type":"Dedicated","server_os":"Linux","password":true,"vac":true,"version":"7695204","steam_id":85568392924742829,"keywords":["cp","nocrits","nodmgspread","uncletopia"],"game_id":440,"stv_port":0,"stv_name":"","players":null},{"server_id":22,"name":"Uncletopia | London | 6 | All Maps","name_short":"lon-6","host":"lon-1.uk.uncletopia.com","port":27065,"enabled":true,"region":"eu","cc":"gb","latitude":51.509865,"longitude":-0.118092,"reserved":0,"last_update":"0001-01-01T00:00:00Z","name_a2s":"Uncletopia | London | 6 | All Maps","protocol":17,"map":"pl_pier","folder":"tf","game":"Team Fortress","app_id":440,"player_count":0,"max_players":24,"Bots":0,"server_type":"Dedicated","server_os":"Linux","password":true,"vac":true,"version":"7695204","steam_id":85568392924742830,"keywords":["nocrits","nodmgspread","payload","uncletopia"],"game_id":440,"stv_port":0,"stv_name":"","players":null},{"server_id":40,"name":"Uncletopia | London | 7 | No Payload","name_short":"lon-7","host":"lon-1.uk.uncletopia.com","port":27075,"enabled":true,"region":"eu","cc":"gb","latitude":51.509865,"longitude":-0.118092,"reserved":0,"last_update":"0001-01-01T00:00:00Z","name_a2s":"Uncletopia | London | 7 | No Payload","protocol":17,"map":"cp_steel","folder":"tf","game":"Team Fortress","app_id":440,"player_count":0,"max_players":24,"Bots":0,"server_type":"Dedicated","server_os":"Linux","password":true,"vac":true,"version":"7695204","steam_id":85568392924964314,"keywords":["cp","nocrits","nodmgspread","uncletopia"],"game_id":440,"stv_port":27076,"stv_name":"Uncletopia | London | 7 | No Payload | STV","players":null},{"server_id":41,"name":"Uncletopia | London | 8 | Community","name_short":"lon-8","host":"lon-1.uk.uncletopia.com","port":27085,"enabled":true,"region":"eu","cc":"gb","latitude":51.509865,"longitude":-0.118092,"reserved":0,"last_update":"0001-01-01T00:00:00Z","name_a2s":"Uncletopia | London | 8 | Community","protocol":17,"map":"cp_dustbowl","folder":"tf","game":"Team Fortress","app_id":440,"player_count":0,"max_players":24,"Bots":0,"server_type":"Dedicated","server_os":"Linux","password":true,"vac":true,"version":"7695204","steam_id":85568392924964315,"keywords":["cp","nocrits","nodmgspread","uncletopia"],"game_id":440,"stv_port":0,"stv_name":"","players":null},{"server_id":300,"name":"Uncletopia | Montréal | 1 | All Maps","name_short":"mtl-1","host":"mtl-1.ca.uncletopia.com","port":27015,"enabled":true,"region":"us-east","cc":"ca","latitude":45.50889,"longitude":-73.56167,"reserved":0,"last_update":"0001-01-01T00:00:00Z","name_a2s":"Uncletopia | Montréal | 1 | All Maps","protocol":17,"map":"cp_dustbowl","folder":"tf","game":"Team Fortress","app_id":440,"player_count":0,"max_players":24,"Bots":0,"server_type":"Dedicated","server_os":"Linux","password":true,"vac":true,"version":"7695204","steam_id":85568392924500087,"keywords":["cp","nocrits","nodmgspread","uncletopia"],"game_id":440,"stv_port":0,"stv_name":"","players":null},{"server_id":301,"name":"Uncletopia | Montréal | 2 | All Maps","name_short":"mtl-2","host":"mtl-1.ca.uncletopia.com","port":27025,"enabled":true,"region":"us-east","cc":"ca","latitude":45.50889,"longitude":-73.56167,"reserved":0,"last_update":"0001-01-01T00:00:00Z","name_a2s":"Uncletopia | Montréal | 2 | All Maps","protocol":17,"map":"pl_snowycoast","folder":"tf","game":"Team Fortress","app_id":440,"player_count":0,"max_players":24,"Bots":0,"server_type":"Dedicated","server_os":"Linux","password":true,"vac":true,"version":"7695204","steam_id":85568392924500088,"keywords":["nocrits","nodmgspread","payload","uncletopia"],"game_id":440,"stv_port":0,"stv_name":"","players":null},{"server_id":302,"name":"Uncletopia | Montréal | 3 | All Maps","name_short":"mtl-3","host":"mtl-1.ca.uncletopia.com","port":27035,"enabled":true,"region":"us-east","cc":"ca","latitude":45.50889,"longitude":-73.56167,"reserved":0,"last_update":"0001-01-01T00:00:00Z","name_a2s":"Uncletopia | Montréal | 3 | All Maps","protocol":17,"map":"koth_viaduct","folder":"tf","game":"Team Fortress","app_id":440,"player_count":0,"max_players":24,"Bots":0,"server_type":"Dedicated","server_os":"Linux","password":true,"vac":true,"version":"7695204","steam_id":85568392924500089,"keywords":["cp","nocrits","nodmgspread","uncletopia"],"game_id":440,"stv_port":0,"stv_name":"","players":null},{"server_id":303,"name":"Uncletopia | Montréal | 4 | No Payload","name_short":"mtl-4","host":"mtl-1.ca.uncletopia.com","port":27045,"enabled":true,"region":"us-east","cc":"ca","latitude":45.50889,"longitude":-73.56167,"reserved":0,"last_update":"0001-01-01T00:00:00Z","name_a2s":"Uncletopia | Montréal | 4 | No Payload","protocol":17,"map":"cp_dustbowl","folder":"tf","game":"Team Fortress","app_id":440,"player_count":0,"max_players":24,"Bots":0,"server_type":"Dedicated","server_os":"Linux","password":true,"vac":true,"version":"7695204","steam_id":85568392924500090,"keywords":["cp","nocrits","nodmgspread","uncletopia"],"game_id":440,"stv_port":0,"stv_name":"","players":null},{"server_id":13,"name":"Uncletopia | New York City | 1 | All Maps","name_short":"nyc-1","host":"nyc-1.us.uncletopia.com","port":27015,"enabled":true,"region":"us-east","cc":"us","latitude":40.73061,"longitude":-73.93524,"reserved":0,"last_update":"0001-01-01T00:00:00Z","name_a2s":"Uncletopia | New York City | 1 | All Maps","protocol":17,"map":"cp_snakewater_final1","folder":"tf","game":"Team Fortress","app_id":440,"player_count":0,"max_players":24,"Bots":0,"server_type":"Dedicated","server_os":"Linux","password":true,"vac":true,"version":"7695204","steam_id":85568392924469993,"keywords":["cp","nocrits","nodmgspread","uncletopia"],"game_id":440,"stv_port":0,"stv_name":"","players":null},{"server_id":14,"name":"Uncletopia | New York City | 2 | All Maps","name_short":"nyc-2","host":"nyc-1.us.uncletopia.com","port":27025,"enabled":true,"region":"us-east","cc":"us","latitude":40.73061,"longitude":-73.93524,"reserved":0,"last_update":"0001-01-01T00:00:00Z","name_a2s":"Uncletopia | New York City | 2 | All Maps","protocol":17,"map":"pl_borneo","folder":"tf","game":"Team Fortress","app_id":440,"player_count":0,"max_players":24,"Bots":0,"server_type":"Dedicated","server_os":"Linux","password":true,"vac":true,"version":"7695204","steam_id":85568392924469994,"keywords":["nocrits","nodmgspread","payload","uncletopia"],"game_id":440,"stv_port":0,"stv_name":"","players":null},{"server_id":15,"name":"Uncletopia | New York City | 3 | All Maps","name_short":"nyc-3","host":"nyc-1.us.uncletopia.com","port":27035,"enabled":true,"region":"us-east","cc":"us","latitude":40.73061,"longitude":-73.93524,"reserved":0,"last_update":"0001-01-01T00:00:00Z","name_a2s":"Uncletopia | New York City | 3 | All Maps","protocol":17,"map":"pl_snowycoast","folder":"tf","game":"Team Fortress","app_id":440,"player_count":0,"max_players":24,"Bots":0,"server_type":"Dedicated","server_os":"Linux","password":true,"vac":true,"version":"7695204","steam_id":85568392924742820,"keywords":["nocrits","nodmgspread","payload","uncletopia"],"game_id":440,"stv_port":0,"stv_name":"","players":null},{"server_id":16,"name":"Uncletopia | New York City | 4 | Community","name_short":"nyc-4","host":"nyc-1.us.uncletopia.com","port":27045,"enabled":true,"region":"us-east","cc":"us","latitude":40.73061,"longitude":-73.93524,"reserved":0,"last_update":"0001-01-01T00:00:00Z","name_a2s":"Uncletopia | New York City | 4 | Community","protocol":17,"map":"pl_barnblitz","folder":"tf","game":"Team Fortress","app_id":440,"player_count":0,"max_players":24,"Bots":0,"server_type":"Dedicated","server_os":"Linux","password":true,"vac":true,"version":"7695204","steam_id":85568392924742821,"keywords":["nocrits","nodmgspread","payload","uncletopia"],"game_id":440,"stv_port":0,"stv_name":"","players":null},{"server_id":142,"name":"Uncletopia | São Paulo | 1 | All Maps","name_short":"sao-1","host":"sao-1.br.uncletopia.com","port":27015,"enabled":true,"region":"sa","cc":"br","latitude":-23.533773,"longitude":-46.62529,"reserved":0,"last_update":"0001-01-01T00:00:00Z","name_a2s":"Uncletopia | São Paulo | 1 | All Maps","protocol":17,"map":"koth_cascade","folder":"tf","game":"Team Fortress","app_id":440,"player_count":0,"max_players":24,"Bots":0,"server_type":"Dedicated","server_os":"Linux","password":true,"vac":true,"version":"7695204","steam_id":85568392924469996,"keywords":["cp","nocrits","nodmgspread","uncletopia"],"game_id":440,"stv_port":0,"stv_name":"","players":null},{"server_id":143,"name":"Uncletopia | São Paulo | 2 | All Maps","name_short":"sao-2","host":"sao-2.br.uncletopia.com","port":27015,"enabled":true,"region":"sa","cc":"br","latitude":-23.533773,"longitude":-46.62529,"reserved":0,"last_update":"0001-01-01T00:00:00Z","name_a2s":"Uncletopia | São Paulo | 2 | All Maps","protocol":17,"map":"pl_borneo","folder":"tf","game":"Team Fortress","app_id":440,"player_count":0,"max_players":24,"Bots":0,"server_type":"Dedicated","server_os":"Linux","password":true,"vac":true,"version":"7695204","steam_id":85568392924485349,"keywords":["nocrits","nodmgspread","payload","uncletopia"],"game_id":440,"stv_port":27016,"stv_name":"Uncletopia | São Paulo | 2 | All Maps | STV","players":null},{"server_id":7,"name":"Uncletopia | Seattle | 1 | All Maps","name_short":"sea-1","host":"sea-1.us.uncletopia.com","port":27015,"enabled":true,"region":"us-west","cc":"us","latitude":47.608013,"longitude":-122.33517,"reserved":0,"last_update":"0001-01-01T00:00:00Z","name_a2s":"Uncletopia | Seattle | 1 | All Maps","protocol":17,"map":"koth_cascade","folder":"tf","game":"Team Fortress","app_id":440,"player_count":0,"max_players":24,"Bots":0,"server_type":"Dedicated","server_os":"Linux","password":true,"vac":true,"version":"7695204","steam_id":85568392924469997,"keywords":["cp","nocrits","nodmgspread","uncletopia"],"game_id":440,"stv_port":27016,"stv_name":"Uncletopia | Seattle | 1 | All Maps | STV","players":null},{"server_id":119,"name":"Uncletopia | Seattle | 2 | All Maps","name_short":"sea-2","host":"sea-1.us.uncletopia.com","port":27025,"enabled":true,"region":"us-west","cc":"us","latitude":47.608013,"longitude":-122.33517,"reserved":0,"last_update":"0001-01-01T00:00:00Z","name_a2s":"Uncletopia | Seattle | 2 | All Maps","protocol":17,"map":"koth_nucleus","folder":"tf","game":"Team Fortress","app_id":440,"player_count":20,"max_players":24,"Bots":0,"server_type":"Dedicated","server_os":"Linux","password":true,"vac":true,"version":"7695204","steam_id":85568392924469998,"keywords":["cp","nocrits","nodmgspread","uncletopia"],"game_id":440,"stv_port":27026,"stv_name":"Uncletopia | Seattle | 2 | All Maps | STV","players":[{"user_id":713,"name":"Klone","steam_id":76561198854485605,"connected_time":5064000000000,"state":"active","ping":78},{"user_id":766,"name":"Raian","steam_id":76561199138048671,"connected_time":153000000000,"state":"active","ping":62},{"user_id":753,"name":"Red","steam_id":76561198037346199,"connected_time":1601000000000,"state":"active","ping":92},{"user_id":704,"name":"Sgt Autmn","steam_id":76561198072047939,"connected_time":6067000000000,"state":"active","ping":47},{"user_id":761,"name":"TattooedSheep","steam_id":76561198074880738,"connected_time":576000000000,"state":"active","ping":64},{"user_id":756,"name":"[TrC] Dackstrus","steam_id":76561197973518509,"connected_time":1137000000000,"state":"active","ping":58},{"user_id":767,"name":"semen","steam_id":76561199380022494,"connected_time":111000000000,"state":"active","ping":377},{"user_id":749,"name":"perc 10","steam_id":76561198116471653,"connected_time":1979000000000,"state":"active","ping":65},{"user_id":752,"name":"Musickness_1129","steam_id":76561198977664544,"connected_time":1769000000000,"state":"active","ping":171},{"user_id":755,"name":"Sock","steam_id":76561198060060747,"connected_time":1223000000000,"state":"active","ping":118},{"user_id":762,"name":"Rynx","steam_id":76561198369477018,"connected_time":219000000000,"state":"active","ping":91},{"user_id":764,"name":"paj","steam_id":76561198080026026,"connected_time":217000000000,"state":"active","ping":77},{"user_id":768,"name":"r0biN","steam_id":76561198097861434,"connected_time":77000000000,"state":"active","ping":77},{"user_id":757,"name":"[TrC] Nosy","steam_id":76561197978859310,"connected_time":1048000000000,"state":"active","ping":51},{"user_id":746,"name":"Elizabeth Großbrandt","steam_id":76561198209702785,"connected_time":2050000000000,"state":"active","ping":123},{"user_id":739,"name":"rat gets the cheese","steam_id":76561198031234032,"connected_time":2678000000000,"state":"active","ping":92},{"user_id":742,"name":"//NC SEGNO","steam_id":76561198102780113,"connected_time":2462000000000,"state":"active","ping":77},{"user_id":758,"name":"Daniel","steam_id":76561198451904733,"connected_time":1041000000000,"state":"active","ping":81},{"user_id":748,"name":"Okayokayokayokayokayokayokayoka","steam_id":76561198118754527,"connected_time":2022000000000,"state":"active","ping":97},{"user_id":760,"name":"cobalt","steam_id":76561198126982318,"connected_time":915000000000,"state":"active","ping":109}]},{"server_id":17,"name":"Uncletopia | San Francisco | 1 | All Maps","name_short":"sfo-1","host":"sfo-1.us.uncletopia.com","port":27015,"enabled":true,"region":"us-west","cc":"us","latitude":37.77397,"longitude":-122.4313,"reserved":0,"last_update":"0001-01-01T00:00:00Z","name_a2s":"Uncletopia | San Francisco | 1 | All Maps","protocol":17,"map":"koth_lakeside_final","folder":"tf","game":"Team Fortress","app_id":440,"player_count":0,"max_players":24,"Bots":0,"server_type":"Dedicated","server_os":"Linux","password":true,"vac":true,"version":"7695204","steam_id":85568392924469999,"keywords":["cp","nocrits","nodmgspread","uncletopia"],"game_id":440,"stv_port":27016,"stv_name":"Uncletopia | San Francisco | 1 | All Maps | STV","players":null},{"server_id":18,"name":"Uncletopia | San Francisco | 2 | All Maps","name_short":"sfo-2","host":"sfo-1.us.uncletopia.com","port":27025,"enabled":true,"region":"us-west","cc":"us","latitude":37.77397,"longitude":-122.4313,"reserved":0,"last_update":"0001-01-01T00:00:00Z","name_a2s":"Uncletopia | San Francisco | 2 | All Maps","protocol":17,"map":"koth_viaduct","folder":"tf","game":"Team Fortress","app_id":440,"player_count":3,"max_players":24,"Bots":0,"server_type":"Dedicated","server_os":"Linux","password":true,"vac":true,"version":"7695204","steam_id":85568392924470000,"keywords":["nocrits","nodmgspread","payload","uncletopia"],"game_id":440,"stv_port":27026,"stv_name":"Uncletopia | San Francisco | 2 | All Maps | STV","players":[{"user_id":768,"name":"Dr. Detroit","steam_id":76561198970783505,"connected_time":765000000000,"state":"connecting","ping":136}]},{"server_id":19,"name":"Uncletopia | San Francisco | 3 | No Payload","name_short":"sfo-3","host":"sfo-1.us.uncletopia.com","port":27035,"enabled":true,"region":"us-west","cc":"us","latitude":37.77397,"longitude":-122.4313,"reserved":0,"last_update":"0001-01-01T00:00:00Z","name_a2s":"Uncletopia | San Francisco | 3 | No Payload","protocol":17,"map":"plr_hightower","folder":"tf","game":"Team Fortress","app_id":440,"player_count":0,"max_players":24,"Bots":0,"server_type":"Dedicated","server_os":"Linux","password":true,"vac":true,"version":"7695204","steam_id":85568392924742824,"keywords":["nocrits","nodmgspread","payload","uncletopia"],"game_id":440,"stv_port":27036,"stv_name":"Uncletopia | San Francisco | 3 | No Payload | STV","players":null},{"server_id":20,"name":"Uncletopia | San Francisco | 4 | Community","name_short":"sfo-4","host":"sfo-1.us.uncletopia.com","port":27045,"enabled":true,"region":"us-west","cc":"us","latitude":37.77397,"longitude":-122.4313,"reserved":0,"last_update":"0001-01-01T00:00:00Z","name_a2s":"Uncletopia | San Francisco | 4 | Community","protocol":17,"map":"workshop/cp_sulfur_rc2.ugc619869471","folder":"tf","game":"Team Fortress","app_id":440,"player_count":0,"max_players":24,"Bots":0,"server_type":"Dedicated","server_os":"Linux","password":true,"vac":true,"version":"7695204","steam_id":85568392924742826,"keywords":["cp","nocrits","nodmgspread","uncletopia"],"game_id":440,"stv_port":27046,"stv_name":"Uncletopia | San Francisco | 4 | Community | STV","players":null},{"server_id":141,"name":"Uncletopia | Sydney | 1 | All Maps","name_short":"syd-1","host":"syd-1.au.uncletopia.com","port":27015,"enabled":true,"region":"au","cc":"au","latitude":-33.865143,"longitude":151.2099,"reserved":0,"last_update":"0001-01-01T00:00:00Z","name_a2s":"Uncletopia | Sydney | 1 | All Maps","protocol":17,"map":"plr_pipeline","folder":"tf","game":"Team Fortress","app_id":440,"player_count":0,"max_players":24,"Bots":0,"server_type":"Dedicated","server_os":"Linux","password":true,"vac":true,"version":"7695204","steam_id":85568392924470001,"keywords":["nocrits","nodmgspread","payload","uncletopia"],"game_id":440,"stv_port":27016,"stv_name":"Uncletopia | Sydney | 1 | All Maps | STV","players":null},{"server_id":123,"name":"Uncletopia | Sydney | 2 | All Maps","name_short":"syd-2","host":"syd-1.au.uncletopia.com","port":27025,"enabled":true,"region":"au","cc":"au","latitude":-33.865143,"longitude":151.2099,"reserved":0,"last_update":"0001-01-01T00:00:00Z","name_a2s":"Uncletopia | Sydney | 2 | All Maps","protocol":17,"map":"pl_swiftwater_final1","folder":"tf","game":"Team Fortress","app_id":440,"player_count":19,"max_players":24,"Bots":0,"server_type":"Dedicated","server_os":"Linux","password":true,"vac":true,"version":"7695204","steam_id":85568392924470002,"keywords":["nocrits","nodmgspread","payload","uncletopia"],"game_id":440,"stv_port":27026,"stv_name":"Uncletopia | Sydney | 2 | All Maps | STV","players":[{"user_id":587,"name":"LockStryder","steam_id":76561198117384113,"connected_time":177000000000,"state":"active","ping":42},{"user_id":557,"name":"Kiaxuss","steam_id":76561198195478589,"connected_time":3314000000000,"state":"active","ping":41},{"user_id":375,"name":"Salty Dog","steam_id":76561198038713921,"connected_time":16589000000000,"state":"active","ping":52},{"user_id":558,"name":"Kouler","steam_id":76561197960804719,"connected_time":3307000000000,"state":"active","ping":61},{"user_id":572,"name":"Eclipse Mints Muncher","steam_id":76561198972095766,"connected_time":1570000000000,"state":"active","ping":43},{"user_id":584,"name":"eating apple","steam_id":76561198146040118,"connected_time":461000000000,"state":"active","ping":42},{"user_id":555,"name":"J''''","steam_id":76561198047565137,"connected_time":3559000000000,"state":"active","ping":55},{"user_id":567,"name":"Mike","steam_id":76561199009189725,"connected_time":2056000000000,"state":"active","ping":60},{"user_id":585,"name":"floop flub","steam_id":76561198418968979,"connected_time":361000000000,"state":"active","ping":92},{"user_id":586,"name":"Michaelsoft Binbows","steam_id":76561198422847304,"connected_time":313000000000,"state":"active","ping":59},{"user_id":588,"name":"ManFlabs","steam_id":76561198971245592,"connected_time":170000000000,"state":"active","ping":61},{"user_id":589,"name":"scuba cat... my beloved","steam_id":76561198203917953,"connected_time":86000000000,"state":"active","ping":57},{"user_id":520,"name":"Akunébíokwudigbo","steam_id":76561198197777382,"connected_time":7352000000000,"state":"active","ping":51},{"user_id":563,"name":"AfroNinja","steam_id":76561198120372011,"connected_time":2510000000000,"state":"active","ping":67},{"user_id":543,"name":"fast and BULBOUS","steam_id":76561198065122193,"connected_time":4667000000000,"state":"active","ping":43},{"user_id":582,"name":"Mr Asian","steam_id":76561199119648313,"connected_time":844000000000,"state":"active","ping":70},{"user_id":579,"name":"Xoudian","steam_id":76561198049525716,"connected_time":993000000000,"state":"active","ping":109},{"user_id":463,"name":"A threat unbeknownst","steam_id":76561198293776102,"connected_time":10313000000000,"state":"active","ping":43},{"user_id":574,"name":"Mama Origami","steam_id":76561198330338645,"connected_time":1441000000000,"state":"active","ping":69}]},{"server_id":395,"name":"Uncletopia | Sydney | 3 | All Maps","name_short":"syd-3","host":"syd-1.au.uncletopia.com","port":27035,"enabled":true,"region":"au","cc":"au","latitude":-33.865143,"longitude":151.2099,"reserved":0,"last_update":"0001-01-01T00:00:00Z","name_a2s":"Uncletopia | Sydney | 3 | All Maps","protocol":17,"map":"koth_viaduct","folder":"tf","game":"Team Fortress","app_id":440,"player_count":21,"max_players":24,"Bots":0,"server_type":"Dedicated","server_os":"Linux","password":true,"vac":true,"version":"7695204","steam_id":85568392925194467,"keywords":["cp","nocrits","nodmgspread","uncletopia"],"game_id":440,"stv_port":27036,"stv_name":"Uncletopia | Sydney | 3 | All Maps | STV","players":[{"user_id":381,"name":"Reddant","steam_id":76561198294169401,"connected_time":800000000000,"state":"active","ping":50},{"user_id":373,"name":"Elves","steam_id":76561198010873624,"connected_time":1086000000000,"state":"active","ping":52},{"user_id":377,"name":"abcdef","steam_id":76561198083700749,"connected_time":983000000000,"state":"active","ping":52},{"user_id":364,"name":"york","steam_id":76561197996817216,"connected_time":1465000000000,"state":"active","ping":45},{"user_id":313,"name":"ุbifcheg","steam_id":76561198319806610,"connected_time":5439000000000,"state":"active","ping":66},{"user_id":388,"name":"MW","steam_id":76561199037145489,"connected_time":418000000000,"state":"active","ping":45},{"user_id":337,"name":"Cogzy","steam_id":76561198012463402,"connected_time":3221000000000,"state":"active","ping":74},{"user_id":331,"name":"LIFE","steam_id":76561198137432232,"connected_time":3448000000000,"state":"active","ping":160},{"user_id":391,"name":"JohnnySpade096","steam_id":76561199388504691,"connected_time":38000000000,"state":"spawning","ping":169},{"user_id":379,"name":"Rogue (Anti-fire)","steam_id":76561198055404248,"connected_time":886000000000,"state":"active","ping":45},{"user_id":392,"name":"Magpie Marauder","steam_id":76561198077266421,"connected_time":37000000000,"state":"spawning","ping":61},{"user_id":375,"name":"The FlyingFish","steam_id":76561198158343180,"connected_time":1065000000000,"state":"active","ping":138},{"user_id":334,"name":"Bin","steam_id":76561199117653318,"connected_time":3390000000000,"state":"active","ping":62},{"user_id":346,"name":"ItsSnakey","steam_id":76561199187623513,"connected_time":2923000000000,"state":"active","ping":65},{"user_id":359,"name":"Marvin","steam_id":76561198202181742,"connected_time":2120000000000,"state":"active","ping":44},{"user_id":362,"name":"Altara","steam_id":76561198022306164,"connected_time":1831000000000,"state":"active","ping":67},{"user_id":363,"name":"Jamie2Cool","steam_id":76561198155695809,"connected_time":1812000000000,"state":"active","ping":76},{"user_id":338,"name":"SlenderFox","steam_id":76561198044002401,"connected_time":3217000000000,"state":"active","ping":53},{"user_id":387,"name":"krandlez` (Any/All)","steam_id":76561198044839726,"connected_time":422000000000,"state":"active","ping":44},{"user_id":384,"name":"Andrew Taint","steam_id":76561198271435803,"connected_time":692000000000,"state":"active","ping":59},{"user_id":390,"name":"kirk","steam_id":76561198097442979,"connected_time":296000000000,"state":"active","ping":92}]},{"server_id":396,"name":"Uncletopia | Sydney | 4 | All Maps","name_short":"syd-4","host":"syd-1.au.uncletopia.com","port":27045,"enabled":true,"region":"au","cc":"au","latitude":-33.865143,"longitude":151.2099,"reserved":0,"last_update":"0001-01-01T00:00:00Z","name_a2s":"Uncletopia | Sydney | 4 | All Maps","protocol":17,"map":"pl_borneo","folder":"tf","game":"Team Fortress","app_id":440,"player_count":5,"max_players":24,"Bots":0,"server_type":"Dedicated","server_os":"Linux","password":true,"vac":true,"version":"7695204","steam_id":85568392925397958,"keywords":["nocrits","nodmgspread","payload","uncletopia"],"game_id":440,"stv_port":27046,"stv_name":"Uncletopia | Sydney | 4 | All Maps | STV","players":[{"user_id":18,"name":"simpcyan","steam_id":76561199121837374,"connected_time":4656000000000,"state":"active","ping":108},{"user_id":19,"name":"Muffin","steam_id":76561198034358827,"connected_time":4627000000000,"state":"active","ping":80},{"user_id":21,"name":"Nep Nya!","steam_id":76561198303367754,"connected_time":4158000000000,"state":"active","ping":73},{"user_id":48,"name":"DEMACLIO","steam_id":76561198046654525,"connected_time":454000000000,"state":"active","ping":65},{"user_id":37,"name":"kcajnosbod","steam_id":76561198400431574,"connected_time":2478000000000,"state":"active","ping":55}]},{"server_id":58,"name":"Uncletopia | Sydney | 5 | No Payload","name_short":"syd-5","host":"syd-1.au.uncletopia.com","port":27055,"enabled":true,"region":"au","cc":"au","latitude":-33.865143,"longitude":151.2099,"reserved":0,"last_update":"0001-01-01T00:00:00Z","name_a2s":"Uncletopia | Sydney | 5 | No Payload","protocol":17,"map":"plr_hightower","folder":"tf","game":"Team Fortress","app_id":440,"player_count":2,"max_players":24,"Bots":0,"server_type":"Dedicated","server_os":"Linux","password":true,"vac":true,"version":"7695204","steam_id":85568392925397959,"keywords":["nocrits","nodmgspread","payload","uncletopia"],"game_id":440,"stv_port":27056,"stv_name":"Uncletopia | Sydney | 5 | No Payload | STV","players":[{"user_id":18,"name":"Dommy magic","steam_id":76561198975696603,"connected_time":495000000000,"state":"active","ping":40},{"user_id":21,"name":"animuliam09","steam_id":76561199324485710,"connected_time":286000000000,"state":"active","ping":49}]},{"server_id":59,"name":"Uncletopia | Sydney | 6 | Community","name_short":"syd-6","host":"syd-1.au.uncletopia.com","port":27065,"enabled":true,"region":"au","cc":"au","latitude":-33.865143,"longitude":151.2099,"reserved":0,"last_update":"0001-01-01T00:00:00Z","name_a2s":"Uncletopia | Sydney | 6 | Community","protocol":17,"map":"workshop/koth_product_final.ugc454272353","folder":"tf","game":"Team Fortress","app_id":440,"player_count":2,"max_players":24,"Bots":0,"server_type":"Dedicated","server_os":"Linux","password":true,"vac":true,"version":"7695204","steam_id":85568392925397960,"keywords":["cp","nocrits","nodmgspread","uncletopia"],"game_id":440,"stv_port":27066,"stv_name":"Uncletopia | Sydney | 6 | Community | STV","players":[{"user_id":18,"name":"Jameshasconnected","steam_id":76561198399719292,"connected_time":387000000000,"state":"active","ping":46},{"user_id":19,"name":"Zando","steam_id":76561198992703346,"connected_time":330000000000,"state":"active","ping":57}]},{"server_id":49,"name":"Uncletopia | Warsaw | 1 | All Maps","name_short":"waw-1","host":"waw-1.pl.uncletopia.com","port":27015,"enabled":true,"region":"eu","cc":"pl","latitude":52.2297,"longitude":21.017532,"reserved":0,"last_update":"0001-01-01T00:00:00Z","name_a2s":"Uncletopia | Warsaw | 1 | All Maps","protocol":17,"map":"pl_pier","folder":"tf","game":"Team Fortress","app_id":440,"player_count":0,"max_players":24,"Bots":0,"server_type":"Dedicated","server_os":"Linux","password":true,"vac":true,"version":"7695204","steam_id":85568392925397850,"keywords":["nocrits","nodmgspread","payload","uncletopia"],"game_id":440,"stv_port":27016,"stv_name":"Uncletopia | Warsaw | 1 | All Maps | STV","players":null},{"server_id":50,"name":"Uncletopia | Warsaw | 2 | All Maps","name_short":"waw-2","host":"waw-1.pl.uncletopia.com","port":27025,"enabled":true,"region":"eu","cc":"pl","latitude":52.2297,"longitude":21.017532,"reserved":0,"last_update":"0001-01-01T00:00:00Z","name_a2s":"Uncletopia | Warsaw | 2 | All Maps","protocol":17,"map":"koth_nucleus","folder":"tf","game":"Team Fortress","app_id":440,"player_count":17,"max_players":24,"Bots":0,"server_type":"Dedicated","server_os":"Linux","password":true,"vac":true,"version":"7695204","steam_id":85568392925397851,"keywords":["cp","nocrits","nodmgspread","uncletopia"],"game_id":440,"stv_port":27026,"stv_name":"Uncletopia | Warsaw | 2 | All Maps | STV","players":[{"user_id":138,"name":"Nomad994","steam_id":76561198051908201,"connected_time":3036000000000,"state":"active","ping":95},{"user_id":184,"name":"Dr. Heinz Doofenshmirtz","steam_id":76561198154962908,"connected_time":596000000000,"state":"active","ping":74},{"user_id":191,"name":"Warpzel65","steam_id":76561198799303596,"connected_time":53000000000,"state":"active","ping":79},{"user_id":192,"name":"it is i timothai","steam_id":76561198241493490,"connected_time":49000000000,"state":"spawning","ping":89},{"user_id":33,"name":"player","steam_id":76561198054474684,"connected_time":9691000000000,"state":"active","ping":74},{"user_id":170,"name":"bob","steam_id":76561198309295580,"connected_time":1187000000000,"state":"active","ping":74},{"user_id":155,"name":"miko polo","steam_id":76561198430649064,"connected_time":2200000000000,"state":"active","ping":77},{"user_id":156,"name":"pandeux","steam_id":76561198343527617,"connected_time":2170000000000,"state":"active","ping":67},{"user_id":110,"name":"PhantomStriker","steam_id":76561199116689935,"connected_time":5131000000000,"state":"active","ping":69},{"user_id":178,"name":"Hydrogen Cyanide","steam_id":76561198075590560,"connected_time":1063000000000,"state":"active","ping":81},{"user_id":176,"name":"Dangerousbros","steam_id":76561198088952519,"connected_time":1098000000000,"state":"active","ping":74},{"user_id":186,"name":"joe big mcdickinton","steam_id":76561199212894277,"connected_time":563000000000,"state":"active","ping":71},{"user_id":183,"name":"MomoInTheBox","steam_id":76561197994150695,"connected_time":709000000000,"state":"active","ping":46},{"user_id":187,"name":"Fauli™","steam_id":76561198125109310,"connected_time":559000000000,"state":"active","ping":73},{"user_id":179,"name":"partizan","steam_id":76561198440837262,"connected_time":951000000000,"state":"active","ping":78},{"user_id":165,"name":"MonkeyDaun","steam_id":76561198964435390,"connected_time":1697000000000,"state":"active","ping":78},{"user_id":166,"name":"Breadcrab","steam_id":76561198015924039,"connected_time":1691000000000,"state":"active","ping":84}]},{"server_id":51,"name":"Uncletopia | Warsaw | 3 | All Maps","name_short":"waw-3","host":"waw-1.pl.uncletopia.com","port":27035,"enabled":true,"region":"eu","cc":"pl","latitude":52.2297,"longitude":21.017532,"reserved":0,"last_update":"0001-01-01T00:00:00Z","name_a2s":"Uncletopia | Warsaw | 3 | All Maps","protocol":17,"map":"pl_barnblitz","folder":"tf","game":"Team Fortress","app_id":440,"player_count":0,"max_players":24,"Bots":0,"server_type":"Dedicated","server_os":"Linux","password":true,"vac":true,"version":"7695204","steam_id":85568392925397852,"keywords":["nocrits","nodmgspread","payload","uncletopia"],"game_id":440,"stv_port":0,"stv_name":"","players":null},{"server_id":52,"name":"Uncletopia | Warsaw | 4 | All Maps","name_short":"waw-4","host":"waw-1.pl.uncletopia.com","port":27045,"enabled":true,"region":"eu","cc":"pl","latitude":52.2297,"longitude":21.017532,"reserved":0,"last_update":"0001-01-01T00:00:00Z","name_a2s":"Uncletopia | Warsaw | 4 | All Maps","protocol":17,"map":"cp_altitude","folder":"tf","game":"Team Fortress","app_id":440,"player_count":0,"max_players":24,"Bots":0,"server_type":"Dedicated","server_os":"Linux","password":true,"vac":true,"version":"7695204","steam_id":85568392925397853,"keywords":["cp","nocrits","nodmgspread","uncletopia"],"game_id":440,"stv_port":0,"stv_name":"","players":null},{"server_id":53,"name":"Uncletopia | Warsaw | 5 | No Payload","name_short":"waw-5","host":"waw-1.pl.uncletopia.com","port":27055,"enabled":true,"region":"eu","cc":"pl","latitude":52.2297,"longitude":21.017532,"reserved":0,"last_update":"0001-01-01T00:00:00Z","name_a2s":"Uncletopia | Warsaw | 5 | No Payload","protocol":17,"map":"pl_badwater","folder":"tf","game":"Team Fortress","app_id":440,"player_count":0,"max_players":24,"Bots":0,"server_type":"Dedicated","server_os":"Linux","password":true,"vac":true,"version":"7695204","steam_id":85568392925397854,"keywords":["nocrits","nodmgspread","payload","uncletopia"],"game_id":440,"stv_port":0,"stv_name":"","players":null},{"server_id":54,"name":"Uncletopia | Warsaw | 6 | Community","name_short":"waw-6","host":"waw-1.pl.uncletopia.com","port":27065,"enabled":true,"region":"eu","cc":"pl","latitude":52.2297,"longitude":21.017532,"reserved":0,"last_update":"0001-01-01T00:00:00Z","name_a2s":"Uncletopia | Warsaw | 6 | Community","protocol":17,"map":"pl_barnblitz","folder":"tf","game":"Team Fortress","app_id":440,"player_count":0,"max_players":24,"Bots":0,"server_type":"Dedicated","server_os":"Linux","password":true,"vac":true,"version":"7695204","steam_id":85568392925397856,"keywords":["nocrits","nodmgspread","payload","uncletopia"],"game_id":440,"stv_port":0,"stv_name":"","players":null}]}