{"status":true,"message":"","result":[{"server_id":9,"name":"Uncletopia | Atlanta | 1 | All Maps","name_short":"atl-1","host":"atl-1.us.uncletopia.com","port":27015,"enabled":true,"region":"us-east","cc":"us","latitude":33.753746,"longitude":-84.38633,"reserved":0,"last_update":"0001-01-01T00:00:00Z","name_a2s":"Uncletopia | Atlanta | 1 | All Maps","protocol":17,"map":"pl_pier","folder":"tf","game":"Team Fortress","app_id":440,"player_count":24,"max_players":24,"Bots":0,"server_type":"Dedicated","server_os":"Linux","password":true,"vac":true,"version":"7961495","steam_id":85568392924469982,"keywords":["nocrits","nodmgspread","payload","uncletopia"],"game_id":440,"stv_port":27016,"stv_name":"Uncletopia | Atlanta | 1 | All Maps | STV","players":null},{"server_id":104,"name":"Uncletopia | Atlanta | 2 | All Maps","name_short":"atl-2","host":"atl-1.us.uncletopia.com","port":27025,"enabled":true,"region":"us-east","cc":"us","latitude":33.753746,"longitude":-84.38633,"reserved":0,"last_update":"0001-01-01T00:00:00Z","name_a2s":"Uncletopia | Atlanta | 2 | All Maps","protocol":17,"map":"pl_badwater","folder":"tf","game":"Team Fortress","app_id":440,"player_count":23,"max_players":24,"Bots":0,"server_type":"Dedicated","server_os":"Linux","password":true,"vac":true,"version":"7961495","steam_id":85568392924469983,"keywords":["nocrits","nodmgspread","payload","uncletopia"],"game_id":440,"stv_port":27026,"stv_name":"Uncletopia | Atlanta | 2 | All Maps | STV","players":null},{"server_id":400,"name":"Uncletopia | Atlanta | 3 | Stopwatch","name_short":"atl-3","host":"atl-1.us.uncletopia.com","port":27035,"enabled":true,"region":"us-east","cc":"us","latitude":33.753746,"longitude":-84.38633,"reserved":0,"last_update":"0001-01-01T00:00:00Z","name_a2s":"Uncletopia | Atlanta | 3 | Stopwatch","protocol":17,"map":"koth_clearcut_b15","folder":"tf","game":"Team Fortress","app_id":440,"player_count":2,"max_players":24,"Bots":0,"server_type":"Dedicated","server_os":"Linux","password":true,"vac":true,"version":"7961495","steam_id":85568392924515187,"keywords":["cp","nocrits","nodmgspread","uncletopia"],"game_id":440,"stv_port":27036,"stv_name":"Uncletopia | Atlanta | 3 | Stopwatch | STV","players":null},{"server_id":401,"name":"Uncletopia | Atlanta | 4 | Community","name_short":"atl-4","host":"atl-1.us.uncletopia.com","port":27045,"enabled":true,"region":"us-east","cc":"us","latitude":33.753746,"longitude":-84.38633,"reserved":0,"last_update":"0001-01-01T00:00:00Z","name_a2s":"Uncletopia | Atlanta | 4 | Community","protocol":17,"map":"pl_corrode_rc2","folder":"tf","game":"Team Fortress","app_id":440,"player_count":24,"max_players":24,"Bots":0,"server_type":"Dedicated","server_os":"Linux","password":true,"vac":true,"version":"7961495","steam_id":85568392924515188,"keywords":["nocrits","nodmgspread","payload","uncletopia"],"game_id":440,"stv_port":27046,"stv_name":"Uncletopia | Atlanta | 4 | Community | STV","players":null},{"server_id":2,"name":"Uncletopia | Chicago | 1 | All Maps","name_short":"chi-1","host":"chi-1.us.uncletopia.com","port":27015,"enabled":true,"region":"us-central","cc":"us","latitude":41.881832,"longitude":-87.62318,"reserved":0,"last_update":"0001-01-01T00:00:00Z","name_a2s":"Uncletopia | Chicago | 1 | All Maps","protocol":17,"map":"pl_upward","folder":"tf","game":"Team Fortress","app_id":440,"player_count":24,"max_players":24,"Bots":0,"server_type":"Dedicated","server_os":"Linux","password":true,"vac":true,"version":"7961495","steam_id":85568392924469984,"keywords":["nocrits","nodmgspread","payload","uncletopia"],"game_id":440,"stv_port":27016,"stv_name":"Uncletopia | Chicago | 1 | All Maps | STV","players":[{"user_id":306,"name":"ZootSlut","steam_id":76561198121944243,"connected_time":4152000000000,"state":"active","ping":47},{"user_id":335,"name":"Pixel","steam_id":76561198129243055,"connected_time":734000000000,"state":"active","ping":51},{"user_id":341,"name":"ROGUE-PLANET","steam_id":76561198116023052,"connected_time":236000000000,"state":"active","ping":85},{"user_id":320,"name":"Shoeshocker","steam_id":76561198174302467,"connected_time":2160000000000,"state":"active","ping":71},{"user_id":337,"name":"Dr. Necrofeelya","steam_id":76561198396814056,"connected_time":675000000000,"state":"active","ping":73},{"user_id":296,"name":"DinkleBerg","steam_id":76561198891626233,"connected_time":5094000000000,"state":"active","ping":63},{"user_id":342,"name":"WitchKing999","steam_id":76561198338154458,"connected_time":226000000000,"state":"active","ping":76},{"user_id":340,"name":"eat Pant","steam_id":76561197974965536,"connected_time":252000000000,"state":"active","ping":61},{"user_id":301,"name":"♥Bunny♥Slut♥","steam_id":76561198206376851,"connected_time":4789000000000,"state":"active","ping":86},{"user_id":323,"name":"loser","steam_id":76561198259380127,"connected_time":1041000000000,"state":"active","ping":56},{"user_id":344,"name":"Ichthyology Enthusiast","steam_id":76561198854662187,"connected_time":55000000000,"state":"active","ping":69},{"user_id":272,"name":"Your Local Queer Librarian","steam_id":76561198013077080,"connected_time":6725000000000,"state":"active","ping":58},{"user_id":324,"name":"Rex","steam_id":76561198138365053,"connected_time":1036000000000,"state":"active","ping":133},{"user_id":315,"name":":)","steam_id":76561198093921290,"connected_time":3027000000000,"state":"active","ping":47},{"user_id":333,"name":"otcu","steam_id":76561198339644583,"connected_time":885000000000,"state":"active","ping":62},{"user_id":334,"name":"bengineer","steam_id":76561198171912174,"connected_time":864000000000,"state":"active","ping":101},{"user_id":308,"name":"ElephantHydrogen4277882","steam_id":76561198175741741,"connected_time":4081000000000,"state":"active","ping":77},{"user_id":343,"name":"Burny Sanders","steam_id":76561197961879048,"connected_time":218000000000,"state":"active","ping":60},{"user_id":331,"name":"Jovo","steam_id":76561197993265970,"connected_time":939000000000,"state":"active","ping":81},{"user_id":332,"name":"bobbymcbobington","steam_id":76561199089411172,"connected_time":935000000000,"state":"active","ping":117},{"user_id":316,"name":"ThatOneKnight","steam_id":76561198388583650,"connected_time":2345000000000,"state":"active","ping":59},{"user_id":321,"name":"Spy Gaming","steam_id":76561198453295613,"connected_time":1793000000000,"state":"active","ping":107},{"user_id":339,"name":"LeTonzy","steam_id":76561198005806699,"connected_time":334000000000,"state":"active","ping":113},{"user_id":294,"name":"Anthid","steam_id":76561198074493797,"connected_time":5305000000000,"state":"active","ping":71}]},{"server_id":106,"name":"Uncletopia | Chicago | 2 | All Maps","name_short":"chi-2","host":"chi-1.us.uncletopia.com","port":27025,"enabled":true,"region":"us-central","cc":"us","latitude":41.881832,"longitude":-87.62318,"reserved":0,"last_update":"0001-01-01T00:00:00Z","name_a2s":"Uncletopia | Chicago | 2 | All Maps","protocol":17,"map":"koth_suijin","folder":"tf","game":"Team Fortress","app_id":440,"player_count":24,"max_players":24,"Bots":0,"server_type":"Dedicated","server_os":"Linux","password":true,"vac":true,"version":"7961495","steam_id":85568392924469985,"keywords":["cp","nocrits","nodmgspread","uncletopia"],"game_id":440,"stv_port":27026,"stv_name":"Uncletopia | Chicago | 2 | All Maps | STV","players":[{"user_id":609,"name":"KappinFappin","steam_id":76561198312075660,"connected_time":4978000000000,"state":"active","ping":71},{"user_id":652,"name":"Cyruktez","steam_id":76561198115876488,"connected_time":1039000000000,"state":"active","ping":60},{"user_id":558,"name":"Ace Chromatica","steam_id":76561198042211131,"connected_time":7631000000000,"state":"active","ping":60},{"user_id":661,"name":"Maxini_","steam_id":76561198041077011,"connected_time":652000000000,"state":"active","ping":56},{"user_id":643,"name":"GuyGoom","steam_id":76561198254522178,"connected_time":1721000000000,"state":"active","ping":58},{"user_id":602,"name":"CherriKat","steam_id":76561198821297512,"connected_time":5315000000000,"state":"active","ping":101},{"user_id":656,"name":"Shirm","steam_id":76561198068455981,"connected_time":885000000000,"state":"active","ping":75},{"user_id":640,"name":"Steuski","steam_id":76561199212297248,"connected_time":1842000000000,"state":"active","ping":70},{"user_id":621,"name":"B R O W N","steam_id":76561198084016173,"connected_time":3365000000000,"state":"active","ping":68},{"user_id":646,"name":"Hamsever","steam_id":76561198048766212,"connected_time":1517000000000,"state":"active","ping":59},{"user_id":651,"name":"Uncle Ricky","steam_id":76561198152405141,"connected_time":1097000000000,"state":"active","ping":75},{"user_id":657,"name":"Henry Ota-Clay","steam_id":76561198053232470,"connected_time":850000000000,"state":"active","ping":60},{"user_id":610,"name":"Nutty McNuts","steam_id":76561199382747995,"connected_time":4976000000000,"state":"active","ping":80},{"user_id":665,"name":"Shady Businessman","steam_id":76561198143855968,"connected_time":91000000000,"state":"active","ping":106},{"user_id":636,"name":"WitheringLeo","steam_id":76561198046722918,"connected_time":2816000000000,"state":"active","ping":89},{"user_id":662,"name":"ViserofJustice","steam_id":76561198267918559,"connected_time":495000000000,"state":"active","ping":83},{"user_id":622,"name":"Rafl","steam_id":76561198055222756,"connected_time":3302000000000,"state":"active","ping":62},{"user_id":664,"name":"ninety9dragonfly","steam_id":76561198363406983,"connected_time":366000000000,"state":"active","ping":106},{"user_id":599,"name":"ViserOfOrder","steam_id":76561198137222506,"connected_time":5385000000000,"state":"active","ping":62},{"user_id":653,"name":"bleach₪","steam_id":76561198004482768,"connected_time":981000000000,"state":"active","ping":117},{"user_id":569,"name":"MR SKELTAL","steam_id":76561198031089598,"connected_time":6724000000000,"state":"active","ping":72},{"user_id":660,"name":"Reptar","steam_id":76561198085273364,"connected_time":775000000000,"state":"active","ping":144},{"user_id":663,"name":"ThiccNicc","steam_id":76561198236828842,"connected_time":493000000000,"state":"active","ping":65},{"user_id":635,"name":"Kirby.exe","steam_id":76561198242714582,"connected_time":2826000000000,"state":"active","ping":71}]},{"server_id":402,"name":"Uncletopia | Chicago | 3 | All Maps","name_short":"chi-3","host":"chi-1.us.uncletopia.com","port":27035,"enabled":true,"region":"us-central","cc":"us","latitude":41.881832,"longitude":-87.62318,"reserved":0,"last_update":"0001-01-01T00:00:00Z","name_a2s":"Uncletopia | Chicago | 3 | All Maps","protocol":17,"map":"pl_upward","folder":"tf","game":"Team Fortress","app_id":440,"player_count":24,"max_players":24,"Bots":0,"server_type":"Dedicated","server_os":"Linux","password":true,"vac":true,"version":"7961495","steam_id":85568392924515191,"keywords":["nocrits","nodmgspread","payload","uncletopia"],"game_id":440,"stv_port":27036,"stv_name":"Uncletopia | Chicago | 3 | All Maps | STV","players":[{"user_id":523,"name":"DbrotLord","steam_id":76561198156461280,"connected_time":1054000000000,"state":"active","ping":71},{"user_id":515,"name":"Jeoff Bezos","steam_id":76561198120412349,"connected_time":2255000000000,"state":"active","ping":98},{"user_id":483,"name":"chain chomp","steam_id":76561198155872356,"connected_time":4283000000000,"state":"active","ping":56},{"user_id":532,"name":"McDonald's Hashbrown at 4am","steam_id":76561198273769337,"connected_time":92000000000,"state":"active","ping":70},{"user_id":524,"name":"Gingoguy","steam_id":76561198088931297,"connected_time":559000000000,"state":"active","ping":60},{"user_id":520,"name":"chiswola","steam_id":76561198046920142,"connected_time":1477000000000,"state":"active","ping":73},{"user_id":522,"name":"Ugly Mick Mars (Plz Duel Me)","steam_id":76561198051504563,"connected_time":1209000000000,"state":"active","ping":109},{"user_id":525,"name":"Crisp","steam_id":76561198132644084,"connected_time":542000000000,"state":"active","ping":66},{"user_id":497,"name":"big steve","steam_id":76561199037050183,"connected_time":3874000000000,"state":"active","ping":76},{"user_id":518,"name":"Ping","steam_id":76561198072947773,"connected_time":1700000000000,"state":"active","ping":59},{"user_id":476,"name":"guy","steam_id":76561198079925551,"connected_time":5711000000000,"state":"active","ping":61},{"user_id":473,"name":"aphexjh","steam_id":76561197985854658,"connected_time":5864000000000,"state":"active","ping":65},{"user_id":488,"name":"frost atronach","steam_id":76561198804901722,"connected_time":4202000000000,"state":"active","ping":62},{"user_id":521,"name":"Demoman","steam_id":76561198101850500,"connected_time":1432000000000,"state":"active","ping":92},{"user_id":502,"name":"shibe","steam_id":76561198125817296,"connected_time":3632000000000,"state":"active","ping":113},{"user_id":526,"name":"Anstorner","steam_id":76561198274026015,"connected_time":522000000000,"state":"active","ping":99},{"user_id":516,"name":"osaka","steam_id":76561198170642407,"connected_time":1831000000000,"state":"active","ping":78},{"user_id":527,"name":"jumpymonster","steam_id":76561198173296047,"connected_time":505000000000,"state":"active","ping":97},{"user_id":533,"name":"Portaldude626","steam_id":76561198954610452,"connected_time":91000000000,"state":"active","ping":77},{"user_id":505,"name":"spaghetti","steam_id":76561198069600113,"connected_time":3543000000000,"state":"active","ping":62},{"user_id":517,"name":"AbbyRoads","steam_id":76561198868564212,"connected_time":1818000000000,"state":"active","ping":86},{"user_id":531,"name":"postman","steam_id":76561198453203619,"connected_time":321000000000,"state":"active","ping":106},{"user_id":530,"name":"Dr. Pleasant","steam_id":76561198111945101,"connected_time":449000000000,"state":"active","ping":85},{"user_id":499,"name":"Worst Scenario","steam_id":76561199052130229,"connected_time":3754000000000,"state":"active","ping":54}]},{"server_id":403,"name":"Uncletopia | Chicago | 4 | All Maps","name_short":"chi-4","host":"chi-1.us.uncletopia.com","port":27045,"enabled":true,"region":"us-central","cc":"us","latitude":41.881832,"longitude":-87.62318,"reserved":0,"last_update":"0001-01-01T00:00:00Z","name_a2s":"Uncletopia | Chicago | 4 | All Maps","protocol":17,"map":"pl_upward","folder":"tf","game":"Team Fortress","app_id":440,"player_count":24,"max_players":24,"Bots":0,"server_type":"Dedicated","server_os":"Linux","password":true,"vac":true,"version":"7961495","steam_id":85568392924515193,"keywords":["nocrits","nodmgspread","payload","uncletopia"],"game_id":440,"stv_port":27046,"stv_name":"Uncletopia | Chicago | 4 | All Maps | STV","players":[{"user_id":372,"name":"Ojen","steam_id":76561197998414482,"connected_time":3363000000000,"state":"active","ping":62},{"user_id":393,"name":"TrashDargon","steam_id":76561198423900560,"connected_time":1576000000000,"state":"active","ping":62},{"user_id":391,"name":"OddSlaush","steam_id":76561198043898488,"connected_time":1585000000000,"state":"active","ping":101},{"user_id":405,"name":"Cookies","steam_id":76561199099061813,"connected_time":199000000000,"state":"active","ping":111},{"user_id":310,"name":"eish","steam_id":76561198089463603,"connected_time":9661000000000,"state":"active","ping":130},{"user_id":354,"name":"The Professor","steam_id":76561198113760863,"connected_time":5707000000000,"state":"active","ping":60},{"user_id":369,"name":"TritonOfTheMinnows","steam_id":76561198048763371,"connected_time":3385000000000,"state":"active","ping":75},{"user_id":396,"name":"Pixeled","steam_id":76561198088917077,"connected_time":1545000000000,"state":"active","ping":87},{"user_id":384,"name":"Awenova","steam_id":76561198322928940,"connected_time":2620000000000,"state":"active","ping":56},{"user_id":357,"name":"Special agent Wu","steam_id":76561198307370168,"connected_time":5336000000000,"state":"active","ping":59},{"user_id":389,"name":"clue","steam_id":76561198299379768,"connected_time":2239000000000,"state":"active","ping":86},{"user_id":388,"name":"captain red","steam_id":76561198191587983,"connected_time":2418000000000,"state":"active","ping":75},{"user_id":350,"name":"henryissoreal","steam_id":76561198128074539,"connected_time":6060000000000,"state":"active","ping":86},{"user_id":394,"name":"Moonshine Man","steam_id":76561198088010073,"connected_time":1561000000000,"state":"active","ping":76},{"user_id":401,"name":"Unusual Scout","steam_id":76561199075186597,"connected_time":1271000000000,"state":"active","ping":63},{"user_id":399,"name":"Hoovy","steam_id":76561198409907417,"connected_time":1401000000000,"state":"active","ping":115},{"user_id":348,"name":"The Notorious P.U.E.R.","steam_id":76561198046715542,"connected_time":6452000000000,"state":"active","ping":69},{"user_id":402,"name":"Cherry Coke","steam_id":76561198178233006,"connected_time":1033000000000,"state":"active","ping":60},{"user_id":390,"name":"captainskullet","steam_id":76561198314597170,"connected_time":2202000000000,"state":"active","ping":71},{"user_id":297,"name":"I3lasteroid","steam_id":76561197985463901,"connected_time":10451000000000,"state":"active","ping":80},{"user_id":392,"name":"Cat doin laundry","steam_id":76561198063895852,"connected_time":1583000000000,"state":"active","ping":60},{"user_id":360,"name":"alextruckman97","steam_id":76561198066867150,"connected_time":4931000000000,"state":"active","ping":64},{"user_id":406,"name":"Jeremy","steam_id":76561198283977979,"connected_time":110000000000,"state":"active","ping":69},{"user_id":386,"name":"Dragus","steam_id":76561198032967285,"connected_time":2587000000000,"state":"active","ping":53}]},{"server_id":36,"name":"Uncletopia | Chicago | 5 | All Maps","name_short":"chi-5","host":"chi-2.us.uncletopia.com","port":27015,"enabled":true,"region":"us-central","cc":"us","latitude":41.881832,"longitude":-87.62318,"reserved":0,"last_update":"0001-01-01T00:00:00Z","name_a2s":"Uncletopia | Chicago | 5 | All Maps","protocol":17,"map":"cp_process_final","folder":"tf","game":"Team Fortress","app_id":440,"player_count":24,"max_players":24,"Bots":0,"server_type":"Dedicated","server_os":"Linux","password":true,"vac":true,"version":"7961495","steam_id":85568392924866362,"keywords":["cp","nocrits","nodmgspread","uncletopia"],"game_id":440,"stv_port":27016,"stv_name":"Uncletopia | Chicago | 5 | All Maps | STV","players":[{"user_id":180,"name":"Shrimpcess Supreme","steam_id":76561198276385778,"connected_time":11708000000000,"state":"active","ping":94},{"user_id":302,"name":"chilis baby back ribs","steam_id":76561198813516435,"connected_time":1565000000000,"state":"active","ping":103},{"user_id":264,"name":"Mega_Man23","steam_id":76561198138341391,"connected_time":5828000000000,"state":"active","ping":61},{"user_id":316,"name":"gIBBY","steam_id":76561198080099598,"connected_time":878000000000,"state":"active","ping":56},{"user_id":333,"name":"[TF2Apples] Intense Green Apple","steam_id":76561198803561622,"connected_time":35000000000,"state":"active","ping":87},{"user_id":312,"name":"wepry","steam_id":76561198114091417,"connected_time":1246000000000,"state":"active","ping":56},{"user_id":306,"name":"chill","steam_id":76561198313364985,"connected_time":1516000000000,"state":"active","ping":74},{"user_id":318,"name":"Princess Stinkypants","steam_id":76561198096221632,"connected_time":751000000000,"state":"active","ping":62},{"user_id":289,"name":"GreekGoat_Coffee","steam_id":76561198129331088,"connected_time":3344000000000,"state":"active","ping":47},{"user_id":304,"name":"Zesty Zucchini Ziti","steam_id":76561198092494136,"connected_time":1550000000000,"state":"active","ping":65},{"user_id":309,"name":"Piyono","steam_id":76561197962188504,"connected_time":1457000000000,"state":"active","ping":70},{"user_id":308,"name":"Lavender","steam_id":76561198142770666,"connected_time":1458000000000,"state":"active","ping":65},{"user_id":321,"name":"thorn648","steam_id":76561198012565777,"connected_time":675000000000,"state":"active","ping":69},{"user_id":314,"name":"MensRightsActivist","steam_id":76561199482149729,"connected_time":894000000000,"state":"active","ping":59},{"user_id":324,"name":"nicolas the mercenary","steam_id":76561199077641644,"connected_time":413000000000,"state":"active","ping":65},{"user_id":322,"name":"Kamin","steam_id":76561198255299559,"connected_time":604000000000,"state":"active","ping":95},{"user_id":319,"name":"Asanez3","steam_id":76561198037381436,"connected_time":695000000000,"state":"active","ping":81},{"user_id":291,"name":"t","steam_id":76561198175988929,"connected_time":3259000000000,"state":"active","ping":64},{"user_id":323,"name":"Voodo133","steam_id":76561198042670351,"connected_time":556000000000,"state":"active","ping":91},{"user_id":278,"name":"MR. BEEEEEEEEEEEEEAAAAAAAAAAST","steam_id":76561198205346760,"connected_time":4646000000000,"state":"active","ping":50},{"user_id":268,"name":"Innercord","steam_id":76561198122486639,"connected_time":5703000000000,"state":"active","ping":88},{"user_id":325,"name":"bunsy","steam_id":76561198097292857,"connected_time":409000000000,"state":"active","ping":78},{"user_id":328,"name":"Speedy","steam_id":76561198080761661,"connected_time":181000000000,"state":"active","ping":79},{"user_id":286,"name":"Toaster","steam_id":76561198152610412,"connected_time":4273000000000,"state":"active","ping":68}]},{"server_id":37,"name":"Uncletopia | Chicago | 6 | All Maps","name_short":"chi-6","host":"chi-2.us.uncletopia.com","port":27025,"enabled":true,"region":"us-central","cc":"us","latitude":41.881832,"longitude":-87.62318,"reserved":0,"last_update":"0001-01-01T00:00:00Z","name_a2s":"Uncletopia | Chicago | 6 | All Maps","protocol":17,"map":"pl_badwater","folder":"tf","game":"Team Fortress","app_id":440,"player_count":24,"max_players":24,"Bots":0,"server_type":"Dedicated","server_os":"Linux","password":true,"vac":true,"version":"7961495","steam_id":85568392924866363,"keywords":["nocrits","nodmgspread","payload","uncletopia"],"game_id":440,"stv_port":27026,"stv_name":"Uncletopia | Chicago | 6 | All Maps | STV","players":[{"user_id":907,"name":"Dr. House","steam_id":76561198052910702,"connected_time":1412000000000,"state":"active","ping":51},{"user_id":915,"name":"Kreld","steam_id":76561198047794615,"connected_time":810000000000,"state":"active","ping":159},{"user_id":904,"name":"Soy King","steam_id":76561198263025614,"connected_time":2072000000000,"state":"active","ping":110},{"user_id":856,"name":"SPIRE_FAN","steam_id":76561198001486573,"connected_time":5563000000000,"state":"active","ping":67},{"user_id":917,"name":"hittign dabong","steam_id":76561198097588802,"connected_time":662000000000,"state":"active","ping":46},{"user_id":899,"name":"president card holder","steam_id":76561198375348510,"connected_time":2179000000000,"state":"active","ping":71},{"user_id":890,"name":"kicks","steam_id":76561199228854923,"connected_time":2852000000000,"state":"active","ping":59},{"user_id":928,"name":"alvöru","steam_id":76561198273488925,"connected_time":372000000000,"state":"active","ping":75},{"user_id":918,"name":"salted pork","steam_id":76561199144640325,"connected_time":660000000000,"state":"active","ping":67},{"user_id":919,"name":"NUt","steam_id":76561198031007966,"connected_time":648000000000,"state":"active","ping":58},{"user_id":920,"name":"microwavedmoldyminkmilk","steam_id":76561197972601902,"connected_time":622000000000,"state":"active","ping":89},{"user_id":929,"name":"hazypoz","steam_id":76561198075647830,"connected_time":177000000000,"state":"active","ping":63},{"user_id":921,"name":"hashmap","steam_id":76561198043794014,"connected_time":606000000000,"state":"active","ping":53},{"user_id":922,"name":"Epicmullen","steam_id":76561198259850795,"connected_time":583000000000,"state":"active","ping":84},{"user_id":910,"name":"[S]Mr. X [No Monitor]","steam_id":76561197963746035,"connected_time":1211000000000,"state":"active","ping":123},{"user_id":923,"name":"Limitless","steam_id":76561198057139998,"connected_time":549000000000,"state":"active","ping":81},{"user_id":924,"name":"JustAnotherHuman","steam_id":76561199018122924,"connected_time":507000000000,"state":"active","ping":93},{"user_id":911,"name":"meta dependent merchant","steam_id":76561197962607364,"connected_time":1122000000000,"state":"active","ping":75},{"user_id":925,"name":"Dan","steam_id":76561199236719411,"connected_time":488000000000,"state":"active","ping":67},{"user_id":926,"name":"hot anime singles in your area","steam_id":76561198377868275,"connected_time":456000000000,"state":"active","ping":89},{"user_id":860,"name":"Fiendish Frog","steam_id":76561198029478821,"connected_time":4959000000000,"state":"active","ping":71},{"user_id":838,"name":"YWCHLAN.IO","steam_id":76561198041438503,"connected_time":6595000000000,"state":"active","ping":80},{"user_id":927,"name":"pee fartress poo","steam_id":76561198063152319,"connected_time":443000000000,"state":"active","ping":77},{"user_id":912,"name":"Red_Hatkins","steam_id":76561198214004105,"connected_time":1112000000000,"state":"active","ping":83}]},{"server_id":38,"name":"Uncletopia | Chicago | 7 | Stopwatch","name_short":"chi-7","host":"chi-2.us.uncletopia.com","port":27035,"enabled":true,"region":"us-central","cc":"us","latitude":41.881832,"longitude":-87.62318,"reserved":0,"last_update":"0001-01-01T00:00:00Z","name_a2s":"Uncletopia | Chicago | 7 | Stopwatch","protocol":17,"map":"pl_swiftwater_final1","folder":"tf","game":"Team Fortress","app_id":440,"player_count":0,"max_players":24,"Bots":0,"server_type":"Dedicated","server_os":"Linux","password":true,"vac":true,"version":"7961495","steam_id":85568392924866364,"keywords":["nocrits","nodmgspread","payload","uncletopia"],"game_id":440,"stv_port":27036,"stv_name":"Uncletopia | Chicago | 7 | Stopwatch | STV","players":null},{"server_id":39,"name":"Uncletopia | Chicago | 8 | Community","name_short":"chi-8","host":"chi-2.us.uncletopia.com","port":27045,"enabled":true,"region":"us-central","cc":"us","latitude":41.881832,"longitude":-87.62318,"reserved":0,"last_update":"0001-01-01T00:00:00Z","name_a2s":"Uncletopia | Chicago | 8 | Community","protocol":17,"map":"workshop/pl_badwater_pro_v12.ugc2142942074","folder":"tf","game":"Team Fortress","app_id":440,"player_count":24,"max_players":24,"Bots":0,"server_type":"Dedicated","server_os":"Linux","password":true,"vac":true,"version":"7961495","steam_id":85568392924866365,"keywords":["nocrits","nodmgspread","payload","uncletopia"],"game_id":440,"stv_port":27046,"stv_name":"Uncletopia | Chicago | 8 | Community | STV","players":[{"user_id":197,"name":"s420","steam_id":76561198065339248,"connected_time":1791000000000,"state":"active","ping":91},{"user_id":198,"name":"Kng","steam_id":76561198993248203,"connected_time":1786000000000,"state":"active","ping":91},{"user_id":170,"name":"Viennetta","steam_id":76561198044088335,"connected_time":3919000000000,"state":"active","ping":64},{"user_id":183,"name":"Man Man","steam_id":76561199068338634,"connected_time":2575000000000,"state":"active","ping":78},{"user_id":210,"name":"Black Mage Oro","steam_id":76561198087400022,"connected_time":1236000000000,"state":"active","ping":83},{"user_id":200,"name":"boffo","steam_id":76561198096978718,"connected_time":1758000000000,"state":"active","ping":86},{"user_id":147,"name":"LeBron James","steam_id":76561198086978424,"connected_time":5375000000000,"state":"active","ping":57},{"user_id":131,"name":"Some_Arse","steam_id":76561198039095394,"connected_time":6365000000000,"state":"active","ping":62},{"user_id":215,"name":"Lemonparty","steam_id":76561197974422168,"connected_time":515000000000,"state":"active","ping":70},{"user_id":190,"name":"fishy","steam_id":76561198018622305,"connected_time":2256000000000,"state":"active","ping":78},{"user_id":133,"name":"gundself","steam_id":76561198799241927,"connected_time":6342000000000,"state":"active","ping":134},{"user_id":178,"name":"PokoRacc","steam_id":76561198931436503,"connected_time":3011000000000,"state":"active","ping":66},{"user_id":211,"name":"Chagalicious","steam_id":76561198044128240,"connected_time":1234000000000,"state":"active","ping":87},{"user_id":167,"name":"he suckin on my rick til i mort","steam_id":76561198310711692,"connected_time":4158000000000,"state":"active","ping":177},{"user_id":205,"name":"i only ubercharge snipers","steam_id":76561198003995600,"connected_time":1624000000000,"state":"active","ping":101},{"user_id":204,"name":"Chicken","steam_id":76561198855273194,"connected_time":1683000000000,"state":"active","ping":62},{"user_id":192,"name":"Selment","steam_id":76561198026489601,"connected_time":2096000000000,"state":"active","ping":52},{"user_id":187,"name":"CheekiBreeki","steam_id":76561198008596138,"connected_time":2532000000000,"state":"active","ping":86},{"user_id":168,"name":"thai","steam_id":76561198052462287,"connected_time":4061000000000,"state":"active","ping":82},{"user_id":180,"name":"aisu","steam_id":76561198043768507,"connected_time":2844000000000,"state":"active","ping":68},{"user_id":169,"name":"BLANK3T [They/He femboy on THC]","steam_id":76561198028875624,"connected_time":4052000000000,"state":"active","ping":193},{"user_id":214,"name":"CabezaGrande","steam_id":76561197972555502,"connected_time":587000000000,"state":"active","ping":70},{"user_id":188,"name":"elder lich joe biden","steam_id":76561198257134732,"connected_time":2504000000000,"state":"active","ping":113},{"user_id":216,"name":"MjrMovnTARGET","steam_id":76561199125908849,"connected_time":506000000000,"state":"active","ping":81}]},{"server_id":8,"name":"Uncletopia | Dallas | 1 | All Maps","name_short":"dal-1","host":"dal-1.us.uncletopia.com","port":27015,"enabled":true,"region":"us-central","cc":"us","latitude":32.779167,"longitude":-96.80889,"reserved":0,"last_update":"0001-01-01T00:00:00Z","name_a2s":"Uncletopia | Dallas | 1 | All Maps","protocol":17,"map":"ctf_2fort","folder":"tf","game":"Team Fortress","app_id":440,"player_count":24,"max_players":24,"Bots":0,"server_type":"Dedicated","server_os":"Linux","password":true,"vac":true,"version":"7961495","steam_id":85568392924469986,"keywords":["ctf","nocrits","nodmgspread","uncletopia"],"game_id":440,"stv_port":27016,"stv_name":"Uncletopia | Dallas | 1 | All Maps | STV","players":[{"user_id":442,"name":"basilberry","steam_id":76561198145275937,"connected_time":1040000000000,"state":"active","ping":65},{"user_id":420,"name":"Avenging Spirit","steam_id":76561198119572121,"connected_time":2683000000000,"state":"active","ping":74},{"user_id":444,"name":"Yackaboi","steam_id":76561199444911765,"connected_time":542000000000,"state":"active","ping":92},{"user_id":380,"name":"A Shiny Meat Bicycle","steam_id":76561198358757709,"connected_time":4407000000000,"state":"active","ping":99},{"user_id":438,"name":"aidenmc3","steam_id":76561198062209166,"connected_time":1174000000000,"state":"active","ping":46},{"user_id":415,"name":"LampMan","steam_id":76561198079857527,"connected_time":2737000000000,"state":"active","ping":58},{"user_id":337,"name":"tj3002rocks","steam_id":76561199017921546,"connected_time":7645000000000,"state":"active","ping":60},{"user_id":441,"name":"s p a c e k a t","steam_id":76561198066852209,"connected_time":1044000000000,"state":"active","ping":62},{"user_id":414,"name":"Rob","steam_id":76561199187786660,"connected_time":2799000000000,"state":"active","ping":56},{"user_id":390,"name":"DivineBanana","steam_id":76561198026529731,"connected_time":4099000000000,"state":"active","ping":93},{"user_id":427,"name":"J3X","steam_id":76561198184753858,"connected_time":2383000000000,"state":"active","ping":87},{"user_id":443,"name":"flippercurve","steam_id":76561199238295034,"connected_time":1022000000000,"state":"active","ping":74},{"user_id":412,"name":"munch","steam_id":76561198820480684,"connected_time":3022000000000,"state":"active","ping":59},{"user_id":410,"name":"Two-Ton Heavy Thing","steam_id":76561198201724274,"connected_time":3088000000000,"state":"active","ping":93},{"user_id":436,"name":"Acuzik","steam_id":76561198045453400,"connected_time":1346000000000,"state":"active","ping":61},{"user_id":428,"name":"Jarnold","steam_id":76561198090434537,"connected_time":2263000000000,"state":"active","ping":58},{"user_id":445,"name":"mbell1199","steam_id":76561198827517736,"connected_time":155000000000,"state":"active","ping":58},{"user_id":422,"name":"Saiki K.","steam_id":76561199187226776,"connected_time":2649000000000,"state":"active","ping":56},{"user_id":423,"name":"trash beast","steam_id":76561198015792736,"connected_time":2601000000000,"state":"active","ping":73},{"user_id":405,"name":"aofi the flat tgirl","steam_id":76561199172110503,"connected_time":3480000000000,"state":"active","ping":59},{"user_id":431,"name":"Gary Busey","steam_id":76561197970096950,"connected_time":1902000000000,"state":"active","ping":44},{"user_id":440,"name":"Frogmeister","steam_id":76561198276954381,"connected_time":1112000000000,"state":"active","ping":70},{"user_id":437,"name":"Toskasha|ttv","steam_id":76561198044647017,"connected_time":1323000000000,"state":"active","ping":106},{"user_id":435,"name":"Braingoo Hex","steam_id":76561198083094783,"connected_time":1657000000000,"state":"active","ping":77}]},{"server_id":108,"name":"Uncletopia | Dallas | 2 | All Maps","name_short":"dal-2","host":"dal-1.us.uncletopia.com","port":27025,"enabled":true,"region":"us-central","cc":"us","latitude":32.779167,"longitude":-96.80889,"reserved":0,"last_update":"0001-01-01T00:00:00Z","name_a2s":"Uncletopia | Dallas | 2 | All Maps","protocol":17,"map":"koth_highpass","folder":"tf","game":"Team Fortress","app_id":440,"player_count":23,"max_players":24,"Bots":0,"server_type":"Dedicated","server_os":"Linux","password":true,"vac":true,"version":"7961495","steam_id":85568392924469988,"keywords":["cp","nocrits","nodmgspread","uncletopia"],"game_id":440,"stv_port":27026,"stv_name":"Uncletopia | Dallas | 2 | All Maps | STV","players":[{"user_id":601,"name":"SD","steam_id":76561198217410988,"connected_time":698000000000,"state":"active","ping":75},{"user_id":603,"name":"Pasta","steam_id":76561199498088524,"connected_time":643000000000,"state":"active","ping":94},{"user_id":599,"name":"schmuck","steam_id":76561198143789773,"connected_time":706000000000,"state":"active","ping":56},{"user_id":596,"name":"Withered Bonnie (Real)","steam_id":76561198423310113,"connected_time":1114000000000,"state":"active","ping":52},{"user_id":542,"name":"DeckofDragons","steam_id":76561198057398213,"connected_time":5813000000000,"state":"active","ping":69},{"user_id":606,"name":"Metacarfoe","steam_id":76561198236016496,"connected_time":399000000000,"state":"active","ping":63},{"user_id":580,"name":"Nina","steam_id":76561198172481363,"connected_time":2310000000000,"state":"active","ping":62},{"user_id":581,"name":"Nathan","steam_id":76561198064150662,"connected_time":2305000000000,"state":"active","ping":67},{"user_id":602,"name":"cringeass nae-nae girl","steam_id":76561198108753857,"connected_time":668000000000,"state":"active","ping":69},{"user_id":587,"name":"the","steam_id":76561198345810744,"connected_time":2109000000000,"state":"active","ping":76},{"user_id":604,"name":"3-13","steam_id":76561198063929021,"connected_time":639000000000,"state":"active","ping":54},{"user_id":588,"name":"ShadowWasUhOh","steam_id":76561198400361935,"connected_time":2095000000000,"state":"active","ping":77},{"user_id":590,"name":"Disco Fever","steam_id":76561198069532215,"connected_time":1912000000000,"state":"active","ping":99},{"user_id":593,"name":"SalsaDaddy","steam_id":76561198358869108,"connected_time":1734000000000,"state":"active","ping":74},{"user_id":607,"name":"fork","steam_id":76561198038003527,"connected_time":358000000000,"state":"active","ping":94},{"user_id":618,"name":"(1)Pasta","steam_id":76561198170042173,"connected_time":35000000000,"state":"active","ping":80},{"user_id":597,"name":"Ora dominus (Kill stoners gang)","steam_id":76561198203381620,"connected_time":1013000000000,"state":"active","ping":75},{"user_id":609,"name":"shoutyman","steam_id":76561198055456198,"connected_time":304000000000,"state":"active","ping":53},{"user_id":616,"name":"Blueyoshi","steam_id":76561198177750815,"connected_time":152000000000,"state":"active","ping":63},{"user_id":615,"name":"JayRawgTV","steam_id":76561198044402840,"connected_time":167000000000,"state":"active","ping":46},{"user_id":612,"name":"Phaze","steam_id":76561198025267071,"connected_time":262000000000,"state":"active","ping":71},{"user_id":573,"name":"Toasterduds","steam_id":76561198163477584,"connected_time":3159000000000,"state":"active","ping":88},{"user_id":617,"name":"Nic","steam_id":76561198333983754,"connected_time":143000000000,"state":"active","ping":60}]},{"server_id":404,"name":"Uncletopia | Dallas | 3 | All Maps","name_short":"dal-3","host":"dal-1.us.uncletopia.com","port":27035,"enabled":true,"region":"us-central","cc":"us","latitude":32.779167,"longitude":-96.80889,"reserved":0,"last_update":"0001-01-01T00:00:00Z","name_a2s":"Uncletopia | Dallas | 3 | All Maps","protocol":17,"map":"pl_borneo","folder":"tf","game":"Team Fortress","app_id":440,"player_count":24,"max_players":24,"Bots":0,"server_type":"Dedicated","server_os":"Linux","password":true,"vac":true,"version":"7961495","steam_id":85568392924515219,"keywords":["nocrits","nodmgspread","payload","uncletopia"],"game_id":440,"stv_port":27036,"stv_name":"Uncletopia | Dallas | 3 | All Maps | STV","players":[{"user_id":223,"name":"Jaded","steam_id":76561198272575611,"connected_time":993000000000,"state":"active","ping":78},{"user_id":219,"name":"bad spy player","steam_id":76561198873699671,"connected_time":1025000000000,"state":"active","ping":114},{"user_id":205,"name":"DudeBergs","steam_id":76561198399777833,"connected_time":2563000000000,"state":"active","ping":68},{"user_id":182,"name":"doughboy","steam_id":76561198219012928,"connected_time":4676000000000,"state":"active","ping":77},{"user_id":224,"name":"a group of rats in a cage","steam_id":76561198272327629,"connected_time":993000000000,"state":"active","ping":209},{"user_id":220,"name":"screaming in my hotel room","steam_id":76561198132803810,"connected_time":1018000000000,"state":"active","ping":62},{"user_id":199,"name":"Elder Titan","steam_id":76561198025397370,"connected_time":3235000000000,"state":"active","ping":82},{"user_id":197,"name":"Hugs","steam_id":76561198214584133,"connected_time":3666000000000,"state":"active","ping":91},{"user_id":230,"name":"self sufficient kitten","steam_id":76561197960592612,"connected_time":529000000000,"state":"active","ping":106},{"user_id":221,"name":"Indian Elephant From Pokemon","steam_id":76561198064249841,"connected_time":1006000000000,"state":"active","ping":87},{"user_id":218,"name":"Crime lord Discord","steam_id":76561198101490966,"connected_time":1169000000000,"state":"active","ping":87},{"user_id":222,"name":"Super Trump","steam_id":76561198064302940,"connected_time":1000000000000,"state":"active","ping":90},{"user_id":225,"name":"blademiss","steam_id":76561198062083019,"connected_time":992000000000,"state":"active","ping":82},{"user_id":208,"name":"Zaid","steam_id":76561199142840666,"connected_time":2469000000000,"state":"active","ping":147},{"user_id":209,"name":"woooflet","steam_id":76561199208387179,"connected_time":2454000000000,"state":"active","ping":45},{"user_id":146,"name":"tail slap +36 (4d12+18)","steam_id":76561198040425096,"connected_time":8420000000000,"state":"active","ping":70},{"user_id":229,"name":"❤ Ashley ❤","steam_id":76561198056428303,"connected_time":539000000000,"state":"active","ping":76},{"user_id":226,"name":"Lincs","steam_id":76561198049851872,"connected_time":980000000000,"state":"active","ping":90},{"user_id":227,"name":"+","steam_id":76561198262422184,"connected_time":968000000000,"state":"active","ping":52},{"user_id":214,"name":"tsz","steam_id":76561199246231090,"connected_time":1849000000000,"state":"active","ping":86},{"user_id":203,"name":"Krackman","steam_id":76561198868818762,"connected_time":2871000000000,"state":"active","ping":46},{"user_id":149,"name":"Eden","steam_id":76561198081284664,"connected_time":8387000000000,"state":"active","ping":81},{"user_id":180,"name":"A Fruit","steam_id":76561198951830050,"connected_time":4739000000000,"state":"active","ping":52},{"user_id":174,"name":"Six","steam_id":76561198035688070,"connected_time":6219000000000,"state":"active","ping":101}]},{"server_id":405,"name":"Uncletopia | Dallas | 4 | Community","name_short":"dal-4","host":"dal-1.us.uncletopia.com","port":27045,"enabled":true,"region":"us-central","cc":"us","latitude":32.779167,"longitude":-96.80889,"reserved":0,"last_update":"0001-01-01T00:00:00Z","name_a2s":"Uncletopia | Dallas | 4 | Community","protocol":17,"map":"workshop/pl_emerge_rc2.ugc888027758","folder":"tf","game":"Team Fortress","app_id":440,"player_count":0,"max_players":24,"Bots":0,"server_type":"Dedicated","server_os":"Linux","password":true,"vac":true,"version":"7961495","steam_id":85568392924515220,"keywords":["nocrits","nodmgspread","payload","uncletopia"],"game_id":440,"stv_port":27046,"stv_name":"Uncletopia | Dallas | 4 | Community | STV","players":null},{"server_id":5,"name":"Uncletopia | Frankfurt | 1 | All Maps","name_short":"frk-1","host":"frk-1.de.uncletopia.com","port":27015,"enabled":true,"region":"eu","cc":"de","latitude":50.110924,"longitude":8.682127,"reserved":0,"last_update":"0001-01-01T00:00:00Z","name_a2s":"Uncletopia | Frankfurt | 1 | All Maps","protocol":17,"map":"koth_viaduct","folder":"tf","game":"Team Fortress","app_id":440,"player_count":0,"max_players":24,"Bots":0,"server_type":"Dedicated","server_os":"Linux","password":true,"vac":true,"version":"7961495","steam_id":85568392924469989,"keywords":["cp","nocrits","nodmgspread","uncletopia"],"game_id":440,"stv_port":27016,"stv_name":"Uncletopia | Frankfurt | 1 | All Maps | STV","players":null},{"server_id":110,"name":"Uncletopia | Frankfurt | 2 | All Maps","name_short":"frk-2","host":"frk-1.de.uncletopia.com","port":27025,"enabled":true,"region":"eu","cc":"de","latitude":50.110924,"longitude":8.682127,"reserved":0,"last_update":"0001-01-01T00:00:00Z","name_a2s":"Uncletopia | Frankfurt | 2 | All Maps","protocol":17,"map":"cp_process_final","folder":"tf","game":"Team Fortress","app_id":440,"player_count":8,"max_players":24,"Bots":0,"server_type":"Dedicated","server_os":"Linux","password":true,"vac":true,"version":"7961495","steam_id":85568392924469990,"keywords":["cp","nocrits","nodmgspread","uncletopia"],"game_id":440,"stv_port":27026,"stv_name":"Uncletopia | Frankfurt | 2 | All Maps | STV","players":[{"user_id":670,"name":"snowycoast","steam_id":76561198346638308,"connected_time":219000000000,"state":"active","ping":57},{"user_id":671,"name":"FatSweatyBlackMan","steam_id":76561199020244051,"connected_time":52000000000,"state":"active","ping":165},{"user_id":660,"name":"Zedifo","steam_id":76561198044032070,"connected_time":2750000000000,"state":"active","ping":52},{"user_id":668,"name":"antondstepanenko","steam_id":76561198966147466,"connected_time":837000000000,"state":"active","ping":75},{"user_id":669,"name":"rimoo5050","steam_id":76561199499835151,"connected_time":765000000000,"state":"active","ping":106},{"user_id":597,"name":"Zor","steam_id":76561198009851383,"connected_time":8342000000000,"state":"active","ping":62},{"user_id":637,"name":"Seroker","steam_id":76561198268138058,"connected_time":5135000000000,"state":"active","ping":193},{"user_id":639,"name":"Lyncurion","steam_id":76561199260022725,"connected_time":5104000000000,"state":"active","ping":75}]},{"server_id":308,"name":"Uncletopia | Frankfurt | 3 | All Maps","name_short":"frk-3","host":"frk-1.de.uncletopia.com","port":27035,"enabled":true,"region":"eu","cc":"de","latitude":50.110924,"longitude":8.682127,"reserved":0,"last_update":"0001-01-01T00:00:00Z","name_a2s":"Uncletopia | Frankfurt | 3 | All Maps","protocol":17,"map":"cp_dustbowl","folder":"tf","game":"Team Fortress","app_id":440,"player_count":0,"max_players":24,"Bots":0,"server_type":"Dedicated","server_os":"Linux","password":true,"vac":true,"version":"7961495","steam_id":85568392924504274,"keywords":["cp","nocrits","nodmgspread","uncletopia"],"game_id":440,"stv_port":27036,"stv_name":"Uncletopia | Frankfurt | 3 | All Maps | STV","players":null},{"server_id":309,"name":"Uncletopia | Frankfurt | 4 | All Maps","name_short":"frk-4","host":"frk-1.de.uncletopia.com","port":27045,"enabled":true,"region":"eu","cc":"de","latitude":50.110924,"longitude":8.682127,"reserved":0,"last_update":"0001-01-01T00:00:00Z","name_a2s":"Uncletopia | Frankfurt | 4 | All Maps","protocol":17,"map":"pl_badwater","folder":"tf","game":"Team Fortress","app_id":440,"player_count":0,"max_players":24,"Bots":0,"server_type":"Dedicated","server_os":"Linux","password":true,"vac":true,"version":"7961495","steam_id":85568392924504275,"keywords":["nocrits","nodmgspread","payload","uncletopia"],"game_id":440,"stv_port":27046,"stv_name":"Uncletopia | Frankfurt | 4 | All Maps | STV","players":null},{"server_id":310,"name":"Uncletopia | Frankfurt | 5 | All Maps","name_short":"frk-5","host":"frk-1.de.uncletopia.com","port":27055,"enabled":true,"region":"eu","cc":"de","latitude":50.110924,"longitude":8.682127,"reserved":0,"last_update":"0001-01-01T00:00:00Z","name_a2s":"Uncletopia | Frankfurt | 5 | All Maps","protocol":17,"map":"cp_dustbowl","folder":"tf","game":"Team Fortress","app_id":440,"player_count":0,"max_players":24,"Bots":0,"server_type":"Dedicated","server_os":"Linux","password":true,"vac":true,"version":"7961495","steam_id":85568392924504277,"keywords":["cp","nocrits","nodmgspread","uncletopia"],"game_id":440,"stv_port":27056,"stv_name":"Uncletopia | Frankfurt | 5 | All Maps | STV","players":null},{"server_id":311,"name":"Uncletopia | Frankfurt | 6 | All Maps","name_short":"frk-6","host":"frk-1.de.uncletopia.com","port":27065,"enabled":true,"region":"eu","cc":"de","latitude":50.110924,"longitude":8.682127,"reserved":0,"last_update":"0001-01-01T00:00:00Z","name_a2s":"Uncletopia | Frankfurt | 6 | All Maps","protocol":17,"map":"cp_altitude","folder":"tf","game":"Team Fortress","app_id":440,"player_count":0,"max_players":24,"Bots":0,"server_type":"Dedicated","server_os":"Linux","password":true,"vac":true,"version":"7961495","steam_id":85568392924504278,"keywords":["cp","nocrits","nodmgspread","uncletopia"],"game_id":440,"stv_port":27066,"stv_name":"Uncletopia | Frankfurt | 6 | All Maps | STV","players":null},{"server_id":23,"name":"Uncletopia | Frankfurt | 7 | Stopwatch","name_short":"frk-7","host":"frk-1.de.uncletopia.com","port":27075,"enabled":true,"region":"eu","cc":"de","latitude":50.110924,"longitude":8.682127,"reserved":0,"last_update":"0001-01-01T00:00:00Z","name_a2s":"Uncletopia | Frankfurt | 7 | Stopwatch","protocol":17,"map":"workshop/koth_clearcut_b15.ugc2107050255","folder":"tf","game":"Team Fortress","app_id":440,"player_count":0,"max_players":24,"Bots":0,"server_type":"Dedicated","server_os":"Linux","password":true,"vac":true,"version":"7961495","steam_id":85568392924742827,"keywords":["cp","nocrits","nodmgspread","uncletopia"],"game_id":440,"stv_port":27076,"stv_name":"Uncletopia | Frankfurt | 7 | Stopwatch | STV","players":null},{"server_id":24,"name":"Uncletopia | Frankfurt | 8 | Community","name_short":"frk-8","host":"frk-1.de.uncletopia.com","port":27085,"enabled":true,"region":"eu","cc":"de","latitude":50.110924,"longitude":8.682127,"reserved":0,"last_update":"0001-01-01T00:00:00Z","name_a2s":"Uncletopia | Frankfurt | 8 | Community","protocol":17,"map":"workshop/koth_bagel_rc6.ugc2514036946","folder":"tf","game":"Team Fortress","app_id":440,"player_count":0,"max_players":24,"Bots":0,"server_type":"Dedicated","server_os":"Linux","password":true,"vac":true,"version":"7961495","steam_id":85568392924742828,"keywords":["cp","nocrits","nodmgspread","uncletopia"],"game_id":440,"stv_port":27086,"stv_name":"Uncletopia | Frankfurt | 8 | Community | STV","players":null},{"server_id":202,"name":"Uncletopia | Hong Kong | 1 | All Maps","name_short":"hgk-1","host":"hgk-1.hk.uncletopia.com","port":27015,"enabled":true,"region":"asia","cc":"hk","latitude":22.302711,"longitude":114.177216,"reserved":0,"last_update":"0001-01-01T00:00:00Z","name_a2s":"Uncletopia | Hong Kong | 1 | All Maps","protocol":17,"map":"pl_frontier_final","folder":"tf","game":"Team Fortress","app_id":440,"player_count":0,"max_players":24,"Bots":0,"server_type":"Dedicated","server_os":"Linux","password":true,"vac":true,"version":"7961495","steam_id":85568392924494504,"keywords":["nocrits","nodmgspread","payload","uncletopia"],"game_id":440,"stv_port":27016,"stv_name":"Uncletopia | Hong Kong | 1 | All Maps | STV","players":null},{"server_id":1,"name":"Uncletopia | Los Angeles | 1 | All Maps","name_short":"lax-1","host":"lax-1.us.uncletopia.com","port":27015,"enabled":true,"region":"us-west","cc":"us","latitude":33.94279,"longitude":-118.41004,"reserved":0,"last_update":"0001-01-01T00:00:00Z","name_a2s":"Uncletopia | Los Angeles | 1 | All Maps","protocol":17,"map":"pl_barnblitz","folder":"tf","game":"Team Fortress","app_id":440,"player_count":24,"max_players":24,"Bots":0,"server_type":"Dedicated","server_os":"Linux","password":true,"vac":true,"version":"7961495","steam_id":85568392924469991,"keywords":["nocrits","nodmgspread","payload","uncletopia"],"game_id":440,"stv_port":27016,"stv_name":"Uncletopia | Los Angeles | 1 | All Maps | STV","players":[{"user_id":46,"name":"WoodsRunner","steam_id":76561198121812870,"connected_time":172000000000,"state":"active","ping":99},{"user_id":17,"name":"Birdman743","steam_id":76561198799636748,"connected_time":2531000000000,"state":"active","ping":83},{"user_id":18,"name":"Stray (She/Her)","steam_id":76561198091315714,"connected_time":1867000000000,"state":"active","ping":65},{"user_id":31,"name":"Mocha Josie","steam_id":76561198066452726,"connected_time":896000000000,"state":"active","ping":64},{"user_id":47,"name":"Therapy Goth","steam_id":76561198048448497,"connected_time":163000000000,"state":"active","ping":119},{"user_id":52,"name":"[CK] VickySof","steam_id":76561198036604171,"connected_time":135000000000,"state":"active","ping":59},{"user_id":32,"name":"JohnnyGitGud","steam_id":76561198401455467,"connected_time":668000000000,"state":"active","ping":63},{"user_id":23,"name":"Sister","steam_id":76561198323298672,"connected_time":1296000000000,"state":"active","ping":78},{"user_id":48,"name":"McSpazatron","steam_id":76561198955942148,"connected_time":162000000000,"state":"active","ping":84},{"user_id":26,"name":"Azanaz","steam_id":76561198327812090,"connected_time":988000000000,"state":"active","ping":55},{"user_id":27,"name":"Dragosoros","steam_id":76561198274801613,"connected_time":985000000000,"state":"active","ping":54},{"user_id":28,"name":"Mixxi","steam_id":76561198981162329,"connected_time":973000000000,"state":"active","ping":82},{"user_id":29,"name":"Wub-Zero","steam_id":76561198321416241,"connected_time":969000000000,"state":"active","ping":59},{"user_id":34,"name":"Pigeon Nuggets","steam_id":76561198151200724,"connected_time":501000000000,"state":"active","ping":139},{"user_id":35,"name":"Le Big Spoon","steam_id":76561198835388940,"connected_time":501000000000,"state":"active","ping":54},{"user_id":38,"name":"Luna","steam_id":76561198170646922,"connected_time":322000000000,"state":"active","ping":136},{"user_id":39,"name":"gas","steam_id":76561199176290258,"connected_time":289000000000,"state":"active","ping":77},{"user_id":40,"name":"Pyrotek⁴","steam_id":76561198072747672,"connected_time":271000000000,"state":"active","ping":46},{"user_id":42,"name":"Sentry defender","steam_id":76561199105132740,"connected_time":242000000000,"state":"active","ping":113},{"user_id":43,"name":"transbian disaster","steam_id":76561198407600762,"connected_time":234000000000,"state":"active","ping":73},{"user_id":44,"name":"Nine Inch Иipples","steam_id":76561198149413947,"connected_time":214000000000,"state":"active","ping":71},{"user_id":45,"name":"Megamind","steam_id":76561199237613993,"connected_time":192000000000,"state":"active","ping":79},{"user_id":50,"name":"Aglovail","steam_id":76561198276988844,"connected_time":159000000000,"state":"active","ping":57},{"user_id":51,"name":"gayforgod","steam_id":76561198364882421,"connected_time":154000000000,"state":"active","ping":54}]},{"server_id":112,"name":"Uncletopia | Los Angeles | 2 | All Maps","name_short":"lax-2","host":"lax-1.us.uncletopia.com","port":27025,"enabled":true,"region":"us-west","cc":"us","latitude":33.94279,"longitude":-118.41004,"reserved":0,"last_update":"0001-01-01T00:00:00Z","name_a2s":"Uncletopia | Los Angeles | 2 | All Maps","protocol":17,"map":"pl_borneo","folder":"tf","game":"Team Fortress","app_id":440,"player_count":24,"max_players":24,"Bots":0,"server_type":"Dedicated","server_os":"Linux","password":true,"vac":true,"version":"7961495","steam_id":85568392924469992,"keywords":["nocrits","nodmgspread","payload","uncletopia"],"game_id":440,"stv_port":27026,"stv_name":"Uncletopia | Los Angeles | 2 | All Maps | STV","players":[{"user_id":158,"name":"simcye","steam_id":76561198010991761,"connected_time":823000000000,"state":"active","ping":74},{"user_id":164,"name":"XxDragon4321xX","steam_id":76561198046705735,"connected_time":638000000000,"state":"active","ping":67},{"user_id":169,"name":"Monty","steam_id":76561197993567253,"connected_time":543000000000,"state":"active","ping":72},{"user_id":154,"name":"TüCold","steam_id":76561198111278197,"connected_time":914000000000,"state":"active","ping":58},{"user_id":171,"name":"Owl_eyes","steam_id":76561198066199203,"connected_time":471000000000,"state":"active","ping":64},{"user_id":155,"name":"Goon","steam_id":76561198147155900,"connected_time":892000000000,"state":"active","ping":52},{"user_id":160,"name":"trucksforducks","steam_id":76561198122970888,"connected_time":787000000000,"state":"active","ping":74},{"user_id":156,"name":"Boxcars","steam_id":76561198120978767,"connected_time":872000000000,"state":"active","ping":62},{"user_id":125,"name":"MonkeyNobody","steam_id":76561199451266605,"connected_time":3502000000000,"state":"active","ping":55},{"user_id":170,"name":"crankshaft","steam_id":76561197992798282,"connected_time":497000000000,"state":"active","ping":45},{"user_id":161,"name":"Shattered Carrots","steam_id":76561198300210194,"connected_time":771000000000,"state":"active","ping":93},{"user_id":163,"name":"Wet","steam_id":76561199474220124,"connected_time":677000000000,"state":"active","ping":118},{"user_id":129,"name":"Pines","steam_id":76561199024146278,"connected_time":3424000000000,"state":"active","ping":63},{"user_id":175,"name":"FREAKS","steam_id":76561198285819311,"connected_time":155000000000,"state":"active","ping":57},{"user_id":172,"name":"Velgrauder","steam_id":76561198848526938,"connected_time":460000000000,"state":"active","ping":99},{"user_id":67,"name":"SuperSX","steam_id":76561199230865085,"connected_time":6406000000000,"state":"active","ping":93},{"user_id":128,"name":"Reem0h","steam_id":76561198169848690,"connected_time":3435000000000,"state":"active","ping":113},{"user_id":176,"name":"Ian","steam_id":76561198159334435,"connected_time":148000000000,"state":"active","ping":168},{"user_id":182,"name":"non_ai","steam_id":76561198270951938,"connected_time":26000000000,"state":"active","ping":105},{"user_id":168,"name":"Glar","steam_id":76561198341907150,"connected_time":592000000000,"state":"active","ping":65},{"user_id":173,"name":"TheGhostThatWas","steam_id":76561198055836483,"connected_time":447000000000,"state":"active","ping":109},{"user_id":120,"name":"Argon","steam_id":76561199254804349,"connected_time":4539000000000,"state":"active","ping":115},{"user_id":134,"name":"TheBeepMann","steam_id":76561198156230733,"connected_time":3015000000000,"state":"active","ping":43},{"user_id":174,"name":"oh god i'm gonna CHUM","steam_id":76561198019210187,"connected_time":446000000000,"state":"active","ping":87}]},{"server_id":324,"name":"Uncletopia | Los Angeles | 3 | All Maps","name_short":"lax-3","host":"lax-1.us.uncletopia.com","port":27035,"enabled":true,"region":"us-west","cc":"us","latitude":33.94279,"longitude":-118.41004,"reserved":0,"last_update":"0001-01-01T00:00:00Z","name_a2s":"Uncletopia | Los Angeles | 3 | All Maps","protocol":17,"map":"cp_snakewater_final1","folder":"tf","game":"Team Fortress","app_id":440,"player_count":0,"max_players":24,"Bots":0,"server_type":"Dedicated","server_os":"Linux","password":true,"vac":true,"version":"7961495","steam_id":85568392924510198,"keywords":["cp","nocrits","nodmgspread","uncletopia"],"game_id":440,"stv_port":27036,"stv_name":"Uncletopia | Los Angeles | 3 | All Maps | STV","players":null},{"server_id":25,"name":"Uncletopia | Los Angeles | 4 | Stopwatch","name_short":"lax-4","host":"lax-1.us.uncletopia.com","port":27045,"enabled":true,"region":"us-west","cc":"us","latitude":33.94279,"longitude":-118.41004,"reserved":0,"last_update":"0001-01-01T00:00:00Z","name_a2s":"Uncletopia | Los Angeles | 4 | Stopwatch","protocol":17,"map":"koth_lakeside_final","folder":"tf","game":"Team Fortress","app_id":440,"player_count":3,"max_players":24,"Bots":0,"server_type":"Dedicated","server_os":"Linux","password":true,"vac":true,"version":"7961495","steam_id":85568392924510199,"keywords":["cp","nocrits","nodmgspread","uncletopia"],"game_id":440,"stv_port":27046,"stv_name":"Uncletopia | Los Angeles | 4 | Stopwatch | STV","players":[{"user_id":7,"name":"Cerberus","steam_id":76561199078766047,"connected_time":548000000000,"state":"active","ping":76},{"user_id":8,"name":"Mike Hawk","steam_id":76561199179264651,"connected_time":544000000000,"state":"active","ping":72},{"user_id":9,"name":"Methuzela","steam_id":76561199122394726,"connected_time":508000000000,"state":"active","ping":73}]},{"server_id":11,"name":"Uncletopia | London | 1 | All Maps","name_short":"lon-1","host":"lon-1.uk.uncletopia.com","port":27015,"enabled":true,"region":"eu","cc":"gb","latitude":51.509865,"longitude":-0.118092,"reserved":0,"last_update":"0001-01-01T00:00:00Z","name_a2s":"Uncletopia | London | 1 | All Maps","protocol":17,"map":"koth_harvest_final","folder":"tf","game":"Team Fortress","app_id":440,"player_count":0,"max_players":24,"Bots":0,"server_type":"Dedicated","server_os":"Linux","password":true,"vac":true,"version":"7961495","steam_id":85568392924367362,"keywords":["cp","nocrits","nodmgspread","uncletopia"],"game_id":440,"stv_port":27016,"stv_name":"Uncletopia | London | 1 | All Maps | STV","players":null},{"server_id":114,"name":"Uncletopia | London | 2 | All Maps","name_short":"lon-2","host":"lon-1.uk.uncletopia.com","port":27025,"enabled":true,"region":"eu","cc":"gb","latitude":51.509865,"longitude":-0.118092,"reserved":0,"last_update":"0001-01-01T00:00:00Z","name_a2s":"Uncletopia | London | 2 | All Maps","protocol":17,"map":"pl_badwater","folder":"tf","game":"Team Fortress","app_id":440,"player_count":16,"max_players":24,"Bots":0,"server_type":"Dedicated","server_os":"Linux","password":true,"vac":true,"version":"7961495","steam_id":85568392924470941,"keywords":["nocrits","nodmgspread","payload","uncletopia"],"game_id":440,"stv_port":27026,"stv_name":"Uncletopia | London | 2 | All Maps | STV","players":[{"user_id":628,"name":"Zerfesh","steam_id":76561198117534358,"connected_time":12604000000000,"state":"active","ping":106},{"user_id":746,"name":"I am a box","steam_id":76561199184671939,"connected_time":676000000000,"state":"active","ping":98},{"user_id":669,"name":"Perpetual Pub Push","steam_id":76561198256714846,"connected_time":9233000000000,"state":"active","ping":43},{"user_id":743,"name":"xulera","steam_id":76561198080736030,"connected_time":875000000000,"state":"active","ping":60},{"user_id":751,"name":"Mizzow","steam_id":76561198008040797,"connected_time":437000000000,"state":"active","ping":59},{"user_id":752,"name":"Lewylow","steam_id":76561198005425686,"connected_time":380000000000,"state":"active","ping":46},{"user_id":753,"name":"Orphan Crippla","steam_id":76561199064805524,"connected_time":131000000000,"state":"active","ping":63},{"user_id":745,"name":"Opigufyt","steam_id":76561198016838575,"connected_time":781000000000,"state":"active","ping":41},{"user_id":719,"name":"Cranbury","steam_id":76561198079170457,"connected_time":3778000000000,"state":"active","ping":42},{"user_id":755,"name":"SameOldSong","steam_id":76561199006752737,"connected_time":53000000000,"state":"active","ping":60},{"user_id":740,"name":"george","steam_id":76561198443632133,"connected_time":1209000000000,"state":"active","ping":118},{"user_id":689,"name":"gamerweed5","steam_id":76561198087651151,"connected_time":6856000000000,"state":"active","ping":43},{"user_id":735,"name":"Tattletails","steam_id":76561198055690341,"connected_time":1750000000000,"state":"active","ping":57},{"user_id":741,"name":"David","steam_id":76561198017852330,"connected_time":1145000000000,"state":"active","ping":87},{"user_id":742,"name":"Dani Drengen","steam_id":76561198348731500,"connected_time":1099000000000,"state":"active","ping":86},{"user_id":726,"name":"Ishbel","steam_id":76561198211990879,"connected_time":2687000000000,"state":"active","ping":45}]},{"server_id":320,"name":"Uncletopia | London | 3 | All Maps","name_short":"lon-3","host":"lon-1.uk.uncletopia.com","port":27035,"enabled":true,"region":"eu","cc":"gb","latitude":51.509865,"longitude":-0.118092,"reserved":0,"last_update":"0001-01-01T00:00:00Z","name_a2s":"Uncletopia | London | 3 | All Maps","protocol":17,"map":"pl_frontier_final","folder":"tf","game":"Team Fortress","app_id":440,"player_count":0,"max_players":24,"Bots":0,"server_type":"Dedicated","server_os":"Linux","password":true,"vac":true,"version":"7961495","steam_id":85568392924510192,"keywords":["nocrits","nodmgspread","payload","uncletopia"],"game_id":440,"stv_port":27036,"stv_name":"Uncletopia | London | 3 | All Maps | STV","players":null},{"server_id":321,"name":"Uncletopia | London | 4 | All Maps","name_short":"lon-4","host":"lon-1.uk.uncletopia.com","port":27045,"enabled":true,"region":"eu","cc":"gb","latitude":51.509865,"longitude":-0.118092,"reserved":0,"last_update":"0001-01-01T00:00:00Z","name_a2s":"Uncletopia | London | 4 | All Maps","protocol":17,"map":"koth_highpass","folder":"tf","game":"Team Fortress","app_id":440,"player_count":0,"max_players":24,"Bots":0,"server_type":"Dedicated","server_os":"Linux","password":true,"vac":true,"version":"7961495","steam_id":85568392924510193,"keywords":["cp","nocrits","nodmgspread","uncletopia"],"game_id":440,"stv_port":27046,"stv_name":"Uncletopia | London | 4 | All Maps | STV","players":null},{"server_id":21,"name":"Uncletopia | London | 5 | All Maps","name_short":"lon-5","host":"lon-1.uk.uncletopia.com","port":27055,"enabled":true,"region":"eu","cc":"gb","latitude":51.509865,"longitude":-0.118092,"reserved":0,"last_update":"0001-01-01T00:00:00Z","name_a2s":"Uncletopia | London | 5 | All Maps","protocol":17,"map":"koth_viaduct","folder":"tf","game":"Team Fortress","app_id":440,"player_count":0,"max_players":24,"Bots":0,"server_type":"Dedicated","server_os":"Linux","password":true,"vac":true,"version":"7961495","steam_id":85568392924742829,"keywords":["cp","nocrits","nodmgspread","uncletopia"],"game_id":440,"stv_port":27056,"stv_name":"Uncletopia | London | 5 | All Maps | STV","players":null},{"server_id":22,"name":"Uncletopia | London | 6 | All Maps","name_short":"lon-6","host":"lon-1.uk.uncletopia.com","port":27065,"enabled":true,"region":"eu","cc":"gb","latitude":51.509865,"longitude":-0.118092,"reserved":0,"last_update":"0001-01-01T00:00:00Z","name_a2s":"Uncletopia | London | 6 | All Maps","protocol":17,"map":"cp_process_final","folder":"tf","game":"Team Fortress","app_id":440,"player_count":0,"max_players":24,"Bots":0,"server_type":"Dedicated","server_os":"Linux","password":true,"vac":true,"version":"7961495","steam_id":85568392924742830,"keywords":["cp","nocrits","nodmgspread","uncletopia"],"game_id":440,"stv_port":27066,"stv_name":"Uncletopia | London | 6 | All Maps | STV","players":null},{"server_id":40,"name":"Uncletopia | London | 7 | Stopwatch","name_short":"lon-7","host":"lon-1.uk.uncletopia.com","port":27075,"enabled":true,"region":"eu","cc":"gb","latitude":51.509865,"longitude":-0.118092,"reserved":0,"last_update":"0001-01-01T00:00:00Z","name_a2s":"Uncletopia | London | 7 | Stopwatch","protocol":17,"map":"pl_upward","folder":"tf","game":"Team Fortress","app_id":440,"player_count":0,"max_players":24,"Bots":0,"server_type":"Dedicated","server_os":"Linux","password":true,"vac":true,"version":"7961495","steam_id":85568392924964314,"keywords":["nocrits","nodmgspread","payload","uncletopia"],"game_id":440,"stv_port":27076,"stv_name":"Uncletopia | London | 7 | Stopwatch | STV","players":null},{"server_id":41,"name":"Uncletopia | London | 8 | Community","name_short":"lon-8","host":"lon-1.uk.uncletopia.com","port":27085,"enabled":true,"region":"eu","cc":"gb","latitude":51.509865,"longitude":-0.118092,"reserved":0,"last_update":"0001-01-01T00:00:00Z","name_a2s":"Uncletopia | London | 8 | Community","protocol":17,"map":"workshop/koth_bagel_rc6.ugc2514036946","folder":"tf","game":"Team Fortress","app_id":440,"player_count":0,"max_players":24,"Bots":0,"server_type":"Dedicated","server_os":"Linux","password":true,"vac":true,"version":"7961495","steam_id":85568392924964315,"keywords":["cp","nocrits","nodmgspread","uncletopia"],"game_id":440,"stv_port":27086,"stv_name":"Uncletopia | London | 8 | Community | STV","players":null},{"server_id":300,"name":"Uncletopia | Montréal | 1 | One Thousand Uncles","name_short":"mtl-1","host":"mtl-1.ca.uncletopia.com","port":27015,"enabled":true,"region":"us-east","cc":"ca","latitude":45.50889,"longitude":-73.56167,"reserved":0,"last_update":"0001-01-01T00:00:00Z","name_a2s":"","protocol":0,"map":"","folder":"","game":"","app_id":0,"player_count":0,"max_players":0,"Bots":0,"server_type":"","server_os":"","password":false,"vac":false,"version":"","steam_id":0,"keywords":null,"game_id":0,"stv_port":0,"stv_name":"","players":null},{"server_id":301,"name":"Uncletopia | Montréal | 2 | One Thousand Uncles","name_short":"mtl-2","host":"mtl-1.ca.uncletopia.com","port":27025,"enabled":true,"region":"us-east","cc":"ca","latitude":45.50889,"longitude":-73.56167,"reserved":0,"last_update":"0001-01-01T00:00:00Z","name_a2s":"","protocol":0,"map":"","folder":"","game":"","app_id":0,"player_count":0,"max_players":0,"Bots":0,"server_type":"","server_os":"","password":false,"vac":false,"version":"","steam_id":0,"keywords":null,"game_id":0,"stv_port":0,"stv_name":"","players":null},{"server_id":302,"name":"Uncletopia | Montréal | 3 | One Thousand Uncles","name_short":"mtl-3","host":"mtl-1.ca.uncletopia.com","port":27035,"enabled":true,"region":"us-east","cc":"ca","latitude":45.50889,"longitude":-73.56167,"reserved":0,"last_update":"0001-01-01T00:00:00Z","name_a2s":"","protocol":0,"map":"","folder":"","game":"","app_id":0,"player_count":6,"max_players":0,"Bots":0,"server_type":"","server_os":"","password":false,"vac":false,"version":"","steam_id":0,"keywords":null,"game_id":0,"stv_port":0,"stv_name":"","players":[{"user_id":393,"name":"St. Michael","steam_id":76561198037611052,"connected_time":1044000000000,"state":"active","ping":69},{"user_id":281,"name":"Captian Wobbs","steam_id":76561198142884936,"connected_time":9150000000000,"state":"active","ping":84},{"user_id":428,"name":"concrete_car","steam_id":76561198388207363,"connected_time":154000000000,"state":"active","ping":60},{"user_id":410,"name":"Mickio Tanerdum","steam_id":76561198058343832,"connected_time":596000000000,"state":"active","ping":52},{"user_id":411,"name":"Soldie","steam_id":76561198118414372,"connected_time":379000000000,"state":"active","ping":78},{"user_id":343,"name":"Өchpochmak","steam_id":76561198434212101,"connected_time":2852000000000,"state":"active","ping":52}]},{"server_id":13,"name":"Uncletopia | New York City | 1 | All Maps","name_short":"nyc-1","host":"nyc-1.us.uncletopia.com","port":27015,"enabled":true,"region":"us-east","cc":"us","latitude":40.73061,"longitude":-73.93524,"reserved":0,"last_update":"0001-01-01T00:00:00Z","name_a2s":"Uncletopia | New York City | 1 | All Maps","protocol":17,"map":"pl_upward","folder":"tf","game":"Team Fortress","app_id":440,"player_count":24,"max_players":24,"Bots":0,"server_type":"Dedicated","server_os":"Linux","password":true,"vac":true,"version":"7961495","steam_id":85568392924469993,"keywords":["nocrits","nodmgspread","payload","uncletopia"],"game_id":440,"stv_port":27016,"stv_name":"Uncletopia | New York City | 1 | All Maps | STV","players":[{"user_id":457,"name":"sooty","steam_id":76561198830243167,"connected_time":4645000000000,"state":"active","ping":66},{"user_id":502,"name":"Big Bill Haywood","steam_id":76561198142290733,"connected_time":1326000000000,"state":"active","ping":56},{"user_id":478,"name":"stevie ape-shit","steam_id":76561198243965308,"connected_time":3094000000000,"state":"active","ping":81},{"user_id":507,"name":"Parth Makeo","steam_id":76561198002516581,"connected_time":954000000000,"state":"active","ping":46},{"user_id":418,"name":"Yuzu","steam_id":76561198417913035,"connected_time":8171000000000,"state":"active","ping":74},{"user_id":512,"name":"King of Ping","steam_id":76561198278737470,"connected_time":407000000000,"state":"active","ping":56},{"user_id":503,"name":"orcluvr69","steam_id":76561198068712028,"connected_time":1319000000000,"state":"active","ping":81},{"user_id":504,"name":"Titan Exodos","steam_id":76561198063852935,"connected_time":1293000000000,"state":"active","ping":124},{"user_id":517,"name":"klo.e","steam_id":76561198061808492,"connected_time":135000000000,"state":"active","ping":51},{"user_id":505,"name":"Tri_Hunter","steam_id":76561198108176706,"connected_time":1292000000000,"state":"active","ping":51},{"user_id":506,"name":"silvanae324","steam_id":76561199150642573,"connected_time":1286000000000,"state":"active","ping":126},{"user_id":432,"name":"Voracious Puma","steam_id":76561197963621649,"connected_time":6879000000000,"state":"active","ping":86},{"user_id":496,"name":"Bewen","steam_id":76561198325334261,"connected_time":1773000000000,"state":"active","ping":38},{"user_id":520,"name":"theghazinator","steam_id":76561198188027695,"connected_time":7000000000,"state":"spawning","ping":61},{"user_id":500,"name":"Konnichiwa","steam_id":76561198022302843,"connected_time":1381000000000,"state":"active","ping":76},{"user_id":514,"name":"soof","steam_id":76561198043762955,"connected_time":209000000000,"state":"active","ping":45},{"user_id":488,"name":"Meskoozy","steam_id":76561198102394479,"connected_time":2462000000000,"state":"active","ping":87},{"user_id":427,"name":"Brawns","steam_id":76561198045190199,"connected_time":7769000000000,"state":"active","ping":61},{"user_id":516,"name":"The Great Degenerate","steam_id":76561198028617381,"connected_time":137000000000,"state":"active","ping":74},{"user_id":494,"name":"Samrizo el Chorizo","steam_id":76561198009838162,"connected_time":2200000000000,"state":"active","ping":52},{"user_id":518,"name":"rome","steam_id":76561198124561260,"connected_time":127000000000,"state":"active","ping":73},{"user_id":473,"name":"Nobody","steam_id":76561198286486517,"connected_time":3527000000000,"state":"active","ping":74},{"user_id":510,"name":"GaydsIdit","steam_id":76561198827963575,"connected_time":655000000000,"state":"active","ping":51},{"user_id":425,"name":"Tristen0808","steam_id":76561198154235444,"connected_time":7872000000000,"state":"active","ping":73}]},{"server_id":14,"name":"Uncletopia | New York City | 2 | All Maps","name_short":"nyc-2","host":"nyc-1.us.uncletopia.com","port":27025,"enabled":true,"region":"us-east","cc":"us","latitude":40.73061,"longitude":-73.93524,"reserved":0,"last_update":"0001-01-01T00:00:00Z","name_a2s":"Uncletopia | New York City | 2 | All Maps","protocol":17,"map":"cp_powerhouse","folder":"tf","game":"Team Fortress","app_id":440,"player_count":24,"max_players":24,"Bots":0,"server_type":"Dedicated","server_os":"Linux","password":true,"vac":true,"version":"7961495","steam_id":85568392924469994,"keywords":["cp","nocrits","nodmgspread","uncletopia"],"game_id":440,"stv_port":27026,"stv_name":"Uncletopia | New York City | 2 | All Maps | STV","players":[{"user_id":415,"name":"Tumbledown","steam_id":76561198841035798,"connected_time":698000000000,"state":"active","ping":72},{"user_id":417,"name":"ndvr","steam_id":76561199379200102,"connected_time":602000000000,"state":"active","ping":54},{"user_id":331,"name":"YesMargaret","steam_id":76561198127971751,"connected_time":8094000000000,"state":"active","ping":75},{"user_id":419,"name":"♦♣Quadric♥♠","steam_id":76561198061003853,"connected_time":366000000000,"state":"active","ping":53},{"user_id":418,"name":"A Puppy","steam_id":76561198828184456,"connected_time":595000000000,"state":"active","ping":49},{"user_id":416,"name":"Servaos","steam_id":76561198113244990,"connected_time":648000000000,"state":"active","ping":68},{"user_id":411,"name":"Anxiety.mov","steam_id":76561198028145216,"connected_time":1419000000000,"state":"active","ping":29},{"user_id":391,"name":"dillon/dylan","steam_id":76561198118054166,"connected_time":2915000000000,"state":"active","ping":45},{"user_id":406,"name":"YummerBummer","steam_id":76561198094773987,"connected_time":2163000000000,"state":"active","ping":58},{"user_id":340,"name":"kmochi","steam_id":76561198023391988,"connected_time":7649000000000,"state":"active","ping":73},{"user_id":408,"name":"Primitive","steam_id":76561198060500671,"connected_time":2032000000000,"state":"active","ping":32},{"user_id":376,"name":"Bobfleadip","steam_id":76561198043788642,"connected_time":4628000000000,"state":"active","ping":79},{"user_id":393,"name":"Lemoncurry","steam_id":76561198045356414,"connected_time":2885000000000,"state":"active","ping":71},{"user_id":254,"name":"the 04","steam_id":76561198164502862,"connected_time":13222000000000,"state":"active","ping":86},{"user_id":407,"name":"qory","steam_id":76561198152064890,"connected_time":2102000000000,"state":"active","ping":75},{"user_id":399,"name":"Hertz","steam_id":76561198310927351,"connected_time":2608000000000,"state":"active","ping":143},{"user_id":345,"name":"Flowers","steam_id":76561198031669899,"connected_time":7535000000000,"state":"active","ping":71},{"user_id":413,"name":"patdine","steam_id":76561198060865671,"connected_time":757000000000,"state":"active","ping":64},{"user_id":377,"name":"Bob Weaver","steam_id":76561197960450046,"connected_time":4406000000000,"state":"active","ping":60},{"user_id":346,"name":"Pokon","steam_id":76561198053113088,"connected_time":7409000000000,"state":"active","ping":66},{"user_id":373,"name":"Femboy Bowsette™","steam_id":76561198028183029,"connected_time":4676000000000,"state":"active","ping":57},{"user_id":383,"name":"flappyflap2","steam_id":76561198285048973,"connected_time":3388000000000,"state":"active","ping":36},{"user_id":387,"name":"AJTarcza","steam_id":76561198070800190,"connected_time":3063000000000,"state":"active","ping":71},{"user_id":400,"name":"sfoster","steam_id":76561197993895857,"connected_time":2608000000000,"state":"active","ping":96}]},{"server_id":15,"name":"Uncletopia | New York City | 3 | Stopwatch","name_short":"nyc-3","host":"nyc-1.us.uncletopia.com","port":27035,"enabled":true,"region":"us-east","cc":"us","latitude":40.73061,"longitude":-73.93524,"reserved":0,"last_update":"0001-01-01T00:00:00Z","name_a2s":"Uncletopia | New York City | 3 | Stopwatch","protocol":17,"map":"pl_swiftwater_final1","folder":"tf","game":"Team Fortress","app_id":440,"player_count":0,"max_players":24,"Bots":0,"server_type":"Dedicated","server_os":"Linux","password":true,"vac":true,"version":"7961495","steam_id":85568392924742820,"keywords":["nocrits","nodmgspread","payload","uncletopia"],"game_id":440,"stv_port":27036,"stv_name":"Uncletopia | New York City | 3 | Stopwatch | STV","players":null},{"server_id":16,"name":"Uncletopia | New York City | 4 | Community","name_short":"nyc-4","host":"nyc-1.us.uncletopia.com","port":27045,"enabled":true,"region":"us-east","cc":"us","latitude":40.73061,"longitude":-73.93524,"reserved":0,"last_update":"0001-01-01T00:00:00Z","name_a2s":"Uncletopia | New York City | 4 | Community","protocol":17,"map":"workshop/koth_ramjam_rc1.ugc459778887","folder":"tf","game":"Team Fortress","app_id":440,"player_count":0,"max_players":24,"Bots":0,"server_type":"Dedicated","server_os":"Linux","password":true,"vac":true,"version":"7961495","steam_id":85568392924742821,"keywords":["cp","nocrits","nodmgspread","uncletopia"],"game_id":440,"stv_port":27046,"stv_name":"Uncletopia | New York City | 4 | Community | STV","players":null},{"server_id":142,"name":"Uncletopia | São Paulo | 1 | All Maps","name_short":"sao-1","host":"sao-1.br.uncletopia.com","port":27015,"enabled":true,"region":"sa","cc":"br","latitude":-23.533773,"longitude":-46.62529,"reserved":0,"last_update":"0001-01-01T00:00:00Z","name_a2s":"Uncletopia | São Paulo | 1 | All Maps","protocol":17,"map":"cp_dustbowl","folder":"tf","game":"Team Fortress","app_id":440,"player_count":0,"max_players":24,"Bots":0,"server_type":"Dedicated","server_os":"Linux","password":true,"vac":true,"version":"7961495","steam_id":85568392924469996,"keywords":["cp","nocrits","nodmgspread","uncletopia"],"game_id":440,"stv_port":27016,"stv_name":"Uncletopia | São Paulo | 1 | All Maps | STV","players":null},{"server_id":143,"name":"Uncletopia | São Paulo | 2 | Community","name_short":"sao-2","host":"sao-2.br.uncletopia.com","port":27015,"enabled":true,"region":"sa","cc":"br","latitude":-23.533773,"longitude":-46.62529,"reserved":0,"last_update":"0001-01-01T00:00:00Z","name_a2s":"Uncletopia | São Paulo | 2 | Community","protocol":17,"map":"workshop/koth_ramjam_rc1.ugc459778887","folder":"tf","game":"Team Fortress","app_id":440,"player_count":0,"max_players":24,"Bots":0,"server_type":"Dedicated","server_os":"Linux","password":true,"vac":true,"version":"7961495","steam_id":85568392924485349,"keywords":["cp","nocrits","nodmgspread","uncletopia"],"game_id":440,"stv_port":27016,"stv_name":"Uncletopia | São Paulo | 2 | Community | STV","players":null},{"server_id":7,"name":"Uncletopia | Seattle | 1 | All Maps","name_short":"sea-1","host":"sea-1.us.uncletopia.com","port":27015,"enabled":true,"region":"us-west","cc":"us","latitude":47.608013,"longitude":-122.33517,"reserved":0,"last_update":"0001-01-01T00:00:00Z","name_a2s":"Uncletopia | Seattle | 1 | All Maps","protocol":17,"map":"koth_harvest_final","folder":"tf","game":"Team Fortress","app_id":440,"player_count":24,"max_players":24,"Bots":0,"server_type":"Dedicated","server_os":"Linux","password":true,"vac":true,"version":"7961495","steam_id":85568392924469997,"keywords":["cp","nocrits","nodmgspread","uncletopia"],"game_id":440,"stv_port":27016,"stv_name":"Uncletopia | Seattle | 1 | All Maps | STV","players":[{"user_id":706,"name":"[TrC] Dackstrus","steam_id":76561197973518509,"connected_time":1791000000000,"state":"active","ping":51},{"user_id":669,"name":"Ayayayayayahuasca","steam_id":76561199002906056,"connected_time":6324000000000,"state":"active","ping":47},{"user_id":722,"name":"blest!","steam_id":76561198966232220,"connected_time":480000000000,"state":"active","ping":63},{"user_id":697,"name":"weed lesbian","steam_id":76561198042263805,"connected_time":3190000000000,"state":"active","ping":50},{"user_id":714,"name":"Warlock","steam_id":76561199033164093,"connected_time":1131000000000,"state":"active","ping":50},{"user_id":709,"name":"[TrC] Nosy","steam_id":76561197978859310,"connected_time":1778000000000,"state":"active","ping":59},{"user_id":691,"name":"Toaster (Hamilton Beach)","steam_id":76561198039891934,"connected_time":3915000000000,"state":"active","ping":59},{"user_id":712,"name":"Axolotl Gaming","steam_id":76561198343988802,"connected_time":1711000000000,"state":"active","ping":75},{"user_id":704,"name":"spenca","steam_id":76561198025371154,"connected_time":2305000000000,"state":"active","ping":63},{"user_id":715,"name":"Themasterman75","steam_id":76561199385573293,"connected_time":1097000000000,"state":"active","ping":58},{"user_id":641,"name":"Hindmost","steam_id":76561199081837220,"connected_time":7863000000000,"state":"active","ping":100},{"user_id":710,"name":"NEBULA","steam_id":76561198086878595,"connected_time":1775000000000,"state":"active","ping":73},{"user_id":723,"name":"Apollo","steam_id":76561198162364702,"connected_time":227000000000,"state":"active","ping":45},{"user_id":724,"name":"Pingu","steam_id":76561198170716714,"connected_time":201000000000,"state":"active","ping":83},{"user_id":672,"name":"The King of Piss World","steam_id":76561198082806956,"connected_time":6018000000000,"state":"active","ping":141},{"user_id":716,"name":"[I.R.I.S]","steam_id":76561199247095754,"connected_time":897000000000,"state":"active","ping":59},{"user_id":726,"name":"Attrition","steam_id":76561197969881916,"connected_time":35000000000,"state":"active","ping":56},{"user_id":711,"name":"Can of Oranges","steam_id":76561199121813529,"connected_time":1768000000000,"state":"active","ping":40},{"user_id":707,"name":"noelle holiday gaming","steam_id":76561198259650356,"connected_time":1785000000000,"state":"active","ping":71},{"user_id":713,"name":"Subaru Outback","steam_id":76561197992007399,"connected_time":1207000000000,"state":"active","ping":53},{"user_id":719,"name":"Sniff","steam_id":76561198010270922,"connected_time":683000000000,"state":"active","ping":57},{"user_id":725,"name":"Greskrendtregk","steam_id":76561197969553142,"connected_time":193000000000,"state":"active","ping":58},{"user_id":689,"name":"soup","steam_id":76561198043209046,"connected_time":4298000000000,"state":"active","ping":63},{"user_id":699,"name":"soltuno","steam_id":76561198074430565,"connected_time":3115000000000,"state":"active","ping":83}]},{"server_id":119,"name":"Uncletopia | Seattle | 2 | All Maps","name_short":"sea-2","host":"sea-1.us.uncletopia.com","port":27025,"enabled":true,"region":"us-west","cc":"us","latitude":47.608013,"longitude":-122.33517,"reserved":0,"last_update":"0001-01-01T00:00:00Z","name_a2s":"Uncletopia | Seattle | 2 | All Maps","protocol":17,"map":"koth_nucleus","folder":"tf","game":"Team Fortress","app_id":440,"player_count":24,"max_players":24,"Bots":0,"server_type":"Dedicated","server_os":"Linux","password":true,"vac":true,"version":"7961495","steam_id":85568392924469998,"keywords":["cp","nocrits","nodmgspread","uncletopia"],"game_id":440,"stv_port":27026,"stv_name":"Uncletopia | Seattle | 2 | All Maps | STV","players":[{"user_id":378,"name":"The Super Mario Bros. Movie","steam_id":76561198871692156,"connected_time":84000000000,"state":"active","ping":60},{"user_id":376,"name":"SK","steam_id":76561198133360797,"connected_time":426000000000,"state":"active","ping":75},{"user_id":339,"name":"ninja45","steam_id":76561198150619521,"connected_time":2839000000000,"state":"active","ping":50},{"user_id":372,"name":"eryn 🗺","steam_id":76561198004433070,"connected_time":708000000000,"state":"active","ping":120},{"user_id":329,"name":"Yummy Kabobz","steam_id":76561198067661705,"connected_time":3347000000000,"state":"active","ping":124},{"user_id":290,"name":"a familiar cat","steam_id":76561198080046542,"connected_time":5291000000000,"state":"active","ping":45},{"user_id":238,"name":"Lili","steam_id":76561199488457138,"connected_time":10468000000000,"state":"active","ping":59},{"user_id":361,"name":"Day Man","steam_id":76561198067154807,"connected_time":1153000000000,"state":"active","ping":47},{"user_id":330,"name":"Azary56","steam_id":76561198321404617,"connected_time":3040000000000,"state":"active","ping":69},{"user_id":334,"name":"[Industrial] A_HUMBLEBUMBLED","steam_id":76561198064771878,"connected_time":2909000000000,"state":"active","ping":33},{"user_id":327,"name":"ArsalAsam","steam_id":76561198153165950,"connected_time":3421000000000,"state":"active","ping":113},{"user_id":350,"name":"The Senate","steam_id":76561198143882626,"connected_time":1582000000000,"state":"active","ping":50},{"user_id":371,"name":"Rock Kickass","steam_id":76561198450510841,"connected_time":733000000000,"state":"active","ping":92},{"user_id":362,"name":"sleePI","steam_id":76561198450073779,"connected_time":1052000000000,"state":"active","ping":44},{"user_id":360,"name":"Tyth","steam_id":76561198062543298,"connected_time":1228000000000,"state":"active","ping":43},{"user_id":373,"name":"hayesnorcross09","steam_id":76561199447269647,"connected_time":633000000000,"state":"active","ping":60},{"user_id":363,"name":"merlin","steam_id":76561198334511480,"connected_time":1041000000000,"state":"active","ping":86},{"user_id":346,"name":"Thanks Ants","steam_id":76561197966221018,"connected_time":2092000000000,"state":"active","ping":44},{"user_id":364,"name":"aoka","steam_id":76561198838294547,"connected_time":1034000000000,"state":"active","ping":110},{"user_id":377,"name":"Emmy Kat","steam_id":76561198185115417,"connected_time":149000000000,"state":"active","ping":65},{"user_id":259,"name":"ilun","steam_id":76561198042913843,"connected_time":8294000000000,"state":"active","ping":60},{"user_id":356,"name":"PISSA DELIVERY GUY","steam_id":76561198354081121,"connected_time":1426000000000,"state":"active","ping":111},{"user_id":50,"name":"Nom Skirrett","steam_id":76561198014600788,"connected_time":22486000000000,"state":"active","ping":61},{"user_id":367,"name":"crimson","steam_id":76561198018725934,"connected_time":933000000000,"state":"active","ping":76}]},{"server_id":406,"name":"Uncletopia | Seattle | 3 | Stopwatch","name_short":"sea-3","host":"sea-1.us.uncletopia.com","port":27035,"enabled":true,"region":"us-west","cc":"us","latitude":47.608013,"longitude":-122.33517,"reserved":0,"last_update":"0001-01-01T00:00:00Z","name_a2s":"Uncletopia | Seattle | 3 | Stopwatch","protocol":17,"map":"workshop/koth_clearcut_b15.ugc2107050255","folder":"tf","game":"Team Fortress","app_id":440,"player_count":0,"max_players":24,"Bots":0,"server_type":"Dedicated","server_os":"Linux","password":true,"vac":true,"version":"7961495","steam_id":85568392924515217,"keywords":["cp","nocrits","nodmgspread","uncletopia"],"game_id":440,"stv_port":27036,"stv_name":"Uncletopia | Seattle | 3 | Stopwatch | STV","players":null},{"server_id":17,"name":"Uncletopia | San Francisco | 1 | All Maps","name_short":"sfo-1","host":"sfo-1.us.uncletopia.com","port":27015,"enabled":true,"region":"us-west","cc":"us","latitude":37.77397,"longitude":-122.4313,"reserved":0,"last_update":"0001-01-01T00:00:00Z","name_a2s":"Uncletopia | San Francisco | 1 | All Maps","protocol":17,"map":"pl_frontier_final","folder":"tf","game":"Team Fortress","app_id":440,"player_count":24,"max_players":24,"Bots":0,"server_type":"Dedicated","server_os":"Linux","password":true,"vac":true,"version":"7961495","steam_id":85568392924469999,"keywords":["nocrits","nodmgspread","payload","uncletopia"],"game_id":440,"stv_port":27016,"stv_name":"Uncletopia | San Francisco | 1 | All Maps | STV","players":[{"user_id":279,"name":"ohnocringe","steam_id":76561199381232082,"connected_time":668000000000,"state":"active","ping":93},{"user_id":266,"name":"owl","steam_id":76561198088403016,"connected_time":1132000000000,"state":"active","ping":151},{"user_id":268,"name":"allahsdroptop","steam_id":76561198133195238,"connected_time":1041000000000,"state":"active","ping":70},{"user_id":257,"name":"[DATS➡] Sugar Meowth","steam_id":76561197995251793,"connected_time":2430000000000,"state":"active","ping":63},{"user_id":252,"name":"Ralph Kramden (Slim Charles)","steam_id":76561197981687895,"connected_time":2686000000000,"state":"active","ping":66},{"user_id":286,"name":"panda","steam_id":76561198025214612,"connected_time":19000000000,"state":"active","ping":94},{"user_id":239,"name":"AzuriteFoxx","steam_id":76561198998093240,"connected_time":4418000000000,"state":"active","ping":120},{"user_id":269,"name":"CatThulhu","steam_id":76561198211620004,"connected_time":1031000000000,"state":"active","ping":93},{"user_id":278,"name":"EduardoLopez2005","steam_id":76561198188481309,"connected_time":773000000000,"state":"active","ping":54},{"user_id":281,"name":"lime creator","steam_id":76561198074047574,"connected_time":478000000000,"state":"active","ping":80},{"user_id":277,"name":"ronald","steam_id":76561197960691622,"connected_time":843000000000,"state":"active","ping":66},{"user_id":201,"name":"PizzaMuncher89","steam_id":76561199121856753,"connected_time":6663000000000,"state":"active","ping":82},{"user_id":280,"name":"Seshreb","steam_id":76561198846614634,"connected_time":652000000000,"state":"active","ping":71},{"user_id":272,"name":"pooblygonzooly2012","steam_id":76561198982054880,"connected_time":957000000000,"state":"active","ping":60},{"user_id":253,"name":"Untermensch","steam_id":76561198149634242,"connected_time":2670000000000,"state":"active","ping":142},{"user_id":261,"name":"ExplosiveGamer21","steam_id":76561198132370955,"connected_time":1912000000000,"state":"active","ping":85},{"user_id":265,"name":"Spaghettiguy6","steam_id":76561198261692989,"connected_time":1296000000000,"state":"active","ping":66},{"user_id":215,"name":"diamondskyir","steam_id":76561199223952268,"connected_time":6153000000000,"state":"active","ping":68},{"user_id":284,"name":"dirty30","steam_id":76561198021226566,"connected_time":117000000000,"state":"active","ping":61},{"user_id":246,"name":"Professor Sex","steam_id":76561198396414319,"connected_time":3971000000000,"state":"active","ping":60},{"user_id":264,"name":"megaroboleg","steam_id":76561198844644993,"connected_time":1797000000000,"state":"active","ping":69},{"user_id":283,"name":"usmnt==chokers","steam_id":76561198043456370,"connected_time":186000000000,"state":"active","ping":60},{"user_id":285,"name":"Ockulus","steam_id":76561199069638460,"connected_time":115000000000,"state":"active","ping":71},{"user_id":275,"name":"nonagon infinity","steam_id":76561198397662124,"connected_time":914000000000,"state":"active","ping":108}]},{"server_id":18,"name":"Uncletopia | San Francisco | 2 | All Maps","name_short":"sfo-2","host":"sfo-1.us.uncletopia.com","port":27025,"enabled":true,"region":"us-west","cc":"us","latitude":37.77397,"longitude":-122.4313,"reserved":0,"last_update":"0001-01-01T00:00:00Z","name_a2s":"Uncletopia | San Francisco | 2 | All Maps","protocol":17,"map":"cp_altitude","folder":"tf","game":"Team Fortress","app_id":440,"player_count":22,"max_players":24,"Bots":0,"server_type":"Dedicated","server_os":"Linux","password":true,"vac":true,"version":"7961495","steam_id":85568392924470000,"keywords":["cp","nocrits","nodmgspread","uncletopia"],"game_id":440,"stv_port":27026,"stv_name":"Uncletopia | San Francisco | 2 | All Maps | STV","players":[{"user_id":212,"name":"Hovg9000","steam_id":76561199191556710,"connected_time":189000000000,"state":"active","ping":91},{"user_id":122,"name":"Big Yoshi","steam_id":76561199160576376,"connected_time":5699000000000,"state":"active","ping":72},{"user_id":202,"name":"Mob Boss Baby","steam_id":76561199127590316,"connected_time":1261000000000,"state":"active","ping":66},{"user_id":217,"name":"U ω U","steam_id":76561198118802562,"connected_time":82000000000,"state":"active","ping":66},{"user_id":214,"name":"choochoo","steam_id":76561199122075275,"connected_time":127000000000,"state":"active","ping":77},{"user_id":154,"name":"Dosario","steam_id":76561198298095535,"connected_time":4377000000000,"state":"active","ping":81},{"user_id":215,"name":"Tere","steam_id":76561199287137185,"connected_time":114000000000,"state":"active","ping":68},{"user_id":207,"name":":skull:","steam_id":76561199122005388,"connected_time":806000000000,"state":"active","ping":45},{"user_id":216,"name":"H2OBourne","steam_id":76561198396293109,"connected_time":106000000000,"state":"active","ping":91},{"user_id":218,"name":"ze spy (real)","steam_id":76561198988285392,"connected_time":59000000000,"state":"active","ping":45},{"user_id":180,"name":"happer","steam_id":76561198018252253,"connected_time":2351000000000,"state":"active","ping":59},{"user_id":219,"name":"Ivy","steam_id":76561198208996573,"connected_time":52000000000,"state":"active","ping":65},{"user_id":220,"name":"zero two","steam_id":76561199058650117,"connected_time":50000000000,"state":"spawning","ping":61},{"user_id":209,"name":"GarbbCan","steam_id":76561198927509821,"connected_time":544000000000,"state":"active","ping":80},{"user_id":187,"name":"4","steam_id":76561198105374054,"connected_time":2191000000000,"state":"active","ping":74},{"user_id":188,"name":"Choctoling","steam_id":76561198351622498,"connected_time":2174000000000,"state":"active","ping":45},{"user_id":221,"name":"ice","steam_id":76561198293589738,"connected_time":10000000000,"state":"active","ping":56},{"user_id":222,"name":"volk","steam_id":76561198419020144,"connected_time":4000000000,"state":"spawning","ping":59},{"user_id":195,"name":"Battle Bug","steam_id":76561198005793034,"connected_time":1759000000000,"state":"active","ping":58},{"user_id":166,"name":"The Rock","steam_id":76561198433328517,"connected_time":3950000000000,"state":"active","ping":119},{"user_id":174,"name":"SoCal Kaizer","steam_id":76561198334361081,"connected_time":3129000000000,"state":"active","ping":79},{"user_id":206,"name":"hypergressive","steam_id":76561198065860750,"connected_time":953000000000,"state":"active","ping":57}]},{"server_id":19,"name":"Uncletopia | San Francisco | 3 | Stopwatch","name_short":"sfo-3","host":"sfo-1.us.uncletopia.com","port":27035,"enabled":true,"region":"us-west","cc":"us","latitude":37.77397,"longitude":-122.4313,"reserved":0,"last_update":"0001-01-01T00:00:00Z","name_a2s":"Uncletopia | San Francisco | 3 | Stopwatch","protocol":17,"map":"workshop/koth_ramjam_rc1.ugc459778887","folder":"tf","game":"Team Fortress","app_id":440,"player_count":1,"max_players":24,"Bots":0,"server_type":"Dedicated","server_os":"Linux","password":true,"vac":true,"version":"7961495","steam_id":85568392924742824,"keywords":["cp","nocrits","nodmgspread","uncletopia"],"game_id":440,"stv_port":27036,"stv_name":"Uncletopia | San Francisco | 3 | Stopwatch | STV","players":[{"user_id":6,"name":"Mug Vanburen the III","steam_id":76561198956319961,"connected_time":41000000000,"state":"active","ping":113}]},{"server_id":20,"name":"Uncletopia | San Francisco | 4 | Community","name_short":"sfo-4","host":"sfo-1.us.uncletopia.com","port":27045,"enabled":true,"region":"us-west","cc":"us","latitude":37.77397,"longitude":-122.4313,"reserved":0,"last_update":"0001-01-01T00:00:00Z","name_a2s":"Uncletopia | San Francisco | 4 | Community","protocol":17,"map":"workshop/koth_product_final.ugc454272353","folder":"tf","game":"Team Fortress","app_id":440,"player_count":0,"max_players":24,"Bots":0,"server_type":"Dedicated","server_os":"Linux","password":true,"vac":true,"version":"7961495","steam_id":85568392924742826,"keywords":["cp","nocrits","nodmgspread","uncletopia"],"game_id":440,"stv_port":27046,"stv_name":"Uncletopia | San Francisco | 4 | Community | STV","players":null},{"server_id":141,"name":"Uncletopia | Sydney | 1 | All Maps","name_short":"syd-1","host":"syd-1.au.uncletopia.com","port":27015,"enabled":true,"region":"au","cc":"au","latitude":-33.865143,"longitude":151.2099,"reserved":0,"last_update":"0001-01-01T00:00:00Z","name_a2s":"Uncletopia | Sydney | 1 | All Maps","protocol":17,"map":"koth_viaduct","folder":"tf","game":"Team Fortress","app_id":440,"player_count":0,"max_players":24,"Bots":0,"server_type":"Dedicated","server_os":"Linux","password":true,"vac":true,"version":"7961495","steam_id":85568392924470001,"keywords":["cp","nocrits","nodmgspread","uncletopia"],"game_id":440,"stv_port":27016,"stv_name":"Uncletopia | Sydney | 1 | All Maps | STV","players":null},{"server_id":123,"name":"Uncletopia | Sydney | 2 | All Maps","name_short":"syd-2","host":"syd-1.au.uncletopia.com","port":27025,"enabled":true,"region":"au","cc":"au","latitude":-33.865143,"longitude":151.2099,"reserved":0,"last_update":"0001-01-01T00:00:00Z","name_a2s":"Uncletopia | Sydney | 2 | All Maps","protocol":17,"map":"koth_lakeside_final","folder":"tf","game":"Team Fortress","app_id":440,"player_count":0,"max_players":24,"Bots":0,"server_type":"Dedicated","server_os":"Linux","password":true,"vac":true,"version":"7961495","steam_id":85568392924470002,"keywords":["cp","nocrits","nodmgspread","uncletopia"],"game_id":440,"stv_port":27026,"stv_name":"Uncletopia | Sydney | 2 | All Maps | STV","players":null},{"server_id":395,"name":"Uncletopia | Sydney | 3 | All Maps","name_short":"syd-3","host":"syd-1.au.uncletopia.com","port":27035,"enabled":true,"region":"au","cc":"au","latitude":-33.865143,"longitude":151.2099,"reserved":0,"last_update":"0001-01-01T00:00:00Z","name_a2s":"Uncletopia | Sydney | 3 | All Maps","protocol":17,"map":"pl_frontier_final","folder":"tf","game":"Team Fortress","app_id":440,"player_count":0,"max_players":24,"Bots":0,"server_type":"Dedicated","server_os":"Linux","password":true,"vac":true,"version":"7961495","steam_id":85568392925194467,"keywords":["nocrits","nodmgspread","payload","uncletopia"],"game_id":440,"stv_port":27036,"stv_name":"Uncletopia | Sydney | 3 | All Maps | STV","players":null},{"server_id":396,"name":"Uncletopia | Sydney | 4 | All Maps","name_short":"syd-4","host":"syd-1.au.uncletopia.com","port":27045,"enabled":true,"region":"au","cc":"au","latitude":-33.865143,"longitude":151.2099,"reserved":0,"last_update":"0001-01-01T00:00:00Z","name_a2s":"Uncletopia | Sydney | 4 | All Maps","protocol":17,"map":"cp_process_final","folder":"tf","game":"Team Fortress","app_id":440,"player_count":0,"max_players":24,"Bots":0,"server_type":"Dedicated","server_os":"Linux","password":true,"vac":true,"version":"7961495","steam_id":85568392925397958,"keywords":["cp","nocrits","nodmgspread","uncletopia"],"game_id":440,"stv_port":27046,"stv_name":"Uncletopia | Sydney | 4 | All Maps | STV","players":null},{"server_id":58,"name":"Uncletopia | Sydney | 5 | Stopwatch","name_short":"syd-5","host":"syd-1.au.uncletopia.com","port":27055,"enabled":true,"region":"au","cc":"au","latitude":-33.865143,"longitude":151.2099,"reserved":0,"last_update":"0001-01-01T00:00:00Z","name_a2s":"Uncletopia | Sydney | 5 | Stopwatch","protocol":17,"map":"pl_frontier_final","folder":"tf","game":"Team Fortress","app_id":440,"player_count":0,"max_players":24,"Bots":0,"server_type":"Dedicated","server_os":"Linux","password":true,"vac":true,"version":"7961495","steam_id":85568392925397959,"keywords":["nocrits","nodmgspread","payload","uncletopia"],"game_id":440,"stv_port":27056,"stv_name":"Uncletopia | Sydney | 5 | Stopwatch | STV","players":null},{"server_id":59,"name":"Uncletopia | Sydney | 6 | Community","name_short":"syd-6","host":"syd-1.au.uncletopia.com","port":27065,"enabled":true,"region":"au","cc":"au","latitude":-33.865143,"longitude":151.2099,"reserved":0,"last_update":"0001-01-01T00:00:00Z","name_a2s":"Uncletopia | Sydney | 6 | Community","protocol":17,"map":"workshop/cp_sulfur_rc2.ugc619869471","folder":"tf","game":"Team Fortress","app_id":440,"player_count":0,"max_players":24,"Bots":0,"server_type":"Dedicated","server_os":"Linux","password":true,"vac":true,"version":"7961495","steam_id":85568392925397960,"keywords":["cp","nocrits","nodmgspread","uncletopia"],"game_id":440,"stv_port":27066,"stv_name":"Uncletopia | Sydney | 6 | Community | STV","players":null},{"server_id":49,"name":"Uncletopia | Warsaw | 1 | One Thousand Uncles","name_short":"waw-1","host":"waw-1.pl.uncletopia.com","port":27015,"enabled":true,"region":"eu","cc":"pl","latitude":52.2297,"longitude":21.017532,"reserved":0,"last_update":"0001-01-01T00:00:00Z","name_a2s":"Uncletopia | Warsaw | 1 | One Thousand Uncles","protocol":17,"map":"pl_badwater","folder":"tf","game":"Team Fortress","app_id":440,"player_count":0,"max_players":32,"Bots":0,"server_type":"Dedicated","server_os":"Linux","password":true,"vac":true,"version":"7961495","steam_id":85568392925397850,"keywords":["alltalk","danepve","increased_maxplayers","nocrits","norespawntime","payload","uncletopia"],"game_id":440,"stv_port":0,"stv_name":"","players":null},{"server_id":50,"name":"Uncletopia | Warsaw | 2 | One Thousand Uncles","name_short":"waw-2","host":"waw-1.pl.uncletopia.com","port":27025,"enabled":true,"region":"eu","cc":"pl","latitude":52.2297,"longitude":21.017532,"reserved":0,"last_update":"0001-01-01T00:00:00Z","name_a2s":"Uncletopia | Warsaw | 2 | One Thousand Uncles","protocol":17,"map":"pl_badwater","folder":"tf","game":"Team Fortress","app_id":440,"player_count":0,"max_players":32,"Bots":0,"server_type":"Dedicated","server_os":"Linux","password":true,"vac":true,"version":"7961495","steam_id":85568392925397851,"keywords":["alltalk","danepve","increased_maxplayers","nocrits","norespawntime","payload","uncletopia"],"game_id":440,"stv_port":0,"stv_name":"","players":null},{"server_id":51,"name":"Uncletopia | Warsaw | 3 | All Maps","name_short":"waw-3","host":"waw-1.pl.uncletopia.com","port":27035,"enabled":true,"region":"eu","cc":"pl","latitude":52.2297,"longitude":21.017532,"reserved":0,"last_update":"0001-01-01T00:00:00Z","name_a2s":"Uncletopia | Warsaw | 3 | All Maps","protocol":17,"map":"koth_viaduct","folder":"tf","game":"Team Fortress","app_id":440,"player_count":0,"max_players":24,"Bots":0,"server_type":"Dedicated","server_os":"Linux","password":true,"vac":true,"version":"7961495","steam_id":85568392925397852,"keywords":["cp","nocrits","nodmgspread","uncletopia"],"game_id":440,"stv_port":27036,"stv_name":"Uncletopia | Warsaw | 3 | All Maps | STV","players":null},{"server_id":52,"name":"Uncletopia | Warsaw | 4 | All Maps","name_short":"waw-4","host":"waw-1.pl.uncletopia.com","port":27045,"enabled":true,"region":"eu","cc":"pl","latitude":52.2297,"longitude":21.017532,"reserved":0,"last_update":"0001-01-01T00:00:00Z","name_a2s":"Uncletopia | Warsaw | 4 | All Maps","protocol":17,"map":"koth_highpass","folder":"tf","game":"Team Fortress","app_id":440,"player_count":0,"max_players":24,"Bots":0,"server_type":"Dedicated","server_os":"Linux","password":true,"vac":true,"version":"7961495","steam_id":85568392925397853,"keywords":["cp","nocrits","nodmgspread","uncletopia"],"game_id":440,"stv_port":27046,"stv_name":"Uncletopia | Warsaw | 4 | All Maps | STV","players":null},{"server_id":53,"name":"Uncletopia | Warsaw | 5 | Stopwatch","name_short":"waw-5","host":"waw-1.pl.uncletopia.com","port":27055,"enabled":true,"region":"eu","cc":"pl","latitude":52.2297,"longitude":21.017532,"reserved":0,"last_update":"0001-01-01T00:00:00Z","name_a2s":"Uncletopia | Warsaw | 5 | Stopwatch","protocol":17,"map":"koth_highpass","folder":"tf","game":"Team Fortress","app_id":440,"player_count":0,"max_players":24,"Bots":0,"server_type":"Dedicated","server_os":"Linux","password":true,"vac":true,"version":"7961495","steam_id":85568392925397854,"keywords":["cp","nocrits","nodmgspread","uncletopia"],"game_id":440,"stv_port":27056,"stv_name":"Uncletopia | Warsaw | 5 | Stopwatch | STV","players":null},{"server_id":54,"name":"Uncletopia | Warsaw | 6 | Community","name_short":"waw-6","host":"waw-1.pl.uncletopia.com","port":27065,"enabled":true,"region":"eu","cc":"pl","latitude":52.2297,"longitude":21.017532,"reserved":0,"last_update":"0001-01-01T00:00:00Z","name_a2s":"Uncletopia | Warsaw | 6 | Community","protocol":17,"map":"workshop/koth_synthetic_rc6a.ugc1549817316","folder":"tf","game":"Team Fortress","app_id":440,"player_count":0,"max_players":24,"Bots":0,"server_type":"Dedicated","server_os":"Linux","password":true,"vac":true,"version":"7961495","steam_id":85568392925397856,"keywords":["cp","nocrits","nodmgspread","uncletopia"],"game_id":440,"stv_port":27066,"stv_name":"Uncletopia | Warsaw | 6 | Community | STV","players":null}]}