{"status":true,"message":"","result":[{"server_id":9,"name":"Uncletopia | Atlanta | 1 | All Maps","name_short":"atl-1","host":"atl-1.us.uncletopia.com","port":27015,"enabled":true,"region":"us-east","cc":"us","latitude":33.753746,"longitude":-84.38633,"reserved":0,"last_update":"0001-01-01T00:00:00Z","name_a2s":"Uncletopia | Atlanta | 1 | All Maps","protocol":17,"map":"cp_sunshine","folder":"tf","game":"Team Fortress","app_id":440,"player_count":24,"max_players":24,"Bots":0,"server_type":"Dedicated","server_os":"Linux","password":true,"vac":true,"version":"7961495","steam_id":85568392924469982,"keywords":["cp","nocrits","nodmgspread","uncletopia"],"game_id":440,"stv_port":27016,"stv_name":"Uncletopia | Atlanta | 1 | All Maps | STV","players":[{"user_id":75,"name":"Heathcliff","steam_id":76561198044288534,"connected_time":4881000000000,"state":"active","ping":61},{"user_id":130,"name":"realhedgehog2082","steam_id":76561198168931330,"connected_time":78000000000,"state":"active","ping":35},{"user_id":111,"name":"Ashes!","steam_id":76561197998475441,"connected_time":1909000000000,"state":"active","ping":66},{"user_id":128,"name":"Immoral Boi","steam_id":76561198069551646,"connected_time":276000000000,"state":"active","ping":58},{"user_id":126,"name":"craven","steam_id":76561198088191503,"connected_time":325000000000,"state":"active","ping":54},{"user_id":113,"name":"Rat","steam_id":76561198137925582,"connected_time":1752000000000,"state":"active","ping":61},{"user_id":116,"name":"Goldoche","steam_id":76561197995065045,"connected_time":1699000000000,"state":"active","ping":89},{"user_id":63,"name":"KillSwitch","steam_id":76561198271909107,"connected_time":5851000000000,"state":"active","ping":96},{"user_id":124,"name":"why","steam_id":76561199059732212,"connected_time":358000000000,"state":"active","ping":47},{"user_id":127,"name":"Cresant Ape","steam_id":76561198127425559,"connected_time":324000000000,"state":"active","ping":55},{"user_id":129,"name":"Sigiferd","steam_id":76561198148788110,"connected_time":225000000000,"state":"active","ping":125},{"user_id":123,"name":"Dr.Inkmix(femboy)","steam_id":76561198854070384,"connected_time":693000000000,"state":"active","ping":118},{"user_id":57,"name":"Thotimus Begonimus","steam_id":76561197970275938,"connected_time":6682000000000,"state":"active","ping":46},{"user_id":115,"name":"HÖLLENFEUER","steam_id":76561198032751171,"connected_time":1715000000000,"state":"active","ping":47},{"user_id":118,"name":"Aviyarn","steam_id":76561199074194652,"connected_time":1099000000000,"state":"active","ping":66},{"user_id":91,"name":"willyum","steam_id":76561198168168261,"connected_time":4442000000000,"state":"active","ping":69},{"user_id":99,"name":"Obelisk","steam_id":76561198049416866,"connected_time":3265000000000,"state":"active","ping":53},{"user_id":107,"name":"FIJI","steam_id":76561198126087725,"connected_time":2349000000000,"state":"active","ping":68},{"user_id":106,"name":"Gustavo Fring","steam_id":76561198132807405,"connected_time":2385000000000,"state":"active","ping":72},{"user_id":83,"name":"lionel messi","steam_id":76561198138455706,"connected_time":4757000000000,"state":"active","ping":78},{"user_id":109,"name":"nettles","steam_id":76561199238923581,"connected_time":2273000000000,"state":"active","ping":122},{"user_id":52,"name":"Aku+","steam_id":76561198813782795,"connected_time":6968000000000,"state":"active","ping":164},{"user_id":122,"name":"PK","steam_id":76561198368722500,"connected_time":935000000000,"state":"active","ping":61},{"user_id":79,"name":"Kick Down Door 6:00AM TUCK☃RO","steam_id":76561197976146738,"connected_time":4769000000000,"state":"active","ping":75}]},{"server_id":104,"name":"Uncletopia | Atlanta | 2 | All Maps","name_short":"atl-2","host":"atl-1.us.uncletopia.com","port":27025,"enabled":true,"region":"us-east","cc":"us","latitude":33.753746,"longitude":-84.38633,"reserved":0,"last_update":"0001-01-01T00:00:00Z","name_a2s":"Uncletopia | Atlanta | 2 | All Maps","protocol":17,"map":"pl_snowycoast","folder":"tf","game":"Team Fortress","app_id":440,"player_count":0,"max_players":24,"Bots":0,"server_type":"Dedicated","server_os":"Linux","password":true,"vac":true,"version":"7961495","steam_id":85568392924469983,"keywords":["nocrits","nodmgspread","payload","uncletopia"],"game_id":440,"stv_port":27026,"stv_name":"Uncletopia | Atlanta | 2 | All Maps | STV","players":null},{"server_id":400,"name":"Uncletopia | Atlanta | 3 | Stopwatch","name_short":"atl-3","host":"atl-1.us.uncletopia.com","port":27035,"enabled":true,"region":"us-east","cc":"us","latitude":33.753746,"longitude":-84.38633,"reserved":0,"last_update":"0001-01-01T00:00:00Z","name_a2s":"Uncletopia | Atlanta | 3 | Stopwatch","protocol":17,"map":"workshop/koth_clearcut_b15.ugc2107050255","folder":"tf","game":"Team Fortress","app_id":440,"player_count":0,"max_players":24,"Bots":0,"server_type":"Dedicated","server_os":"Linux","password":true,"vac":true,"version":"7961495","steam_id":85568392924515187,"keywords":["cp","nocrits","nodmgspread","uncletopia"],"game_id":440,"stv_port":27036,"stv_name":"Uncletopia | Atlanta | 3 | Stopwatch | STV","players":null},{"server_id":401,"name":"Uncletopia | Atlanta | 4 | Community","name_short":"atl-4","host":"atl-1.us.uncletopia.com","port":27045,"enabled":true,"region":"us-east","cc":"us","latitude":33.753746,"longitude":-84.38633,"reserved":0,"last_update":"0001-01-01T00:00:00Z","name_a2s":"Uncletopia | Atlanta | 4 | Community","protocol":17,"map":"workshop/koth_slaughter_rc1.ugc1712845210","folder":"tf","game":"Team Fortress","app_id":440,"player_count":0,"max_players":24,"Bots":0,"server_type":"Dedicated","server_os":"Linux","password":true,"vac":true,"version":"7961495","steam_id":85568392924515188,"keywords":["cp","nocrits","nodmgspread","uncletopia"],"game_id":440,"stv_port":27046,"stv_name":"Uncletopia | Atlanta | 4 | Community | STV","players":null},{"server_id":2,"name":"Uncletopia | Chicago | 1 | All Maps","name_short":"chi-1","host":"chi-1.us.uncletopia.com","port":27015,"enabled":true,"region":"us-central","cc":"us","latitude":41.881832,"longitude":-87.62318,"reserved":0,"last_update":"0001-01-01T00:00:00Z","name_a2s":"Uncletopia | Chicago | 1 | All Maps","protocol":17,"map":"koth_viaduct","folder":"tf","game":"Team Fortress","app_id":440,"player_count":25,"max_players":24,"Bots":0,"server_type":"Dedicated","server_os":"Linux","password":true,"vac":true,"version":"7961495","steam_id":85568392924469984,"keywords":["cp","nocrits","nodmgspread","uncletopia"],"game_id":440,"stv_port":27016,"stv_name":"Uncletopia | Chicago | 1 | All Maps | STV","players":[{"user_id":286,"name":"potatoes or potatoes","steam_id":76561198268384671,"connected_time":3412000000000,"state":"active","ping":62},{"user_id":323,"name":"Boxxed","steam_id":76561198255787237,"connected_time":178000000000,"state":"active","ping":78},{"user_id":317,"name":"SandHanitizer","steam_id":76561198234676500,"connected_time":1002000000000,"state":"active","ping":55},{"user_id":302,"name":"mkl","steam_id":76561197986401685,"connected_time":2609000000000,"state":"active","ping":82},{"user_id":288,"name":"2.5 Oz of Paprika","steam_id":76561198174647666,"connected_time":3407000000000,"state":"active","ping":82},{"user_id":329,"name":"Praise_to_the_Flashlight!","steam_id":76561199001728789,"connected_time":110000000000,"state":"connecting","ping":0},{"user_id":322,"name":"sickomode123","steam_id":76561198975511346,"connected_time":200000000000,"state":"active","ping":70},{"user_id":307,"name":"Mentally Ill Woman","steam_id":76561198072030567,"connected_time":2277000000000,"state":"active","ping":47},{"user_id":309,"name":"Rawhide Kobayashi","steam_id":76561198067051062,"connected_time":2018000000000,"state":"active","ping":44},{"user_id":310,"name":"Bee_Pirate","steam_id":76561199000599111,"connected_time":1927000000000,"state":"active","ping":45},{"user_id":326,"name":"clavin","steam_id":76561198069380992,"connected_time":143000000000,"state":"active","ping":77},{"user_id":300,"name":"MacawAbalone","steam_id":76561198015127948,"connected_time":2688000000000,"state":"active","ping":34},{"user_id":312,"name":"TurboHossBoss","steam_id":76561198052457735,"connected_time":1852000000000,"state":"active","ping":75},{"user_id":259,"name":"peachy","steam_id":76561198028721790,"connected_time":5503000000000,"state":"active","ping":90},{"user_id":308,"name":"The Devil of Ramadi","steam_id":76561198060121935,"connected_time":2271000000000,"state":"active","ping":60},{"user_id":217,"name":"ThatGamingKiwi","steam_id":76561199170522237,"connected_time":9231000000000,"state":"active","ping":65},{"user_id":282,"name":"BeefClapper420","steam_id":76561198080892634,"connected_time":3532000000000,"state":"active","ping":67},{"user_id":327,"name":"Rampy470","steam_id":76561198042294733,"connected_time":138000000000,"state":"active","ping":62},{"user_id":321,"name":"capybara","steam_id":76561198798828328,"connected_time":483000000000,"state":"active","ping":50},{"user_id":301,"name":"Shoeshocker","steam_id":76561198174302467,"connected_time":2682000000000,"state":"active","ping":62},{"user_id":210,"name":"Rode hard, put away wet","steam_id":76561198062764039,"connected_time":9770000000000,"state":"active","ping":60},{"user_id":314,"name":"Little Skull Boi","steam_id":76561198093595888,"connected_time":1799000000000,"state":"active","ping":104},{"user_id":325,"name":"motherfucker 2.0","steam_id":76561198141189209,"connected_time":175000000000,"state":"active","ping":60},{"user_id":320,"name":"RedTheFoxisWow","steam_id":76561198827275380,"connected_time":762000000000,"state":"active","ping":83},{"user_id":330,"name":"Leethalweapon","steam_id":76561198412167609,"connected_time":83000000000,"state":"active","ping":64}]},{"server_id":106,"name":"Uncletopia | Chicago | 2 | All Maps","name_short":"chi-2","host":"chi-1.us.uncletopia.com","port":27025,"enabled":true,"region":"us-central","cc":"us","latitude":41.881832,"longitude":-87.62318,"reserved":0,"last_update":"0001-01-01T00:00:00Z","name_a2s":"Uncletopia | Chicago | 2 | All Maps","protocol":17,"map":"cp_dustbowl","folder":"tf","game":"Team Fortress","app_id":440,"player_count":0,"max_players":24,"Bots":0,"server_type":"Dedicated","server_os":"Linux","password":true,"vac":true,"version":"7961495","steam_id":85568392924469985,"keywords":["cp","nocrits","nodmgspread","uncletopia"],"game_id":440,"stv_port":27026,"stv_name":"Uncletopia | Chicago | 2 | All Maps | STV","players":null},{"server_id":402,"name":"Uncletopia | Chicago | 3 | All Maps","name_short":"chi-3","host":"chi-1.us.uncletopia.com","port":27035,"enabled":true,"region":"us-central","cc":"us","latitude":41.881832,"longitude":-87.62318,"reserved":0,"last_update":"0001-01-01T00:00:00Z","name_a2s":"Uncletopia | Chicago | 3 | All Maps","protocol":17,"map":"plr_pipeline","folder":"tf","game":"Team Fortress","app_id":440,"player_count":0,"max_players":24,"Bots":0,"server_type":"Dedicated","server_os":"Linux","password":true,"vac":true,"version":"7961495","steam_id":85568392924515191,"keywords":["nocrits","nodmgspread","payload","uncletopia"],"game_id":440,"stv_port":27036,"stv_name":"Uncletopia | Chicago | 3 | All Maps | STV","players":null},{"server_id":403,"name":"Uncletopia | Chicago | 4 | All Maps","name_short":"chi-4","host":"chi-1.us.uncletopia.com","port":27045,"enabled":true,"region":"us-central","cc":"us","latitude":41.881832,"longitude":-87.62318,"reserved":0,"last_update":"0001-01-01T00:00:00Z","name_a2s":"Uncletopia | Chicago | 4 | All Maps","protocol":17,"map":"pl_rumford_event","folder":"tf","game":"Team Fortress","app_id":440,"player_count":0,"max_players":24,"Bots":0,"server_type":"Dedicated","server_os":"Linux","password":true,"vac":true,"version":"7961495","steam_id":85568392924515193,"keywords":["nocrits","nodmgspread","payload","uncletopia"],"game_id":440,"stv_port":27046,"stv_name":"Uncletopia | Chicago | 4 | All Maps | STV","players":null},{"server_id":36,"name":"Uncletopia | Chicago | 5 | All Maps","name_short":"chi-5","host":"chi-2.us.uncletopia.com","port":27015,"enabled":true,"region":"us-central","cc":"us","latitude":41.881832,"longitude":-87.62318,"reserved":0,"last_update":"0001-01-01T00:00:00Z","name_a2s":"Uncletopia | Chicago | 5 | All Maps","protocol":17,"map":"pl_borneo","folder":"tf","game":"Team Fortress","app_id":440,"player_count":0,"max_players":24,"Bots":0,"server_type":"Dedicated","server_os":"Linux","password":true,"vac":true,"version":"7961495","steam_id":85568392924866362,"keywords":["nocrits","nodmgspread","payload","uncletopia"],"game_id":440,"stv_port":27016,"stv_name":"Uncletopia | Chicago | 5 | All Maps | STV","players":null},{"server_id":37,"name":"Uncletopia | Chicago | 6 | All Maps","name_short":"chi-6","host":"chi-2.us.uncletopia.com","port":27025,"enabled":true,"region":"us-central","cc":"us","latitude":41.881832,"longitude":-87.62318,"reserved":0,"last_update":"0001-01-01T00:00:00Z","name_a2s":"Uncletopia | Chicago | 6 | All Maps","protocol":17,"map":"koth_viaduct","folder":"tf","game":"Team Fortress","app_id":440,"player_count":24,"max_players":24,"Bots":0,"server_type":"Dedicated","server_os":"Linux","password":true,"vac":true,"version":"7961495","steam_id":85568392924866363,"keywords":["cp","nocrits","nodmgspread","uncletopia"],"game_id":440,"stv_port":27026,"stv_name":"Uncletopia | Chicago | 6 | All Maps | STV","players":[{"user_id":207,"name":"Peppa Pig","steam_id":76561198147772879,"connected_time":1407000000000,"state":"active","ping":75},{"user_id":218,"name":"Sunshine","steam_id":76561198885528098,"connected_time":717000000000,"state":"active","ping":71},{"user_id":219,"name":"(∩'-´)⊃ ☆ Lezbean Cat","steam_id":76561199500664171,"connected_time":686000000000,"state":"active","ping":75},{"user_id":45,"name":"dantheman","steam_id":76561199486390813,"connected_time":11361000000000,"state":"active","ping":79},{"user_id":220,"name":"Soda","steam_id":76561198219209367,"connected_time":683000000000,"state":"active","ping":74},{"user_id":208,"name":"guy","steam_id":76561198079925551,"connected_time":1312000000000,"state":"active","ping":61},{"user_id":221,"name":"BOUZENZEL","steam_id":76561198095000722,"connected_time":655000000000,"state":"active","ping":60},{"user_id":215,"name":"gundam boys kissing (w/ tongue)","steam_id":76561199075099223,"connected_time":878000000000,"state":"active","ping":75},{"user_id":202,"name":"Fraglin","steam_id":76561198124964000,"connected_time":1928000000000,"state":"active","ping":62},{"user_id":200,"name":"choi","steam_id":76561198053669887,"connected_time":2215000000000,"state":"active","ping":120},{"user_id":222,"name":"puppy","steam_id":76561198215559840,"connected_time":648000000000,"state":"active","ping":61},{"user_id":197,"name":"Garlic","steam_id":76561198357375007,"connected_time":2266000000000,"state":"active","ping":77},{"user_id":217,"name":"Willham","steam_id":76561198065755781,"connected_time":735000000000,"state":"active","ping":71},{"user_id":223,"name":"Sicko Mode (Chris Pratt Cover)","steam_id":76561198315786174,"connected_time":621000000000,"state":"active","ping":93},{"user_id":104,"name":"I'm Only 4 Inches","steam_id":76561198055542546,"connected_time":7579000000000,"state":"active","ping":43},{"user_id":224,"name":"An Engineer","steam_id":76561198110381643,"connected_time":614000000000,"state":"active","ping":65},{"user_id":227,"name":"Spirit","steam_id":76561198286792807,"connected_time":508000000000,"state":"active","ping":68},{"user_id":228,"name":"SecurityCamera","steam_id":76561198117266792,"connected_time":472000000000,"state":"active","ping":96},{"user_id":232,"name":"anonpain","steam_id":76561198081317092,"connected_time":364000000000,"state":"active","ping":56},{"user_id":233,"name":"Sylvain","steam_id":76561198113385271,"connected_time":218000000000,"state":"active","ping":78},{"user_id":230,"name":"xoms","steam_id":76561199068623664,"connected_time":424000000000,"state":"active","ping":103},{"user_id":231,"name":"Kerpal45","steam_id":76561198153340350,"connected_time":413000000000,"state":"active","ping":75},{"user_id":171,"name":"Jump Taunter","steam_id":76561199151398882,"connected_time":3536000000000,"state":"active","ping":97},{"user_id":216,"name":"naturefan22","steam_id":76561199079614516,"connected_time":796000000000,"state":"active","ping":55}]},{"server_id":38,"name":"Uncletopia | Chicago | 7 | Stopwatch","name_short":"chi-7","host":"chi-2.us.uncletopia.com","port":27035,"enabled":true,"region":"us-central","cc":"us","latitude":41.881832,"longitude":-87.62318,"reserved":0,"last_update":"0001-01-01T00:00:00Z","name_a2s":"Uncletopia | Chicago | 7 | Stopwatch","protocol":17,"map":"cp_snakewater_final1","folder":"tf","game":"Team Fortress","app_id":440,"player_count":0,"max_players":24,"Bots":0,"server_type":"Dedicated","server_os":"Linux","password":true,"vac":true,"version":"7961495","steam_id":85568392924866364,"keywords":["cp","nocrits","nodmgspread","uncletopia"],"game_id":440,"stv_port":27036,"stv_name":"Uncletopia | Chicago | 7 | Stopwatch | STV","players":null},{"server_id":39,"name":"Uncletopia | Chicago | 8 | Community","name_short":"chi-8","host":"chi-2.us.uncletopia.com","port":27045,"enabled":true,"region":"us-central","cc":"us","latitude":41.881832,"longitude":-87.62318,"reserved":0,"last_update":"0001-01-01T00:00:00Z","name_a2s":"Uncletopia | Chicago | 8 | Community","protocol":17,"map":"workshop/koth_slaughter_rc1.ugc1712845210","folder":"tf","game":"Team Fortress","app_id":440,"player_count":0,"max_players":24,"Bots":0,"server_type":"Dedicated","server_os":"Linux","password":true,"vac":true,"version":"7961495","steam_id":85568392924866365,"keywords":["cp","nocrits","nodmgspread","uncletopia"],"game_id":440,"stv_port":27046,"stv_name":"Uncletopia | Chicago | 8 | Community | STV","players":null},{"server_id":8,"name":"Uncletopia | Dallas | 1 | All Maps","name_short":"dal-1","host":"dal-1.us.uncletopia.com","port":27015,"enabled":true,"region":"us-central","cc":"us","latitude":32.779167,"longitude":-96.80889,"reserved":0,"last_update":"0001-01-01T00:00:00Z","name_a2s":"Uncletopia | Dallas | 1 | All Maps","protocol":17,"map":"pl_barnblitz","folder":"tf","game":"Team Fortress","app_id":440,"player_count":24,"max_players":24,"Bots":0,"server_type":"Dedicated","server_os":"Linux","password":true,"vac":true,"version":"7961495","steam_id":85568392924469986,"keywords":["nocrits","nodmgspread","payload","uncletopia"],"game_id":440,"stv_port":27016,"stv_name":"Uncletopia | Dallas | 1 | All Maps | STV","players":[{"user_id":157,"name":"abc123","steam_id":76561199177831971,"connected_time":2634000000000,"state":"active","ping":51},{"user_id":151,"name":"Mr. Noodle","steam_id":76561198037803087,"connected_time":2819000000000,"state":"active","ping":61},{"user_id":176,"name":"Timur","steam_id":76561197989552257,"connected_time":933000000000,"state":"active","ping":62},{"user_id":69,"name":"Nestor","steam_id":76561198070782619,"connected_time":9836000000000,"state":"active","ping":77},{"user_id":153,"name":"Volteer","steam_id":76561198069395024,"connected_time":2773000000000,"state":"active","ping":48},{"user_id":172,"name":"Boot Mcstink","steam_id":76561199226873917,"connected_time":1080000000000,"state":"active","ping":77},{"user_id":98,"name":"beats (across the sea)","steam_id":76561199245717718,"connected_time":7683000000000,"state":"active","ping":75},{"user_id":152,"name":"DMM","steam_id":76561198065426171,"connected_time":2810000000000,"state":"active","ping":53},{"user_id":166,"name":"NavyDinosaur","steam_id":76561198088459962,"connected_time":1288000000000,"state":"active","ping":82},{"user_id":167,"name":"schmuck","steam_id":76561198143789773,"connected_time":1187000000000,"state":"active","ping":57},{"user_id":162,"name":"Colonel Knacker","steam_id":76561198151578423,"connected_time":2031000000000,"state":"active","ping":48},{"user_id":130,"name":"Decapitation Station","steam_id":76561198201796098,"connected_time":4668000000000,"state":"active","ping":80},{"user_id":187,"name":"Legit_Jaxer","steam_id":76561198172234053,"connected_time":595000000000,"state":"active","ping":109},{"user_id":165,"name":"mrpineapple070","steam_id":76561199088278757,"connected_time":1709000000000,"state":"active","ping":57},{"user_id":184,"name":"37 septillion tapeworms","steam_id":76561198186128723,"connected_time":748000000000,"state":"active","ping":48},{"user_id":185,"name":"Mr. Fluffy Penguins","steam_id":76561198172538149,"connected_time":714000000000,"state":"active","ping":81},{"user_id":159,"name":"Eden","steam_id":76561198081284664,"connected_time":2407000000000,"state":"active","ping":79},{"user_id":163,"name":"VisciousPotato","steam_id":76561198992859414,"connected_time":1795000000000,"state":"active","ping":74},{"user_id":146,"name":"Derblitz","steam_id":76561198040953176,"connected_time":3413000000000,"state":"active","ping":76},{"user_id":154,"name":"Captain Malarkey","steam_id":76561198869924281,"connected_time":2773000000000,"state":"active","ping":45},{"user_id":186,"name":"jams","steam_id":76561198131701290,"connected_time":662000000000,"state":"active","ping":77},{"user_id":171,"name":"$pectre","steam_id":76561199149811114,"connected_time":1090000000000,"state":"active","ping":80},{"user_id":174,"name":"Kahuna","steam_id":76561198138349763,"connected_time":1007000000000,"state":"active","ping":93},{"user_id":88,"name":"rad killl raccoon","steam_id":76561198980975595,"connected_time":8648000000000,"state":"active","ping":107}]},{"server_id":108,"name":"Uncletopia | Dallas | 2 | All Maps","name_short":"dal-2","host":"dal-1.us.uncletopia.com","port":27025,"enabled":true,"region":"us-central","cc":"us","latitude":32.779167,"longitude":-96.80889,"reserved":0,"last_update":"0001-01-01T00:00:00Z","name_a2s":"Uncletopia | Dallas | 2 | All Maps","protocol":17,"map":"pl_borneo","folder":"tf","game":"Team Fortress","app_id":440,"player_count":0,"max_players":24,"Bots":0,"server_type":"Dedicated","server_os":"Linux","password":true,"vac":true,"version":"7961495","steam_id":85568392924469988,"keywords":["nocrits","nodmgspread","payload","uncletopia"],"game_id":440,"stv_port":27026,"stv_name":"Uncletopia | Dallas | 2 | All Maps | STV","players":null},{"server_id":404,"name":"Uncletopia | Dallas | 3 | All Maps","name_short":"dal-3","host":"dal-1.us.uncletopia.com","port":27035,"enabled":true,"region":"us-central","cc":"us","latitude":32.779167,"longitude":-96.80889,"reserved":0,"last_update":"0001-01-01T00:00:00Z","name_a2s":"Uncletopia | Dallas | 3 | All Maps","protocol":17,"map":"cp_coldfront","folder":"tf","game":"Team Fortress","app_id":440,"player_count":0,"max_players":24,"Bots":0,"server_type":"Dedicated","server_os":"Linux","password":true,"vac":true,"version":"7961495","steam_id":85568392924515219,"keywords":["cp","nocrits","nodmgspread","uncletopia"],"game_id":440,"stv_port":27036,"stv_name":"Uncletopia | Dallas | 3 | All Maps | STV","players":null},{"server_id":405,"name":"Uncletopia | Dallas | 4 | Community","name_short":"dal-4","host":"dal-1.us.uncletopia.com","port":27045,"enabled":true,"region":"us-central","cc":"us","latitude":32.779167,"longitude":-96.80889,"reserved":0,"last_update":"0001-01-01T00:00:00Z","name_a2s":"Uncletopia | Dallas | 4 | Community","protocol":17,"map":"workshop/cp_reckoner_rc6.ugc674719999","folder":"tf","game":"Team Fortress","app_id":440,"player_count":0,"max_players":24,"Bots":0,"server_type":"Dedicated","server_os":"Linux","password":true,"vac":true,"version":"7961495","steam_id":85568392924515220,"keywords":["cp","nocrits","nodmgspread","uncletopia"],"game_id":440,"stv_port":27046,"stv_name":"Uncletopia | Dallas | 4 | Community | STV","players":null},{"server_id":5,"name":"Uncletopia | Frankfurt | 1 | All Maps","name_short":"frk-1","host":"frk-1.de.uncletopia.com","port":27015,"enabled":true,"region":"eu","cc":"de","latitude":50.110924,"longitude":8.682127,"reserved":0,"last_update":"0001-01-01T00:00:00Z","name_a2s":"Uncletopia | Frankfurt | 1 | All Maps","protocol":17,"map":"koth_highpass","folder":"tf","game":"Team Fortress","app_id":440,"player_count":24,"max_players":24,"Bots":0,"server_type":"Dedicated","server_os":"Linux","password":true,"vac":true,"version":"7961495","steam_id":85568392924469989,"keywords":["cp","nocrits","nodmgspread","uncletopia"],"game_id":440,"stv_port":27016,"stv_name":"Uncletopia | Frankfurt | 1 | All Maps | STV","players":[{"user_id":367,"name":"Dolcelatte","steam_id":76561198038501770,"connected_time":285000000000,"state":"active","ping":58},{"user_id":356,"name":"Dr. Le Quack","steam_id":76561197995711176,"connected_time":571000000000,"state":"active","ping":61},{"user_id":362,"name":"Fishul","steam_id":76561198074001910,"connected_time":443000000000,"state":"active","ping":55},{"user_id":378,"name":"тестостеронвизл\ufffd","steam_id":76561198107146733,"connected_time":77000000000,"state":"active","ping":138},{"user_id":358,"name":"Daenny","steam_id":76561198053088822,"connected_time":489000000000,"state":"active","ping":40},{"user_id":379,"name":"Rodak","steam_id":76561199135986344,"connected_time":66000000000,"state":"active","ping":37},{"user_id":382,"name":"MR BUBBLES","steam_id":76561198019005259,"connected_time":27000000000,"state":"active","ping":89},{"user_id":361,"name":"tapeworms!","steam_id":76561198069649097,"connected_time":452000000000,"state":"active","ping":61},{"user_id":363,"name":"Prism","steam_id":76561198320524819,"connected_time":408000000000,"state":"active","ping":90},{"user_id":383,"name":"E2-E4","steam_id":76561198184990375,"connected_time":19000000000,"state":"spawning","ping":92},{"user_id":364,"name":"lysik","steam_id":76561198039498027,"connected_time":387000000000,"state":"active","ping":60},{"user_id":365,"name":"$t@lker_Tim","steam_id":76561198963658042,"connected_time":375000000000,"state":"active","ping":100},{"user_id":337,"name":"Master coitus","steam_id":76561198050416948,"connected_time":2428000000000,"state":"active","ping":44},{"user_id":247,"name":"✚Чыж✚","steam_id":76561198273074492,"connected_time":8191000000000,"state":"active","ping":111},{"user_id":366,"name":"comic_sans","steam_id":76561198845309519,"connected_time":375000000000,"state":"active","ping":77},{"user_id":369,"name":"蓮 Lotus","steam_id":76561198083141117,"connected_time":281000000000,"state":"active","ping":58},{"user_id":371,"name":"Name","steam_id":76561197990757157,"connected_time":266000000000,"state":"active","ping":72},{"user_id":351,"name":"Siegmeyer","steam_id":76561198328543549,"connected_time":1177000000000,"state":"active","ping":89},{"user_id":375,"name":"Ynss","steam_id":76561198021472798,"connected_time":207000000000,"state":"active","ping":62},{"user_id":381,"name":"Oma Fez","steam_id":76561198860099659,"connected_time":55000000000,"state":"active","ping":59},{"user_id":376,"name":"Embou","steam_id":76561199097750260,"connected_time":207000000000,"state":"active","ping":122},{"user_id":349,"name":"Moth","steam_id":76561198405910705,"connected_time":1520000000000,"state":"active","ping":75},{"user_id":377,"name":"mr.resetti","steam_id":76561198974520642,"connected_time":200000000000,"state":"active","ping":45},{"user_id":331,"name":"mikkeli","steam_id":76561198123176246,"connected_time":3020000000000,"state":"active","ping":79}]},{"server_id":110,"name":"Uncletopia | Frankfurt | 2 | All Maps","name_short":"frk-2","host":"frk-1.de.uncletopia.com","port":27025,"enabled":true,"region":"eu","cc":"de","latitude":50.110924,"longitude":8.682127,"reserved":0,"last_update":"0001-01-01T00:00:00Z","name_a2s":"Uncletopia | Frankfurt | 2 | All Maps","protocol":17,"map":"pl_pier","folder":"tf","game":"Team Fortress","app_id":440,"player_count":24,"max_players":24,"Bots":0,"server_type":"Dedicated","server_os":"Linux","password":true,"vac":true,"version":"7961495","steam_id":85568392924469990,"keywords":["nocrits","nodmgspread","payload","uncletopia"],"game_id":440,"stv_port":27026,"stv_name":"Uncletopia | Frankfurt | 2 | All Maps | STV","players":[{"user_id":324,"name":"Mabyz","steam_id":76561199121707139,"connected_time":1958000000000,"state":"active","ping":74},{"user_id":343,"name":"Monsy","steam_id":76561198025735006,"connected_time":1208000000000,"state":"active","ping":47},{"user_id":336,"name":"The Bucket","steam_id":76561199131973613,"connected_time":1478000000000,"state":"active","ping":93},{"user_id":364,"name":"finbar","steam_id":76561198056812396,"connected_time":466000000000,"state":"active","ping":74},{"user_id":321,"name":"tiamat","steam_id":76561198116027948,"connected_time":2145000000000,"state":"active","ping":64},{"user_id":288,"name":"Glada Snickaren","steam_id":76561198019037458,"connected_time":4386000000000,"state":"active","ping":55},{"user_id":291,"name":"Carrot Arc","steam_id":76561198164957006,"connected_time":4342000000000,"state":"active","ping":72},{"user_id":365,"name":"idk(new sens i suck)","steam_id":76561198445042523,"connected_time":456000000000,"state":"active","ping":95},{"user_id":345,"name":"Jeremy265","steam_id":76561199004316549,"connected_time":1194000000000,"state":"active","ping":107},{"user_id":368,"name":"Wenix","steam_id":76561198081409623,"connected_time":67000000000,"state":"active","ping":52},{"user_id":356,"name":"kevinus","steam_id":76561198059722457,"connected_time":983000000000,"state":"active","ping":46},{"user_id":366,"name":"Huskai","steam_id":76561198141512362,"connected_time":450000000000,"state":"active","ping":45},{"user_id":367,"name":"Well","steam_id":76561198411337640,"connected_time":368000000000,"state":"active","ping":95},{"user_id":351,"name":"_Starlight_","steam_id":76561197993885738,"connected_time":1103000000000,"state":"active","ping":74},{"user_id":220,"name":"else1","steam_id":76561197996558319,"connected_time":10447000000000,"state":"active","ping":77},{"user_id":352,"name":"Popii","steam_id":76561198288590910,"connected_time":1101000000000,"state":"active","ping":73},{"user_id":357,"name":"Lazor","steam_id":76561198310376869,"connected_time":982000000000,"state":"active","ping":98},{"user_id":362,"name":"milikicz","steam_id":76561198050626103,"connected_time":522000000000,"state":"active","ping":82},{"user_id":332,"name":"Walgon","steam_id":76561198073393489,"connected_time":1608000000000,"state":"active","ping":69},{"user_id":334,"name":"Vagapoot-☦","steam_id":76561199140101687,"connected_time":1577000000000,"state":"active","ping":78},{"user_id":369,"name":"dumpster diver professional","steam_id":76561198151386272,"connected_time":42000000000,"state":"active","ping":181},{"user_id":333,"name":"Waltcha","steam_id":76561198007691468,"connected_time":1594000000000,"state":"active","ping":60},{"user_id":335,"name":"Solid","steam_id":76561198357049292,"connected_time":1566000000000,"state":"active","ping":84},{"user_id":363,"name":"Pats (Gifted items Collector)","steam_id":76561198418538887,"connected_time":521000000000,"state":"active","ping":88}]},{"server_id":308,"name":"Uncletopia | Frankfurt | 3 | All Maps","name_short":"frk-3","host":"frk-1.de.uncletopia.com","port":27035,"enabled":true,"region":"eu","cc":"de","latitude":50.110924,"longitude":8.682127,"reserved":0,"last_update":"0001-01-01T00:00:00Z","name_a2s":"Uncletopia | Frankfurt | 3 | All Maps","protocol":17,"map":"pl_borneo","folder":"tf","game":"Team Fortress","app_id":440,"player_count":24,"max_players":24,"Bots":0,"server_type":"Dedicated","server_os":"Linux","password":true,"vac":true,"version":"7961495","steam_id":85568392924504274,"keywords":["nocrits","nodmgspread","payload","uncletopia"],"game_id":440,"stv_port":27036,"stv_name":"Uncletopia | Frankfurt | 3 | All Maps | STV","players":[{"user_id":22,"name":"WIZARD","steam_id":76561198199570742,"connected_time":4741000000000,"state":"active","ping":94},{"user_id":69,"name":"anabol1c steroids","steam_id":76561199470147761,"connected_time":2426000000000,"state":"active","ping":121},{"user_id":94,"name":"Favi","steam_id":76561198013236935,"connected_time":831000000000,"state":"active","ping":52},{"user_id":90,"name":"Kal-Blansh","steam_id":76561198193882203,"connected_time":1387000000000,"state":"active","ping":85},{"user_id":72,"name":"MM*","steam_id":76561198091084631,"connected_time":2150000000000,"state":"active","ping":116},{"user_id":97,"name":"Pestilence","steam_id":76561198140938904,"connected_time":520000000000,"state":"active","ping":58},{"user_id":99,"name":"Schizophrenic Tyrant","steam_id":76561199011576146,"connected_time":36000000000,"state":"active","ping":65},{"user_id":28,"name":"Begone","steam_id":76561199093369711,"connected_time":3395000000000,"state":"active","ping":92},{"user_id":98,"name":"Drillboy Jenkins","steam_id":76561198160497421,"connected_time":134000000000,"state":"active","ping":73},{"user_id":30,"name":"Alyosha","steam_id":76561198032771167,"connected_time":3383000000000,"state":"active","ping":74},{"user_id":95,"name":"Amandus","steam_id":76561198036281079,"connected_time":761000000000,"state":"active","ping":59},{"user_id":92,"name":"radu","steam_id":76561198067346802,"connected_time":1297000000000,"state":"active","ping":73},{"user_id":70,"name":"SirClyan","steam_id":76561199196651938,"connected_time":2426000000000,"state":"active","ping":60},{"user_id":77,"name":"golfmastr","steam_id":76561198993144124,"connected_time":2050000000000,"state":"active","ping":67},{"user_id":87,"name":"I Love Filtered Water","steam_id":76561198016042113,"connected_time":1458000000000,"state":"active","ping":87},{"user_id":74,"name":"Daddys #1 candy baby","steam_id":76561198062152208,"connected_time":2109000000000,"state":"active","ping":107},{"user_id":83,"name":"Mike","steam_id":76561198228455736,"connected_time":1780000000000,"state":"active","ping":69},{"user_id":52,"name":"Big Smoke","steam_id":76561198118625233,"connected_time":2853000000000,"state":"active","ping":60},{"user_id":93,"name":"Maxinator80","steam_id":76561198064728122,"connected_time":1177000000000,"state":"active","ping":45},{"user_id":89,"name":"-rikeOo-","steam_id":76561198303995379,"connected_time":1404000000000,"state":"active","ping":65},{"user_id":96,"name":"Syd","steam_id":76561198020515027,"connected_time":705000000000,"state":"active","ping":74},{"user_id":78,"name":"aaa","steam_id":76561198322459156,"connected_time":2004000000000,"state":"active","ping":59},{"user_id":58,"name":"kelm","steam_id":76561198027166144,"connected_time":2822000000000,"state":"active","ping":83},{"user_id":59,"name":"raczekr95","steam_id":76561198137619296,"connected_time":2797000000000,"state":"active","ping":57}]},{"server_id":309,"name":"Uncletopia | Frankfurt | 4 | All Maps","name_short":"frk-4","host":"frk-1.de.uncletopia.com","port":27045,"enabled":true,"region":"eu","cc":"de","latitude":50.110924,"longitude":8.682127,"reserved":0,"last_update":"0001-01-01T00:00:00Z","name_a2s":"Uncletopia | Frankfurt | 4 | All Maps","protocol":17,"map":"pl_badwater","folder":"tf","game":"Team Fortress","app_id":440,"player_count":24,"max_players":24,"Bots":0,"server_type":"Dedicated","server_os":"Linux","password":true,"vac":true,"version":"7961495","steam_id":85568392924504275,"keywords":["nocrits","nodmgspread","payload","uncletopia"],"game_id":440,"stv_port":27046,"stv_name":"Uncletopia | Frankfurt | 4 | All Maps | STV","players":[{"user_id":162,"name":"hpmalokes","steam_id":76561199415899717,"connected_time":1107000000000,"state":"active","ping":79},{"user_id":161,"name":"NonProphet","steam_id":76561198280149820,"connected_time":1117000000000,"state":"active","ping":61},{"user_id":163,"name":"Adamkarz","steam_id":76561198796428403,"connected_time":1075000000000,"state":"active","ping":80},{"user_id":117,"name":"Lauchboiz | Bannic","steam_id":76561198060362129,"connected_time":4542000000000,"state":"active","ping":53},{"user_id":169,"name":"rob","steam_id":76561198122211848,"connected_time":594000000000,"state":"active","ping":99},{"user_id":155,"name":"Shoe Gayser","steam_id":76561198063127464,"connected_time":1744000000000,"state":"active","ping":73},{"user_id":159,"name":"please do not the cat","steam_id":76561198089003514,"connected_time":1138000000000,"state":"active","ping":45},{"user_id":90,"name":"DocTwoEight","steam_id":76561198153488940,"connected_time":5750000000000,"state":"active","ping":62},{"user_id":44,"name":"Cem","steam_id":76561198138221277,"connected_time":7074000000000,"state":"active","ping":129},{"user_id":154,"name":"Out of Touch","steam_id":76561199175959277,"connected_time":1879000000000,"state":"active","ping":104},{"user_id":164,"name":"Woad Raider","steam_id":76561198215485788,"connected_time":1073000000000,"state":"active","ping":61},{"user_id":138,"name":"Splarvis","steam_id":76561198007792525,"connected_time":2781000000000,"state":"active","ping":54},{"user_id":133,"name":"Carry Krypl","steam_id":76561198136938121,"connected_time":3760000000000,"state":"active","ping":46},{"user_id":116,"name":"My Extraordinary Left Nut","steam_id":76561198338129578,"connected_time":4579000000000,"state":"active","ping":60},{"user_id":139,"name":"engineer drip","steam_id":76561198991032570,"connected_time":2726000000000,"state":"active","ping":113},{"user_id":157,"name":"Emmy!! \u003c3","steam_id":76561199467222748,"connected_time":1306000000000,"state":"active","ping":55},{"user_id":165,"name":"GEP Gun","steam_id":76561197981821003,"connected_time":1044000000000,"state":"active","ping":70},{"user_id":127,"name":"orange","steam_id":76561198153181940,"connected_time":3941000000000,"state":"active","ping":74},{"user_id":145,"name":"sticks","steam_id":76561198127099299,"connected_time":2493000000000,"state":"active","ping":48},{"user_id":142,"name":"ballsack","steam_id":76561198973232202,"connected_time":2686000000000,"state":"active","ping":93},{"user_id":167,"name":"Fr1Zer","steam_id":76561198357086270,"connected_time":974000000000,"state":"active","ping":87},{"user_id":168,"name":"francisco","steam_id":76561198074614581,"connected_time":970000000000,"state":"active","ping":60},{"user_id":92,"name":"Mr_Touchyou","steam_id":76561198452524697,"connected_time":5739000000000,"state":"active","ping":101},{"user_id":132,"name":"h","steam_id":76561199117830682,"connected_time":3788000000000,"state":"active","ping":95}]},{"server_id":310,"name":"Uncletopia | Frankfurt | 5 | All Maps","name_short":"frk-5","host":"frk-1.de.uncletopia.com","port":27055,"enabled":true,"region":"eu","cc":"de","latitude":50.110924,"longitude":8.682127,"reserved":0,"last_update":"0001-01-01T00:00:00Z","name_a2s":"Uncletopia | Frankfurt | 5 | All Maps","protocol":17,"map":"koth_highpass","folder":"tf","game":"Team Fortress","app_id":440,"player_count":0,"max_players":24,"Bots":0,"server_type":"Dedicated","server_os":"Linux","password":true,"vac":true,"version":"7961495","steam_id":85568392924504277,"keywords":["cp","nocrits","nodmgspread","uncletopia"],"game_id":440,"stv_port":27056,"stv_name":"Uncletopia | Frankfurt | 5 | All Maps | STV","players":null},{"server_id":311,"name":"Uncletopia | Frankfurt | 6 | All Maps","name_short":"frk-6","host":"frk-1.de.uncletopia.com","port":27065,"enabled":true,"region":"eu","cc":"de","latitude":50.110924,"longitude":8.682127,"reserved":0,"last_update":"0001-01-01T00:00:00Z","name_a2s":"Uncletopia | Frankfurt | 6 | All Maps","protocol":17,"map":"koth_viaduct","folder":"tf","game":"Team Fortress","app_id":440,"player_count":0,"max_players":24,"Bots":0,"server_type":"Dedicated","server_os":"Linux","password":true,"vac":true,"version":"7961495","steam_id":85568392924504278,"keywords":["cp","nocrits","nodmgspread","uncletopia"],"game_id":440,"stv_port":27066,"stv_name":"Uncletopia | Frankfurt | 6 | All Maps | STV","players":null},{"server_id":23,"name":"Uncletopia | Frankfurt | 7 | Stopwatch","name_short":"frk-7","host":"frk-1.de.uncletopia.com","port":27075,"enabled":true,"region":"eu","cc":"de","latitude":50.110924,"longitude":8.682127,"reserved":0,"last_update":"0001-01-01T00:00:00Z","name_a2s":"Uncletopia | Frankfurt | 7 | Stopwatch","protocol":17,"map":"cp_sunshine","folder":"tf","game":"Team Fortress","app_id":440,"player_count":23,"max_players":24,"Bots":0,"server_type":"Dedicated","server_os":"Linux","password":true,"vac":true,"version":"7961495","steam_id":85568392924742827,"keywords":["cp","nocrits","nodmgspread","uncletopia"],"game_id":440,"stv_port":27076,"stv_name":"Uncletopia | Frankfurt | 7 | Stopwatch | STV","players":[{"user_id":299,"name":"robyn","steam_id":76561199388526903,"connected_time":242000000000,"state":"active","ping":63},{"user_id":293,"name":"mv","steam_id":76561198404172173,"connected_time":465000000000,"state":"active","ping":163},{"user_id":297,"name":"gosi","steam_id":76561198084111532,"connected_time":274000000000,"state":"active","ping":59},{"user_id":289,"name":"PAN MAN","steam_id":76561199086525293,"connected_time":728000000000,"state":"active","ping":63},{"user_id":290,"name":"ztrs6","steam_id":76561198314853803,"connected_time":718000000000,"state":"active","ping":89},{"user_id":298,"name":"Phantom","steam_id":76561198263578961,"connected_time":265000000000,"state":"active","ping":82},{"user_id":294,"name":"ALARM","steam_id":76561198120686521,"connected_time":460000000000,"state":"active","ping":54},{"user_id":300,"name":"Амброзиус Кусто","steam_id":76561199305171893,"connected_time":238000000000,"state":"active","ping":135},{"user_id":301,"name":"Roblin24","steam_id":76561198991674513,"connected_time":182000000000,"state":"active","ping":49},{"user_id":302,"name":"Modmelon","steam_id":76561198813630650,"connected_time":158000000000,"state":"active","ping":58},{"user_id":303,"name":"Moderob","steam_id":76561198087366044,"connected_time":154000000000,"state":"active","ping":63},{"user_id":309,"name":"Vidrox","steam_id":76561199217854983,"connected_time":12000000000,"state":"active","ping":74},{"user_id":305,"name":"Silva_mlon","steam_id":76561199310242047,"connected_time":102000000000,"state":"active","ping":74},{"user_id":306,"name":"binkov 3zl","steam_id":76561198198056590,"connected_time":93000000000,"state":"active","ping":59},{"user_id":307,"name":"Meat Dragon","steam_id":76561198120319256,"connected_time":64000000000,"state":"active","ping":139},{"user_id":308,"name":"Stannio","steam_id":76561198053346365,"connected_time":64000000000,"state":"active","ping":45},{"user_id":310,"name":"DribSitoop","steam_id":76561198020597104,"connected_time":11000000000,"state":"active","ping":95},{"user_id":287,"name":"Pvt. Prinny","steam_id":76561198030278562,"connected_time":880000000000,"state":"active","ping":59},{"user_id":311,"name":"Parrot is stoned","steam_id":76561198207690748,"connected_time":5000000000,"state":"spawning","ping":59},{"user_id":266,"name":"compact disc","steam_id":76561198154677956,"connected_time":2529000000000,"state":"active","ping":63},{"user_id":279,"name":"7oid","steam_id":76561198142074232,"connected_time":1706000000000,"state":"active","ping":88},{"user_id":248,"name":"Ozzie","steam_id":76561197992915315,"connected_time":3314000000000,"state":"active","ping":78},{"user_id":226,"name":"akakez","steam_id":76561198095432821,"connected_time":4289000000000,"state":"active","ping":114}]},{"server_id":24,"name":"Uncletopia | Frankfurt | 8 | Community","name_short":"frk-8","host":"frk-1.de.uncletopia.com","port":27085,"enabled":true,"region":"eu","cc":"de","latitude":50.110924,"longitude":8.682127,"reserved":0,"last_update":"0001-01-01T00:00:00Z","name_a2s":"Uncletopia | Frankfurt | 8 | Community","protocol":17,"map":"workshop/cp_snowbase_b21.ugc2081770490","folder":"tf","game":"Team Fortress","app_id":440,"player_count":0,"max_players":24,"Bots":0,"server_type":"Dedicated","server_os":"Linux","password":true,"vac":true,"version":"7961495","steam_id":85568392924742828,"keywords":["cp","nocrits","nodmgspread","uncletopia"],"game_id":440,"stv_port":27086,"stv_name":"Uncletopia | Frankfurt | 8 | Community | STV","players":null},{"server_id":202,"name":"Uncletopia | Hong Kong | 1 | All Maps","name_short":"hgk-1","host":"hgk-1.hk.uncletopia.com","port":27015,"enabled":true,"region":"asia","cc":"hk","latitude":22.302711,"longitude":114.177216,"reserved":0,"last_update":"0001-01-01T00:00:00Z","name_a2s":"Uncletopia | Hong Kong | 1 | All Maps","protocol":17,"map":"pl_borneo","folder":"tf","game":"Team Fortress","app_id":440,"player_count":0,"max_players":24,"Bots":0,"server_type":"Dedicated","server_os":"Linux","password":true,"vac":true,"version":"7961495","steam_id":85568392924494504,"keywords":["nocrits","nodmgspread","payload","uncletopia"],"game_id":440,"stv_port":27016,"stv_name":"Uncletopia | Hong Kong | 1 | All Maps | STV","players":null},{"server_id":1,"name":"Uncletopia | Los Angeles | 1 | All Maps","name_short":"lax-1","host":"lax-1.us.uncletopia.com","port":27015,"enabled":true,"region":"us-west","cc":"us","latitude":33.94279,"longitude":-118.41004,"reserved":0,"last_update":"0001-01-01T00:00:00Z","name_a2s":"Uncletopia | Los Angeles | 1 | All Maps","protocol":17,"map":"pl_snowycoast","folder":"tf","game":"Team Fortress","app_id":440,"player_count":24,"max_players":24,"Bots":0,"server_type":"Dedicated","server_os":"Linux","password":true,"vac":true,"version":"7961495","steam_id":85568392924469991,"keywords":["nocrits","nodmgspread","payload","uncletopia"],"game_id":440,"stv_port":27016,"stv_name":"Uncletopia | Los Angeles | 1 | All Maps | STV","players":[{"user_id":49,"name":"Typh","steam_id":76561198315344079,"connected_time":872000000000,"state":"active","ping":105},{"user_id":53,"name":"Heartgold","steam_id":76561199062592062,"connected_time":652000000000,"state":"active","ping":117},{"user_id":42,"name":"I'm busy bee worker","steam_id":76561198329680103,"connected_time":957000000000,"state":"active","ping":106},{"user_id":33,"name":"TheUrgeWithin","steam_id":76561198033385972,"connected_time":1496000000000,"state":"active","ping":59},{"user_id":43,"name":"Dr. Juvenal","steam_id":76561198114553453,"connected_time":947000000000,"state":"active","ping":52},{"user_id":15,"name":"usedhalfcart","steam_id":76561198072621852,"connected_time":2516000000000,"state":"active","ping":60},{"user_id":58,"name":"Penne","steam_id":76561198982393756,"connected_time":348000000000,"state":"active","ping":58},{"user_id":50,"name":"fly","steam_id":76561199003715735,"connected_time":855000000000,"state":"active","ping":114},{"user_id":13,"name":"Stimpry","steam_id":76561199055662248,"connected_time":3194000000000,"state":"active","ping":54},{"user_id":45,"name":"FOX News goblin","steam_id":76561198167648580,"connected_time":910000000000,"state":"active","ping":44},{"user_id":18,"name":"aBigPoo","steam_id":76561198425027856,"connected_time":2329000000000,"state":"active","ping":48},{"user_id":17,"name":"this is awkward","steam_id":76561198082873484,"connected_time":2446000000000,"state":"active","ping":39},{"user_id":46,"name":"mefroogmeister","steam_id":76561198352276065,"connected_time":909000000000,"state":"active","ping":117},{"user_id":35,"name":"stiffle crippler","steam_id":76561198136435702,"connected_time":1428000000000,"state":"active","ping":67},{"user_id":52,"name":"2 Point Tom","steam_id":76561198087617008,"connected_time":697000000000,"state":"active","ping":87},{"user_id":23,"name":"Noire","steam_id":76561198149370109,"connected_time":2035000000000,"state":"active","ping":67},{"user_id":54,"name":"slim goodbody","steam_id":76561197997100185,"connected_time":650000000000,"state":"active","ping":59},{"user_id":55,"name":"HopeTheNeko","steam_id":76561199159285465,"connected_time":600000000000,"state":"active","ping":48},{"user_id":56,"name":"-=Bits=-Dinkleberg","steam_id":76561198080367616,"connected_time":514000000000,"state":"active","ping":77},{"user_id":47,"name":"Youkai_Frenzy","steam_id":76561199224055485,"connected_time":895000000000,"state":"active","ping":112},{"user_id":57,"name":"Just a Good Friend","steam_id":76561198140052403,"connected_time":440000000000,"state":"active","ping":48},{"user_id":59,"name":"mr poop","steam_id":76561199195196632,"connected_time":252000000000,"state":"active","ping":79},{"user_id":30,"name":"Firedust19","steam_id":76561198153238631,"connected_time":1917000000000,"state":"active","ping":58},{"user_id":38,"name":"Sir_DankToast","steam_id":76561198385093022,"connected_time":1374000000000,"state":"active","ping":43}]},{"server_id":112,"name":"Uncletopia | Los Angeles | 2 | All Maps","name_short":"lax-2","host":"lax-1.us.uncletopia.com","port":27025,"enabled":true,"region":"us-west","cc":"us","latitude":33.94279,"longitude":-118.41004,"reserved":0,"last_update":"0001-01-01T00:00:00Z","name_a2s":"Uncletopia | Los Angeles | 2 | All Maps","protocol":17,"map":"koth_cascade","folder":"tf","game":"Team Fortress","app_id":440,"player_count":0,"max_players":24,"Bots":0,"server_type":"Dedicated","server_os":"Linux","password":true,"vac":true,"version":"7961495","steam_id":85568392924469992,"keywords":["cp","nocrits","nodmgspread","uncletopia"],"game_id":440,"stv_port":27026,"stv_name":"Uncletopia | Los Angeles | 2 | All Maps | STV","players":null},{"server_id":324,"name":"Uncletopia | Los Angeles | 3 | All Maps","name_short":"lax-3","host":"lax-1.us.uncletopia.com","port":27035,"enabled":true,"region":"us-west","cc":"us","latitude":33.94279,"longitude":-118.41004,"reserved":0,"last_update":"0001-01-01T00:00:00Z","name_a2s":"Uncletopia | Los Angeles | 3 | All Maps","protocol":17,"map":"pl_hoodoo_final","folder":"tf","game":"Team Fortress","app_id":440,"player_count":0,"max_players":24,"Bots":0,"server_type":"Dedicated","server_os":"Linux","password":true,"vac":true,"version":"7961495","steam_id":85568392924510198,"keywords":["nocrits","nodmgspread","payload","uncletopia"],"game_id":440,"stv_port":27036,"stv_name":"Uncletopia | Los Angeles | 3 | All Maps | STV","players":null},{"server_id":25,"name":"Uncletopia | Los Angeles | 4 | Stopwatch","name_short":"lax-4","host":"lax-1.us.uncletopia.com","port":27045,"enabled":true,"region":"us-west","cc":"us","latitude":33.94279,"longitude":-118.41004,"reserved":0,"last_update":"0001-01-01T00:00:00Z","name_a2s":"Uncletopia | Los Angeles | 4 | Stopwatch","protocol":17,"map":"pl_upward","folder":"tf","game":"Team Fortress","app_id":440,"player_count":0,"max_players":24,"Bots":0,"server_type":"Dedicated","server_os":"Linux","password":true,"vac":true,"version":"7961495","steam_id":85568392924510199,"keywords":["nocrits","nodmgspread","payload","uncletopia"],"game_id":440,"stv_port":27046,"stv_name":"Uncletopia | Los Angeles | 4 | Stopwatch | STV","players":null},{"server_id":11,"name":"Uncletopia | London | 1 | All Maps","name_short":"lon-1","host":"lon-1.uk.uncletopia.com","port":27015,"enabled":true,"region":"eu","cc":"gb","latitude":51.509865,"longitude":-0.118092,"reserved":0,"last_update":"0001-01-01T00:00:00Z","name_a2s":"Uncletopia | London | 1 | All Maps","protocol":17,"map":"cp_steel","folder":"tf","game":"Team Fortress","app_id":440,"player_count":24,"max_players":24,"Bots":0,"server_type":"Dedicated","server_os":"Linux","password":true,"vac":true,"version":"7961495","steam_id":85568392924367362,"keywords":["cp","nocrits","nodmgspread","uncletopia"],"game_id":440,"stv_port":27016,"stv_name":"Uncletopia | London | 1 | All Maps | STV","players":[{"user_id":266,"name":"Richard nixon roleplayer","steam_id":76561198236015392,"connected_time":5674000000000,"state":"active","ping":114},{"user_id":248,"name":"one two buckle my shoe","steam_id":76561198010662796,"connected_time":6813000000000,"state":"active","ping":45},{"user_id":276,"name":"Son Goku","steam_id":76561199383437138,"connected_time":4266000000000,"state":"active","ping":123},{"user_id":326,"name":"reika","steam_id":76561198043601838,"connected_time":1486000000000,"state":"active","ping":61},{"user_id":328,"name":"GoblinGaming (5 6 Nike Kicks)","steam_id":76561198360395476,"connected_time":1108000000000,"state":"active","ping":28},{"user_id":228,"name":"three four buckle some more","steam_id":76561198046873337,"connected_time":7932000000000,"state":"active","ping":56},{"user_id":312,"name":"Smokio","steam_id":76561198069650580,"connected_time":2149000000000,"state":"active","ping":90},{"user_id":226,"name":"soil.dirt.earth","steam_id":76561198014377623,"connected_time":8514000000000,"state":"active","ping":31},{"user_id":313,"name":"Warrior555MainsGanon","steam_id":76561198388627786,"connected_time":2090000000000,"state":"active","ping":57},{"user_id":336,"name":"SENSITIVITY OVERDRIVE!!!!","steam_id":76561198163615254,"connected_time":532000000000,"state":"active","ping":60},{"user_id":308,"name":"hiiiii haiiii hello","steam_id":76561198106049954,"connected_time":2266000000000,"state":"active","ping":78},{"user_id":264,"name":"toad (ungodly gigantic)","steam_id":76561198870327755,"connected_time":5737000000000,"state":"active","ping":79},{"user_id":293,"name":"lila","steam_id":76561198040690770,"connected_time":2669000000000,"state":"active","ping":48},{"user_id":261,"name":"0:21","steam_id":76561198797266244,"connected_time":5792000000000,"state":"active","ping":69},{"user_id":330,"name":"Supercoxylac","steam_id":76561198376300138,"connected_time":1040000000000,"state":"active","ping":56},{"user_id":332,"name":"Frank Horrigan","steam_id":76561198209184131,"connected_time":883000000000,"state":"active","ping":49},{"user_id":334,"name":"Dr. Funkenstein","steam_id":76561197977816210,"connected_time":679000000000,"state":"active","ping":71},{"user_id":335,"name":"nudjura","steam_id":76561198281986139,"connected_time":613000000000,"state":"active","ping":44},{"user_id":319,"name":"Zamorocian","steam_id":76561198076604017,"connected_time":1844000000000,"state":"active","ping":39},{"user_id":322,"name":"Burpman","steam_id":76561198022897937,"connected_time":1728000000000,"state":"active","ping":51},{"user_id":296,"name":"STEFF","steam_id":76561198013306538,"connected_time":2368000000000,"state":"active","ping":45},{"user_id":323,"name":"albert","steam_id":76561198353496134,"connected_time":1699000000000,"state":"active","ping":53},{"user_id":338,"name":"waahh im baby gugu gaga im cry","steam_id":76561198190583242,"connected_time":23000000000,"state":"spawning","ping":86},{"user_id":203,"name":"whimsy. (live)","steam_id":76561198878171763,"connected_time":11313000000000,"state":"active","ping":48}]},{"server_id":114,"name":"Uncletopia | London | 2 | All Maps","name_short":"lon-2","host":"lon-1.uk.uncletopia.com","port":27025,"enabled":true,"region":"eu","cc":"gb","latitude":51.509865,"longitude":-0.118092,"reserved":0,"last_update":"0001-01-01T00:00:00Z","name_a2s":"Uncletopia | London | 2 | All Maps","protocol":17,"map":"pl_borneo","folder":"tf","game":"Team Fortress","app_id":440,"player_count":24,"max_players":24,"Bots":0,"server_type":"Dedicated","server_os":"Linux","password":true,"vac":true,"version":"7961495","steam_id":85568392924470941,"keywords":["nocrits","nodmgspread","payload","uncletopia"],"game_id":440,"stv_port":27026,"stv_name":"Uncletopia | London | 2 | All Maps | STV","players":[{"user_id":353,"name":"brazil number 1 fan","steam_id":76561198799519725,"connected_time":1602000000000,"state":"active","ping":89},{"user_id":331,"name":"---","steam_id":76561198092283741,"connected_time":2868000000000,"state":"active","ping":55},{"user_id":365,"name":"spencer pooties","steam_id":76561198123044544,"connected_time":338000000000,"state":"active","ping":67},{"user_id":369,"name":"After8","steam_id":76561198090750865,"connected_time":235000000000,"state":"active","ping":74},{"user_id":358,"name":"drew","steam_id":76561198012304706,"connected_time":1143000000000,"state":"active","ping":101},{"user_id":355,"name":"Potato","steam_id":76561198070035643,"connected_time":1512000000000,"state":"active","ping":74},{"user_id":360,"name":"John Wick","steam_id":76561199145709519,"connected_time":1061000000000,"state":"active","ping":149},{"user_id":299,"name":"Lyell","steam_id":76561198350329389,"connected_time":4754000000000,"state":"active","ping":71},{"user_id":345,"name":"crimson","steam_id":76561198208349835,"connected_time":2076000000000,"state":"active","ping":68},{"user_id":356,"name":"Pringles","steam_id":76561198120850843,"connected_time":1475000000000,"state":"active","ping":84},{"user_id":330,"name":"FUKAYOU","steam_id":76561198380484033,"connected_time":2921000000000,"state":"active","ping":61},{"user_id":366,"name":"spake","steam_id":76561198109247682,"connected_time":325000000000,"state":"active","ping":51},{"user_id":314,"name":"Hexagon","steam_id":76561198151205758,"connected_time":4035000000000,"state":"active","ping":60},{"user_id":263,"name":"Marcel","steam_id":76561198348686648,"connected_time":7192000000000,"state":"active","ping":47},{"user_id":363,"name":"£blz","steam_id":76561198084804183,"connected_time":769000000000,"state":"active","ping":45},{"user_id":347,"name":"Femboy Thighs","steam_id":76561198115496457,"connected_time":2008000000000,"state":"active","ping":48},{"user_id":361,"name":"Kritz The Heavy","steam_id":76561198011857670,"connected_time":1019000000000,"state":"active","ping":61},{"user_id":346,"name":"♥Medical student♥","steam_id":76561199119401415,"connected_time":2053000000000,"state":"active","ping":118},{"user_id":335,"name":"Dagertul","steam_id":76561198102822860,"connected_time":2776000000000,"state":"active","ping":89},{"user_id":367,"name":"zebulon","steam_id":76561198384683504,"connected_time":320000000000,"state":"active","ping":52},{"user_id":348,"name":"Sir Cauterize","steam_id":76561198047079422,"connected_time":1999000000000,"state":"active","ping":43},{"user_id":362,"name":"Jara.","steam_id":76561197992207165,"connected_time":977000000000,"state":"active","ping":93},{"user_id":368,"name":"Vermilion.","steam_id":76561198050555372,"connected_time":313000000000,"state":"active","ping":60},{"user_id":328,"name":"Mr. Mundy","steam_id":76561198132008918,"connected_time":3308000000000,"state":"active","ping":86}]},{"server_id":320,"name":"Uncletopia | London | 3 | All Maps","name_short":"lon-3","host":"lon-1.uk.uncletopia.com","port":27035,"enabled":true,"region":"eu","cc":"gb","latitude":51.509865,"longitude":-0.118092,"reserved":0,"last_update":"0001-01-01T00:00:00Z","name_a2s":"Uncletopia | London | 3 | All Maps","protocol":17,"map":"pl_badwater","folder":"tf","game":"Team Fortress","app_id":440,"player_count":23,"max_players":24,"Bots":0,"server_type":"Dedicated","server_os":"Linux","password":true,"vac":true,"version":"7961495","steam_id":85568392924510192,"keywords":["nocrits","nodmgspread","payload","uncletopia"],"game_id":440,"stv_port":27036,"stv_name":"Uncletopia | London | 3 | All Maps | STV","players":[{"user_id":84,"name":"TOP G","steam_id":76561198138928548,"connected_time":1405000000000,"state":"active","ping":60},{"user_id":33,"name":"B∞p | ❤Fasto❤","steam_id":76561198118298527,"connected_time":4418000000000,"state":"active","ping":53},{"user_id":34,"name":"B∞p | ❤Hina❤","steam_id":76561198058465921,"connected_time":4412000000000,"state":"active","ping":60},{"user_id":47,"name":"woople","steam_id":76561198076625889,"connected_time":3789000000000,"state":"active","ping":80},{"user_id":35,"name":"Tankedup_","steam_id":76561198168659251,"connected_time":4406000000000,"state":"active","ping":48},{"user_id":60,"name":"Pharaoh","steam_id":76561198974553024,"connected_time":3478000000000,"state":"active","ping":93},{"user_id":106,"name":"D-Girl Fights God","steam_id":76561198062937822,"connected_time":503000000000,"state":"active","ping":120},{"user_id":111,"name":"Yassine","steam_id":76561198140565712,"connected_time":100000000000,"state":"active","ping":59},{"user_id":54,"name":"Cobalt","steam_id":76561198349228196,"connected_time":3608000000000,"state":"active","ping":40},{"user_id":86,"name":"yuno appreciator","steam_id":76561198083286511,"connected_time":1382000000000,"state":"active","ping":45},{"user_id":98,"name":"The SPy","steam_id":76561198392505656,"connected_time":626000000000,"state":"active","ping":57},{"user_id":88,"name":"Luke SpyWalker","steam_id":76561198008643276,"connected_time":1337000000000,"state":"active","ping":74},{"user_id":99,"name":"Krefa12","steam_id":76561198268375393,"connected_time":620000000000,"state":"active","ping":108},{"user_id":109,"name":"Pfaff Ferenc","steam_id":76561199502583278,"connected_time":323000000000,"state":"active","ping":55},{"user_id":77,"name":"ran is running","steam_id":76561199443185667,"connected_time":1853000000000,"state":"active","ping":112},{"user_id":56,"name":"Tekky☻","steam_id":76561197990987315,"connected_time":3547000000000,"state":"active","ping":39},{"user_id":78,"name":"tea for trees too","steam_id":76561198131031404,"connected_time":1828000000000,"state":"active","ping":100},{"user_id":108,"name":"bumknifgkkwet","steam_id":76561199507590156,"connected_time":361000000000,"state":"active","ping":147},{"user_id":110,"name":"P","steam_id":76561198095560087,"connected_time":147000000000,"state":"active","ping":79},{"user_id":102,"name":"Gym teacher","steam_id":76561198382706733,"connected_time":588000000000,"state":"active","ping":65},{"user_id":94,"name":"(MAC) [BN] Crazyking","steam_id":76561198001668616,"connected_time":742000000000,"state":"active","ping":49},{"user_id":83,"name":"supercow","steam_id":76561198163201973,"connected_time":1457000000000,"state":"active","ping":75},{"user_id":104,"name":"FURY AND RAGE AND ANGER!","steam_id":76561198845046853,"connected_time":562000000000,"state":"active","ping":45}]},{"server_id":321,"name":"Uncletopia | London | 4 | All Maps","name_short":"lon-4","host":"lon-1.uk.uncletopia.com","port":27045,"enabled":true,"region":"eu","cc":"gb","latitude":51.509865,"longitude":-0.118092,"reserved":0,"last_update":"0001-01-01T00:00:00Z","name_a2s":"Uncletopia | London | 4 | All Maps","protocol":17,"map":"cp_snakewater_final1","folder":"tf","game":"Team Fortress","app_id":440,"player_count":23,"max_players":24,"Bots":0,"server_type":"Dedicated","server_os":"Linux","password":true,"vac":true,"version":"7961495","steam_id":85568392924510193,"keywords":["cp","nocrits","nodmgspread","uncletopia"],"game_id":440,"stv_port":27046,"stv_name":"Uncletopia | London | 4 | All Maps | STV","players":[{"user_id":374,"name":"Woman (Real)","steam_id":76561199151823932,"connected_time":205000000000,"state":"active","ping":67},{"user_id":317,"name":"British Disapproval","steam_id":76561198001375260,"connected_time":4099000000000,"state":"active","ping":44},{"user_id":345,"name":"breadbear \u003c3","steam_id":76561198036895007,"connected_time":1622000000000,"state":"active","ping":89},{"user_id":376,"name":"xavier","steam_id":76561198076494034,"connected_time":15000000000,"state":"active","ping":51},{"user_id":361,"name":"Vyllckart","steam_id":76561198119172997,"connected_time":940000000000,"state":"active","ping":65},{"user_id":340,"name":"Ullr","steam_id":76561198140547483,"connected_time":2323000000000,"state":"active","ping":41},{"user_id":366,"name":"Laru","steam_id":76561197998838438,"connected_time":789000000000,"state":"active","ping":75},{"user_id":343,"name":"Spinya","steam_id":76561198086653667,"connected_time":1768000000000,"state":"active","ping":59},{"user_id":344,"name":"DudeoftheRock","steam_id":76561198059401865,"connected_time":1766000000000,"state":"active","ping":59},{"user_id":352,"name":"combine","steam_id":76561198007909007,"connected_time":1449000000000,"state":"active","ping":63},{"user_id":375,"name":"Jarppa!","steam_id":76561197995834786,"connected_time":128000000000,"state":"active","ping":72},{"user_id":337,"name":"Bobirulez","steam_id":76561198009125458,"connected_time":2878000000000,"state":"active","ping":68},{"user_id":348,"name":"joachym","steam_id":76561198428579761,"connected_time":1524000000000,"state":"active","ping":56},{"user_id":341,"name":"P3rsErkki","steam_id":76561198063093495,"connected_time":2156000000000,"state":"active","ping":72},{"user_id":362,"name":"Asdrúbal","steam_id":76561197988918559,"connected_time":908000000000,"state":"active","ping":72},{"user_id":364,"name":"BoPoe","steam_id":76561198093333882,"connected_time":886000000000,"state":"active","ping":91},{"user_id":367,"name":"sowakarana","steam_id":76561199405633261,"connected_time":763000000000,"state":"active","ping":56},{"user_id":326,"name":"RLCrazyCat3","steam_id":76561197983757878,"connected_time":3759000000000,"state":"active","ping":49},{"user_id":281,"name":"333res","steam_id":76561198148106704,"connected_time":5646000000000,"state":"active","ping":80},{"user_id":350,"name":"full of nefarious acts","steam_id":76561198079524152,"connected_time":1490000000000,"state":"active","ping":66},{"user_id":283,"name":"KLAMA  ❤","steam_id":76561198351549661,"connected_time":5608000000000,"state":"active","ping":77},{"user_id":369,"name":"Vi100 Dol7","steam_id":76561198118137461,"connected_time":557000000000,"state":"active","ping":74},{"user_id":334,"name":"Rin-Nakaret","steam_id":76561197971051188,"connected_time":3093000000000,"state":"active","ping":50}]},{"server_id":21,"name":"Uncletopia | London | 5 | All Maps","name_short":"lon-5","host":"lon-1.uk.uncletopia.com","port":27055,"enabled":true,"region":"eu","cc":"gb","latitude":51.509865,"longitude":-0.118092,"reserved":0,"last_update":"0001-01-01T00:00:00Z","name_a2s":"Uncletopia | London | 5 | All Maps","protocol":17,"map":"pl_upward","folder":"tf","game":"Team Fortress","app_id":440,"player_count":24,"max_players":24,"Bots":0,"server_type":"Dedicated","server_os":"Linux","password":true,"vac":true,"version":"7961495","steam_id":85568392924742829,"keywords":["nocrits","nodmgspread","payload","uncletopia"],"game_id":440,"stv_port":27056,"stv_name":"Uncletopia | London | 5 | All Maps | STV","players":[{"user_id":221,"name":"Gamer Local","steam_id":76561198084157459,"connected_time":108000000000,"state":"active","ping":48},{"user_id":211,"name":"Coac","steam_id":76561198085265740,"connected_time":1251000000000,"state":"active","ping":73},{"user_id":219,"name":"Piox","steam_id":76561198125689157,"connected_time":393000000000,"state":"active","ping":78},{"user_id":182,"name":"Snow","steam_id":76561198246680606,"connected_time":2720000000000,"state":"active","ping":74},{"user_id":222,"name":"Joejee","steam_id":76561199122423976,"connected_time":98000000000,"state":"active","ping":53},{"user_id":198,"name":"LivEssense","steam_id":76561198052476979,"connected_time":1985000000000,"state":"active","ping":79},{"user_id":196,"name":"phrög","steam_id":76561199230709660,"connected_time":2190000000000,"state":"active","ping":61},{"user_id":201,"name":"zinzyk","steam_id":76561198128011822,"connected_time":1922000000000,"state":"active","ping":65},{"user_id":194,"name":"Plep","steam_id":76561198840259819,"connected_time":2320000000000,"state":"active","ping":60},{"user_id":166,"name":"YuraGreek","steam_id":76561198050182252,"connected_time":4026000000000,"state":"active","ping":88},{"user_id":210,"name":"Gubbly Bubbins","steam_id":76561198101451654,"connected_time":1370000000000,"state":"active","ping":46},{"user_id":202,"name":"LEGEND FUMO.","steam_id":76561198061033903,"connected_time":1919000000000,"state":"active","ping":60},{"user_id":154,"name":"Bags.","steam_id":76561198045708372,"connected_time":4930000000000,"state":"active","ping":53},{"user_id":179,"name":"[Imbr] Supe7nova","steam_id":76561197986998963,"connected_time":3081000000000,"state":"active","ping":47},{"user_id":142,"name":"NALA","steam_id":76561198039806469,"connected_time":5344000000000,"state":"active","ping":78},{"user_id":180,"name":"FistfulOfKittens","steam_id":76561198323611129,"connected_time":2989000000000,"state":"active","ping":64},{"user_id":189,"name":"Temperance","steam_id":76561198446955878,"connected_time":2537000000000,"state":"active","ping":59},{"user_id":205,"name":"NESS","steam_id":76561197995225318,"connected_time":1779000000000,"state":"active","ping":47},{"user_id":215,"name":"Diggity","steam_id":76561198297157085,"connected_time":902000000000,"state":"active","ping":35},{"user_id":206,"name":"ERBLIN011","steam_id":76561198302006065,"connected_time":1748000000000,"state":"active","ping":84},{"user_id":208,"name":"[Imbr] kurush117","steam_id":76561198003364899,"connected_time":1627000000000,"state":"active","ping":39},{"user_id":126,"name":"LOBZIK","steam_id":76561198114830120,"connected_time":6368000000000,"state":"active","ping":77},{"user_id":216,"name":"SausageRoll","steam_id":76561197994072622,"connected_time":886000000000,"state":"active","ping":44},{"user_id":218,"name":"cof","steam_id":76561199128417805,"connected_time":531000000000,"state":"active","ping":46}]},{"server_id":22,"name":"Uncletopia | London | 6 | All Maps","name_short":"lon-6","host":"lon-1.uk.uncletopia.com","port":27065,"enabled":true,"region":"eu","cc":"gb","latitude":51.509865,"longitude":-0.118092,"reserved":0,"last_update":"0001-01-01T00:00:00Z","name_a2s":"Uncletopia | London | 6 | All Maps","protocol":17,"map":"pl_upward","folder":"tf","game":"Team Fortress","app_id":440,"player_count":24,"max_players":24,"Bots":0,"server_type":"Dedicated","server_os":"Linux","password":true,"vac":true,"version":"7961495","steam_id":85568392924742830,"keywords":["nocrits","nodmgspread","payload","uncletopia"],"game_id":440,"stv_port":27066,"stv_name":"Uncletopia | London | 6 | All Maps | STV","players":[{"user_id":259,"name":"粗暴的性行為","steam_id":76561198843748467,"connected_time":1557000000000,"state":"active","ping":69},{"user_id":260,"name":"Hopper","steam_id":76561198842778221,"connected_time":1544000000000,"state":"active","ping":80},{"user_id":279,"name":"doomer","steam_id":76561198977420882,"connected_time":220000000000,"state":"active","ping":40},{"user_id":249,"name":"Ferrariracer5f1","steam_id":76561199229815098,"connected_time":2529000000000,"state":"active","ping":45},{"user_id":267,"name":"G_raff","steam_id":76561199048512726,"connected_time":976000000000,"state":"active","ping":89},{"user_id":262,"name":"RoastQuil","steam_id":76561198174378098,"connected_time":1432000000000,"state":"active","ping":58},{"user_id":264,"name":"NeroBaku","steam_id":76561199014546973,"connected_time":1346000000000,"state":"active","ping":47},{"user_id":265,"name":"Wyoming","steam_id":76561198146003279,"connected_time":1240000000000,"state":"active","ping":176},{"user_id":268,"name":"Ash_Dies_Alone","steam_id":76561198136126828,"connected_time":838000000000,"state":"active","ping":49},{"user_id":269,"name":"szmen","steam_id":76561198072569764,"connected_time":835000000000,"state":"active","ping":71},{"user_id":270,"name":"Milk","steam_id":76561198125876588,"connected_time":795000000000,"state":"active","ping":42},{"user_id":229,"name":"Wardruna96","steam_id":76561199057083828,"connected_time":3995000000000,"state":"active","ping":75},{"user_id":271,"name":"Storm's Foreshadow","steam_id":76561198098462526,"connected_time":793000000000,"state":"active","ping":79},{"user_id":231,"name":"DrExplosive","steam_id":76561198063678579,"connected_time":3912000000000,"state":"active","ping":48},{"user_id":272,"name":"name420","steam_id":76561198129374525,"connected_time":771000000000,"state":"active","ping":146},{"user_id":247,"name":"sac","steam_id":76561197992659494,"connected_time":2622000000000,"state":"active","ping":45},{"user_id":251,"name":"Mael-chan\u003c3","steam_id":76561197996852498,"connected_time":2457000000000,"state":"active","ping":58},{"user_id":278,"name":"tsubonyan★","steam_id":76561198120653445,"connected_time":344000000000,"state":"active","ping":61},{"user_id":274,"name":"NothingMan","steam_id":76561198051284446,"connected_time":667000000000,"state":"active","ping":40},{"user_id":242,"name":"KFD","steam_id":76561198157183003,"connected_time":2912000000000,"state":"active","ping":91},{"user_id":275,"name":"Cencut","steam_id":76561198989449047,"connected_time":649000000000,"state":"active","ping":125},{"user_id":254,"name":"L1nuS","steam_id":76561199017922842,"connected_time":2391000000000,"state":"active","ping":89},{"user_id":276,"name":"Cooki","steam_id":76561198051705314,"connected_time":645000000000,"state":"active","ping":131},{"user_id":277,"name":"stoppen","steam_id":76561197960281482,"connected_time":644000000000,"state":"active","ping":74}]},{"server_id":40,"name":"Uncletopia | London | 7 | Stopwatch","name_short":"lon-7","host":"lon-1.uk.uncletopia.com","port":27075,"enabled":true,"region":"eu","cc":"gb","latitude":51.509865,"longitude":-0.118092,"reserved":0,"last_update":"0001-01-01T00:00:00Z","name_a2s":"Uncletopia | London | 7 | Stopwatch","protocol":17,"map":"workshop/koth_clearcut_b15.ugc2107050255","folder":"tf","game":"Team Fortress","app_id":440,"player_count":0,"max_players":24,"Bots":0,"server_type":"Dedicated","server_os":"Linux","password":true,"vac":true,"version":"7961495","steam_id":85568392924964314,"keywords":["cp","nocrits","nodmgspread","uncletopia"],"game_id":440,"stv_port":27076,"stv_name":"Uncletopia | London | 7 | Stopwatch | STV","players":null},{"server_id":41,"name":"Uncletopia | London | 8 | Community","name_short":"lon-8","host":"lon-1.uk.uncletopia.com","port":27085,"enabled":true,"region":"eu","cc":"gb","latitude":51.509865,"longitude":-0.118092,"reserved":0,"last_update":"0001-01-01T00:00:00Z","name_a2s":"Uncletopia | London | 8 | Community","protocol":17,"map":"workshop/pl_highwood_b13.ugc1769496557","folder":"tf","game":"Team Fortress","app_id":440,"player_count":8,"max_players":24,"Bots":0,"server_type":"Dedicated","server_os":"Linux","password":true,"vac":true,"version":"7961495","steam_id":85568392924964315,"keywords":["nocrits","nodmgspread","payload","uncletopia"],"game_id":440,"stv_port":27086,"stv_name":"Uncletopia | London | 8 | Community | STV","players":[{"user_id":13,"name":"Fleak","steam_id":76561197998892190,"connected_time":3200000000000,"state":"active","ping":45},{"user_id":14,"name":"noah","steam_id":76561199146429428,"connected_time":3176000000000,"state":"active","ping":58},{"user_id":16,"name":"gabrielglod928","steam_id":76561199014805744,"connected_time":2010000000000,"state":"active","ping":41},{"user_id":21,"name":"Cat cake0","steam_id":76561199048486574,"connected_time":399000000000,"state":"active","ping":48},{"user_id":18,"name":"gametram","steam_id":76561199129180186,"connected_time":1593000000000,"state":"active","ping":235},{"user_id":22,"name":"Mr Fruitypebbles","steam_id":76561198133823242,"connected_time":220000000000,"state":"active","ping":42},{"user_id":23,"name":"Swiss_Nostalgia","steam_id":76561199159896259,"connected_time":16000000000,"state":"active","ping":89},{"user_id":24,"name":"Logman","steam_id":76561198427403965,"connected_time":6000000000,"state":"spawning","ping":102}]},{"server_id":300,"name":"Uncletopia | Montréal | 1 | One Thousand Uncles","name_short":"mtl-1","host":"mtl-1.ca.uncletopia.com","port":27015,"enabled":true,"region":"us-east","cc":"ca","latitude":45.50889,"longitude":-73.56167,"reserved":0,"last_update":"0001-01-01T00:00:00Z","name_a2s":"Uncletopia | Montréal | 1 | One Thousand Uncles","protocol":17,"map":"pl_chilly","folder":"tf","game":"Team Fortress","app_id":440,"player_count":0,"max_players":32,"Bots":0,"server_type":"Dedicated","server_os":"Linux","password":true,"vac":true,"version":"7961495","steam_id":85568392924500087,"keywords":["alltalk","danepve","increased_maxplayers","norespawntime","payload","uncletopia"],"game_id":440,"stv_port":0,"stv_name":"","players":null},{"server_id":301,"name":"Uncletopia | Montréal | 2 | One Thousand Uncles","name_short":"mtl-2","host":"mtl-1.ca.uncletopia.com","port":27025,"enabled":true,"region":"us-east","cc":"ca","latitude":45.50889,"longitude":-73.56167,"reserved":0,"last_update":"0001-01-01T00:00:00Z","name_a2s":"Uncletopia | Montréal | 2 | One Thousand Uncles","protocol":17,"map":"pl_chilly","folder":"tf","game":"Team Fortress","app_id":440,"player_count":0,"max_players":32,"Bots":0,"server_type":"Dedicated","server_os":"Linux","password":true,"vac":true,"version":"7961495","steam_id":85568392924500088,"keywords":["alltalk","danepve","increased_maxplayers","norespawntime","payload","uncletopia"],"game_id":440,"stv_port":0,"stv_name":"","players":null},{"server_id":302,"name":"Uncletopia | Montréal | 3 | One Thousand Uncles","name_short":"mtl-3","host":"mtl-1.ca.uncletopia.com","port":27035,"enabled":true,"region":"us-east","cc":"ca","latitude":45.50889,"longitude":-73.56167,"reserved":0,"last_update":"0001-01-01T00:00:00Z","name_a2s":"Uncletopia | Montréal | 3 | One Thousand Uncles","protocol":17,"map":"cp_dustbowl","folder":"tf","game":"Team Fortress","app_id":440,"player_count":19,"max_players":32,"Bots":16,"server_type":"Dedicated","server_os":"Linux","password":true,"vac":true,"version":"7961495","steam_id":85568392924500089,"keywords":["alltalk","bots","cp","danepve","increased_maxplayers","norespawntime","uncletopia"],"game_id":440,"stv_port":0,"stv_name":"","players":[{"user_id":20,"name":"Kazuma Yagami_blw.tf","steam_id":76561199044812516,"connected_time":488000000000,"state":"active","ping":51},{"user_id":37,"name":"Sprinklingmydoughnut","steam_id":76561198168009092,"connected_time":381000000000,"state":"active","ping":60},{"user_id":54,"name":"Waaagh!","steam_id":76561197995317887,"connected_time":302000000000,"state":"active","ping":34}]},{"server_id":13,"name":"Uncletopia | New York City | 1 | All Maps","name_short":"nyc-1","host":"nyc-1.us.uncletopia.com","port":27015,"enabled":true,"region":"us-east","cc":"us","latitude":40.73061,"longitude":-73.93524,"reserved":0,"last_update":"0001-01-01T00:00:00Z","name_a2s":"Uncletopia | New York City | 1 | All Maps","protocol":17,"map":"koth_brazil","folder":"tf","game":"Team Fortress","app_id":440,"player_count":5,"max_players":24,"Bots":0,"server_type":"Dedicated","server_os":"Linux","password":true,"vac":true,"version":"7961495","steam_id":85568392924469993,"keywords":["cp","nocrits","nodmgspread","uncletopia"],"game_id":440,"stv_port":27016,"stv_name":"Uncletopia | New York City | 1 | All Maps | STV","players":[{"user_id":5,"name":"level 5 sentry","steam_id":76561199167176376,"connected_time":1410000000000,"state":"active","ping":68},{"user_id":6,"name":"the pest","steam_id":76561198826298849,"connected_time":1365000000000,"state":"active","ping":76},{"user_id":10,"name":"Ogre_Jr","steam_id":76561199002903424,"connected_time":212000000000,"state":"active","ping":95},{"user_id":11,"name":"abom","steam_id":76561198167974713,"connected_time":205000000000,"state":"active","ping":61},{"user_id":9,"name":"mush","steam_id":76561198117471415,"connected_time":532000000000,"state":"active","ping":63}]},{"server_id":14,"name":"Uncletopia | New York City | 2 | All Maps","name_short":"nyc-2","host":"nyc-1.us.uncletopia.com","port":27025,"enabled":true,"region":"us-east","cc":"us","latitude":40.73061,"longitude":-73.93524,"reserved":0,"last_update":"0001-01-01T00:00:00Z","name_a2s":"Uncletopia | New York City | 2 | All Maps","protocol":17,"map":"cp_granary","folder":"tf","game":"Team Fortress","app_id":440,"player_count":0,"max_players":24,"Bots":0,"server_type":"Dedicated","server_os":"Linux","password":true,"vac":true,"version":"7961495","steam_id":85568392924469994,"keywords":["cp","nocrits","nodmgspread","uncletopia"],"game_id":440,"stv_port":27026,"stv_name":"Uncletopia | New York City | 2 | All Maps | STV","players":null},{"server_id":15,"name":"Uncletopia | New York City | 3 | Stopwatch","name_short":"nyc-3","host":"nyc-1.us.uncletopia.com","port":27035,"enabled":true,"region":"us-east","cc":"us","latitude":40.73061,"longitude":-73.93524,"reserved":0,"last_update":"0001-01-01T00:00:00Z","name_a2s":"Uncletopia | New York City | 3 | Stopwatch","protocol":17,"map":"workshop/cp_reckoner_rc6.ugc674719999","folder":"tf","game":"Team Fortress","app_id":440,"player_count":0,"max_players":24,"Bots":0,"server_type":"Dedicated","server_os":"Linux","password":true,"vac":true,"version":"7961495","steam_id":85568392924742820,"keywords":["cp","nocrits","nodmgspread","uncletopia"],"game_id":440,"stv_port":27036,"stv_name":"Uncletopia | New York City | 3 | Stopwatch | STV","players":null},{"server_id":16,"name":"Uncletopia | New York City | 4 | Community","name_short":"nyc-4","host":"nyc-1.us.uncletopia.com","port":27045,"enabled":true,"region":"us-east","cc":"us","latitude":40.73061,"longitude":-73.93524,"reserved":0,"last_update":"0001-01-01T00:00:00Z","name_a2s":"Uncletopia | New York City | 4 | Community","protocol":17,"map":"workshop/cp_indulge.ugc528106646","folder":"tf","game":"Team Fortress","app_id":440,"player_count":0,"max_players":24,"Bots":0,"server_type":"Dedicated","server_os":"Linux","password":true,"vac":true,"version":"7961495","steam_id":85568392924742821,"keywords":["cp","nocrits","nodmgspread","uncletopia"],"game_id":440,"stv_port":27046,"stv_name":"Uncletopia | New York City | 4 | Community | STV","players":null},{"server_id":142,"name":"Uncletopia | São Paulo | 1 | All Maps","name_short":"sao-1","host":"sao-1.br.uncletopia.com","port":27015,"enabled":true,"region":"sa","cc":"br","latitude":-23.533773,"longitude":-46.62529,"reserved":0,"last_update":"0001-01-01T00:00:00Z","name_a2s":"Uncletopia | São Paulo | 1 | All Maps","protocol":17,"map":"cp_granary","folder":"tf","game":"Team Fortress","app_id":440,"player_count":0,"max_players":24,"Bots":0,"server_type":"Dedicated","server_os":"Linux","password":true,"vac":true,"version":"7961495","steam_id":85568392924469996,"keywords":["cp","nocrits","nodmgspread","uncletopia"],"game_id":440,"stv_port":27016,"stv_name":"Uncletopia | São Paulo | 1 | All Maps | STV","players":null},{"server_id":143,"name":"Uncletopia | São Paulo | 2 | Community","name_short":"sao-2","host":"sao-2.br.uncletopia.com","port":27015,"enabled":true,"region":"sa","cc":"br","latitude":-23.533773,"longitude":-46.62529,"reserved":0,"last_update":"0001-01-01T00:00:00Z","name_a2s":"Uncletopia | São Paulo | 2 | Community","protocol":17,"map":"workshop/cp_mannbase_rc2a.ugc1900737467","folder":"tf","game":"Team Fortress","app_id":440,"player_count":0,"max_players":24,"Bots":0,"server_type":"Dedicated","server_os":"Linux","password":true,"vac":true,"version":"7961495","steam_id":85568392924485349,"keywords":["cp","nocrits","nodmgspread","uncletopia"],"game_id":440,"stv_port":27016,"stv_name":"Uncletopia | São Paulo | 2 | Community | STV","players":null},{"server_id":7,"name":"Uncletopia | Seattle | 1 | All Maps","name_short":"sea-1","host":"sea-1.us.uncletopia.com","port":27015,"enabled":true,"region":"us-west","cc":"us","latitude":47.608013,"longitude":-122.33517,"reserved":0,"last_update":"0001-01-01T00:00:00Z","name_a2s":"Uncletopia | Seattle | 1 | All Maps","protocol":17,"map":"cp_gorge","folder":"tf","game":"Team Fortress","app_id":440,"player_count":12,"max_players":24,"Bots":0,"server_type":"Dedicated","server_os":"Linux","password":true,"vac":true,"version":"7961495","steam_id":85568392924469997,"keywords":["cp","nocrits","nodmgspread","uncletopia"],"game_id":440,"stv_port":27016,"stv_name":"Uncletopia | Seattle | 1 | All Maps | STV","players":[{"user_id":10,"name":"you just got dyked on","steam_id":76561198018977723,"connected_time":2441000000000,"state":"active","ping":45},{"user_id":11,"name":"deeeefers","steam_id":76561198082592496,"connected_time":2100000000000,"state":"active","ping":34},{"user_id":23,"name":"LazyPix3l","steam_id":76561198830323952,"connected_time":648000000000,"state":"active","ping":87},{"user_id":13,"name":"goofy goober","steam_id":76561199024079388,"connected_time":1807000000000,"state":"active","ping":42},{"user_id":15,"name":"filthycasual","steam_id":76561199138226238,"connected_time":1502000000000,"state":"active","ping":44},{"user_id":16,"name":"o o o o o o o o o","steam_id":76561197993757506,"connected_time":1498000000000,"state":"active","ping":61},{"user_id":17,"name":"goos  e","steam_id":76561198036774894,"connected_time":1315000000000,"state":"active","ping":54},{"user_id":19,"name":"SkobeBeef","steam_id":76561198078638948,"connected_time":1105000000000,"state":"active","ping":58},{"user_id":21,"name":"tmm (theManMan)","steam_id":76561199488457138,"connected_time":751000000000,"state":"active","ping":47},{"user_id":22,"name":"Mack","steam_id":76561198089361823,"connected_time":743000000000,"state":"active","ping":75},{"user_id":28,"name":"Panic Opossum","steam_id":76561198043838227,"connected_time":172000000000,"state":"active","ping":90},{"user_id":30,"name":"Sex Monster","steam_id":76561199426920744,"connected_time":86000000000,"state":"active","ping":261}]},{"server_id":119,"name":"Uncletopia | Seattle | 2 | All Maps","name_short":"sea-2","host":"sea-1.us.uncletopia.com","port":27025,"enabled":true,"region":"us-west","cc":"us","latitude":47.608013,"longitude":-122.33517,"reserved":0,"last_update":"0001-01-01T00:00:00Z","name_a2s":"Uncletopia | Seattle | 2 | All Maps","protocol":17,"map":"koth_lakeside_final","folder":"tf","game":"Team Fortress","app_id":440,"player_count":0,"max_players":24,"Bots":0,"server_type":"Dedicated","server_os":"Linux","password":true,"vac":true,"version":"7961495","steam_id":85568392924469998,"keywords":["cp","nocrits","nodmgspread","uncletopia"],"game_id":440,"stv_port":27026,"stv_name":"Uncletopia | Seattle | 2 | All Maps | STV","players":null},{"server_id":406,"name":"Uncletopia | Seattle | 3 | Stopwatch","name_short":"sea-3","host":"sea-1.us.uncletopia.com","port":27035,"enabled":true,"region":"us-west","cc":"us","latitude":47.608013,"longitude":-122.33517,"reserved":0,"last_update":"0001-01-01T00:00:00Z","name_a2s":"Uncletopia | Seattle | 3 | Stopwatch","protocol":17,"map":"workshop/pl_barnblitz_pro7.ugc582280235","folder":"tf","game":"Team Fortress","app_id":440,"player_count":0,"max_players":24,"Bots":0,"server_type":"Dedicated","server_os":"Linux","password":true,"vac":true,"version":"7961495","steam_id":85568392924515217,"keywords":["nocrits","nodmgspread","payload","uncletopia"],"game_id":440,"stv_port":27036,"stv_name":"Uncletopia | Seattle | 3 | Stopwatch | STV","players":null},{"server_id":17,"name":"Uncletopia | San Francisco | 1 | All Maps","name_short":"sfo-1","host":"sfo-1.us.uncletopia.com","port":27015,"enabled":true,"region":"us-west","cc":"us","latitude":37.77397,"longitude":-122.4313,"reserved":0,"last_update":"0001-01-01T00:00:00Z","name_a2s":"Uncletopia | San Francisco | 1 | All Maps","protocol":17,"map":"koth_highpass","folder":"tf","game":"Team Fortress","app_id":440,"player_count":0,"max_players":24,"Bots":0,"server_type":"Dedicated","server_os":"Linux","password":true,"vac":true,"version":"7961495","steam_id":85568392924469999,"keywords":["cp","nocrits","nodmgspread","uncletopia"],"game_id":440,"stv_port":27016,"stv_name":"Uncletopia | San Francisco | 1 | All Maps | STV","players":null},{"server_id":18,"name":"Uncletopia | San Francisco | 2 | All Maps","name_short":"sfo-2","host":"sfo-1.us.uncletopia.com","port":27025,"enabled":true,"region":"us-west","cc":"us","latitude":37.77397,"longitude":-122.4313,"reserved":0,"last_update":"0001-01-01T00:00:00Z","name_a2s":"Uncletopia | San Francisco | 2 | All Maps","protocol":17,"map":"cp_dustbowl","folder":"tf","game":"Team Fortress","app_id":440,"player_count":0,"max_players":24,"Bots":0,"server_type":"Dedicated","server_os":"Linux","password":true,"vac":true,"version":"7961495","steam_id":85568392924470000,"keywords":["cp","nocrits","nodmgspread","uncletopia"],"game_id":440,"stv_port":27026,"stv_name":"Uncletopia | San Francisco | 2 | All Maps | STV","players":null},{"server_id":19,"name":"Uncletopia | San Francisco | 3 | Stopwatch","name_short":"sfo-3","host":"sfo-1.us.uncletopia.com","port":27035,"enabled":true,"region":"us-west","cc":"us","latitude":37.77397,"longitude":-122.4313,"reserved":0,"last_update":"0001-01-01T00:00:00Z","name_a2s":"Uncletopia | San Francisco | 3 | Stopwatch","protocol":17,"map":"workshop/koth_product_final.ugc454272353","folder":"tf","game":"Team Fortress","app_id":440,"player_count":0,"max_players":24,"Bots":0,"server_type":"Dedicated","server_os":"Linux","password":true,"vac":true,"version":"7961495","steam_id":85568392924742824,"keywords":["cp","nocrits","nodmgspread","uncletopia"],"game_id":440,"stv_port":27036,"stv_name":"Uncletopia | San Francisco | 3 | Stopwatch | STV","players":null},{"server_id":20,"name":"Uncletopia | San Francisco | 4 | Community","name_short":"sfo-4","host":"sfo-1.us.uncletopia.com","port":27045,"enabled":true,"region":"us-west","cc":"us","latitude":37.77397,"longitude":-122.4313,"reserved":0,"last_update":"0001-01-01T00:00:00Z","name_a2s":"Uncletopia | San Francisco | 4 | Community","protocol":17,"map":"workshop/pl_cactuscanyon_redux_final2.ugc2579644293","folder":"tf","game":"Team Fortress","app_id":440,"player_count":0,"max_players":24,"Bots":0,"server_type":"Dedicated","server_os":"Linux","password":true,"vac":true,"version":"7961495","steam_id":85568392924742826,"keywords":["nocrits","nodmgspread","payload","uncletopia"],"game_id":440,"stv_port":27046,"stv_name":"Uncletopia | San Francisco | 4 | Community | STV","players":null},{"server_id":141,"name":"Uncletopia | Sydney | 1 | All Maps","name_short":"syd-1","host":"syd-1.au.uncletopia.com","port":27015,"enabled":true,"region":"au","cc":"au","latitude":-33.865143,"longitude":151.2099,"reserved":0,"last_update":"0001-01-01T00:00:00Z","name_a2s":"Uncletopia | Sydney | 1 | All Maps","protocol":17,"map":"ctf_turbine","folder":"tf","game":"Team Fortress","app_id":440,"player_count":0,"max_players":24,"Bots":0,"server_type":"Dedicated","server_os":"Linux","password":true,"vac":true,"version":"7961495","steam_id":85568392924470001,"keywords":["ctf","nocrits","nodmgspread","uncletopia"],"game_id":440,"stv_port":27016,"stv_name":"Uncletopia | Sydney | 1 | All Maps | STV","players":null},{"server_id":123,"name":"Uncletopia | Sydney | 2 | All Maps","name_short":"syd-2","host":"syd-1.au.uncletopia.com","port":27025,"enabled":true,"region":"au","cc":"au","latitude":-33.865143,"longitude":151.2099,"reserved":0,"last_update":"0001-01-01T00:00:00Z","name_a2s":"Uncletopia | Sydney | 2 | All Maps","protocol":17,"map":"pl_pier","folder":"tf","game":"Team Fortress","app_id":440,"player_count":0,"max_players":24,"Bots":0,"server_type":"Dedicated","server_os":"Linux","password":true,"vac":true,"version":"7961495","steam_id":85568392924470002,"keywords":["nocrits","nodmgspread","payload","uncletopia"],"game_id":440,"stv_port":27026,"stv_name":"Uncletopia | Sydney | 2 | All Maps | STV","players":null},{"server_id":395,"name":"Uncletopia | Sydney | 3 | All Maps","name_short":"syd-3","host":"syd-1.au.uncletopia.com","port":27035,"enabled":true,"region":"au","cc":"au","latitude":-33.865143,"longitude":151.2099,"reserved":0,"last_update":"0001-01-01T00:00:00Z","name_a2s":"Uncletopia | Sydney | 3 | All Maps","protocol":17,"map":"cp_metalworks","folder":"tf","game":"Team Fortress","app_id":440,"player_count":0,"max_players":24,"Bots":0,"server_type":"Dedicated","server_os":"Linux","password":true,"vac":true,"version":"7961495","steam_id":85568392925194467,"keywords":["cp","nocrits","nodmgspread","uncletopia"],"game_id":440,"stv_port":27036,"stv_name":"Uncletopia | Sydney | 3 | All Maps | STV","players":null},{"server_id":396,"name":"Uncletopia | Sydney | 4 | All Maps","name_short":"syd-4","host":"syd-1.au.uncletopia.com","port":27045,"enabled":true,"region":"au","cc":"au","latitude":-33.865143,"longitude":151.2099,"reserved":0,"last_update":"0001-01-01T00:00:00Z","name_a2s":"Uncletopia | Sydney | 4 | All Maps","protocol":17,"map":"koth_cascade","folder":"tf","game":"Team Fortress","app_id":440,"player_count":0,"max_players":24,"Bots":0,"server_type":"Dedicated","server_os":"Linux","password":true,"vac":true,"version":"7961495","steam_id":85568392925397958,"keywords":["cp","nocrits","nodmgspread","uncletopia"],"game_id":440,"stv_port":27046,"stv_name":"Uncletopia | Sydney | 4 | All Maps | STV","players":null},{"server_id":58,"name":"Uncletopia | Sydney | 5 | Stopwatch","name_short":"syd-5","host":"syd-1.au.uncletopia.com","port":27055,"enabled":true,"region":"au","cc":"au","latitude":-33.865143,"longitude":151.2099,"reserved":0,"last_update":"0001-01-01T00:00:00Z","name_a2s":"Uncletopia | Sydney | 5 | Stopwatch","protocol":17,"map":"cp_sunshine","folder":"tf","game":"Team Fortress","app_id":440,"player_count":0,"max_players":24,"Bots":0,"server_type":"Dedicated","server_os":"Linux","password":true,"vac":true,"version":"7961495","steam_id":85568392925397959,"keywords":["cp","nocrits","nodmgspread","uncletopia"],"game_id":440,"stv_port":27056,"stv_name":"Uncletopia | Sydney | 5 | Stopwatch | STV","players":null},{"server_id":59,"name":"Uncletopia | Sydney | 6 | Community","name_short":"syd-6","host":"syd-1.au.uncletopia.com","port":27065,"enabled":true,"region":"au","cc":"au","latitude":-33.865143,"longitude":151.2099,"reserved":0,"last_update":"0001-01-01T00:00:00Z","name_a2s":"Uncletopia | Sydney | 6 | Community","protocol":17,"map":"workshop/koth_trenchfoot_ab1.ugc731436616","folder":"tf","game":"Team Fortress","app_id":440,"player_count":0,"max_players":24,"Bots":0,"server_type":"Dedicated","server_os":"Linux","password":true,"vac":true,"version":"7961495","steam_id":85568392925397960,"keywords":["cp","nocrits","nodmgspread","uncletopia"],"game_id":440,"stv_port":27066,"stv_name":"Uncletopia | Sydney | 6 | Community | STV","players":null},{"server_id":49,"name":"Uncletopia | Warsaw | 1 | One Thousand Uncles","name_short":"waw-1","host":"waw-1.pl.uncletopia.com","port":27015,"enabled":true,"region":"eu","cc":"pl","latitude":52.2297,"longitude":21.017532,"reserved":0,"last_update":"0001-01-01T00:00:00Z","name_a2s":"Uncletopia | Warsaw | 1 | One Thousand Uncles","protocol":17,"map":"pl_badwater","folder":"tf","game":"Team Fortress","app_id":440,"player_count":29,"max_players":32,"Bots":16,"server_type":"Dedicated","server_os":"Linux","password":true,"vac":true,"version":"7961495","steam_id":85568392925397850,"keywords":["alltalk","bots","danepve","increased_maxplayers","norespawntime","payload","uncletopia"],"game_id":440,"stv_port":0,"stv_name":"","players":[{"user_id":436,"name":"Millennial on phone","steam_id":76561199083638722,"connected_time":1779000000000,"state":"active","ping":75},{"user_id":400,"name":"Dr_Foxy_scp_sl_PL","steam_id":76561199438046064,"connected_time":2667000000000,"state":"active","ping":72},{"user_id":446,"name":"bubcio","steam_id":76561199013416177,"connected_time":681000000000,"state":"active","ping":63},{"user_id":443,"name":"doublefong2003","steam_id":76561198115598638,"connected_time":939000000000,"state":"active","ping":220},{"user_id":445,"name":"Lucas096br","steam_id":76561198350760997,"connected_time":812000000000,"state":"active","ping":309},{"user_id":442,"name":"Dell \"Vermineer\" LaFontant","steam_id":76561198371872022,"connected_time":1058000000000,"state":"active","ping":143},{"user_id":385,"name":"Vecraubung","steam_id":76561198050018221,"connected_time":3486000000000,"state":"active","ping":30},{"user_id":439,"name":"A SODA FROM THE FRIDGE","steam_id":76561199393312258,"connected_time":1581000000000,"state":"active","ping":60},{"user_id":389,"name":"gamer (real)","steam_id":76561198106275451,"connected_time":3368000000000,"state":"active","ping":70},{"user_id":447,"name":"mıgos","steam_id":76561198219193327,"connected_time":513000000000,"state":"active","ping":94},{"user_id":452,"name":"WEEN | :0","steam_id":76561198073607799,"connected_time":62000000000,"state":"active","ping":89},{"user_id":453,"name":"Metagamermario","steam_id":76561199417190355,"connected_time":32000000000,"state":"active","ping":163},{"user_id":391,"name":"Blue Orange","steam_id":76561198154572884,"connected_time":3295000000000,"state":"active","ping":67}]},{"server_id":50,"name":"Uncletopia | Warsaw | 2 | One Thousand Uncles","name_short":"waw-2","host":"waw-1.pl.uncletopia.com","port":27025,"enabled":true,"region":"eu","cc":"pl","latitude":52.2297,"longitude":21.017532,"reserved":0,"last_update":"0001-01-01T00:00:00Z","name_a2s":"Uncletopia | Warsaw | 2 | One Thousand Uncles","protocol":17,"map":"cp_egypt_final","folder":"tf","game":"Team Fortress","app_id":440,"player_count":26,"max_players":32,"Bots":16,"server_type":"Dedicated","server_os":"Linux","password":true,"vac":true,"version":"7961495","steam_id":85568392925397851,"keywords":["alltalk","bots","cp","danepve","increased_maxplayers","norespawntime","uncletopia"],"game_id":440,"stv_port":0,"stv_name":"","players":[{"user_id":157,"name":"Loo32","steam_id":76561199094568704,"connected_time":341000000000,"state":"active","ping":66},{"user_id":128,"name":"Riky95","steam_id":76561198095289436,"connected_time":1703000000000,"state":"active","ping":60},{"user_id":146,"name":"LightBulbGlue #SaveTF2","steam_id":76561198329573529,"connected_time":1645000000000,"state":"active","ping":174},{"user_id":149,"name":"CH1NASKEE","steam_id":76561198021531683,"connected_time":1308000000000,"state":"active","ping":99},{"user_id":150,"name":"DAPATAMUCHTA","steam_id":76561197996803146,"connected_time":1290000000000,"state":"active","ping":98},{"user_id":151,"name":"farfarspace","steam_id":76561198161253565,"connected_time":1283000000000,"state":"active","ping":110},{"user_id":152,"name":"Megaxela","steam_id":76561198436875167,"connected_time":1122000000000,"state":"active","ping":99},{"user_id":154,"name":"Oreo Principle","steam_id":76561198063929217,"connected_time":695000000000,"state":"active","ping":46},{"user_id":155,"name":"ReeceU01","steam_id":76561198391922588,"connected_time":661000000000,"state":"active","ping":84},{"user_id":156,"name":"KTS Von","steam_id":76561198192008655,"connected_time":516000000000,"state":"active","ping":68}]},{"server_id":51,"name":"Uncletopia | Warsaw | 3 | All Maps","name_short":"waw-3","host":"waw-1.pl.uncletopia.com","port":27035,"enabled":true,"region":"eu","cc":"pl","latitude":52.2297,"longitude":21.017532,"reserved":0,"last_update":"0001-01-01T00:00:00Z","name_a2s":"Uncletopia | Warsaw | 3 | All Maps","protocol":17,"map":"pl_swiftwater_final1","folder":"tf","game":"Team Fortress","app_id":440,"player_count":0,"max_players":24,"Bots":0,"server_type":"Dedicated","server_os":"Linux","password":true,"vac":true,"version":"7961495","steam_id":85568392925397852,"keywords":["nocrits","nodmgspread","payload","uncletopia"],"game_id":440,"stv_port":27036,"stv_name":"Uncletopia | Warsaw | 3 | All Maps | STV","players":null},{"server_id":52,"name":"Uncletopia | Warsaw | 4 | All Maps","name_short":"waw-4","host":"waw-1.pl.uncletopia.com","port":27045,"enabled":true,"region":"eu","cc":"pl","latitude":52.2297,"longitude":21.017532,"reserved":0,"last_update":"0001-01-01T00:00:00Z","name_a2s":"Uncletopia | Warsaw | 4 | All Maps","protocol":17,"map":"koth_cascade","folder":"tf","game":"Team Fortress","app_id":440,"player_count":0,"max_players":24,"Bots":0,"server_type":"Dedicated","server_os":"Linux","password":true,"vac":true,"version":"7961495","steam_id":85568392925397853,"keywords":["cp","nocrits","nodmgspread","uncletopia"],"game_id":440,"stv_port":27046,"stv_name":"Uncletopia | Warsaw | 4 | All Maps | STV","players":null},{"server_id":53,"name":"Uncletopia | Warsaw | 5 | Stopwatch","name_short":"waw-5","host":"waw-1.pl.uncletopia.com","port":27055,"enabled":true,"region":"eu","cc":"pl","latitude":52.2297,"longitude":21.017532,"reserved":0,"last_update":"0001-01-01T00:00:00Z","name_a2s":"Uncletopia | Warsaw | 5 | Stopwatch","protocol":17,"map":"koth_highpass","folder":"tf","game":"Team Fortress","app_id":440,"player_count":0,"max_players":24,"Bots":0,"server_type":"Dedicated","server_os":"Linux","password":true,"vac":true,"version":"7961495","steam_id":85568392925397854,"keywords":["cp","nocrits","nodmgspread","uncletopia"],"game_id":440,"stv_port":27056,"stv_name":"Uncletopia | Warsaw | 5 | Stopwatch | STV","players":null},{"server_id":54,"name":"Uncletopia | Warsaw | 6 | Community","name_short":"waw-6","host":"waw-1.pl.uncletopia.com","port":27065,"enabled":true,"region":"eu","cc":"pl","latitude":52.2297,"longitude":21.017532,"reserved":0,"last_update":"0001-01-01T00:00:00Z","name_a2s":"Uncletopia | Warsaw | 6 | Community","protocol":17,"map":"workshop/pl_highwood_b13.ugc1769496557","folder":"tf","game":"Team Fortress","app_id":440,"player_count":0,"max_players":24,"Bots":0,"server_type":"Dedicated","server_os":"Linux","password":true,"vac":true,"version":"7961495","steam_id":85568392925397856,"keywords":["nocrits","nodmgspread","payload","uncletopia"],"game_id":440,"stv_port":27066,"stv_name":"Uncletopia | Warsaw | 6 | Community | STV","players":null}]}