{"status":true,"message":"","result":[{"server_id":9,"name":"Uncletopia | Atlanta | 1 | All Maps","name_short":"atl-1","host":"atl-1.us.uncletopia.com","port":27015,"enabled":true,"region":"us-east","cc":"us","latitude":33.753746,"longitude":-84.38633,"reserved":0,"last_update":"0001-01-01T00:00:00Z","name_a2s":"Uncletopia | Atlanta | 1 | All Maps","protocol":17,"map":"pl_upward","folder":"tf","game":"Team Fortress","app_id":440,"player_count":24,"max_players":24,"Bots":0,"server_type":"Dedicated","server_os":"Linux","password":true,"vac":true,"version":"7757534","steam_id":85568392924469982,"keywords":["nocrits","nodmgspread","payload","uncletopia"],"game_id":440,"stv_port":27016,"stv_name":"Uncletopia | Atlanta | 1 | All Maps | STV","players":[{"user_id":262,"name":"Karma","steam_id":76561198030565234,"connected_time":3098000000000,"state":"active","ping":77},{"user_id":276,"name":"Schaudenfreude","steam_id":76561197987805095,"connected_time":891000000000,"state":"active","ping":102},{"user_id":282,"name":"DJ Spit","steam_id":76561198186637025,"connected_time":123000000000,"state":"active","ping":88},{"user_id":254,"name":"Squanchy","steam_id":76561198036319676,"connected_time":3955000000000,"state":"active","ping":43},{"user_id":258,"name":"coolguy782","steam_id":76561198165212575,"connected_time":3353000000000,"state":"active","ping":65},{"user_id":283,"name":"DESPOMING","steam_id":76561198997380708,"connected_time":80000000000,"state":"active","ping":106},{"user_id":185,"name":"Thotimus Begonimus","steam_id":76561197970275938,"connected_time":12768000000000,"state":"active","ping":45},{"user_id":268,"name":"lu","steam_id":76561198080731872,"connected_time":2129000000000,"state":"active","ping":70},{"user_id":278,"name":"Trolldier 76","steam_id":76561198036504161,"connected_time":402000000000,"state":"active","ping":99},{"user_id":279,"name":"nemo","steam_id":76561198319990195,"connected_time":397000000000,"state":"active","ping":87},{"user_id":261,"name":"Bird","steam_id":76561198247484514,"connected_time":3131000000000,"state":"active","ping":68},{"user_id":270,"name":"eish","steam_id":76561198089463603,"connected_time":1474000000000,"state":"active","ping":119},{"user_id":225,"name":"Just PYE","steam_id":76561199439622967,"connected_time":6858000000000,"state":"active","ping":73},{"user_id":273,"name":"lil hog","steam_id":76561199230929836,"connected_time":917000000000,"state":"active","ping":73},{"user_id":239,"name":"Raptorria","steam_id":76561198105613110,"connected_time":5506000000000,"state":"active","ping":74},{"user_id":280,"name":"cheeks","steam_id":76561197993371179,"connected_time":219000000000,"state":"active","ping":43},{"user_id":277,"name":"[GUT] RiDiK®","steam_id":76561197969756446,"connected_time":551000000000,"state":"active","ping":72},{"user_id":271,"name":"Bali","steam_id":76561198038693845,"connected_time":951000000000,"state":"active","ping":87},{"user_id":281,"name":"fortnite.jimmy.2014","steam_id":76561199177672325,"connected_time":218000000000,"state":"active","ping":44},{"user_id":245,"name":"ATL1 | Pango","steam_id":76561198069811545,"connected_time":5076000000000,"state":"active","ping":36},{"user_id":272,"name":"Inky (Coolest)","steam_id":76561198968337022,"connected_time":943000000000,"state":"active","ping":56},{"user_id":229,"name":"butterbutt!","steam_id":76561198038160740,"connected_time":6799000000000,"state":"active","ping":53},{"user_id":264,"name":"ATL1 | Bandi","steam_id":76561198432036026,"connected_time":2873000000000,"state":"active","ping":55},{"user_id":274,"name":"yvko","steam_id":76561198165724991,"connected_time":916000000000,"state":"active","ping":60}]},{"server_id":400,"name":"Uncletopia | Atlanta | 3 | Community","name_short":"atl-3","host":"atl-1.us.uncletopia.com","port":27035,"enabled":true,"region":"us-east","cc":"us","latitude":33.753746,"longitude":-84.38633,"reserved":0,"last_update":"0001-01-01T00:00:00Z","name_a2s":"Uncletopia | Atlanta | 3 | Community","protocol":17,"map":"workshop/cp_caldera_rc2.ugc2834196889","folder":"tf","game":"Team Fortress","app_id":440,"player_count":0,"max_players":24,"Bots":0,"server_type":"Dedicated","server_os":"Linux","password":true,"vac":true,"version":"7757534","steam_id":85568392924515187,"keywords":["cp","nocrits","nodmgspread","uncletopia"],"game_id":440,"stv_port":27036,"stv_name":"Uncletopia | Atlanta | 3 | Community | STV","players":null},{"server_id":401,"name":"Uncletopia | Atlanta | 4 | No Payload","name_short":"atl-4","host":"atl-1.us.uncletopia.com","port":27045,"enabled":true,"region":"us-east","cc":"us","latitude":33.753746,"longitude":-84.38633,"reserved":0,"last_update":"0001-01-01T00:00:00Z","name_a2s":"","protocol":0,"map":"","folder":"","game":"","app_id":0,"player_count":0,"max_players":0,"Bots":0,"server_type":"","server_os":"","password":false,"vac":false,"version":"","steam_id":0,"keywords":null,"game_id":0,"stv_port":0,"stv_name":"","players":null},{"server_id":2,"name":"Uncletopia | Chicago | 1 | All Maps","name_short":"chi-1","host":"chi-1.us.uncletopia.com","port":27015,"enabled":true,"region":"us-central","cc":"us","latitude":41.881832,"longitude":-87.62318,"reserved":0,"last_update":"0001-01-01T00:00:00Z","name_a2s":"Uncletopia | Chicago | 1 | All Maps","protocol":17,"map":"pl_pier","folder":"tf","game":"Team Fortress","app_id":440,"player_count":24,"max_players":24,"Bots":0,"server_type":"Dedicated","server_os":"Linux","password":true,"vac":true,"version":"7757534","steam_id":85568392924469984,"keywords":["nocrits","nodmgspread","payload","uncletopia"],"game_id":440,"stv_port":27016,"stv_name":"Uncletopia | Chicago | 1 | All Maps | STV","players":[{"user_id":466,"name":"Krampus","steam_id":76561198137530703,"connected_time":652000000000,"state":"active","ping":71},{"user_id":440,"name":"spooky kabuki","steam_id":76561198030361635,"connected_time":2561000000000,"state":"active","ping":46},{"user_id":439,"name":"snail","steam_id":76561198312155722,"connected_time":2576000000000,"state":"active","ping":229},{"user_id":445,"name":"Dumbass Gamer","steam_id":76561199067431485,"connected_time":2397000000000,"state":"active","ping":84},{"user_id":444,"name":"Flaming O'Gaming","steam_id":76561198044185725,"connected_time":2471000000000,"state":"active","ping":73},{"user_id":446,"name":"MayoMateo","steam_id":76561198360809933,"connected_time":2340000000000,"state":"active","ping":93},{"user_id":467,"name":"awesome","steam_id":76561198248656836,"connected_time":424000000000,"state":"active","ping":87},{"user_id":437,"name":"dangergirl99","steam_id":76561198121651564,"connected_time":2739000000000,"state":"active","ping":58},{"user_id":417,"name":"48","steam_id":76561198156422760,"connected_time":4234000000000,"state":"active","ping":61},{"user_id":463,"name":"deepmeta","steam_id":76561199053600691,"connected_time":784000000000,"state":"active","ping":51},{"user_id":450,"name":"threethree","steam_id":76561198177354155,"connected_time":1510000000000,"state":"active","ping":45},{"user_id":471,"name":"TallBit","steam_id":76561199059748976,"connected_time":46000000000,"state":"active","ping":81},{"user_id":408,"name":"veryscaryreaper","steam_id":76561198380018244,"connected_time":5001000000000,"state":"active","ping":75},{"user_id":468,"name":"hoot.","steam_id":76561198066876703,"connected_time":183000000000,"state":"active","ping":53},{"user_id":341,"name":"object permanence","steam_id":76561198050393061,"connected_time":10134000000000,"state":"active","ping":74},{"user_id":464,"name":"iamoctopii","steam_id":76561198876901076,"connected_time":768000000000,"state":"active","ping":131},{"user_id":465,"name":"Nephs","steam_id":76561198136763403,"connected_time":756000000000,"state":"active","ping":83},{"user_id":422,"name":"Onymy.","steam_id":76561198171048015,"connected_time":3670000000000,"state":"active","ping":67},{"user_id":452,"name":"vv","steam_id":76561198134813102,"connected_time":1465000000000,"state":"active","ping":60},{"user_id":456,"name":"blob","steam_id":76561198122375328,"connected_time":899000000000,"state":"active","ping":65},{"user_id":457,"name":"hi","steam_id":76561198809577048,"connected_time":899000000000,"state":"active","ping":104},{"user_id":443,"name":"tim-","steam_id":76561199119101315,"connected_time":2517000000000,"state":"active","ping":74},{"user_id":427,"name":"kaleb","steam_id":76561198997126286,"connected_time":3232000000000,"state":"active","ping":83},{"user_id":449,"name":"Dug","steam_id":76561198017691029,"connected_time":1558000000000,"state":"active","ping":55}]},{"server_id":106,"name":"Uncletopia | Chicago | 2 | All Maps","name_short":"chi-2","host":"chi-1.us.uncletopia.com","port":27025,"enabled":true,"region":"us-central","cc":"us","latitude":41.881832,"longitude":-87.62318,"reserved":0,"last_update":"0001-01-01T00:00:00Z","name_a2s":"Uncletopia | Chicago | 2 | All Maps","protocol":17,"map":"pl_badwater","folder":"tf","game":"Team Fortress","app_id":440,"player_count":24,"max_players":24,"Bots":0,"server_type":"Dedicated","server_os":"Linux","password":true,"vac":true,"version":"7757534","steam_id":85568392924469985,"keywords":["nocrits","nodmgspread","payload","uncletopia"],"game_id":440,"stv_port":27026,"stv_name":"Uncletopia | Chicago | 2 | All Maps | STV","players":[{"user_id":424,"name":"gorf?","steam_id":76561198142286417,"connected_time":1124000000000,"state":"spawning","ping":63},{"user_id":405,"name":"gonk","steam_id":76561198061206732,"connected_time":2174000000000,"state":"spawning","ping":313},{"user_id":344,"name":"WaylonPK","steam_id":76561198094429949,"connected_time":5633000000000,"state":"spawning","ping":89},{"user_id":414,"name":"suns","steam_id":76561198079583278,"connected_time":1702000000000,"state":"spawning","ping":256},{"user_id":380,"name":"Bradz","steam_id":76561198175090085,"connected_time":3338000000000,"state":"spawning","ping":112},{"user_id":436,"name":"xiii","steam_id":76561198079416036,"connected_time":8000000000,"state":"spawning","ping":48},{"user_id":412,"name":"Hindmost","steam_id":76561199081837220,"connected_time":1869000000000,"state":"spawning","ping":63},{"user_id":413,"name":"GenericMaleGamer","steam_id":76561198257271858,"connected_time":1754000000000,"state":"spawning","ping":96},{"user_id":422,"name":"Jaydyn","steam_id":76561198140326797,"connected_time":1219000000000,"state":"spawning","ping":67},{"user_id":423,"name":"Manly Emerald","steam_id":76561198245838476,"connected_time":1207000000000,"state":"spawning","ping":52},{"user_id":428,"name":"Sturdy Primate","steam_id":76561198057954897,"connected_time":865000000000,"state":"spawning","ping":77},{"user_id":433,"name":"Sex on the peach","steam_id":76561198002353326,"connected_time":216000000000,"state":"spawning","ping":81},{"user_id":426,"name":"wunkem","steam_id":76561198055948497,"connected_time":1080000000000,"state":"spawning","ping":33},{"user_id":416,"name":"stbb","steam_id":76561198173047169,"connected_time":1700000000000,"state":"spawning","ping":253},{"user_id":431,"name":"Dispenser (Twan)","steam_id":76561197991064908,"connected_time":346000000000,"state":"spawning","ping":164},{"user_id":421,"name":"wake up","steam_id":76561198072179483,"connected_time":1227000000000,"state":"spawning","ping":90},{"user_id":321,"name":"Jeffy Epstein","steam_id":76561198053832401,"connected_time":6994000000000,"state":"spawning","ping":111},{"user_id":430,"name":"chaffy","steam_id":76561198021754567,"connected_time":788000000000,"state":"spawning","ping":59},{"user_id":437,"name":"Team Fortress 2","steam_id":76561198330697854,"connected_time":2000000000,"state":"spawning","ping":209},{"user_id":429,"name":"YellowShade","steam_id":76561198200828527,"connected_time":865000000000,"state":"spawning","ping":74},{"user_id":417,"name":"LG_Fridge_User","steam_id":76561198977815014,"connected_time":1685000000000,"state":"spawning","ping":79},{"user_id":410,"name":"girlboss","steam_id":76561197989019617,"connected_time":1945000000000,"state":"spawning","ping":49},{"user_id":435,"name":"xkcd.hoverboard","steam_id":76561199079595193,"connected_time":34000000000,"state":"spawning","ping":92},{"user_id":362,"name":"uhooter","steam_id":76561198007829078,"connected_time":4407000000000,"state":"spawning","ping":49}]},{"server_id":402,"name":"Uncletopia | Chicago | 3 | All Maps","name_short":"chi-3","host":"chi-1.us.uncletopia.com","port":27035,"enabled":true,"region":"us-central","cc":"us","latitude":41.881832,"longitude":-87.62318,"reserved":0,"last_update":"0001-01-01T00:00:00Z","name_a2s":"Uncletopia | Chicago | 3 | All Maps","protocol":17,"map":"cp_steel","folder":"tf","game":"Team Fortress","app_id":440,"player_count":23,"max_players":24,"Bots":0,"server_type":"Dedicated","server_os":"Linux","password":true,"vac":true,"version":"7757534","steam_id":85568392924515191,"keywords":["cp","nocrits","nodmgspread","uncletopia"],"game_id":440,"stv_port":27036,"stv_name":"Uncletopia | Chicago | 3 | All Maps | STV","players":[{"user_id":334,"name":"Bird watcher #savetf2","steam_id":76561199201098634,"connected_time":968000000000,"state":"active","ping":57},{"user_id":289,"name":"Wahooka","steam_id":76561197962240925,"connected_time":4600000000000,"state":"active","ping":57},{"user_id":211,"name":"Dot.","steam_id":76561198149463984,"connected_time":9655000000000,"state":"active","ping":52},{"user_id":336,"name":"Sir Just a Sandwich","steam_id":76561198091105717,"connected_time":942000000000,"state":"active","ping":56},{"user_id":311,"name":"游戏通用方案","steam_id":76561198273974075,"connected_time":3018000000000,"state":"active","ping":81},{"user_id":312,"name":"Translucent","steam_id":76561199212057076,"connected_time":3000000000000,"state":"active","ping":95},{"user_id":344,"name":"TheSmolPopato","steam_id":76561199076606348,"connected_time":826000000000,"state":"active","ping":59},{"user_id":304,"name":"Snorty","steam_id":76561198114304454,"connected_time":3494000000000,"state":"active","ping":80},{"user_id":313,"name":"ARBITER","steam_id":76561198880749113,"connected_time":2986000000000,"state":"active","ping":50},{"user_id":321,"name":"MinusSoup918","steam_id":76561198060902773,"connected_time":2519000000000,"state":"active","ping":121},{"user_id":347,"name":"Ping Pong Dingus","steam_id":76561198072502345,"connected_time":561000000000,"state":"active","ping":100},{"user_id":326,"name":"Nebe0","steam_id":76561199133770186,"connected_time":1240000000000,"state":"active","ping":73},{"user_id":261,"name":"sax","steam_id":76561198094788852,"connected_time":6623000000000,"state":"active","ping":46},{"user_id":345,"name":"AGagagaga","steam_id":76561199008585183,"connected_time":811000000000,"state":"active","ping":77},{"user_id":337,"name":"Open_Canopy","steam_id":76561198377958490,"connected_time":937000000000,"state":"active","ping":82},{"user_id":348,"name":"Lunar_Side","steam_id":76561199117581213,"connected_time":58000000000,"state":"active","ping":84},{"user_id":346,"name":"kab789","steam_id":76561198069842202,"connected_time":739000000000,"state":"active","ping":62},{"user_id":317,"name":"Lean(Mean)machine","steam_id":76561198087571586,"connected_time":2902000000000,"state":"active","ping":53},{"user_id":338,"name":"Fire Axe","steam_id":76561198280241812,"connected_time":930000000000,"state":"active","ping":80},{"user_id":328,"name":"TimeCalm","steam_id":76561197991345488,"connected_time":1227000000000,"state":"active","ping":82},{"user_id":342,"name":"PoisonIvy","steam_id":76561198072384574,"connected_time":862000000000,"state":"active","ping":56},{"user_id":340,"name":"OLDCONTEMPTABLE","steam_id":76561198057305702,"connected_time":915000000000,"state":"active","ping":81},{"user_id":343,"name":"coldluvr69","steam_id":76561198068712028,"connected_time":861000000000,"state":"active","ping":68}]},{"server_id":403,"name":"Uncletopia | Chicago | 4 | All Maps","name_short":"chi-4","host":"chi-1.us.uncletopia.com","port":27045,"enabled":true,"region":"us-central","cc":"us","latitude":41.881832,"longitude":-87.62318,"reserved":0,"last_update":"0001-01-01T00:00:00Z","name_a2s":"Uncletopia | Chicago | 4 | All Maps","protocol":17,"map":"pl_upward","folder":"tf","game":"Team Fortress","app_id":440,"player_count":24,"max_players":24,"Bots":0,"server_type":"Dedicated","server_os":"Linux","password":true,"vac":true,"version":"7757534","steam_id":85568392924515193,"keywords":["nocrits","nodmgspread","payload","uncletopia"],"game_id":440,"stv_port":27046,"stv_name":"Uncletopia | Chicago | 4 | All Maps | STV","players":[{"user_id":208,"name":"King Bingle the Kringle Bopper","steam_id":76561198212917080,"connected_time":1953000000000,"state":"active","ping":77},{"user_id":210,"name":"TheFoolOnTheHill","steam_id":76561198088140076,"connected_time":1880000000000,"state":"active","ping":72},{"user_id":211,"name":"Lebron Frames","steam_id":76561198045073194,"connected_time":1879000000000,"state":"active","ping":76},{"user_id":212,"name":"What's An Airport?","steam_id":76561198271111886,"connected_time":1876000000000,"state":"active","ping":68},{"user_id":213,"name":"Monkery Man","steam_id":76561199083374021,"connected_time":1859000000000,"state":"active","ping":65},{"user_id":243,"name":"j020","steam_id":76561198243358410,"connected_time":388000000000,"state":"active","ping":76},{"user_id":203,"name":"Potassium_","steam_id":76561199085021046,"connected_time":2464000000000,"state":"active","ping":74},{"user_id":215,"name":"Sweaty Goat Milf","steam_id":76561198337614367,"connected_time":1792000000000,"state":"active","ping":58},{"user_id":216,"name":"Conrad Murray","steam_id":76561198141682876,"connected_time":1675000000000,"state":"active","ping":80},{"user_id":218,"name":"blossom","steam_id":76561198211308328,"connected_time":1530000000000,"state":"active","ping":62},{"user_id":219,"name":"saturn","steam_id":76561197962607364,"connected_time":1525000000000,"state":"active","ping":74},{"user_id":241,"name":"grimp gromp","steam_id":76561199267535506,"connected_time":882000000000,"state":"active","ping":70},{"user_id":221,"name":"pony girl swag","steam_id":76561198299290069,"connected_time":1489000000000,"state":"active","ping":78},{"user_id":238,"name":"Rin \"Hindwing\" Redtail","steam_id":76561199074865638,"connected_time":1096000000000,"state":"active","ping":73},{"user_id":224,"name":"Bon Gripper","steam_id":76561198090074621,"connected_time":1428000000000,"state":"active","ping":60},{"user_id":235,"name":"Atlas","steam_id":76561198127975050,"connected_time":1233000000000,"state":"active","ping":64},{"user_id":242,"name":"voidpuppy","steam_id":76561198799922000,"connected_time":441000000000,"state":"active","ping":92},{"user_id":244,"name":"porz","steam_id":76561198195711453,"connected_time":346000000000,"state":"active","ping":60},{"user_id":228,"name":"MiniGame","steam_id":76561198093477052,"connected_time":1331000000000,"state":"active","ping":160},{"user_id":230,"name":"Grill","steam_id":76561198839356215,"connected_time":1306000000000,"state":"active","ping":93},{"user_id":245,"name":"⎝⧹polar_bear⧸⎠","steam_id":76561198409154467,"connected_time":338000000000,"state":"active","ping":200},{"user_id":232,"name":"023e20902o0239ee02390o239e","steam_id":76561198175741741,"connected_time":1296000000000,"state":"active","ping":77},{"user_id":239,"name":"Satan-2","steam_id":76561199231742764,"connected_time":997000000000,"state":"active","ping":75},{"user_id":246,"name":"k3ramb1t","steam_id":76561198097880352,"connected_time":263000000000,"state":"active","ping":76}]},{"server_id":36,"name":"Uncletopia | Chicago | 5 | All Maps","name_short":"chi-5","host":"chi-2.us.uncletopia.com","port":27015,"enabled":true,"region":"us-central","cc":"us","latitude":41.881832,"longitude":-87.62318,"reserved":0,"last_update":"0001-01-01T00:00:00Z","name_a2s":"Uncletopia | Chicago | 5 | All Maps","protocol":17,"map":"koth_viaduct","folder":"tf","game":"Team Fortress","app_id":440,"player_count":24,"max_players":24,"Bots":0,"server_type":"Dedicated","server_os":"Linux","password":true,"vac":true,"version":"7757534","steam_id":85568392924866362,"keywords":["cp","nocrits","nodmgspread","uncletopia"],"game_id":440,"stv_port":27016,"stv_name":"Uncletopia | Chicago | 5 | All Maps | STV","players":[{"user_id":211,"name":"single mother of 24/24 cp_dustb","steam_id":76561198034096805,"connected_time":277000000000,"state":"active","ping":75},{"user_id":186,"name":"Elizabeth truss","steam_id":76561198058250979,"connected_time":1870000000000,"state":"active","ping":69},{"user_id":165,"name":"Inevitable","steam_id":76561198210050169,"connected_time":2693000000000,"state":"active","ping":72},{"user_id":212,"name":"Doc{MDW}","steam_id":76561198075049640,"connected_time":270000000000,"state":"active","ping":90},{"user_id":167,"name":"Zububu","steam_id":76561198024293060,"connected_time":2680000000000,"state":"active","ping":75},{"user_id":199,"name":"[TF2Apples] Intense Green Apple","steam_id":76561198803561622,"connected_time":1386000000000,"state":"active","ping":86},{"user_id":176,"name":"Humble Leader","steam_id":76561198169966346,"connected_time":2247000000000,"state":"active","ping":81},{"user_id":213,"name":"a narwhal","steam_id":76561198014527353,"connected_time":264000000000,"state":"active","ping":81},{"user_id":190,"name":"piebluedog","steam_id":76561198141362745,"connected_time":1793000000000,"state":"active","ping":76},{"user_id":214,"name":"RectalExam","steam_id":76561197970502312,"connected_time":261000000000,"state":"active","ping":82},{"user_id":172,"name":"brian cancer","steam_id":76561198992069646,"connected_time":2350000000000,"state":"active","ping":54},{"user_id":215,"name":"staticc","steam_id":76561198330715708,"connected_time":238000000000,"state":"active","ping":91},{"user_id":202,"name":"flappyflap2","steam_id":76561198285048973,"connected_time":1069000000000,"state":"active","ping":60},{"user_id":210,"name":"Geloman","steam_id":76561198005501322,"connected_time":370000000000,"state":"active","ping":70},{"user_id":178,"name":"alolan duntski","steam_id":76561198038826744,"connected_time":2238000000000,"state":"active","ping":50},{"user_id":217,"name":"Jitters","steam_id":76561198078898336,"connected_time":96000000000,"state":"active","ping":45},{"user_id":218,"name":"psychic","steam_id":76561198136301926,"connected_time":70000000000,"state":"active","ping":88},{"user_id":181,"name":"bugbread*","steam_id":76561198082480100,"connected_time":2097000000000,"state":"active","ping":59},{"user_id":208,"name":"Speedy","steam_id":76561198080761661,"connected_time":746000000000,"state":"active","ping":84},{"user_id":147,"name":"Ringo x Seiran","steam_id":76561198357437908,"connected_time":3733000000000,"state":"active","ping":63},{"user_id":182,"name":"custodian","steam_id":76561198058793778,"connected_time":2083000000000,"state":"active","ping":68},{"user_id":196,"name":"who is gavin?","steam_id":76561198069415057,"connected_time":1683000000000,"state":"active","ping":60},{"user_id":183,"name":"Carson","steam_id":76561198076771071,"connected_time":2072000000000,"state":"active","ping":48},{"user_id":184,"name":"kiwiichie ₍ᐢᐢ₎","steam_id":76561198315449521,"connected_time":2070000000000,"state":"active","ping":95}]},{"server_id":37,"name":"Uncletopia | Chicago | 6 | All Maps","name_short":"chi-6","host":"chi-2.us.uncletopia.com","port":27025,"enabled":true,"region":"us-central","cc":"us","latitude":41.881832,"longitude":-87.62318,"reserved":0,"last_update":"0001-01-01T00:00:00Z","name_a2s":"Uncletopia | Chicago | 6 | All Maps","protocol":17,"map":"pl_barnblitz","folder":"tf","game":"Team Fortress","app_id":440,"player_count":24,"max_players":24,"Bots":0,"server_type":"Dedicated","server_os":"Linux","password":true,"vac":true,"version":"7757534","steam_id":85568392924866363,"keywords":["nocrits","nodmgspread","payload","uncletopia"],"game_id":440,"stv_port":27026,"stv_name":"Uncletopia | Chicago | 6 | All Maps | STV","players":[{"user_id":332,"name":"Discourse","steam_id":76561198984286678,"connected_time":1221000000000,"state":"active","ping":56},{"user_id":268,"name":"Weshmek","steam_id":76561198009950743,"connected_time":5608000000000,"state":"active","ping":59},{"user_id":308,"name":"calube","steam_id":76561198029350858,"connected_time":3953000000000,"state":"active","ping":93},{"user_id":168,"name":"Lv. 5 Grunt","steam_id":76561198800334545,"connected_time":12072000000000,"state":"active","ping":105},{"user_id":333,"name":"DerpyTC","steam_id":76561198881239323,"connected_time":1158000000000,"state":"active","ping":60},{"user_id":345,"name":"cyclops","steam_id":76561197970370198,"connected_time":908000000000,"state":"active","ping":61},{"user_id":334,"name":"Rhutebeer","steam_id":76561198018302761,"connected_time":1125000000000,"state":"active","ping":102},{"user_id":349,"name":"BigOrca54","steam_id":76561198181360271,"connected_time":697000000000,"state":"active","ping":58},{"user_id":347,"name":"-W3E- grim10465","steam_id":76561198045698581,"connected_time":867000000000,"state":"active","ping":56},{"user_id":328,"name":"NoahSherlock(wln.tf)","steam_id":76561199015641953,"connected_time":2051000000000,"state":"active","ping":143},{"user_id":297,"name":"shokolad","steam_id":76561198431770137,"connected_time":4720000000000,"state":"active","ping":67},{"user_id":351,"name":"One Shot and A Miss","steam_id":76561198124269698,"connected_time":176000000000,"state":"active","ping":67},{"user_id":299,"name":"qiulongtao","steam_id":76561198977558717,"connected_time":4700000000000,"state":"active","ping":71},{"user_id":331,"name":"otter","steam_id":76561198217769961,"connected_time":1732000000000,"state":"active","ping":60},{"user_id":341,"name":"Dave The Sloth","steam_id":76561199135831355,"connected_time":1029000000000,"state":"active","ping":163},{"user_id":348,"name":"Antifa Alligator","steam_id":76561197988170816,"connected_time":855000000000,"state":"active","ping":64},{"user_id":307,"name":"ali oop","steam_id":76561198057516213,"connected_time":4182000000000,"state":"active","ping":273},{"user_id":342,"name":"we up","steam_id":76561198119826352,"connected_time":1021000000000,"state":"active","ping":75},{"user_id":322,"name":"Rick Assley","steam_id":76561198365019199,"connected_time":2747000000000,"state":"active","ping":64},{"user_id":350,"name":"Adam (Cursed Confetti Creature)","steam_id":76561198317690197,"connected_time":434000000000,"state":"active","ping":47},{"user_id":343,"name":"FTN | Shakaman","steam_id":76561198039829758,"connected_time":1019000000000,"state":"active","ping":75},{"user_id":320,"name":"The Sydney Sleeper Itself","steam_id":76561198180251763,"connected_time":2855000000000,"state":"active","ping":73},{"user_id":344,"name":"dairy","steam_id":76561198117033273,"connected_time":1016000000000,"state":"active","ping":140},{"user_id":321,"name":"Xruffel :3 (gay)","steam_id":76561198067697879,"connected_time":2837000000000,"state":"active","ping":69}]},{"server_id":38,"name":"Uncletopia | Chicago | 7 | Stopwatch Beta","name_short":"chi-7","host":"chi-2.us.uncletopia.com","port":27035,"enabled":true,"region":"us-central","cc":"us","latitude":41.881832,"longitude":-87.62318,"reserved":0,"last_update":"0001-01-01T00:00:00Z","name_a2s":"Uncletopia | Chicago | 7 | Stopwatch Beta","protocol":17,"map":"workshop/koth_product_final.ugc454272353","folder":"tf","game":"Team Fortress","app_id":440,"player_count":0,"max_players":24,"Bots":0,"server_type":"Dedicated","server_os":"Linux","password":true,"vac":true,"version":"7757534","steam_id":85568392924866364,"keywords":["cp","nocrits","nodmgspread","uncletopia"],"game_id":440,"stv_port":27036,"stv_name":"Uncletopia | Chicago | 7 | Stopwatch Beta | STV","players":null},{"server_id":39,"name":"Uncletopia | Chicago | 8 | Community","name_short":"chi-8","host":"chi-2.us.uncletopia.com","port":27045,"enabled":true,"region":"us-central","cc":"us","latitude":41.881832,"longitude":-87.62318,"reserved":0,"last_update":"0001-01-01T00:00:00Z","name_a2s":"Uncletopia | Chicago | 8 | Community","protocol":17,"map":"koth_lakeside_final","folder":"tf","game":"Team Fortress","app_id":440,"player_count":2,"max_players":24,"Bots":0,"server_type":"Dedicated","server_os":"Linux","password":true,"vac":true,"version":"7757534","steam_id":85568392924866365,"keywords":["cp","nocrits","nodmgspread","uncletopia"],"game_id":440,"stv_port":27046,"stv_name":"Uncletopia | Chicago | 8 | Community | STV","players":[{"user_id":17,"name":"DamerDoozle","steam_id":76561199121686201,"connected_time":367000000000,"state":"active","ping":63},{"user_id":18,"name":"ShadowNinJake","steam_id":76561198980799221,"connected_time":339000000000,"state":"active","ping":55}]},{"server_id":8,"name":"Uncletopia | Dallas | 1 | All Maps","name_short":"dal-1","host":"dal-1.us.uncletopia.com","port":27015,"enabled":true,"region":"us-central","cc":"us","latitude":32.779167,"longitude":-96.80889,"reserved":0,"last_update":"0001-01-01T00:00:00Z","name_a2s":"Uncletopia | Dallas | 1 | All Maps","protocol":17,"map":"pl_borneo","folder":"tf","game":"Team Fortress","app_id":440,"player_count":24,"max_players":24,"Bots":0,"server_type":"Dedicated","server_os":"Linux","password":true,"vac":true,"version":"7757534","steam_id":85568392924469986,"keywords":["nocrits","nodmgspread","payload","uncletopia"],"game_id":440,"stv_port":27016,"stv_name":"Uncletopia | Dallas | 1 | All Maps | STV","players":[{"user_id":270,"name":"Superman123389","steam_id":76561198267472539,"connected_time":2028000000000,"state":"active","ping":104},{"user_id":259,"name":"Vegemate","steam_id":76561199088297770,"connected_time":2638000000000,"state":"active","ping":55},{"user_id":290,"name":"Dat Dere Kirby","steam_id":76561198084054568,"connected_time":749000000000,"state":"active","ping":94},{"user_id":294,"name":"Hunter","steam_id":76561199295283258,"connected_time":531000000000,"state":"active","ping":92},{"user_id":301,"name":"jturner1nm","steam_id":76561198344493652,"connected_time":194000000000,"state":"active","ping":94},{"user_id":295,"name":"evan_is_sauce","steam_id":76561199086802383,"connected_time":505000000000,"state":"active","ping":71},{"user_id":302,"name":"ParvekeFilosofi","steam_id":76561198203140640,"connected_time":174000000000,"state":"active","ping":159},{"user_id":206,"name":"bolainassr0","steam_id":76561199079078845,"connected_time":5785000000000,"state":"active","ping":104},{"user_id":240,"name":"derdds","steam_id":76561198034339940,"connected_time":3018000000000,"state":"active","ping":83},{"user_id":291,"name":"DarthRevan","steam_id":76561198164492361,"connected_time":717000000000,"state":"active","ping":86},{"user_id":299,"name":"puke","steam_id":76561197999279693,"connected_time":353000000000,"state":"active","ping":67},{"user_id":280,"name":"Arrluk","steam_id":76561198396679452,"connected_time":1448000000000,"state":"active","ping":74},{"user_id":289,"name":"GregGaming098","steam_id":76561198882415360,"connected_time":926000000000,"state":"active","ping":115},{"user_id":296,"name":"Romo","steam_id":76561198243101572,"connected_time":485000000000,"state":"active","ping":82},{"user_id":293,"name":"GLG.Liz","steam_id":76561198021957956,"connected_time":616000000000,"state":"active","ping":46},{"user_id":251,"name":"kolesov.id","steam_id":76561198871074902,"connected_time":2855000000000,"state":"active","ping":91},{"user_id":237,"name":"DiabetesMan","steam_id":76561198075668940,"connected_time":3052000000000,"state":"active","ping":86},{"user_id":303,"name":"An honest handgunner","steam_id":76561198288458595,"connected_time":171000000000,"state":"active","ping":81},{"user_id":268,"name":"drdoofus123","steam_id":76561198016826181,"connected_time":2042000000000,"state":"active","ping":75},{"user_id":278,"name":"dad vibes","steam_id":76561197990714447,"connected_time":1656000000000,"state":"active","ping":60},{"user_id":243,"name":"DoomoPelota","steam_id":76561198326462587,"connected_time":3009000000000,"state":"active","ping":91},{"user_id":254,"name":"Arcadletus","steam_id":76561198976009938,"connected_time":2730000000000,"state":"active","ping":56},{"user_id":298,"name":"Fishstall","steam_id":76561198038126034,"connected_time":421000000000,"state":"active","ping":70},{"user_id":264,"name":"Babyface","steam_id":76561199240579044,"connected_time":2101000000000,"state":"active","ping":58}]},{"server_id":108,"name":"Uncletopia | Dallas | 2 | All Maps","name_short":"dal-2","host":"dal-1.us.uncletopia.com","port":27025,"enabled":true,"region":"us-central","cc":"us","latitude":32.779167,"longitude":-96.80889,"reserved":0,"last_update":"0001-01-01T00:00:00Z","name_a2s":"Uncletopia | Dallas | 2 | All Maps","protocol":17,"map":"koth_harvest_final","folder":"tf","game":"Team Fortress","app_id":440,"player_count":24,"max_players":24,"Bots":0,"server_type":"Dedicated","server_os":"Linux","password":true,"vac":true,"version":"7757534","steam_id":85568392924469988,"keywords":["cp","nocrits","nodmgspread","uncletopia"],"game_id":440,"stv_port":27026,"stv_name":"Uncletopia | Dallas | 2 | All Maps | STV","players":[{"user_id":18,"name":"Honda Element","steam_id":76561198086907573,"connected_time":3899000000000,"state":"active","ping":45},{"user_id":74,"name":"bobletoob","steam_id":76561199184464900,"connected_time":378000000000,"state":"active","ping":86},{"user_id":20,"name":"karbomb","steam_id":76561198120744480,"connected_time":3556000000000,"state":"active","ping":45},{"user_id":21,"name":"Sup m8","steam_id":76561198081659121,"connected_time":3528000000000,"state":"active","ping":40},{"user_id":22,"name":"scuttles","steam_id":76561199250039100,"connected_time":3295000000000,"state":"active","ping":58},{"user_id":61,"name":"Crack Addict","steam_id":76561198166681494,"connected_time":824000000000,"state":"active","ping":52},{"user_id":59,"name":"Deathstalker the unkillable","steam_id":76561198872623590,"connected_time":861000000000,"state":"active","ping":72},{"user_id":81,"name":"8core","steam_id":76561198131163454,"connected_time":232000000000,"state":"active","ping":70},{"user_id":62,"name":"mother dick","steam_id":76561198009122325,"connected_time":820000000000,"state":"active","ping":70},{"user_id":66,"name":"sly1","steam_id":76561198049014977,"connected_time":571000000000,"state":"active","ping":90},{"user_id":82,"name":"Ros","steam_id":76561199055963822,"connected_time":166000000000,"state":"active","ping":73},{"user_id":31,"name":"Jester","steam_id":76561198153102922,"connected_time":2476000000000,"state":"active","ping":49},{"user_id":69,"name":"Waluigi","steam_id":76561199003782138,"connected_time":466000000000,"state":"active","ping":86},{"user_id":33,"name":"radiohead enjoyer","steam_id":76561198397662124,"connected_time":2405000000000,"state":"active","ping":68},{"user_id":51,"name":"banana97286","steam_id":76561199367847817,"connected_time":2104000000000,"state":"active","ping":72},{"user_id":35,"name":"rollsroycekibby","steam_id":76561198991982630,"connected_time":2361000000000,"state":"active","ping":68},{"user_id":54,"name":"[LINUX] Purple Penguin Pybro","steam_id":76561198093538786,"connected_time":1887000000000,"state":"active","ping":55},{"user_id":63,"name":"Jared In Target","steam_id":76561198372449718,"connected_time":812000000000,"state":"active","ping":46},{"user_id":55,"name":"Mad Cow ※","steam_id":76561199470707812,"connected_time":1853000000000,"state":"active","ping":78},{"user_id":44,"name":"Treeckogeek","steam_id":76561198453328078,"connected_time":2261000000000,"state":"active","ping":76},{"user_id":45,"name":"DrBenjas","steam_id":76561198345883103,"connected_time":2258000000000,"state":"active","ping":83},{"user_id":71,"name":"Peepster","steam_id":76561198297854733,"connected_time":460000000000,"state":"active","ping":99},{"user_id":47,"name":"nickles","steam_id":76561199177498487,"connected_time":2238000000000,"state":"active","ping":99},{"user_id":58,"name":"Snow","steam_id":76561198151556270,"connected_time":1644000000000,"state":"active","ping":67}]},{"server_id":5,"name":"Uncletopia | Frankfurt | 1 | All Maps","name_short":"frk-1","host":"frk-1.de.uncletopia.com","port":27015,"enabled":true,"region":"eu","cc":"de","latitude":50.110924,"longitude":8.682127,"reserved":0,"last_update":"0001-01-01T00:00:00Z","name_a2s":"Uncletopia | Frankfurt | 1 | All Maps","protocol":17,"map":"pl_barnblitz","folder":"tf","game":"Team Fortress","app_id":440,"player_count":24,"max_players":24,"Bots":0,"server_type":"Dedicated","server_os":"Linux","password":true,"vac":true,"version":"7757534","steam_id":85568392924469989,"keywords":["nocrits","nodmgspread","payload","uncletopia"],"game_id":440,"stv_port":27016,"stv_name":"Uncletopia | Frankfurt | 1 | All Maps | STV","players":[{"user_id":704,"name":"hocku","steam_id":76561198204610040,"connected_time":1024000000000,"state":"active","ping":117},{"user_id":700,"name":"Charrky","steam_id":76561198054398642,"connected_time":1234000000000,"state":"active","ping":46},{"user_id":706,"name":"Average mailed pipe bomb enjoye","steam_id":76561198116071134,"connected_time":995000000000,"state":"active","ping":57},{"user_id":709,"name":"TheFallenFox","steam_id":76561199074190919,"connected_time":841000000000,"state":"active","ping":55},{"user_id":695,"name":"Diamhair","steam_id":76561198109020178,"connected_time":1813000000000,"state":"active","ping":81},{"user_id":716,"name":"ExigentTorrc","steam_id":76561198346503965,"connected_time":695000000000,"state":"active","ping":57},{"user_id":688,"name":"i sat on my balls","steam_id":76561198273042780,"connected_time":2371000000000,"state":"active","ping":70},{"user_id":671,"name":"Menty","steam_id":76561198036748212,"connected_time":3109000000000,"state":"active","ping":45},{"user_id":693,"name":"the joy of recycling","steam_id":76561198415564349,"connected_time":1876000000000,"state":"active","ping":62},{"user_id":712,"name":"Gordon","steam_id":76561198088042034,"connected_time":820000000000,"state":"active","ping":115},{"user_id":708,"name":"Catsanddogs123","steam_id":76561198030868386,"connected_time":891000000000,"state":"active","ping":104},{"user_id":701,"name":"Kris","steam_id":76561198240638652,"connected_time":1193000000000,"state":"active","ping":45},{"user_id":694,"name":"leac7272","steam_id":76561199263022509,"connected_time":1854000000000,"state":"active","ping":141},{"user_id":711,"name":"Spotmonkey","steam_id":76561198003994092,"connected_time":827000000000,"state":"active","ping":71},{"user_id":690,"name":"Hamtastic","steam_id":76561198879769410,"connected_time":2323000000000,"state":"active","ping":78},{"user_id":699,"name":"I am violin man","steam_id":76561198039209685,"connected_time":1441000000000,"state":"active","ping":43},{"user_id":698,"name":"SlwoFø","steam_id":76561198049663931,"connected_time":1532000000000,"state":"active","ping":60},{"user_id":652,"name":"banyesz","steam_id":76561198152997658,"connected_time":4172000000000,"state":"active","ping":67},{"user_id":713,"name":"T K","steam_id":76561198134256917,"connected_time":808000000000,"state":"active","ping":66},{"user_id":714,"name":"Turha Luulla","steam_id":76561198944072942,"connected_time":740000000000,"state":"active","ping":80},{"user_id":685,"name":"Bonuxer","steam_id":76561198093098132,"connected_time":2478000000000,"state":"active","ping":80},{"user_id":627,"name":"citronous","steam_id":76561198093290934,"connected_time":4768000000000,"state":"active","ping":58},{"user_id":715,"name":"jill valentine","steam_id":76561198075068529,"connected_time":737000000000,"state":"active","ping":65},{"user_id":564,"name":"pepper","steam_id":76561198059782462,"connected_time":9767000000000,"state":"active","ping":48}]},{"server_id":110,"name":"Uncletopia | Frankfurt | 2 | All Maps","name_short":"frk-2","host":"frk-1.de.uncletopia.com","port":27025,"enabled":true,"region":"eu","cc":"de","latitude":50.110924,"longitude":8.682127,"reserved":0,"last_update":"0001-01-01T00:00:00Z","name_a2s":"Uncletopia | Frankfurt | 2 | All Maps","protocol":17,"map":"koth_harvest_final","folder":"tf","game":"Team Fortress","app_id":440,"player_count":24,"max_players":24,"Bots":0,"server_type":"Dedicated","server_os":"Linux","password":true,"vac":true,"version":"7757534","steam_id":85568392924469990,"keywords":["cp","nocrits","nodmgspread","uncletopia"],"game_id":440,"stv_port":27026,"stv_name":"Uncletopia | Frankfurt | 2 | All Maps | STV","players":[{"user_id":321,"name":"Gryoss","steam_id":76561197999837111,"connected_time":484000000000,"state":"active","ping":103},{"user_id":264,"name":"Dimitri_612","steam_id":76561199223984137,"connected_time":3107000000000,"state":"active","ping":50},{"user_id":314,"name":"Commissar Grub","steam_id":76561197992544702,"connected_time":583000000000,"state":"active","ping":60},{"user_id":243,"name":"Sch","steam_id":76561198071341689,"connected_time":4160000000000,"state":"active","ping":53},{"user_id":306,"name":"Petight","steam_id":76561197999438798,"connected_time":729000000000,"state":"active","ping":46},{"user_id":278,"name":"good guy","steam_id":76561198816116281,"connected_time":2527000000000,"state":"active","ping":34},{"user_id":308,"name":"Fish 'n' Chips","steam_id":76561198033476886,"connected_time":702000000000,"state":"active","ping":43},{"user_id":263,"name":"Lionball_3","steam_id":76561199084049796,"connected_time":3123000000000,"state":"active","ping":62},{"user_id":327,"name":"MRK","steam_id":76561198120166752,"connected_time":198000000000,"state":"active","ping":75},{"user_id":309,"name":"1sec no za","steam_id":76561198798657045,"connected_time":684000000000,"state":"active","ping":74},{"user_id":297,"name":"real trap piss","steam_id":76561198055010039,"connected_time":953000000000,"state":"active","ping":66},{"user_id":320,"name":"Atombrennstab? WO?","steam_id":76561198177185310,"connected_time":503000000000,"state":"active","ping":46},{"user_id":230,"name":"sex haver","steam_id":76561198798892497,"connected_time":5636000000000,"state":"active","ping":60},{"user_id":325,"name":"???","steam_id":76561198132569216,"connected_time":441000000000,"state":"active","ping":83},{"user_id":310,"name":"eeeeee","steam_id":76561198017786875,"connected_time":670000000000,"state":"active","ping":57},{"user_id":293,"name":"weebaru","steam_id":76561198004991633,"connected_time":1170000000000,"state":"active","ping":67},{"user_id":299,"name":"Retarded Asian Programmer","steam_id":76561198852826853,"connected_time":929000000000,"state":"active","ping":61},{"user_id":300,"name":"Ragles","steam_id":76561198132454783,"connected_time":890000000000,"state":"active","ping":64},{"user_id":316,"name":"r06u3","steam_id":76561198254099253,"connected_time":575000000000,"state":"active","ping":166},{"user_id":280,"name":"PKBlizzard","steam_id":76561198039836567,"connected_time":2496000000000,"state":"active","ping":50},{"user_id":319,"name":"elijah","steam_id":76561198093936708,"connected_time":536000000000,"state":"active","ping":60},{"user_id":328,"name":"jovi_","steam_id":76561198449280552,"connected_time":190000000000,"state":"active","ping":68},{"user_id":273,"name":"John Fortress","steam_id":76561198043743881,"connected_time":2816000000000,"state":"active","ping":50},{"user_id":312,"name":"Carrotcracker","steam_id":76561198034862396,"connected_time":661000000000,"state":"active","ping":69}]},{"server_id":308,"name":"Uncletopia | Frankfurt | 3 | All Maps","name_short":"frk-3","host":"frk-1.de.uncletopia.com","port":27035,"enabled":true,"region":"eu","cc":"de","latitude":50.110924,"longitude":8.682127,"reserved":0,"last_update":"0001-01-01T00:00:00Z","name_a2s":"Uncletopia | Frankfurt | 3 | All Maps","protocol":17,"map":"cp_steel","folder":"tf","game":"Team Fortress","app_id":440,"player_count":24,"max_players":24,"Bots":0,"server_type":"Dedicated","server_os":"Linux","password":true,"vac":true,"version":"7757534","steam_id":85568392924504274,"keywords":["cp","nocrits","nodmgspread","uncletopia"],"game_id":440,"stv_port":27036,"stv_name":"Uncletopia | Frankfurt | 3 | All Maps | STV","players":[{"user_id":247,"name":"Neytan","steam_id":76561198027024747,"connected_time":603000000000,"state":"active","ping":121},{"user_id":200,"name":"silicon based lube","steam_id":76561198413545609,"connected_time":3813000000000,"state":"active","ping":64},{"user_id":248,"name":"kpn","steam_id":76561198063512694,"connected_time":119000000000,"state":"active","ping":69},{"user_id":238,"name":"NiKoRo","steam_id":76561197963686614,"connected_time":1042000000000,"state":"active","ping":92},{"user_id":192,"name":"frank","steam_id":76561198137710815,"connected_time":4065000000000,"state":"active","ping":75},{"user_id":243,"name":"Dudepile","steam_id":76561198005831909,"connected_time":923000000000,"state":"active","ping":70},{"user_id":241,"name":"CaptainDefoe","steam_id":76561198003571104,"connected_time":1015000000000,"state":"active","ping":85},{"user_id":240,"name":"el duende","steam_id":76561198059699043,"connected_time":1030000000000,"state":"active","ping":70},{"user_id":159,"name":"Kowakum","steam_id":76561197998125950,"connected_time":6949000000000,"state":"active","ping":99},{"user_id":174,"name":"Grillem Dafoe","steam_id":76561198306874574,"connected_time":5733000000000,"state":"active","ping":83},{"user_id":193,"name":"scarf","steam_id":76561198118873912,"connected_time":4062000000000,"state":"active","ping":75},{"user_id":234,"name":"Mr.killer","steam_id":76561198290584189,"connected_time":1685000000000,"state":"active","ping":91},{"user_id":250,"name":"After8","steam_id":76561198090750865,"connected_time":58000000000,"state":"active","ping":68},{"user_id":249,"name":"Kolanciasty ♥","steam_id":76561198020042179,"connected_time":104000000000,"state":"active","ping":86},{"user_id":231,"name":"C0d3s","steam_id":76561198093907544,"connected_time":1980000000000,"state":"active","ping":100},{"user_id":244,"name":"akciq ⁧⁧respect","steam_id":76561198390963456,"connected_time":834000000000,"state":"active","ping":75},{"user_id":161,"name":"Dr.Cranium","steam_id":76561197992726926,"connected_time":6937000000000,"state":"active","ping":106},{"user_id":251,"name":"Hilldog","steam_id":76561198082209322,"connected_time":50000000000,"state":"active","ping":106},{"user_id":232,"name":"Femboy Gaming","steam_id":76561198174108515,"connected_time":1939000000000,"state":"active","ping":45},{"user_id":252,"name":"brainrot","steam_id":76561199414716848,"connected_time":28000000000,"state":"active","ping":68},{"user_id":222,"name":"Semen demon","steam_id":76561198331838737,"connected_time":3203000000000,"state":"active","ping":63},{"user_id":224,"name":"420Blazeit","steam_id":76561198130248449,"connected_time":3097000000000,"state":"active","ping":71},{"user_id":221,"name":"Joel!","steam_id":76561198155422742,"connected_time":3223000000000,"state":"active","ping":61},{"user_id":246,"name":"CumbustiblePunda","steam_id":76561197974274677,"connected_time":719000000000,"state":"active","ping":50}]},{"server_id":309,"name":"Uncletopia | Frankfurt | 4 | All Maps","name_short":"frk-4","host":"frk-1.de.uncletopia.com","port":27045,"enabled":true,"region":"eu","cc":"de","latitude":50.110924,"longitude":8.682127,"reserved":0,"last_update":"0001-01-01T00:00:00Z","name_a2s":"Uncletopia | Frankfurt | 4 | All Maps","protocol":17,"map":"plr_hightower","folder":"tf","game":"Team Fortress","app_id":440,"player_count":24,"max_players":24,"Bots":0,"server_type":"Dedicated","server_os":"Linux","password":true,"vac":true,"version":"7757534","steam_id":85568392924504275,"keywords":["nocrits","nodmgspread","payload","uncletopia"],"game_id":440,"stv_port":27046,"stv_name":"Uncletopia | Frankfurt | 4 | All Maps | STV","players":[{"user_id":667,"name":"DeCypher [She/Her]","steam_id":76561198171992619,"connected_time":164000000000,"state":"active","ping":64},{"user_id":656,"name":"❀ bird ❀","steam_id":76561198057100469,"connected_time":636000000000,"state":"active","ping":101},{"user_id":665,"name":"Henryhouse","steam_id":76561198035290490,"connected_time":218000000000,"state":"active","ping":176},{"user_id":639,"name":"EEEEEH","steam_id":76561198126717413,"connected_time":1453000000000,"state":"active","ping":77},{"user_id":657,"name":"Don Aioli","steam_id":76561197987121538,"connected_time":615000000000,"state":"active","ping":63},{"user_id":629,"name":"I.C. Wiener","steam_id":76561197999912254,"connected_time":2272000000000,"state":"active","ping":85},{"user_id":409,"name":"dirty","steam_id":76561197995572935,"connected_time":17740000000000,"state":"active","ping":79},{"user_id":652,"name":"maksimarket","steam_id":76561199105796083,"connected_time":743000000000,"state":"active","ping":71},{"user_id":635,"name":"sex havin'","steam_id":76561198169857427,"connected_time":1645000000000,"state":"active","ping":61},{"user_id":623,"name":"Boe Jidem","steam_id":76561198147668373,"connected_time":2427000000000,"state":"active","ping":51},{"user_id":630,"name":"that fat croc from donkey kong","steam_id":76561198159172495,"connected_time":2214000000000,"state":"active","ping":68},{"user_id":638,"name":"ghenios","steam_id":76561198030011207,"connected_time":1550000000000,"state":"active","ping":87},{"user_id":670,"name":"tua","steam_id":76561198034955422,"connected_time":23000000000,"state":"active","ping":91},{"user_id":645,"name":"♡☠MORPHINE OVERDOSE☠♡","steam_id":76561198312877267,"connected_time":938000000000,"state":"active","ping":73},{"user_id":669,"name":"Thales gaming","steam_id":76561198154569703,"connected_time":36000000000,"state":"active","ping":71},{"user_id":644,"name":"Pancakes","steam_id":76561198196259989,"connected_time":1067000000000,"state":"active","ping":59},{"user_id":660,"name":"Goblin (level-2)","steam_id":76561198033638524,"connected_time":605000000000,"state":"active","ping":91},{"user_id":578,"name":"most handsome","steam_id":76561198106912794,"connected_time":5121000000000,"state":"active","ping":89},{"user_id":643,"name":"=PB=","steam_id":76561197999146612,"connected_time":1119000000000,"state":"active","ping":59},{"user_id":469,"name":"ok","steam_id":76561198320042443,"connected_time":14704000000000,"state":"active","ping":101},{"user_id":661,"name":"BlinkedUp","steam_id":76561198249985618,"connected_time":602000000000,"state":"active","ping":63},{"user_id":662,"name":"Wrath","steam_id":76561198054368494,"connected_time":601000000000,"state":"active","ping":84},{"user_id":671,"name":"k","steam_id":76561198089342103,"connected_time":2000000000,"state":"spawning","ping":73},{"user_id":563,"name":"Weene kest","steam_id":76561198055900955,"connected_time":5516000000000,"state":"active","ping":56}]},{"server_id":310,"name":"Uncletopia | Frankfurt | 5 | All Maps","name_short":"frk-5","host":"frk-1.de.uncletopia.com","port":27055,"enabled":true,"region":"eu","cc":"de","latitude":50.110924,"longitude":8.682127,"reserved":0,"last_update":"0001-01-01T00:00:00Z","name_a2s":"Uncletopia | Frankfurt | 5 | All Maps","protocol":17,"map":"pl_barnblitz","folder":"tf","game":"Team Fortress","app_id":440,"player_count":24,"max_players":24,"Bots":0,"server_type":"Dedicated","server_os":"Linux","password":true,"vac":true,"version":"7757534","steam_id":85568392924504277,"keywords":["nocrits","nodmgspread","payload","uncletopia"],"game_id":440,"stv_port":27056,"stv_name":"Uncletopia | Frankfurt | 5 | All Maps | STV","players":[{"user_id":510,"name":"godmodule","steam_id":76561198165995444,"connected_time":1246000000000,"state":"active","ping":67},{"user_id":515,"name":"diax01","steam_id":76561198136591319,"connected_time":1221000000000,"state":"active","ping":76},{"user_id":488,"name":"Sniffz_2","steam_id":76561199433459491,"connected_time":2752000000000,"state":"active","ping":70},{"user_id":531,"name":"fifamirek","steam_id":76561198160567190,"connected_time":637000000000,"state":"active","ping":48},{"user_id":512,"name":"hukrop1","steam_id":76561199214341151,"connected_time":1235000000000,"state":"active","ping":153},{"user_id":528,"name":"cyka","steam_id":76561198152226220,"connected_time":803000000000,"state":"active","ping":78},{"user_id":527,"name":"OrangeBanana","steam_id":76561199230233875,"connected_time":857000000000,"state":"active","ping":70},{"user_id":406,"name":"finbar","steam_id":76561198056812396,"connected_time":8609000000000,"state":"active","ping":76},{"user_id":514,"name":"√(-Wolf)","steam_id":76561198024769704,"connected_time":1225000000000,"state":"active","ping":87},{"user_id":529,"name":"Reiyo the Interloper","steam_id":76561198155092485,"connected_time":774000000000,"state":"active","ping":55},{"user_id":516,"name":"A Succulent Chinese Meal","steam_id":76561198069472440,"connected_time":1212000000000,"state":"active","ping":89},{"user_id":517,"name":"Roe Jogan","steam_id":76561198871991529,"connected_time":1157000000000,"state":"active","ping":77},{"user_id":518,"name":"CZKS","steam_id":76561198244653548,"connected_time":1156000000000,"state":"active","ping":86},{"user_id":519,"name":"lee","steam_id":76561198436548420,"connected_time":1155000000000,"state":"active","ping":71},{"user_id":476,"name":"Mitchell The Brutal Bonelord","steam_id":76561198813041445,"connected_time":4195000000000,"state":"active","ping":73},{"user_id":504,"name":"Dorich","steam_id":76561198287126217,"connected_time":1705000000000,"state":"active","ping":60},{"user_id":533,"name":"baijro","steam_id":76561198061001376,"connected_time":465000000000,"state":"active","ping":75},{"user_id":501,"name":"Kodutah","steam_id":76561198203405574,"connected_time":1871000000000,"state":"active","ping":62},{"user_id":530,"name":"nux","steam_id":76561199241115962,"connected_time":769000000000,"state":"active","ping":134},{"user_id":522,"name":"B@yka","steam_id":76561198986736592,"connected_time":1116000000000,"state":"active","ping":61},{"user_id":523,"name":"Chambersite","steam_id":76561198197022399,"connected_time":1110000000000,"state":"active","ping":80},{"user_id":502,"name":"twink detector","steam_id":76561198161070639,"connected_time":1814000000000,"state":"active","ping":55},{"user_id":524,"name":"Meta","steam_id":76561198413073432,"connected_time":1099000000000,"state":"active","ping":71},{"user_id":491,"name":"Travis Bickle","steam_id":76561198116072862,"connected_time":2728000000000,"state":"active","ping":60}]},{"server_id":311,"name":"Uncletopia | Frankfurt | 6 | All Maps","name_short":"frk-6","host":"frk-1.de.uncletopia.com","port":27065,"enabled":true,"region":"eu","cc":"de","latitude":50.110924,"longitude":8.682127,"reserved":0,"last_update":"0001-01-01T00:00:00Z","name_a2s":"Uncletopia | Frankfurt | 6 | All Maps","protocol":17,"map":"plr_nightfall_final","folder":"tf","game":"Team Fortress","app_id":440,"player_count":0,"max_players":24,"Bots":0,"server_type":"Dedicated","server_os":"Linux","password":true,"vac":true,"version":"7757534","steam_id":85568392924504278,"keywords":["nocrits","nodmgspread","payload","uncletopia"],"game_id":440,"stv_port":27066,"stv_name":"Uncletopia | Frankfurt | 6 | All Maps | STV","players":null},{"server_id":23,"name":"Uncletopia | Frankfurt | 7 | Stopwatch Beta","name_short":"frk-7","host":"frk-1.de.uncletopia.com","port":27075,"enabled":true,"region":"eu","cc":"de","latitude":50.110924,"longitude":8.682127,"reserved":0,"last_update":"0001-01-01T00:00:00Z","name_a2s":"Uncletopia | Frankfurt | 7 | Stopwatch Beta","protocol":17,"map":"cp_snakewater_final1","folder":"tf","game":"Team Fortress","app_id":440,"player_count":0,"max_players":24,"Bots":0,"server_type":"Dedicated","server_os":"Linux","password":true,"vac":true,"version":"7757534","steam_id":85568392924742827,"keywords":["cp","nocrits","nodmgspread","uncletopia"],"game_id":440,"stv_port":27076,"stv_name":"Uncletopia | Frankfurt | 7 | Stopwatch Beta | STV","players":null},{"server_id":24,"name":"Uncletopia | Frankfurt | 8 | Community","name_short":"frk-8","host":"frk-1.de.uncletopia.com","port":27085,"enabled":true,"region":"eu","cc":"de","latitude":50.110924,"longitude":8.682127,"reserved":0,"last_update":"0001-01-01T00:00:00Z","name_a2s":"Uncletopia | Frankfurt | 8 | Community","protocol":17,"map":"workshop/koth_product_final.ugc454272353","folder":"tf","game":"Team Fortress","app_id":440,"player_count":0,"max_players":24,"Bots":0,"server_type":"Dedicated","server_os":"Linux","password":true,"vac":true,"version":"7757534","steam_id":85568392924742828,"keywords":["cp","nocrits","nodmgspread","uncletopia"],"game_id":440,"stv_port":27086,"stv_name":"Uncletopia | Frankfurt | 8 | Community | STV","players":null},{"server_id":202,"name":"Uncletopia | Hong Kong | 1 | All Maps","name_short":"hgk-1","host":"hgk-1.hk.uncletopia.com","port":27015,"enabled":true,"region":"asia","cc":"hk","latitude":22.302711,"longitude":114.177216,"reserved":0,"last_update":"0001-01-01T00:00:00Z","name_a2s":"Uncletopia | Hong Kong | 1 | All Maps","protocol":17,"map":"pl_barnblitz","folder":"tf","game":"Team Fortress","app_id":440,"player_count":0,"max_players":24,"Bots":0,"server_type":"Dedicated","server_os":"Linux","password":true,"vac":true,"version":"7757534","steam_id":85568392924494504,"keywords":["nocrits","nodmgspread","payload","uncletopia"],"game_id":440,"stv_port":27016,"stv_name":"Uncletopia | Hong Kong | 1 | All Maps | STV","players":null},{"server_id":1,"name":"Uncletopia | Los Angeles | 1 | All Maps","name_short":"lax-1","host":"lax-1.us.uncletopia.com","port":27015,"enabled":true,"region":"us-west","cc":"us","latitude":33.94279,"longitude":-118.41004,"reserved":0,"last_update":"0001-01-01T00:00:00Z","name_a2s":"Uncletopia | Los Angeles | 1 | All Maps","protocol":17,"map":"cp_dustbowl","folder":"tf","game":"Team Fortress","app_id":440,"player_count":24,"max_players":24,"Bots":0,"server_type":"Dedicated","server_os":"Linux","password":true,"vac":true,"version":"7757534","steam_id":85568392924469991,"keywords":["cp","nocrits","nodmgspread","uncletopia"],"game_id":440,"stv_port":27016,"stv_name":"Uncletopia | Los Angeles | 1 | All Maps | STV","players":[{"user_id":79,"name":"[B.A.L.S.]nut blast man","steam_id":76561198438402468,"connected_time":785000000000,"state":"active","ping":54},{"user_id":61,"name":"Mr. Blubber","steam_id":76561198338906916,"connected_time":2740000000000,"state":"active","ping":45},{"user_id":87,"name":"ice cream (冰淇淋)","steam_id":76561198976530881,"connected_time":228000000000,"state":"active","ping":30},{"user_id":28,"name":"Uprightmoss7528","steam_id":76561199200138486,"connected_time":4807000000000,"state":"active","ping":60},{"user_id":66,"name":"plz talk about dogs","steam_id":76561198062924973,"connected_time":2350000000000,"state":"active","ping":56},{"user_id":58,"name":"NFL.com","steam_id":76561198113405376,"connected_time":2763000000000,"state":"active","ping":45},{"user_id":57,"name":"HeroOfTime","steam_id":76561199096218001,"connected_time":3227000000000,"state":"active","ping":53},{"user_id":19,"name":"Tort boi","steam_id":76561198125327110,"connected_time":6148000000000,"state":"active","ping":73},{"user_id":38,"name":"Whiskey","steam_id":76561198858154667,"connected_time":4144000000000,"state":"active","ping":51},{"user_id":88,"name":"moe","steam_id":76561198929586245,"connected_time":150000000000,"state":"active","ping":43},{"user_id":81,"name":"asm_ghost","steam_id":76561199205363547,"connected_time":721000000000,"state":"active","ping":80},{"user_id":82,"name":"donkfingus","steam_id":76561198105666663,"connected_time":710000000000,"state":"active","ping":61},{"user_id":89,"name":"Bheem","steam_id":76561198170453459,"connected_time":146000000000,"state":"active","ping":63},{"user_id":73,"name":"j","steam_id":76561198162075431,"connected_time":1827000000000,"state":"active","ping":54},{"user_id":74,"name":"Mr. Mime","steam_id":76561199197676776,"connected_time":1601000000000,"state":"active","ping":104},{"user_id":41,"name":"BurningKev","steam_id":76561198057688837,"connected_time":4083000000000,"state":"active","ping":85},{"user_id":42,"name":"FASTLIFER","steam_id":76561199389781834,"connected_time":4051000000000,"state":"active","ping":57},{"user_id":83,"name":"iamsohardrn","steam_id":76561199147510427,"connected_time":707000000000,"state":"active","ping":67},{"user_id":44,"name":"Supawaffle","steam_id":76561198090922807,"connected_time":4006000000000,"state":"active","ping":59},{"user_id":86,"name":"Moth-man0907","steam_id":76561199222767814,"connected_time":620000000000,"state":"active","ping":110},{"user_id":71,"name":"imadabest","steam_id":76561199123304377,"connected_time":1926000000000,"state":"active","ping":65},{"user_id":72,"name":"a chicken","steam_id":76561198313121580,"connected_time":1870000000000,"state":"active","ping":46},{"user_id":85,"name":"doggy doggy what now","steam_id":76561198215442741,"connected_time":686000000000,"state":"active","ping":90},{"user_id":90,"name":"hakken","steam_id":76561199102391736,"connected_time":78000000000,"state":"active","ping":52}]},{"server_id":112,"name":"Uncletopia | Los Angeles | 2 | All Maps","name_short":"lax-2","host":"lax-1.us.uncletopia.com","port":27025,"enabled":true,"region":"us-west","cc":"us","latitude":33.94279,"longitude":-118.41004,"reserved":0,"last_update":"0001-01-01T00:00:00Z","name_a2s":"Uncletopia | Los Angeles | 2 | All Maps","protocol":17,"map":"koth_harvest_final","folder":"tf","game":"Team Fortress","app_id":440,"player_count":7,"max_players":24,"Bots":0,"server_type":"Dedicated","server_os":"Linux","password":true,"vac":true,"version":"7757534","steam_id":85568392924469992,"keywords":["cp","nocrits","nodmgspread","uncletopia"],"game_id":440,"stv_port":27026,"stv_name":"Uncletopia | Los Angeles | 2 | All Maps | STV","players":[{"user_id":15,"name":"Frazzer","steam_id":76561198088679707,"connected_time":1707000000000,"state":"active","ping":45},{"user_id":16,"name":"Delimeat","steam_id":76561198043824595,"connected_time":1706000000000,"state":"active","ping":41},{"user_id":19,"name":"nfseskimo","steam_id":76561198078745666,"connected_time":219000000000,"state":"active","ping":75},{"user_id":20,"name":"RC Cola ®","steam_id":76561198165074941,"connected_time":201000000000,"state":"active","ping":72},{"user_id":21,"name":"Pyrolimited","steam_id":76561198195455657,"connected_time":124000000000,"state":"active","ping":71},{"user_id":22,"name":"jcq","steam_id":76561198342480009,"connected_time":104000000000,"state":"active","ping":46},{"user_id":24,"name":"Greenland","steam_id":76561198860933958,"connected_time":55000000000,"state":"active","ping":66}]},{"server_id":324,"name":"Uncletopia | Los Angeles | 3 | All Maps","name_short":"lax-3","host":"lax-1.us.uncletopia.com","port":27035,"enabled":true,"region":"us-west","cc":"us","latitude":33.94279,"longitude":-118.41004,"reserved":0,"last_update":"0001-01-01T00:00:00Z","name_a2s":"Uncletopia | Los Angeles | 3 | All Maps","protocol":17,"map":"cp_altitude","folder":"tf","game":"Team Fortress","app_id":440,"player_count":0,"max_players":24,"Bots":0,"server_type":"Dedicated","server_os":"Linux","password":true,"vac":true,"version":"7757534","steam_id":85568392924510198,"keywords":["cp","nocrits","nodmgspread","uncletopia"],"game_id":440,"stv_port":27036,"stv_name":"Uncletopia | Los Angeles | 3 | All Maps | STV","players":null},{"server_id":25,"name":"Uncletopia | Los Angeles | 4 | Stopwatch Beta","name_short":"lax-4","host":"lax-1.us.uncletopia.com","port":27045,"enabled":true,"region":"us-west","cc":"us","latitude":33.94279,"longitude":-118.41004,"reserved":0,"last_update":"0001-01-01T00:00:00Z","name_a2s":"Uncletopia | Los Angeles | 4 | Stopwatch Beta","protocol":17,"map":"workshop/cp_reckoner_rc6.ugc674719999","folder":"tf","game":"Team Fortress","app_id":440,"player_count":0,"max_players":24,"Bots":0,"server_type":"Dedicated","server_os":"Linux","password":true,"vac":true,"version":"7757534","steam_id":85568392924510199,"keywords":["cp","nocrits","nodmgspread","uncletopia"],"game_id":440,"stv_port":27046,"stv_name":"Uncletopia | Los Angeles | 4 | Stopwatch Beta | STV","players":null},{"server_id":11,"name":"Uncletopia | London | 1 | All Maps","name_short":"lon-1","host":"lon-1.uk.uncletopia.com","port":27015,"enabled":true,"region":"eu","cc":"gb","latitude":51.509865,"longitude":-0.118092,"reserved":0,"last_update":"0001-01-01T00:00:00Z","name_a2s":"Uncletopia | London | 1 | All Maps","protocol":17,"map":"cp_process_final","folder":"tf","game":"Team Fortress","app_id":440,"player_count":24,"max_players":24,"Bots":0,"server_type":"Dedicated","server_os":"Linux","password":true,"vac":true,"version":"7757534","steam_id":85568392924367362,"keywords":["cp","nocrits","nodmgspread","uncletopia"],"game_id":440,"stv_port":27016,"stv_name":"Uncletopia | London | 1 | All Maps | STV","players":[{"user_id":513,"name":"Wyro","steam_id":76561199176835169,"connected_time":1525000000000,"state":"active","ping":52},{"user_id":453,"name":"BreadBubbles","steam_id":76561198174332826,"connected_time":6425000000000,"state":"active","ping":59},{"user_id":540,"name":"Aaron","steam_id":76561197990046953,"connected_time":203000000000,"state":"active","ping":67},{"user_id":539,"name":"Croy","steam_id":76561197972552579,"connected_time":503000000000,"state":"active","ping":45},{"user_id":530,"name":"MR.CRAB","steam_id":76561198329833659,"connected_time":912000000000,"state":"active","ping":88},{"user_id":515,"name":"ryan55510","steam_id":76561198054750052,"connected_time":1496000000000,"state":"active","ping":55},{"user_id":466,"name":"hananamanna","steam_id":76561198006570285,"connected_time":4554000000000,"state":"active","ping":109},{"user_id":476,"name":"nudjura","steam_id":76561198281986139,"connected_time":3690000000000,"state":"active","ping":34},{"user_id":507,"name":"CarBombEnthusiast","steam_id":76561199448185434,"connected_time":2172000000000,"state":"active","ping":70},{"user_id":531,"name":"Bill (real)","steam_id":76561199017872113,"connected_time":901000000000,"state":"active","ping":48},{"user_id":465,"name":"dec","steam_id":76561198009660168,"connected_time":4983000000000,"state":"active","ping":55},{"user_id":505,"name":"Versity!","steam_id":76561198152172841,"connected_time":2275000000000,"state":"active","ping":51},{"user_id":524,"name":"✪ Danny","steam_id":76561198104483241,"connected_time":1321000000000,"state":"active","ping":46},{"user_id":536,"name":"r2d2.(/ˌɑːr.tuːˈdiːtuː/)","steam_id":76561198201235703,"connected_time":616000000000,"state":"active","ping":68},{"user_id":517,"name":"dotdotdot","steam_id":76561198057628751,"connected_time":1466000000000,"state":"active","ping":66},{"user_id":537,"name":"Atlas","steam_id":76561198033890724,"connected_time":604000000000,"state":"active","ping":100},{"user_id":535,"name":"trashedribs","steam_id":76561198354735240,"connected_time":634000000000,"state":"active","ping":57},{"user_id":518,"name":"[O\u0026O]YaboiDucki","steam_id":76561198195976589,"connected_time":1444000000000,"state":"active","ping":75},{"user_id":519,"name":"Gibus Hat","steam_id":76561198868565358,"connected_time":1429000000000,"state":"active","ping":63},{"user_id":468,"name":"touhou fan off his meds","steam_id":76561198048453764,"connected_time":4528000000000,"state":"active","ping":48},{"user_id":523,"name":"lowdash","steam_id":76561198327827635,"connected_time":1399000000000,"state":"active","ping":62},{"user_id":538,"name":"AwterSix","steam_id":76561198042561678,"connected_time":595000000000,"state":"active","ping":60},{"user_id":528,"name":"quake 2 hater","steam_id":76561198101451654,"connected_time":1050000000000,"state":"active","ping":45},{"user_id":529,"name":"Zm4j","steam_id":76561198259465946,"connected_time":1050000000000,"state":"active","ping":79}]},{"server_id":114,"name":"Uncletopia | London | 2 | All Maps","name_short":"lon-2","host":"lon-1.uk.uncletopia.com","port":27025,"enabled":true,"region":"eu","cc":"gb","latitude":51.509865,"longitude":-0.118092,"reserved":0,"last_update":"0001-01-01T00:00:00Z","name_a2s":"Uncletopia | London | 2 | All Maps","protocol":17,"map":"pl_snowycoast","folder":"tf","game":"Team Fortress","app_id":440,"player_count":24,"max_players":24,"Bots":0,"server_type":"Dedicated","server_os":"Linux","password":true,"vac":true,"version":"7757534","steam_id":85568392924470941,"keywords":["nocrits","nodmgspread","payload","uncletopia"],"game_id":440,"stv_port":27026,"stv_name":"Uncletopia | London | 2 | All Maps | STV","players":[{"user_id":209,"name":"Giovine Killjoy","steam_id":76561198059375315,"connected_time":221000000000,"state":"active","ping":70},{"user_id":207,"name":"angel.kitten8","steam_id":76561198049983016,"connected_time":247000000000,"state":"active","ping":110},{"user_id":206,"name":"Rezzi3355","steam_id":76561198829654794,"connected_time":292000000000,"state":"active","ping":58},{"user_id":215,"name":"The one who knocks","steam_id":76561198089341471,"connected_time":144000000000,"state":"active","ping":71},{"user_id":205,"name":"FairlyFatFungus","steam_id":76561199152828854,"connected_time":352000000000,"state":"active","ping":53},{"user_id":163,"name":"Beast?","steam_id":76561198277243732,"connected_time":3240000000000,"state":"active","ping":63},{"user_id":164,"name":"Valoxi","steam_id":76561197995042938,"connected_time":3228000000000,"state":"active","ping":70},{"user_id":165,"name":"Demoknight tf2","steam_id":76561198133041874,"connected_time":3218000000000,"state":"active","ping":55},{"user_id":199,"name":"[No Class]","steam_id":76561199019412162,"connected_time":1084000000000,"state":"active","ping":51},{"user_id":194,"name":"Dwevy","steam_id":76561198090379437,"connected_time":1270000000000,"state":"active","ping":54},{"user_id":120,"name":"RLCrazyCat3","steam_id":76561197983757878,"connected_time":7247000000000,"state":"active","ping":56},{"user_id":208,"name":"Noob_with_source","steam_id":76561198870362103,"connected_time":238000000000,"state":"active","ping":57},{"user_id":211,"name":"Medic","steam_id":76561198072321620,"connected_time":200000000000,"state":"active","ping":81},{"user_id":210,"name":"Omni","steam_id":76561197964320557,"connected_time":209000000000,"state":"active","ping":58},{"user_id":191,"name":"Schwarzschild radius(Rg=2GM/c^2","steam_id":76561198179463343,"connected_time":1464000000000,"state":"active","ping":43},{"user_id":172,"name":"stuntz","steam_id":76561197974814348,"connected_time":2539000000000,"state":"active","ping":74},{"user_id":193,"name":"Hydnhof","steam_id":76561198120989805,"connected_time":1353000000000,"state":"active","ping":68},{"user_id":212,"name":"Meddler","steam_id":76561198033001402,"connected_time":196000000000,"state":"active","ping":37},{"user_id":188,"name":"pepan","steam_id":76561198057306366,"connected_time":1542000000000,"state":"active","ping":78},{"user_id":201,"name":"Hahen","steam_id":76561198254271323,"connected_time":1056000000000,"state":"active","ping":78},{"user_id":196,"name":"Joseph Stalin","steam_id":76561198033199746,"connected_time":1139000000000,"state":"active","ping":54},{"user_id":213,"name":"A Shiny Meat Bicycle","steam_id":76561198358757709,"connected_time":193000000000,"state":"active","ping":172},{"user_id":217,"name":"DontKillMe","steam_id":76561198066600078,"connected_time":112000000000,"state":"active","ping":144},{"user_id":219,"name":"★poyo★","steam_id":76561198150078959,"connected_time":110000000000,"state":"active","ping":72}]},{"server_id":320,"name":"Uncletopia | London | 3 | All Maps","name_short":"lon-3","host":"lon-1.uk.uncletopia.com","port":27035,"enabled":true,"region":"eu","cc":"gb","latitude":51.509865,"longitude":-0.118092,"reserved":0,"last_update":"0001-01-01T00:00:00Z","name_a2s":"Uncletopia | London | 3 | All Maps","protocol":17,"map":"pl_snowycoast","folder":"tf","game":"Team Fortress","app_id":440,"player_count":24,"max_players":24,"Bots":0,"server_type":"Dedicated","server_os":"Linux","password":true,"vac":true,"version":"7757534","steam_id":85568392924510192,"keywords":["nocrits","nodmgspread","payload","uncletopia"],"game_id":440,"stv_port":27036,"stv_name":"Uncletopia | London | 3 | All Maps | STV","players":[{"user_id":824,"name":"X45Y","steam_id":76561198112534025,"connected_time":2110000000000,"state":"active","ping":55},{"user_id":808,"name":"Udinese Dion","steam_id":76561198067931573,"connected_time":3870000000000,"state":"active","ping":56},{"user_id":787,"name":"Looking for Goth with tiddies!?","steam_id":76561198067204908,"connected_time":5651000000000,"state":"active","ping":59},{"user_id":826,"name":"NitPig","steam_id":76561198212991935,"connected_time":1997000000000,"state":"active","ping":104},{"user_id":821,"name":"dn4k","steam_id":76561199221755690,"connected_time":2394000000000,"state":"active","ping":83},{"user_id":855,"name":"Modulus X","steam_id":76561198178430222,"connected_time":143000000000,"state":"active","ping":35},{"user_id":856,"name":"fairyboy","steam_id":76561198042359587,"connected_time":132000000000,"state":"active","ping":45},{"user_id":830,"name":"Pæbæs","steam_id":76561198088369219,"connected_time":1646000000000,"state":"active","ping":88},{"user_id":817,"name":"☞LaZe☜","steam_id":76561198202191400,"connected_time":3229000000000,"state":"active","ping":53},{"user_id":742,"name":"Fat Pigeon","steam_id":76561198817940142,"connected_time":8543000000000,"state":"active","ping":55},{"user_id":790,"name":"static","steam_id":76561198836825741,"connected_time":5594000000000,"state":"active","ping":45},{"user_id":857,"name":"Panda","steam_id":76561198176342325,"connected_time":125000000000,"state":"active","ping":96},{"user_id":847,"name":"Prism","steam_id":76561198075538312,"connected_time":522000000000,"state":"active","ping":46},{"user_id":852,"name":"anal princess","steam_id":76561198104682583,"connected_time":158000000000,"state":"active","ping":141},{"user_id":858,"name":"Antiparticle #SaveTF2","steam_id":76561197990545681,"connected_time":98000000000,"state":"active","ping":50},{"user_id":862,"name":"etc","steam_id":76561197998394797,"connected_time":11000000000,"state":"active","ping":59},{"user_id":840,"name":"nick murphy","steam_id":76561198086592534,"connected_time":927000000000,"state":"active","ping":45},{"user_id":839,"name":"big tiddy goth gf","steam_id":76561198097507847,"connected_time":1002000000000,"state":"active","ping":83},{"user_id":820,"name":"Anri Okita's Massive Milkers","steam_id":76561199186352720,"connected_time":3146000000000,"state":"active","ping":52},{"user_id":854,"name":"Skip","steam_id":76561199014240063,"connected_time":152000000000,"state":"active","ping":125},{"user_id":843,"name":"Umbro","steam_id":76561198087930438,"connected_time":778000000000,"state":"active","ping":75},{"user_id":853,"name":"TTV Hunter","steam_id":76561198115812405,"connected_time":157000000000,"state":"active","ping":137},{"user_id":842,"name":"Kahvi","steam_id":76561198723244199,"connected_time":794000000000,"state":"active","ping":85},{"user_id":861,"name":"LegitACarWithAGun","steam_id":76561198081742337,"connected_time":76000000000,"state":"active","ping":98}]},{"server_id":321,"name":"Uncletopia | London | 4 | All Maps","name_short":"lon-4","host":"lon-1.uk.uncletopia.com","port":27045,"enabled":true,"region":"eu","cc":"gb","latitude":51.509865,"longitude":-0.118092,"reserved":0,"last_update":"0001-01-01T00:00:00Z","name_a2s":"Uncletopia | London | 4 | All Maps","protocol":17,"map":"koth_cascade","folder":"tf","game":"Team Fortress","app_id":440,"player_count":24,"max_players":24,"Bots":0,"server_type":"Dedicated","server_os":"Linux","password":true,"vac":true,"version":"7757534","steam_id":85568392924510193,"keywords":["cp","nocrits","nodmgspread","uncletopia"],"game_id":440,"stv_port":27046,"stv_name":"Uncletopia | London | 4 | All Maps | STV","players":[{"user_id":399,"name":"AigleChene","steam_id":76561198180089715,"connected_time":55000000000,"state":"active","ping":58},{"user_id":326,"name":"quickfast","steam_id":76561199438900919,"connected_time":5141000000000,"state":"active","ping":43},{"user_id":353,"name":"Mircoxi","steam_id":76561199407632710,"connected_time":3432000000000,"state":"active","ping":63},{"user_id":373,"name":"Steen","steam_id":76561198122992510,"connected_time":1768000000000,"state":"active","ping":45},{"user_id":382,"name":"Acheron","steam_id":76561198306593373,"connected_time":1011000000000,"state":"active","ping":76},{"user_id":380,"name":"Sodsboy","steam_id":76561198030482006,"connected_time":1061000000000,"state":"active","ping":43},{"user_id":385,"name":"banned","steam_id":76561198047359132,"connected_time":955000000000,"state":"active","ping":73},{"user_id":398,"name":"Mass","steam_id":76561198432195204,"connected_time":198000000000,"state":"active","ping":58},{"user_id":383,"name":"zapdos981","steam_id":76561198119674397,"connected_time":1004000000000,"state":"active","ping":74},{"user_id":384,"name":"Gorilla Brookville","steam_id":76561198152174185,"connected_time":1001000000000,"state":"active","ping":89},{"user_id":386,"name":"Cinnabyn","steam_id":76561198131623853,"connected_time":948000000000,"state":"active","ping":59},{"user_id":394,"name":"youtube.com/watch?v=dSrDTTn8rxA","steam_id":76561198324357479,"connected_time":721000000000,"state":"active","ping":76},{"user_id":286,"name":"TheUnusualLee","steam_id":76561198091736413,"connected_time":8755000000000,"state":"active","ping":41},{"user_id":395,"name":"Aigan","steam_id":76561198130354707,"connected_time":653000000000,"state":"active","ping":82},{"user_id":348,"name":"Arcader","steam_id":76561198109860110,"connected_time":4170000000000,"state":"active","ping":85},{"user_id":392,"name":"Mrbluuub","steam_id":76561199273847084,"connected_time":781000000000,"state":"active","ping":93},{"user_id":361,"name":"Carrot Arc","steam_id":76561198164957006,"connected_time":2532000000000,"state":"active","ping":85},{"user_id":389,"name":"_________","steam_id":76561198041576429,"connected_time":938000000000,"state":"active","ping":66},{"user_id":368,"name":"Proto-arc","steam_id":76561198012776747,"connected_time":2065000000000,"state":"active","ping":56},{"user_id":375,"name":"Archer","steam_id":76561198132860299,"connected_time":1699000000000,"state":"active","ping":59},{"user_id":315,"name":"mommy🖤x_x","steam_id":76561199204257697,"connected_time":5393000000000,"state":"active","ping":50},{"user_id":390,"name":"Snuggle","steam_id":76561198079353177,"connected_time":935000000000,"state":"active","ping":63},{"user_id":391,"name":"MorVill (Versity owes me 30$)","steam_id":76561198809859945,"connected_time":933000000000,"state":"active","ping":56},{"user_id":288,"name":"♥ Aura ♥","steam_id":76561198066258544,"connected_time":8694000000000,"state":"active","ping":61}]},{"server_id":21,"name":"Uncletopia | London | 5 | All Maps","name_short":"lon-5","host":"lon-1.uk.uncletopia.com","port":27055,"enabled":true,"region":"eu","cc":"gb","latitude":51.509865,"longitude":-0.118092,"reserved":0,"last_update":"0001-01-01T00:00:00Z","name_a2s":"Uncletopia | London | 5 | All Maps","protocol":17,"map":"koth_lakeside_final","folder":"tf","game":"Team Fortress","app_id":440,"player_count":3,"max_players":24,"Bots":0,"server_type":"Dedicated","server_os":"Linux","password":true,"vac":true,"version":"7757534","steam_id":85568392924742829,"keywords":["cp","nocrits","nodmgspread","uncletopia"],"game_id":440,"stv_port":27056,"stv_name":"Uncletopia | London | 5 | All Maps | STV","players":[{"user_id":47,"name":"godspeedyou!","steam_id":76561199474448245,"connected_time":1773000000000,"state":"active","ping":85},{"user_id":44,"name":"Ellis_Gaming","steam_id":76561199097614850,"connected_time":2576000000000,"state":"active","ping":82},{"user_id":58,"name":"Almond devourer","steam_id":76561198194866089,"connected_time":373000000000,"state":"active","ping":79}]},{"server_id":22,"name":"Uncletopia | London | 6 | All Maps","name_short":"lon-6","host":"lon-1.uk.uncletopia.com","port":27065,"enabled":true,"region":"eu","cc":"gb","latitude":51.509865,"longitude":-0.118092,"reserved":0,"last_update":"0001-01-01T00:00:00Z","name_a2s":"Uncletopia | London | 6 | All Maps","protocol":17,"map":"koth_cascade","folder":"tf","game":"Team Fortress","app_id":440,"player_count":0,"max_players":24,"Bots":0,"server_type":"Dedicated","server_os":"Linux","password":true,"vac":true,"version":"7757534","steam_id":85568392924742830,"keywords":["cp","nocrits","nodmgspread","uncletopia"],"game_id":440,"stv_port":27066,"stv_name":"Uncletopia | London | 6 | All Maps | STV","players":null},{"server_id":40,"name":"Uncletopia | London | 7 | No Payload","name_short":"lon-7","host":"lon-1.uk.uncletopia.com","port":27075,"enabled":true,"region":"eu","cc":"gb","latitude":51.509865,"longitude":-0.118092,"reserved":0,"last_update":"0001-01-01T00:00:00Z","name_a2s":"Uncletopia | London | 7 | No Payload","protocol":17,"map":"cp_dustbowl","folder":"tf","game":"Team Fortress","app_id":440,"player_count":17,"max_players":24,"Bots":0,"server_type":"Dedicated","server_os":"Linux","password":true,"vac":true,"version":"7757534","steam_id":85568392924964314,"keywords":["cp","nocrits","nodmgspread","uncletopia"],"game_id":440,"stv_port":27076,"stv_name":"Uncletopia | London | 7 | No Payload | STV","players":[{"user_id":713,"name":"spencer_knight","steam_id":76561198002925804,"connected_time":1413000000000,"state":"active","ping":56},{"user_id":756,"name":"Cburn","steam_id":76561199207330985,"connected_time":48000000000,"state":"active","ping":53},{"user_id":751,"name":"Bonerfart","steam_id":76561199039212537,"connected_time":345000000000,"state":"active","ping":104},{"user_id":759,"name":"Frostyh","steam_id":76561198009795528,"connected_time":36000000000,"state":"active","ping":91},{"user_id":637,"name":"Big Tits","steam_id":76561198071226377,"connected_time":6629000000000,"state":"active","ping":86},{"user_id":391,"name":"New","steam_id":76561198402195911,"connected_time":21858000000000,"state":"active","ping":110},{"user_id":717,"name":"Daikon","steam_id":76561198044017083,"connected_time":1387000000000,"state":"active","ping":70},{"user_id":718,"name":"Uno","steam_id":76561198023465646,"connected_time":1380000000000,"state":"active","ping":69},{"user_id":760,"name":"mespe","steam_id":76561198121530649,"connected_time":35000000000,"state":"active","ping":75},{"user_id":761,"name":"Stu_Strib","steam_id":76561197970588300,"connected_time":16000000000,"state":"active","ping":150},{"user_id":730,"name":"Cocteau Twins - Heaven or Las V","steam_id":76561198119470669,"connected_time":1135000000000,"state":"active","ping":61},{"user_id":638,"name":"ttk","steam_id":76561198094684065,"connected_time":6619000000000,"state":"active","ping":75},{"user_id":720,"name":"myrlejon","steam_id":76561198092480015,"connected_time":1369000000000,"state":"active","ping":51},{"user_id":750,"name":"JHZ","steam_id":76561197972248574,"connected_time":358000000000,"state":"active","ping":65},{"user_id":735,"name":"толя","steam_id":76561199098518615,"connected_time":935000000000,"state":"active","ping":93},{"user_id":753,"name":"Swani","steam_id":76561197984253846,"connected_time":164000000000,"state":"active","ping":94},{"user_id":754,"name":"XSCod","steam_id":76561198124586634,"connected_time":156000000000,"state":"active","ping":68}]},{"server_id":41,"name":"Uncletopia | London | 8 | Community","name_short":"lon-8","host":"lon-1.uk.uncletopia.com","port":27085,"enabled":true,"region":"eu","cc":"gb","latitude":51.509865,"longitude":-0.118092,"reserved":0,"last_update":"0001-01-01T00:00:00Z","name_a2s":"Uncletopia | London | 8 | Community","protocol":17,"map":"workshop/pl_divulgence_b4b.ugc2884808746","folder":"tf","game":"Team Fortress","app_id":440,"player_count":1,"max_players":24,"Bots":0,"server_type":"Dedicated","server_os":"Linux","password":true,"vac":true,"version":"7757534","steam_id":85568392924964315,"keywords":["nocrits","nodmgspread","payload","uncletopia"],"game_id":440,"stv_port":27086,"stv_name":"Uncletopia | London | 8 | Community | STV","players":[{"user_id":194,"name":"A_GingerIdiot","steam_id":76561198313306026,"connected_time":765000000000,"state":"active","ping":87}]},{"server_id":300,"name":"Uncletopia | Montréal | 1 | All Maps","name_short":"mtl-1","host":"mtl-1.ca.uncletopia.com","port":27015,"enabled":true,"region":"us-east","cc":"ca","latitude":45.50889,"longitude":-73.56167,"reserved":0,"last_update":"0001-01-01T00:00:00Z","name_a2s":"Uncletopia | Montréal | 1 | All Maps","protocol":17,"map":"koth_cascade","folder":"tf","game":"Team Fortress","app_id":440,"player_count":0,"max_players":24,"Bots":0,"server_type":"Dedicated","server_os":"Linux","password":true,"vac":true,"version":"7757534","steam_id":85568392924500087,"keywords":["cp","nocrits","nodmgspread","uncletopia"],"game_id":440,"stv_port":27016,"stv_name":"Uncletopia | Montréal | 1 | All Maps | STV","players":null},{"server_id":301,"name":"Uncletopia | Montréal | 2 | All Maps","name_short":"mtl-2","host":"mtl-1.ca.uncletopia.com","port":27025,"enabled":true,"region":"us-east","cc":"ca","latitude":45.50889,"longitude":-73.56167,"reserved":0,"last_update":"0001-01-01T00:00:00Z","name_a2s":"Uncletopia | Montréal | 2 | All Maps","protocol":17,"map":"cp_sunshine","folder":"tf","game":"Team Fortress","app_id":440,"player_count":0,"max_players":24,"Bots":0,"server_type":"Dedicated","server_os":"Linux","password":true,"vac":true,"version":"7757534","steam_id":85568392924500088,"keywords":["cp","nocrits","nodmgspread","uncletopia"],"game_id":440,"stv_port":27026,"stv_name":"Uncletopia | Montréal | 2 | All Maps | STV","players":null},{"server_id":302,"name":"Uncletopia | Montréal | 3 | All Maps","name_short":"mtl-3","host":"mtl-1.ca.uncletopia.com","port":27035,"enabled":true,"region":"us-east","cc":"ca","latitude":45.50889,"longitude":-73.56167,"reserved":0,"last_update":"0001-01-01T00:00:00Z","name_a2s":"Uncletopia | Montréal | 3 | All Maps","protocol":17,"map":"koth_lakeside_final","folder":"tf","game":"Team Fortress","app_id":440,"player_count":19,"max_players":24,"Bots":0,"server_type":"Dedicated","server_os":"Linux","password":true,"vac":true,"version":"7757534","steam_id":85568392924500089,"keywords":["cp","nocrits","nodmgspread","uncletopia"],"game_id":440,"stv_port":27036,"stv_name":"Uncletopia | Montréal | 3 | All Maps | STV","players":[{"user_id":21,"name":"Nedrog the Lost","steam_id":76561198272270244,"connected_time":5840000000000,"state":"active","ping":103},{"user_id":22,"name":"HappyHitchhiker","steam_id":76561198080228697,"connected_time":5836000000000,"state":"active","ping":103},{"user_id":23,"name":"TypicalGiftig","steam_id":76561198170372495,"connected_time":5812000000000,"state":"active","ping":99},{"user_id":24,"name":"Sp3ktrgfx","steam_id":76561198053070408,"connected_time":5789000000000,"state":"active","ping":99},{"user_id":39,"name":"Soup","steam_id":76561199051725488,"connected_time":847000000000,"state":"active","ping":193},{"user_id":37,"name":"gravid baby","steam_id":76561198318646867,"connected_time":1176000000000,"state":"active","ping":46},{"user_id":38,"name":"OPOC","steam_id":76561198026539183,"connected_time":1101000000000,"state":"active","ping":48},{"user_id":40,"name":"lost in spaaaaace","steam_id":76561199085974120,"connected_time":837000000000,"state":"active","ping":63},{"user_id":41,"name":".jpegged","steam_id":76561198120078454,"connected_time":826000000000,"state":"active","ping":86},{"user_id":45,"name":"Bomb Squirtle™","steam_id":76561197998931145,"connected_time":459000000000,"state":"active","ping":85},{"user_id":43,"name":"Maple!","steam_id":76561199315167502,"connected_time":646000000000,"state":"active","ping":49},{"user_id":46,"name":"Rue","steam_id":76561198013135993,"connected_time":432000000000,"state":"active","ping":45},{"user_id":47,"name":"Kedata","steam_id":76561198047750050,"connected_time":198000000000,"state":"active","ping":60},{"user_id":48,"name":"dr2d2","steam_id":76561198303162464,"connected_time":101000000000,"state":"active","ping":62},{"user_id":49,"name":"Groys mlkhmh","steam_id":76561199008953886,"connected_time":91000000000,"state":"active","ping":89},{"user_id":50,"name":"Hint of Vitriol","steam_id":76561198039323223,"connected_time":72000000000,"state":"active","ping":77},{"user_id":51,"name":"Gator","steam_id":76561198185982730,"connected_time":38000000000,"state":"active","ping":56},{"user_id":52,"name":"Master Of Whales","steam_id":76561198349104889,"connected_time":22000000000,"state":"spawning","ping":118},{"user_id":53,"name":"faxxy","steam_id":76561198079621240,"connected_time":18000000000,"state":"active","ping":60}]},{"server_id":303,"name":"Uncletopia | Montréal | 4 | No Payload","name_short":"mtl-4","host":"mtl-1.ca.uncletopia.com","port":27045,"enabled":true,"region":"us-east","cc":"ca","latitude":45.50889,"longitude":-73.56167,"reserved":0,"last_update":"0001-01-01T00:00:00Z","name_a2s":"Uncletopia | Montréal | 4 | No Payload","protocol":17,"map":"ctf_sawmill","folder":"tf","game":"Team Fortress","app_id":440,"player_count":0,"max_players":24,"Bots":0,"server_type":"Dedicated","server_os":"Linux","password":true,"vac":true,"version":"7757534","steam_id":85568392924500090,"keywords":["ctf","nocrits","nodmgspread","uncletopia"],"game_id":440,"stv_port":27046,"stv_name":"Uncletopia | Montréal | 4 | No Payload | STV","players":null},{"server_id":13,"name":"Uncletopia | New York City | 1 | All Maps","name_short":"nyc-1","host":"nyc-1.us.uncletopia.com","port":27015,"enabled":true,"region":"us-east","cc":"us","latitude":40.73061,"longitude":-73.93524,"reserved":0,"last_update":"0001-01-01T00:00:00Z","name_a2s":"Uncletopia | New York City | 1 | All Maps","protocol":17,"map":"pl_upward","folder":"tf","game":"Team Fortress","app_id":440,"player_count":24,"max_players":24,"Bots":0,"server_type":"Dedicated","server_os":"Linux","password":true,"vac":true,"version":"7757534","steam_id":85568392924469993,"keywords":["nocrits","nodmgspread","payload","uncletopia"],"game_id":440,"stv_port":27016,"stv_name":"Uncletopia | New York City | 1 | All Maps | STV","players":[{"user_id":546,"name":"RoJoCal","steam_id":76561198084029937,"connected_time":1589000000000,"state":"active","ping":141},{"user_id":563,"name":"twitch.tv/NatePlayz97","steam_id":76561198184494979,"connected_time":1047000000000,"state":"active","ping":64},{"user_id":554,"name":"jamzine","steam_id":76561198186168293,"connected_time":1158000000000,"state":"active","ping":55},{"user_id":571,"name":"Strikerdude213","steam_id":76561198258636553,"connected_time":133000000000,"state":"active","ping":128},{"user_id":569,"name":"The Drunk Clown","steam_id":76561197986850426,"connected_time":241000000000,"state":"active","ping":70},{"user_id":452,"name":"Glitchy stick","steam_id":76561199013429386,"connected_time":6097000000000,"state":"active","ping":59},{"user_id":555,"name":"WhoWee","steam_id":76561198269471732,"connected_time":1141000000000,"state":"active","ping":84},{"user_id":570,"name":"Breezy","steam_id":76561198378076756,"connected_time":227000000000,"state":"active","ping":77},{"user_id":564,"name":"Lots0","steam_id":76561198043143145,"connected_time":996000000000,"state":"active","ping":119},{"user_id":489,"name":"Code","steam_id":76561198121528534,"connected_time":4101000000000,"state":"active","ping":56},{"user_id":557,"name":"GalaxyFoxMC","steam_id":76561199109558624,"connected_time":1111000000000,"state":"active","ping":63},{"user_id":504,"name":"Yakul","steam_id":76561198100040013,"connected_time":3680000000000,"state":"active","ping":89},{"user_id":480,"name":"DeviserDude","steam_id":76561198298631671,"connected_time":4746000000000,"state":"active","ping":73},{"user_id":558,"name":"|WS| Don't_Taze_Me_Bro","steam_id":76561198043289495,"connected_time":1110000000000,"state":"active","ping":72},{"user_id":506,"name":"A Lost CAWs","steam_id":76561198127120212,"connected_time":3668000000000,"state":"active","ping":89},{"user_id":559,"name":"PaPá Soulzuneヅ","steam_id":76561198139615052,"connected_time":1106000000000,"state":"active","ping":115},{"user_id":561,"name":"Zekenuggets","steam_id":76561198361648511,"connected_time":1069000000000,"state":"active","ping":60},{"user_id":566,"name":"TravelerFinis","steam_id":76561199181244690,"connected_time":596000000000,"state":"active","ping":118},{"user_id":550,"name":"c953","steam_id":76561198798981682,"connected_time":1418000000000,"state":"active","ping":88},{"user_id":516,"name":"HeisenBurger","steam_id":76561198040632080,"connected_time":3469000000000,"state":"active","ping":64},{"user_id":539,"name":"beE","steam_id":76561198122687173,"connected_time":1997000000000,"state":"active","ping":87},{"user_id":547,"name":"Quansen","steam_id":76561198151594550,"connected_time":1470000000000,"state":"active","ping":61},{"user_id":567,"name":"20 miles for a Quaalude","steam_id":76561198042579477,"connected_time":417000000000,"state":"active","ping":54},{"user_id":545,"name":"Back with the milk","steam_id":76561199020105501,"connected_time":1606000000000,"state":"active","ping":46}]},{"server_id":14,"name":"Uncletopia | New York City | 2 | All Maps","name_short":"nyc-2","host":"nyc-1.us.uncletopia.com","port":27025,"enabled":true,"region":"us-east","cc":"us","latitude":40.73061,"longitude":-73.93524,"reserved":0,"last_update":"0001-01-01T00:00:00Z","name_a2s":"Uncletopia | New York City | 2 | All Maps","protocol":17,"map":"pl_badwater","folder":"tf","game":"Team Fortress","app_id":440,"player_count":24,"max_players":24,"Bots":0,"server_type":"Dedicated","server_os":"Linux","password":true,"vac":true,"version":"7757534","steam_id":85568392924469994,"keywords":["nocrits","nodmgspread","payload","uncletopia"],"game_id":440,"stv_port":27026,"stv_name":"Uncletopia | New York City | 2 | All Maps | STV","players":[{"user_id":338,"name":"FattSucc","steam_id":76561198009500503,"connected_time":112000000000,"state":"active","ping":103},{"user_id":306,"name":"Polygunner","steam_id":76561199165741650,"connected_time":2536000000000,"state":"active","ping":64},{"user_id":336,"name":"tabasco","steam_id":76561198355094896,"connected_time":408000000000,"state":"active","ping":64},{"user_id":328,"name":"Wattchit","steam_id":76561197999410233,"connected_time":648000000000,"state":"active","ping":83},{"user_id":268,"name":"Billy Smiles","steam_id":76561198066154229,"connected_time":4956000000000,"state":"active","ping":122},{"user_id":263,"name":"The Escape Plan","steam_id":76561199278125206,"connected_time":5058000000000,"state":"active","ping":222},{"user_id":303,"name":"xen","steam_id":76561198048568188,"connected_time":2699000000000,"state":"active","ping":59},{"user_id":313,"name":"ChaoticAngel","steam_id":76561198293528217,"connected_time":1929000000000,"state":"active","ping":55},{"user_id":267,"name":"Kago","steam_id":76561198122617301,"connected_time":4985000000000,"state":"active","ping":44},{"user_id":326,"name":"Architect","steam_id":76561198015242016,"connected_time":850000000000,"state":"active","ping":72},{"user_id":304,"name":"airballer","steam_id":76561198165899125,"connected_time":2669000000000,"state":"active","ping":53},{"user_id":319,"name":"Moon_Worthy","steam_id":76561198106321418,"connected_time":1588000000000,"state":"active","ping":99},{"user_id":302,"name":"evnobev","steam_id":76561198038966462,"connected_time":2783000000000,"state":"active","ping":45},{"user_id":339,"name":"The Potato Romancer","steam_id":76561198204197648,"connected_time":54000000000,"state":"active","ping":107},{"user_id":323,"name":"-π- BakaD","steam_id":76561197960559169,"connected_time":1098000000000,"state":"active","ping":45},{"user_id":332,"name":"Timur","steam_id":76561197989552257,"connected_time":554000000000,"state":"active","ping":72},{"user_id":232,"name":"PunchGhost","steam_id":76561198041668043,"connected_time":7427000000000,"state":"active","ping":68},{"user_id":337,"name":"Pig","steam_id":76561198276179693,"connected_time":223000000000,"state":"active","ping":76},{"user_id":327,"name":"magotago","steam_id":76561198013650292,"connected_time":725000000000,"state":"active","ping":113},{"user_id":309,"name":"nissan maltima","steam_id":76561198044034546,"connected_time":2219000000000,"state":"active","ping":57},{"user_id":334,"name":"Naugs²","steam_id":76561198014273132,"connected_time":531000000000,"state":"active","ping":60},{"user_id":321,"name":"Redkiller","steam_id":76561199453655288,"connected_time":1573000000000,"state":"active","ping":65},{"user_id":281,"name":"SuperFresh","steam_id":76561198200723198,"connected_time":3745000000000,"state":"active","ping":56},{"user_id":335,"name":"Aradia","steam_id":76561198800087430,"connected_time":531000000000,"state":"active","ping":103}]},{"server_id":15,"name":"Uncletopia | New York City | 3 | Stopwatch Beta","name_short":"nyc-3","host":"nyc-1.us.uncletopia.com","port":27035,"enabled":true,"region":"us-east","cc":"us","latitude":40.73061,"longitude":-73.93524,"reserved":0,"last_update":"0001-01-01T00:00:00Z","name_a2s":"Uncletopia | New York City | 3 | Stopwatch Beta","protocol":17,"map":"workshop/pl_badwater_pro_v12.ugc2142942074","folder":"tf","game":"Team Fortress","app_id":440,"player_count":0,"max_players":24,"Bots":0,"server_type":"Dedicated","server_os":"Linux","password":true,"vac":true,"version":"7757534","steam_id":85568392924742820,"keywords":["nocrits","nodmgspread","payload","uncletopia"],"game_id":440,"stv_port":27036,"stv_name":"Uncletopia | New York City | 3 | Stopwatch Beta | STV","players":null},{"server_id":16,"name":"Uncletopia | New York City | 4 | Community","name_short":"nyc-4","host":"nyc-1.us.uncletopia.com","port":27045,"enabled":true,"region":"us-east","cc":"us","latitude":40.73061,"longitude":-73.93524,"reserved":0,"last_update":"0001-01-01T00:00:00Z","name_a2s":"Uncletopia | New York City | 4 | Community","protocol":17,"map":"workshop/rd_asteroid_redux_b1.ugc2154902912","folder":"tf","game":"Team Fortress","app_id":440,"player_count":0,"max_players":24,"Bots":0,"server_type":"Dedicated","server_os":"Linux","password":true,"vac":true,"version":"7757534","steam_id":85568392924742821,"keywords":["beta","nocrits","nodmgspread","rd","uncletopia"],"game_id":440,"stv_port":27046,"stv_name":"Uncletopia | New York City | 4 | Community | STV","players":null},{"server_id":142,"name":"Uncletopia | São Paulo | 1 | All Maps","name_short":"sao-1","host":"sao-1.br.uncletopia.com","port":27015,"enabled":true,"region":"sa","cc":"br","latitude":-23.533773,"longitude":-46.62529,"reserved":0,"last_update":"0001-01-01T00:00:00Z","name_a2s":"Uncletopia | São Paulo | 1 | All Maps","protocol":17,"map":"koth_highpass","folder":"tf","game":"Team Fortress","app_id":440,"player_count":0,"max_players":24,"Bots":0,"server_type":"Dedicated","server_os":"Linux","password":true,"vac":true,"version":"7757534","steam_id":85568392924469996,"keywords":["cp","nocrits","nodmgspread","uncletopia"],"game_id":440,"stv_port":27016,"stv_name":"Uncletopia | São Paulo | 1 | All Maps | STV","players":null},{"server_id":143,"name":"Uncletopia | São Paulo | 2 | All Maps","name_short":"sao-2","host":"sao-2.br.uncletopia.com","port":27015,"enabled":true,"region":"sa","cc":"br","latitude":-23.533773,"longitude":-46.62529,"reserved":0,"last_update":"0001-01-01T00:00:00Z","name_a2s":"Uncletopia | São Paulo | 2 | All Maps","protocol":17,"map":"pl_snowycoast","folder":"tf","game":"Team Fortress","app_id":440,"player_count":0,"max_players":24,"Bots":0,"server_type":"Dedicated","server_os":"Linux","password":true,"vac":true,"version":"7757534","steam_id":85568392924485349,"keywords":["nocrits","nodmgspread","payload","uncletopia"],"game_id":440,"stv_port":27016,"stv_name":"Uncletopia | São Paulo | 2 | All Maps | STV","players":null},{"server_id":7,"name":"Uncletopia | Seattle | 1 | All Maps","name_short":"sea-1","host":"sea-1.us.uncletopia.com","port":27015,"enabled":true,"region":"us-west","cc":"us","latitude":47.608013,"longitude":-122.33517,"reserved":0,"last_update":"0001-01-01T00:00:00Z","name_a2s":"Uncletopia | Seattle | 1 | All Maps","protocol":17,"map":"cp_dustbowl","folder":"tf","game":"Team Fortress","app_id":440,"player_count":23,"max_players":24,"Bots":0,"server_type":"Dedicated","server_os":"Linux","password":true,"vac":true,"version":"7757534","steam_id":85568392924469997,"keywords":["cp","nocrits","nodmgspread","uncletopia"],"game_id":440,"stv_port":27016,"stv_name":"Uncletopia | Seattle | 1 | All Maps | STV","players":[{"user_id":353,"name":"tekan","steam_id":76561199077174231,"connected_time":1850000000000,"state":"active","ping":91},{"user_id":355,"name":"Doctor Bear ʕ •ᴥ•ʔ","steam_id":76561197968103161,"connected_time":1808000000000,"state":"active","ping":115},{"user_id":330,"name":"Level 99 Mudcrab","steam_id":76561198077452771,"connected_time":3150000000000,"state":"active","ping":52},{"user_id":372,"name":"Koopa","steam_id":76561198841520662,"connected_time":857000000000,"state":"active","ping":67},{"user_id":365,"name":"Glue","steam_id":76561198208825584,"connected_time":1093000000000,"state":"active","ping":62},{"user_id":317,"name":"Tyzombiecrusher","steam_id":76561198175855278,"connected_time":3558000000000,"state":"active","ping":92},{"user_id":366,"name":"Tri-Dot","steam_id":76561199075186597,"connected_time":1084000000000,"state":"active","ping":106},{"user_id":329,"name":"al-Kohol","steam_id":76561197998530400,"connected_time":3234000000000,"state":"active","ping":67},{"user_id":375,"name":"Quick","steam_id":76561198047992935,"connected_time":255000000000,"state":"active","ping":81},{"user_id":351,"name":"Swaggot","steam_id":76561199104492369,"connected_time":1903000000000,"state":"active","ping":77},{"user_id":361,"name":"Google","steam_id":76561198857237473,"connected_time":1640000000000,"state":"active","ping":46},{"user_id":323,"name":"Chad the Sex Haver","steam_id":76561198058236528,"connected_time":3416000000000,"state":"active","ping":85},{"user_id":376,"name":"roy yanhuh","steam_id":76561198453203619,"connected_time":180000000000,"state":"active","ping":64},{"user_id":377,"name":"Bertram","steam_id":76561199229577594,"connected_time":31000000000,"state":"spawning","ping":75},{"user_id":369,"name":"doomshroom","steam_id":76561198092827250,"connected_time":1008000000000,"state":"active","ping":55},{"user_id":367,"name":"Zumbah","steam_id":76561197975403036,"connected_time":1059000000000,"state":"active","ping":90},{"user_id":290,"name":"Moth","steam_id":76561198170253694,"connected_time":5855000000000,"state":"active","ping":58},{"user_id":374,"name":"Mom","steam_id":76561198207936000,"connected_time":808000000000,"state":"active","ping":56},{"user_id":380,"name":"Kir","steam_id":76561198057745344,"connected_time":12000000000,"state":"spawning","ping":86},{"user_id":325,"name":"Grify","steam_id":76561198012292317,"connected_time":3388000000000,"state":"active","ping":147},{"user_id":360,"name":"Sheev Palpatine","steam_id":76561198252332430,"connected_time":1769000000000,"state":"active","ping":90},{"user_id":364,"name":"DRACO$","steam_id":76561198389198223,"connected_time":1480000000000,"state":"active","ping":59},{"user_id":379,"name":"L","steam_id":76561198046074220,"connected_time":30000000000,"state":"active","ping":75}]},{"server_id":119,"name":"Uncletopia | Seattle | 2 | All Maps","name_short":"sea-2","host":"sea-1.us.uncletopia.com","port":27025,"enabled":true,"region":"us-west","cc":"us","latitude":47.608013,"longitude":-122.33517,"reserved":0,"last_update":"0001-01-01T00:00:00Z","name_a2s":"Uncletopia | Seattle | 2 | All Maps","protocol":17,"map":"pl_snowycoast","folder":"tf","game":"Team Fortress","app_id":440,"player_count":24,"max_players":24,"Bots":0,"server_type":"Dedicated","server_os":"Linux","password":true,"vac":true,"version":"7757534","steam_id":85568392924469998,"keywords":["nocrits","nodmgspread","payload","uncletopia"],"game_id":440,"stv_port":27026,"stv_name":"Uncletopia | Seattle | 2 | All Maps | STV","players":[{"user_id":261,"name":"bird doctor","steam_id":76561199144340440,"connected_time":2124000000000,"state":"active","ping":63},{"user_id":295,"name":"$2.99 Shrimps","steam_id":76561198077272494,"connected_time":16000000000,"state":"spawning","ping":97},{"user_id":286,"name":"Ghost Five Nine","steam_id":76561198064883411,"connected_time":1205000000000,"state":"active","ping":97},{"user_id":272,"name":"Algibruh","steam_id":76561199221599415,"connected_time":1775000000000,"state":"active","ping":44},{"user_id":290,"name":"GUINNESS ANYONE?","steam_id":76561197985970131,"connected_time":1068000000000,"state":"active","ping":119},{"user_id":245,"name":"Birdman743","steam_id":76561198799636748,"connected_time":2466000000000,"state":"active","ping":56},{"user_id":289,"name":"nathan","steam_id":76561198170402666,"connected_time":1172000000000,"state":"active","ping":72},{"user_id":246,"name":"blahturretx","steam_id":76561198062998225,"connected_time":2464000000000,"state":"active","ping":61},{"user_id":227,"name":"JaQweek","steam_id":76561198231561020,"connected_time":3738000000000,"state":"active","ping":46},{"user_id":291,"name":"Mr.Pan","steam_id":76561198069030613,"connected_time":991000000000,"state":"active","ping":76},{"user_id":250,"name":"Bonks","steam_id":76561198972835565,"connected_time":2310000000000,"state":"active","ping":40},{"user_id":293,"name":"Lesbian Futa Mommy","steam_id":76561198130479030,"connected_time":48000000000,"state":"active","ping":52},{"user_id":251,"name":"krootonitron","steam_id":76561198114113037,"connected_time":2281000000000,"state":"active","ping":59},{"user_id":288,"name":"Fat Boy Bully","steam_id":76561198151700708,"connected_time":1198000000000,"state":"active","ping":92},{"user_id":278,"name":"antoniov00gaming","steam_id":76561198364632073,"connected_time":1498000000000,"state":"active","ping":129},{"user_id":259,"name":"AmiableNebula","steam_id":76561198094306627,"connected_time":2186000000000,"state":"active","ping":75},{"user_id":285,"name":"EatSports","steam_id":76561198009384115,"connected_time":1221000000000,"state":"active","ping":100},{"user_id":265,"name":"Mint Widget","steam_id":76561198036875245,"connected_time":2061000000000,"state":"active","ping":63},{"user_id":276,"name":"Dargoos","steam_id":76561198366212046,"connected_time":1666000000000,"state":"active","ping":72},{"user_id":273,"name":"oil","steam_id":76561198099980149,"connected_time":1768000000000,"state":"active","ping":75},{"user_id":292,"name":"Keamy","steam_id":76561199471434875,"connected_time":627000000000,"state":"active","ping":31},{"user_id":258,"name":"Nexo Fighter","steam_id":76561199187418090,"connected_time":2201000000000,"state":"active","ping":170},{"user_id":275,"name":"Leftshadows","steam_id":76561199089515791,"connected_time":1680000000000,"state":"active","ping":87},{"user_id":294,"name":"mooney","steam_id":76561199110622484,"connected_time":47000000000,"state":"spawning","ping":44}]},{"server_id":406,"name":"Uncletopia | Seattle | 3 | Stopwatch Beta","name_short":"sea-3","host":"sea-1.us.uncletopia.com","port":27035,"enabled":true,"region":"us-west","cc":"us","latitude":47.608013,"longitude":-122.33517,"reserved":0,"last_update":"0001-01-01T00:00:00Z","name_a2s":"Uncletopia | Seattle | 3 | Stopwatch Beta","protocol":17,"map":"workshop/koth_ashville_final.ugc2130459942","folder":"tf","game":"Team Fortress","app_id":440,"player_count":0,"max_players":24,"Bots":0,"server_type":"Dedicated","server_os":"Linux","password":true,"vac":true,"version":"7757534","steam_id":85568392924515217,"keywords":["cp","nocrits","nodmgspread","uncletopia"],"game_id":440,"stv_port":27036,"stv_name":"Uncletopia | Seattle | 3 | Stopwatch Beta | STV","players":null},{"server_id":17,"name":"Uncletopia | San Francisco | 1 | All Maps","name_short":"sfo-1","host":"sfo-1.us.uncletopia.com","port":27015,"enabled":true,"region":"us-west","cc":"us","latitude":37.77397,"longitude":-122.4313,"reserved":0,"last_update":"0001-01-01T00:00:00Z","name_a2s":"Uncletopia | San Francisco | 1 | All Maps","protocol":17,"map":"pl_borneo","folder":"tf","game":"Team Fortress","app_id":440,"player_count":2,"max_players":24,"Bots":0,"server_type":"Dedicated","server_os":"Linux","password":true,"vac":true,"version":"7757534","steam_id":85568392924469999,"keywords":["nocrits","nodmgspread","payload","uncletopia"],"game_id":440,"stv_port":27016,"stv_name":"Uncletopia | San Francisco | 1 | All Maps | STV","players":[{"user_id":22,"name":"whitneyscience1","steam_id":76561199405650048,"connected_time":63000000000,"state":"active","ping":147},{"user_id":23,"name":"The Glizzanator","steam_id":76561198115355451,"connected_time":38000000000,"state":"active","ping":39}]},{"server_id":18,"name":"Uncletopia | San Francisco | 2 | All Maps","name_short":"sfo-2","host":"sfo-1.us.uncletopia.com","port":27025,"enabled":true,"region":"us-west","cc":"us","latitude":37.77397,"longitude":-122.4313,"reserved":0,"last_update":"0001-01-01T00:00:00Z","name_a2s":"Uncletopia | San Francisco | 2 | All Maps","protocol":17,"map":"pl_swiftwater_final1","folder":"tf","game":"Team Fortress","app_id":440,"player_count":24,"max_players":24,"Bots":0,"server_type":"Dedicated","server_os":"Linux","password":true,"vac":true,"version":"7757534","steam_id":85568392924470000,"keywords":["nocrits","nodmgspread","payload","uncletopia"],"game_id":440,"stv_port":27026,"stv_name":"Uncletopia | San Francisco | 2 | All Maps | STV","players":[{"user_id":115,"name":"lol","steam_id":76561198026491738,"connected_time":1178000000000,"state":"active","ping":63},{"user_id":126,"name":"iivy","steam_id":76561198068464819,"connected_time":586000000000,"state":"active","ping":69},{"user_id":79,"name":"riSygneD","steam_id":76561198331618687,"connected_time":2891000000000,"state":"active","ping":43},{"user_id":93,"name":"jeffus13","steam_id":76561199347238848,"connected_time":1998000000000,"state":"active","ping":77},{"user_id":40,"name":"john","steam_id":76561198850447852,"connected_time":4315000000000,"state":"active","ping":77},{"user_id":104,"name":"vampire","steam_id":76561198125261443,"connected_time":1531000000000,"state":"active","ping":79},{"user_id":86,"name":"Arbiter Soul","steam_id":76561198067798973,"connected_time":2660000000000,"state":"active","ping":72},{"user_id":138,"name":"metaLfaceshriLL","steam_id":76561198105538929,"connected_time":124000000000,"state":"active","ping":104},{"user_id":120,"name":"bladees saddest, realest verse","steam_id":76561198098099826,"connected_time":798000000000,"state":"active","ping":71},{"user_id":130,"name":"Bing Soy","steam_id":76561199091381775,"connected_time":437000000000,"state":"active","ping":68},{"user_id":110,"name":"Mintavious","steam_id":76561198235953338,"connected_time":1256000000000,"state":"active","ping":109},{"user_id":122,"name":"30 fps gaming","steam_id":76561199216756079,"connected_time":762000000000,"state":"active","ping":148},{"user_id":98,"name":"Nnyllazxz","steam_id":76561198247797436,"connected_time":1776000000000,"state":"active","ping":138},{"user_id":114,"name":"Soap Man","steam_id":76561198000490235,"connected_time":1193000000000,"state":"active","ping":93},{"user_id":106,"name":"the dishtv1605","steam_id":76561198061284371,"connected_time":1502000000000,"state":"active","ping":120},{"user_id":118,"name":"Hikage","steam_id":76561198152901166,"connected_time":973000000000,"state":"active","ping":156},{"user_id":125,"name":"din afore","steam_id":76561198079892116,"connected_time":661000000000,"state":"active","ping":103},{"user_id":123,"name":"Marksito14","steam_id":76561199132272437,"connected_time":702000000000,"state":"active","ping":87},{"user_id":48,"name":"Mina's Ninas","steam_id":76561198046502179,"connected_time":4171000000000,"state":"active","ping":71},{"user_id":136,"name":"Nova Academy of Salmon Action","steam_id":76561198021842526,"connected_time":221000000000,"state":"active","ping":68},{"user_id":133,"name":"challen","steam_id":76561197961277967,"connected_time":397000000000,"state":"active","ping":50},{"user_id":102,"name":"park","steam_id":76561198084055316,"connected_time":1661000000000,"state":"active","ping":106},{"user_id":135,"name":"uzr","steam_id":76561198799343084,"connected_time":374000000000,"state":"active","ping":63},{"user_id":73,"name":"CrazySquirrel","steam_id":76561198206338200,"connected_time":3232000000000,"state":"active","ping":115}]},{"server_id":19,"name":"Uncletopia | San Francisco | 3 | Stopwatch Beta","name_short":"sfo-3","host":"sfo-1.us.uncletopia.com","port":27035,"enabled":true,"region":"us-west","cc":"us","latitude":37.77397,"longitude":-122.4313,"reserved":0,"last_update":"0001-01-01T00:00:00Z","name_a2s":"Uncletopia | San Francisco | 3 | Stopwatch Beta","protocol":17,"map":"workshop/koth_bagel_rc6.ugc2514036946","folder":"tf","game":"Team Fortress","app_id":440,"player_count":0,"max_players":24,"Bots":0,"server_type":"Dedicated","server_os":"Linux","password":true,"vac":true,"version":"7757534","steam_id":85568392924742824,"keywords":["cp","nocrits","nodmgspread","uncletopia"],"game_id":440,"stv_port":27036,"stv_name":"Uncletopia | San Francisco | 3 | Stopwatch Beta | STV","players":null},{"server_id":20,"name":"Uncletopia | San Francisco | 4 | Community","name_short":"sfo-4","host":"sfo-1.us.uncletopia.com","port":27045,"enabled":true,"region":"us-west","cc":"us","latitude":37.77397,"longitude":-122.4313,"reserved":0,"last_update":"0001-01-01T00:00:00Z","name_a2s":"Uncletopia | San Francisco | 4 | Community","protocol":17,"map":"workshop/cp_bruhstbowl_b5.ugc2878604990","folder":"tf","game":"Team Fortress","app_id":440,"player_count":24,"max_players":24,"Bots":0,"server_type":"Dedicated","server_os":"Linux","password":true,"vac":true,"version":"7757534","steam_id":85568392924742826,"keywords":["cp","nocrits","nodmgspread","uncletopia"],"game_id":440,"stv_port":27046,"stv_name":"Uncletopia | San Francisco | 4 | Community | STV","players":[{"user_id":109,"name":"jawnymac","steam_id":76561198179529599,"connected_time":6429000000000,"state":"active","ping":57},{"user_id":190,"name":"Emails","steam_id":76561198836919458,"connected_time":1861000000000,"state":"active","ping":122},{"user_id":137,"name":"TheDogeIsReal","steam_id":76561199331300024,"connected_time":4923000000000,"state":"active","ping":75},{"user_id":191,"name":"Omnoman","steam_id":76561198006258213,"connected_time":1505000000000,"state":"active","ping":128},{"user_id":181,"name":"The Cop Fentanyl Debuff","steam_id":76561197991817974,"connected_time":2382000000000,"state":"active","ping":56},{"user_id":199,"name":"lolgamer247","steam_id":76561198974645534,"connected_time":1078000000000,"state":"active","ping":88},{"user_id":146,"name":"girl pisser","steam_id":76561198065848254,"connected_time":4265000000000,"state":"active","ping":118},{"user_id":101,"name":"Hairy Pear","steam_id":76561198087397457,"connected_time":7089000000000,"state":"active","ping":85},{"user_id":196,"name":"ITALIAN AXE","steam_id":76561198442556119,"connected_time":1135000000000,"state":"active","ping":159},{"user_id":192,"name":"Bastee1021","steam_id":76561199456141163,"connected_time":1501000000000,"state":"active","ping":85},{"user_id":172,"name":"pythagorean theorem","steam_id":76561199043068973,"connected_time":3048000000000,"state":"active","ping":45},{"user_id":197,"name":"Gigabars","steam_id":76561198119267479,"connected_time":1114000000000,"state":"active","ping":114},{"user_id":147,"name":"The Freak","steam_id":76561198145304571,"connected_time":4260000000000,"state":"active","ping":50},{"user_id":193,"name":"Papa Panda","steam_id":76561198159061475,"connected_time":1485000000000,"state":"active","ping":56},{"user_id":182,"name":"Tim Duncan","steam_id":76561198010557666,"connected_time":2244000000000,"state":"active","ping":85},{"user_id":187,"name":"bergly","steam_id":76561198811650078,"connected_time":2009000000000,"state":"active","ping":120},{"user_id":188,"name":"SHI ' THEAD","steam_id":76561198119697137,"connected_time":1930000000000,"state":"active","ping":92},{"user_id":161,"name":"t.tv/FamilyGuyFunnyMoments277","steam_id":76561198416047580,"connected_time":3241000000000,"state":"active","ping":146},{"user_id":198,"name":"CashBin","steam_id":76561199382865598,"connected_time":1110000000000,"state":"active","ping":94},{"user_id":200,"name":"azureglxy","steam_id":76561198861388315,"connected_time":1052000000000,"state":"active","ping":50},{"user_id":202,"name":"lotus","steam_id":76561198057510009,"connected_time":891000000000,"state":"active","ping":57},{"user_id":178,"name":"yung fujo","steam_id":76561198116908911,"connected_time":2641000000000,"state":"active","ping":124},{"user_id":203,"name":"resh","steam_id":76561198239598834,"connected_time":79000000000,"state":"active","ping":110},{"user_id":166,"name":"Blue Banana","steam_id":76561198100077411,"connected_time":3208000000000,"state":"active","ping":59}]},{"server_id":141,"name":"Uncletopia | Sydney | 1 | All Maps","name_short":"syd-1","host":"syd-1.au.uncletopia.com","port":27015,"enabled":true,"region":"au","cc":"au","latitude":-33.865143,"longitude":151.2099,"reserved":0,"last_update":"0001-01-01T00:00:00Z","name_a2s":"Uncletopia | Sydney | 1 | All Maps","protocol":17,"map":"pl_borneo","folder":"tf","game":"Team Fortress","app_id":440,"player_count":0,"max_players":24,"Bots":0,"server_type":"Dedicated","server_os":"Linux","password":true,"vac":true,"version":"7757534","steam_id":85568392924470001,"keywords":["nocrits","nodmgspread","payload","uncletopia"],"game_id":440,"stv_port":27016,"stv_name":"Uncletopia | Sydney | 1 | All Maps | STV","players":null},{"server_id":123,"name":"Uncletopia | Sydney | 2 | All Maps","name_short":"syd-2","host":"syd-1.au.uncletopia.com","port":27025,"enabled":true,"region":"au","cc":"au","latitude":-33.865143,"longitude":151.2099,"reserved":0,"last_update":"0001-01-01T00:00:00Z","name_a2s":"Uncletopia | Sydney | 2 | All Maps","protocol":17,"map":"koth_viaduct","folder":"tf","game":"Team Fortress","app_id":440,"player_count":0,"max_players":24,"Bots":0,"server_type":"Dedicated","server_os":"Linux","password":true,"vac":true,"version":"7757534","steam_id":85568392924470002,"keywords":["cp","nocrits","nodmgspread","uncletopia"],"game_id":440,"stv_port":27026,"stv_name":"Uncletopia | Sydney | 2 | All Maps | STV","players":null},{"server_id":395,"name":"Uncletopia | Sydney | 3 | All Maps","name_short":"syd-3","host":"syd-1.au.uncletopia.com","port":27035,"enabled":true,"region":"au","cc":"au","latitude":-33.865143,"longitude":151.2099,"reserved":0,"last_update":"0001-01-01T00:00:00Z","name_a2s":"Uncletopia | Sydney | 3 | All Maps","protocol":17,"map":"pl_borneo","folder":"tf","game":"Team Fortress","app_id":440,"player_count":0,"max_players":24,"Bots":0,"server_type":"Dedicated","server_os":"Linux","password":true,"vac":true,"version":"7757534","steam_id":85568392925194467,"keywords":["nocrits","nodmgspread","payload","uncletopia"],"game_id":440,"stv_port":27036,"stv_name":"Uncletopia | Sydney | 3 | All Maps | STV","players":null},{"server_id":396,"name":"Uncletopia | Sydney | 4 | All Maps","name_short":"syd-4","host":"syd-1.au.uncletopia.com","port":27045,"enabled":true,"region":"au","cc":"au","latitude":-33.865143,"longitude":151.2099,"reserved":0,"last_update":"0001-01-01T00:00:00Z","name_a2s":"Uncletopia | Sydney | 4 | All Maps","protocol":17,"map":"cp_process_final","folder":"tf","game":"Team Fortress","app_id":440,"player_count":0,"max_players":24,"Bots":0,"server_type":"Dedicated","server_os":"Linux","password":true,"vac":true,"version":"7757534","steam_id":85568392925397958,"keywords":["cp","nocrits","nodmgspread","uncletopia"],"game_id":440,"stv_port":27046,"stv_name":"Uncletopia | Sydney | 4 | All Maps | STV","players":null},{"server_id":58,"name":"Uncletopia | Sydney | 5 | Stopwatch Beta","name_short":"syd-5","host":"syd-1.au.uncletopia.com","port":27055,"enabled":true,"region":"au","cc":"au","latitude":-33.865143,"longitude":151.2099,"reserved":0,"last_update":"0001-01-01T00:00:00Z","name_a2s":"Uncletopia | Sydney | 5 | Stopwatch Beta","protocol":17,"map":"cp_sunshine","folder":"tf","game":"Team Fortress","app_id":440,"player_count":0,"max_players":24,"Bots":0,"server_type":"Dedicated","server_os":"Linux","password":true,"vac":true,"version":"7757534","steam_id":85568392925397959,"keywords":["cp","nocrits","nodmgspread","uncletopia"],"game_id":440,"stv_port":27056,"stv_name":"Uncletopia | Sydney | 5 | Stopwatch Beta | STV","players":null},{"server_id":59,"name":"Uncletopia | Sydney | 6 | Community","name_short":"syd-6","host":"syd-1.au.uncletopia.com","port":27065,"enabled":true,"region":"au","cc":"au","latitude":-33.865143,"longitude":151.2099,"reserved":0,"last_update":"0001-01-01T00:00:00Z","name_a2s":"Uncletopia | Sydney | 6 | Community","protocol":17,"map":"pl_badwater","folder":"tf","game":"Team Fortress","app_id":440,"player_count":0,"max_players":24,"Bots":0,"server_type":"Dedicated","server_os":"Linux","password":true,"vac":true,"version":"7757534","steam_id":85568392925397960,"keywords":["nocrits","nodmgspread","payload","uncletopia"],"game_id":440,"stv_port":27066,"stv_name":"Uncletopia | Sydney | 6 | Community | STV","players":null},{"server_id":49,"name":"Uncletopia | Warsaw | 1 | All Maps","name_short":"waw-1","host":"waw-1.pl.uncletopia.com","port":27015,"enabled":true,"region":"eu","cc":"pl","latitude":52.2297,"longitude":21.017532,"reserved":0,"last_update":"0001-01-01T00:00:00Z","name_a2s":"","protocol":0,"map":"","folder":"","game":"","app_id":0,"player_count":0,"max_players":0,"Bots":0,"server_type":"","server_os":"","password":false,"vac":false,"version":"","steam_id":0,"keywords":null,"game_id":0,"stv_port":0,"stv_name":"","players":null},{"server_id":50,"name":"Uncletopia | Warsaw | 2 | All Maps","name_short":"waw-2","host":"waw-1.pl.uncletopia.com","port":27025,"enabled":true,"region":"eu","cc":"pl","latitude":52.2297,"longitude":21.017532,"reserved":0,"last_update":"0001-01-01T00:00:00Z","name_a2s":"Uncletopia | Warsaw | 2 | All Maps","protocol":17,"map":"cp_mountainlab","folder":"tf","game":"Team Fortress","app_id":440,"player_count":0,"max_players":24,"Bots":0,"server_type":"Dedicated","server_os":"Linux","password":true,"vac":true,"version":"7757534","steam_id":85568392925397851,"keywords":["cp","nocrits","nodmgspread","uncletopia"],"game_id":440,"stv_port":27026,"stv_name":"Uncletopia | Warsaw | 2 | All Maps | STV","players":null},{"server_id":51,"name":"Uncletopia | Warsaw | 3 | All Maps","name_short":"waw-3","host":"waw-1.pl.uncletopia.com","port":27035,"enabled":true,"region":"eu","cc":"pl","latitude":52.2297,"longitude":21.017532,"reserved":0,"last_update":"0001-01-01T00:00:00Z","name_a2s":"Uncletopia | Warsaw | 3 | All Maps","protocol":17,"map":"pl_swiftwater_final1","folder":"tf","game":"Team Fortress","app_id":440,"player_count":0,"max_players":24,"Bots":0,"server_type":"Dedicated","server_os":"Linux","password":true,"vac":true,"version":"7757534","steam_id":85568392925397852,"keywords":["nocrits","nodmgspread","payload","uncletopia"],"game_id":440,"stv_port":27036,"stv_name":"Uncletopia | Warsaw | 3 | All Maps | STV","players":null},{"server_id":52,"name":"Uncletopia | Warsaw | 4 | All Maps","name_short":"waw-4","host":"waw-1.pl.uncletopia.com","port":27045,"enabled":true,"region":"eu","cc":"pl","latitude":52.2297,"longitude":21.017532,"reserved":0,"last_update":"0001-01-01T00:00:00Z","name_a2s":"Uncletopia | Warsaw | 4 | All Maps","protocol":17,"map":"koth_highpass","folder":"tf","game":"Team Fortress","app_id":440,"player_count":3,"max_players":24,"Bots":0,"server_type":"Dedicated","server_os":"Linux","password":true,"vac":true,"version":"7757534","steam_id":85568392925397853,"keywords":["cp","nocrits","nodmgspread","uncletopia"],"game_id":440,"stv_port":27046,"stv_name":"Uncletopia | Warsaw | 4 | All Maps | STV","players":[{"user_id":43,"name":"Sin-T Gaming","steam_id":76561199105173837,"connected_time":1497000000000,"state":"active","ping":71},{"user_id":44,"name":"cast iron skillet","steam_id":76561199105861570,"connected_time":1019000000000,"state":"active","ping":69},{"user_id":39,"name":"eric","steam_id":76561198988470542,"connected_time":3394000000000,"state":"active","ping":70}]},{"server_id":53,"name":"Uncletopia | Warsaw | 5 | Stopwatch Beta","name_short":"waw-5","host":"waw-1.pl.uncletopia.com","port":27055,"enabled":true,"region":"eu","cc":"pl","latitude":52.2297,"longitude":21.017532,"reserved":0,"last_update":"0001-01-01T00:00:00Z","name_a2s":"Uncletopia | Warsaw | 5 | Stopwatch Beta","protocol":17,"map":"cp_snakewater_final1","folder":"tf","game":"Team Fortress","app_id":440,"player_count":2,"max_players":24,"Bots":0,"server_type":"Dedicated","server_os":"Linux","password":true,"vac":true,"version":"7757534","steam_id":85568392925397854,"keywords":["cp","nocrits","nodmgspread","uncletopia"],"game_id":440,"stv_port":27056,"stv_name":"Uncletopia | Warsaw | 5 | Stopwatch Beta | STV","players":[{"user_id":6,"name":"Truegr","steam_id":76561198811912339,"connected_time":434000000000,"state":"active","ping":70},{"user_id":7,"name":"fried","steam_id":76561198307522022,"connected_time":278000000000,"state":"active","ping":60}]},{"server_id":54,"name":"Uncletopia | Warsaw | 6 | Community","name_short":"waw-6","host":"waw-1.pl.uncletopia.com","port":27065,"enabled":true,"region":"eu","cc":"pl","latitude":52.2297,"longitude":21.017532,"reserved":0,"last_update":"0001-01-01T00:00:00Z","name_a2s":"Uncletopia | Warsaw | 6 | Community","protocol":17,"map":"workshop/pl_divulgence_b4b.ugc2884808746","folder":"tf","game":"Team Fortress","app_id":440,"player_count":0,"max_players":24,"Bots":0,"server_type":"Dedicated","server_os":"Linux","password":true,"vac":true,"version":"7757534","steam_id":85568392925397856,"keywords":["nocrits","nodmgspread","payload","uncletopia"],"game_id":440,"stv_port":27066,"stv_name":"Uncletopia | Warsaw | 6 | Community | STV","players":null}]}