{"status":true,"message":"","result":[{"server_id":9,"name":"Uncletopia | Atlanta | 1 | All Maps","name_short":"atl-1","host":"atl-1.us.uncletopia.com","port":27015,"enabled":true,"region":"us-east","cc":"us","latitude":33.753746,"longitude":-84.38633,"reserved":0,"last_update":"0001-01-01T00:00:00Z","name_a2s":"Uncletopia | Atlanta | 1 | All Maps","protocol":17,"map":"plr_bananabay","folder":"tf","game":"Team Fortress","app_id":440,"player_count":24,"max_players":24,"Bots":0,"server_type":"Dedicated","server_os":"Linux","password":true,"vac":true,"version":"7961495","steam_id":85568392924469982,"keywords":["nocrits","nodmgspread","payload","uncletopia"],"game_id":440,"stv_port":27016,"stv_name":"Uncletopia | Atlanta | 1 | All Maps | STV","players":[{"user_id":292,"name":"Crescent","steam_id":76561198095124633,"connected_time":2324000000000,"state":"active","ping":47},{"user_id":313,"name":"napstagbo","steam_id":76561198119378766,"connected_time":132000000000,"state":"active","ping":144},{"user_id":293,"name":"guy","steam_id":76561198163306561,"connected_time":2319000000000,"state":"active","ping":61},{"user_id":287,"name":"row","steam_id":76561198040946044,"connected_time":2695000000000,"state":"active","ping":82},{"user_id":198,"name":"Vee (very cool)","steam_id":76561198330432889,"connected_time":9267000000000,"state":"active","ping":70},{"user_id":286,"name":"Avo","steam_id":76561197993340494,"connected_time":2701000000000,"state":"active","ping":57},{"user_id":301,"name":"Le4n!!!","steam_id":76561198045522596,"connected_time":1438000000000,"state":"active","ping":74},{"user_id":309,"name":"Albino Jellyfish","steam_id":76561198208561097,"connected_time":166000000000,"state":"active","ping":58},{"user_id":311,"name":"epiczlolz","steam_id":76561198208369443,"connected_time":142000000000,"state":"active","ping":38},{"user_id":314,"name":"Duck","steam_id":76561198303483056,"connected_time":97000000000,"state":"active","ping":95},{"user_id":260,"name":"Chernov","steam_id":76561198014463424,"connected_time":4380000000000,"state":"active","ping":61},{"user_id":305,"name":"Mana_Kaktus","steam_id":76561198110468307,"connected_time":800000000000,"state":"active","ping":102},{"user_id":300,"name":"Mr_Frosty","steam_id":76561199380389079,"connected_time":1457000000000,"state":"active","ping":84},{"user_id":310,"name":"sansa musa","steam_id":76561198163723555,"connected_time":163000000000,"state":"active","ping":71},{"user_id":232,"name":"simply","steam_id":76561198215728721,"connected_time":6578000000000,"state":"active","ping":69},{"user_id":312,"name":"ma0re","steam_id":76561199231971506,"connected_time":142000000000,"state":"active","ping":58},{"user_id":272,"name":"girls frotting","steam_id":76561198249206656,"connected_time":4226000000000,"state":"active","ping":88},{"user_id":297,"name":"Lylith!!!","steam_id":76561198386687546,"connected_time":1477000000000,"state":"active","ping":57},{"user_id":171,"name":"Heathcliff","steam_id":76561198044288534,"connected_time":12842000000000,"state":"active","ping":75},{"user_id":315,"name":"BeastRyder","steam_id":76561198330281584,"connected_time":0,"state":"spawning","ping":35},{"user_id":288,"name":"Yeti","steam_id":76561198176049478,"connected_time":2673000000000,"state":"active","ping":82},{"user_id":303,"name":"banana bay enthusiast","steam_id":76561198124791670,"connected_time":1245000000000,"state":"active","ping":48},{"user_id":304,"name":"Dreszerg","steam_id":76561198838757422,"connected_time":1245000000000,"state":"active","ping":84},{"user_id":276,"name":"Tay1Qr","steam_id":76561198082809935,"connected_time":3920000000000,"state":"active","ping":63}]},{"server_id":104,"name":"Uncletopia | Atlanta | 2 | All Maps","name_short":"atl-2","host":"atl-1.us.uncletopia.com","port":27025,"enabled":true,"region":"us-east","cc":"us","latitude":33.753746,"longitude":-84.38633,"reserved":0,"last_update":"0001-01-01T00:00:00Z","name_a2s":"Uncletopia | Atlanta | 2 | All Maps","protocol":17,"map":"pl_frontier_final","folder":"tf","game":"Team Fortress","app_id":440,"player_count":24,"max_players":24,"Bots":0,"server_type":"Dedicated","server_os":"Linux","password":true,"vac":true,"version":"7961495","steam_id":85568392924469983,"keywords":["nocrits","nodmgspread","payload","uncletopia"],"game_id":440,"stv_port":27026,"stv_name":"Uncletopia | Atlanta | 2 | All Maps | STV","players":[{"user_id":16,"name":"tac","steam_id":76561198408477421,"connected_time":3238000000000,"state":"active","ping":84},{"user_id":18,"name":"Tank Chili","steam_id":76561198161183031,"connected_time":2816000000000,"state":"active","ping":76},{"user_id":19,"name":"kimshwim","steam_id":76561198287933134,"connected_time":2802000000000,"state":"active","ping":75},{"user_id":55,"name":"Olifont","steam_id":76561198141162919,"connected_time":1580000000000,"state":"active","ping":87},{"user_id":21,"name":"Turt","steam_id":76561198097705964,"connected_time":2791000000000,"state":"active","ping":85},{"user_id":22,"name":"elephantofdoom","steam_id":76561198062436835,"connected_time":2738000000000,"state":"active","ping":63},{"user_id":27,"name":"Atomic Ursa","steam_id":76561198032246421,"connected_time":2599000000000,"state":"active","ping":84},{"user_id":39,"name":"Arthur","steam_id":76561198051882162,"connected_time":2247000000000,"state":"active","ping":75},{"user_id":38,"name":"DbrotLord","steam_id":76561198156461280,"connected_time":2388000000000,"state":"active","ping":54},{"user_id":75,"name":"suicide enjoyer","steam_id":76561198057076267,"connected_time":266000000000,"state":"active","ping":80},{"user_id":51,"name":"okmrlad","steam_id":76561198422505583,"connected_time":2045000000000,"state":"active","ping":63},{"user_id":62,"name":"duBstep","steam_id":76561198353928965,"connected_time":908000000000,"state":"active","ping":64},{"user_id":68,"name":"Steen","steam_id":76561198122992510,"connected_time":782000000000,"state":"active","ping":148},{"user_id":76,"name":"scout","steam_id":76561198003593070,"connected_time":256000000000,"state":"active","ping":76},{"user_id":32,"name":"ඞustin","steam_id":76561198128742436,"connected_time":2503000000000,"state":"active","ping":61},{"user_id":66,"name":"❤Addy❤","steam_id":76561199153405603,"connected_time":838000000000,"state":"active","ping":85},{"user_id":54,"name":"Shinobu","steam_id":76561199486412084,"connected_time":1681000000000,"state":"active","ping":74},{"user_id":57,"name":"YoteDab McFapDab.jpg","steam_id":76561197984870380,"connected_time":1567000000000,"state":"active","ping":78},{"user_id":43,"name":"vastrobotmax","steam_id":76561198417110724,"connected_time":2176000000000,"state":"active","ping":86},{"user_id":74,"name":"peeb bingle","steam_id":76561198992250013,"connected_time":353000000000,"state":"active","ping":97},{"user_id":46,"name":"SubZeroDestruction","steam_id":76561198145082209,"connected_time":2125000000000,"state":"active","ping":64},{"user_id":47,"name":"ChaoticBunnyBrim","steam_id":76561198067650229,"connected_time":2101000000000,"state":"active","ping":131},{"user_id":71,"name":"The One True Luke","steam_id":76561198180891187,"connected_time":383000000000,"state":"active","ping":75},{"user_id":49,"name":"I'm Sleepy","steam_id":76561198879929343,"connected_time":2078000000000,"state":"active","ping":65}]},{"server_id":400,"name":"Uncletopia | Atlanta | 3 | Stopwatch","name_short":"atl-3","host":"atl-1.us.uncletopia.com","port":27035,"enabled":true,"region":"us-east","cc":"us","latitude":33.753746,"longitude":-84.38633,"reserved":0,"last_update":"0001-01-01T00:00:00Z","name_a2s":"Uncletopia | Atlanta | 3 | Stopwatch","protocol":17,"map":"workshop/pl_badwater_pro_v12.ugc2142942074","folder":"tf","game":"Team Fortress","app_id":440,"player_count":24,"max_players":24,"Bots":0,"server_type":"Dedicated","server_os":"Linux","password":true,"vac":true,"version":"7961495","steam_id":85568392924515187,"keywords":["nocrits","nodmgspread","payload","uncletopia"],"game_id":440,"stv_port":27036,"stv_name":"Uncletopia | Atlanta | 3 | Stopwatch | STV","players":[{"user_id":92,"name":"A Puppy","steam_id":76561198828184456,"connected_time":5537000000000,"state":"active","ping":48},{"user_id":161,"name":"protester","steam_id":76561198301080836,"connected_time":2071000000000,"state":"active","ping":76},{"user_id":147,"name":"dave :3","steam_id":76561198135961731,"connected_time":3020000000000,"state":"active","ping":74},{"user_id":203,"name":"LACTAID","steam_id":76561198276585202,"connected_time":636000000000,"state":"active","ping":97},{"user_id":204,"name":"VPratt","steam_id":76561198351195424,"connected_time":627000000000,"state":"active","ping":112},{"user_id":205,"name":"spid","steam_id":76561199102823714,"connected_time":596000000000,"state":"active","ping":57},{"user_id":206,"name":"Gabagool","steam_id":76561198365935179,"connected_time":586000000000,"state":"active","ping":101},{"user_id":182,"name":"my mom","steam_id":76561199225201569,"connected_time":1538000000000,"state":"active","ping":58},{"user_id":136,"name":"Coach McFish","steam_id":76561198210456405,"connected_time":3373000000000,"state":"active","ping":99},{"user_id":164,"name":"Jesse Bear","steam_id":76561198217075305,"connected_time":2054000000000,"state":"active","ping":86},{"user_id":181,"name":"DivineBanana","steam_id":76561198026529731,"connected_time":1550000000000,"state":"active","ping":90},{"user_id":208,"name":"Militant Pacifist","steam_id":76561198290691432,"connected_time":488000000000,"state":"active","ping":96},{"user_id":213,"name":"Пвт Динго","steam_id":76561198119683217,"connected_time":63000000000,"state":"active","ping":104},{"user_id":191,"name":"hypothy","steam_id":76561199092334845,"connected_time":1176000000000,"state":"active","ping":66},{"user_id":176,"name":"Soldier","steam_id":76561199078537280,"connected_time":1802000000000,"state":"active","ping":47},{"user_id":159,"name":"Elijah123","steam_id":76561199037648021,"connected_time":2475000000000,"state":"active","ping":72},{"user_id":202,"name":"boo_thefeared","steam_id":76561198127967685,"connected_time":765000000000,"state":"active","ping":146},{"user_id":207,"name":"Shut tf up","steam_id":76561198984179092,"connected_time":583000000000,"state":"active","ping":78},{"user_id":209,"name":"a rabbit with a keyboard","steam_id":76561198129051488,"connected_time":427000000000,"state":"active","ping":57},{"user_id":214,"name":"McSwingset","steam_id":76561198040417409,"connected_time":30000000000,"state":"active","ping":60},{"user_id":210,"name":"Shuu","steam_id":76561199199180558,"connected_time":390000000000,"state":"active","ping":61},{"user_id":211,"name":"Anamm","steam_id":76561198328762510,"connected_time":388000000000,"state":"active","ping":70},{"user_id":198,"name":"Jango","steam_id":76561198084589742,"connected_time":1009000000000,"state":"active","ping":60},{"user_id":212,"name":"shecock :3","steam_id":76561198117240201,"connected_time":380000000000,"state":"active","ping":60}]},{"server_id":401,"name":"Uncletopia | Atlanta | 4 | Community","name_short":"atl-4","host":"atl-1.us.uncletopia.com","port":27045,"enabled":true,"region":"us-east","cc":"us","latitude":33.753746,"longitude":-84.38633,"reserved":0,"last_update":"0001-01-01T00:00:00Z","name_a2s":"Uncletopia | Atlanta | 4 | Community","protocol":17,"map":"workshop/koth_product_final.ugc454272353","folder":"tf","game":"Team Fortress","app_id":440,"player_count":0,"max_players":24,"Bots":0,"server_type":"Dedicated","server_os":"Linux","password":true,"vac":true,"version":"7961495","steam_id":85568392924515188,"keywords":["cp","nocrits","nodmgspread","uncletopia"],"game_id":440,"stv_port":27046,"stv_name":"Uncletopia | Atlanta | 4 | Community | STV","players":null},{"server_id":2,"name":"Uncletopia | Chicago | 1 | All Maps","name_short":"chi-1","host":"chi-1.us.uncletopia.com","port":27015,"enabled":true,"region":"us-central","cc":"us","latitude":41.881832,"longitude":-87.62318,"reserved":0,"last_update":"0001-01-01T00:00:00Z","name_a2s":"Uncletopia | Chicago | 1 | All Maps","protocol":17,"map":"pl_pier","folder":"tf","game":"Team Fortress","app_id":440,"player_count":24,"max_players":24,"Bots":0,"server_type":"Dedicated","server_os":"Linux","password":true,"vac":true,"version":"7961495","steam_id":85568392924469984,"keywords":["nocrits","nodmgspread","payload","uncletopia"],"game_id":440,"stv_port":27016,"stv_name":"Uncletopia | Chicago | 1 | All Maps | STV","players":[{"user_id":513,"name":"hej","steam_id":76561197996366940,"connected_time":2764000000000,"state":"active","ping":59},{"user_id":535,"name":"TheGreythreat","steam_id":76561198021995538,"connected_time":1263000000000,"state":"active","ping":60},{"user_id":546,"name":"cool guy legs","steam_id":76561198099494670,"connected_time":372000000000,"state":"active","ping":89},{"user_id":548,"name":"Sunshine","steam_id":76561198885528098,"connected_time":115000000000,"state":"active","ping":74},{"user_id":530,"name":"Villain_7","steam_id":76561198985858094,"connected_time":1769000000000,"state":"active","ping":66},{"user_id":529,"name":"Your Local Queer Librarian","steam_id":76561198013077080,"connected_time":1853000000000,"state":"active","ping":51},{"user_id":477,"name":"Silence","steam_id":76561197965880569,"connected_time":5265000000000,"state":"active","ping":65},{"user_id":531,"name":"Chilithium","steam_id":76561198073081345,"connected_time":1526000000000,"state":"active","ping":76},{"user_id":534,"name":"Stacks63bs","steam_id":76561198067797130,"connected_time":1293000000000,"state":"active","ping":86},{"user_id":532,"name":"notdoxed","steam_id":76561197992591404,"connected_time":1501000000000,"state":"active","ping":53},{"user_id":539,"name":"eekum bokum","steam_id":76561198157266273,"connected_time":544000000000,"state":"active","ping":79},{"user_id":524,"name":"Kitchen Sink Gaming","steam_id":76561198930293420,"connected_time":2139000000000,"state":"active","ping":64},{"user_id":536,"name":"NUt","steam_id":76561198031007966,"connected_time":1226000000000,"state":"active","ping":62},{"user_id":533,"name":"Kiphus","steam_id":76561198025289407,"connected_time":1317000000000,"state":"active","ping":71},{"user_id":507,"name":"flamingcookies","steam_id":76561198280864779,"connected_time":3560000000000,"state":"active","ping":62},{"user_id":510,"name":"MR. BEEEEEEEEEEEEEAAAAAAAAAAST","steam_id":76561198205346760,"connected_time":3054000000000,"state":"active","ping":45},{"user_id":511,"name":"Candy Sparkles","steam_id":76561198126871264,"connected_time":3037000000000,"state":"active","ping":84},{"user_id":520,"name":"jeff_fan","steam_id":76561198086420687,"connected_time":2364000000000,"state":"active","ping":88},{"user_id":547,"name":"Draconic Ballad","steam_id":76561198027191515,"connected_time":362000000000,"state":"active","ping":49},{"user_id":537,"name":"RocketRabbit","steam_id":76561198803062131,"connected_time":1083000000000,"state":"active","ping":74},{"user_id":542,"name":"abolish the federal reserve","steam_id":76561198047796437,"connected_time":428000000000,"state":"active","ping":105},{"user_id":487,"name":"Praise_to_the_Flashlight!","steam_id":76561199001728789,"connected_time":4573000000000,"state":"active","ping":65},{"user_id":544,"name":"YolkOnYou","steam_id":76561198088760655,"connected_time":413000000000,"state":"active","ping":89},{"user_id":527,"name":"Kilphax","steam_id":76561197993814144,"connected_time":2067000000000,"state":"active","ping":59}]},{"server_id":106,"name":"Uncletopia | Chicago | 2 | All Maps","name_short":"chi-2","host":"chi-1.us.uncletopia.com","port":27025,"enabled":true,"region":"us-central","cc":"us","latitude":41.881832,"longitude":-87.62318,"reserved":0,"last_update":"0001-01-01T00:00:00Z","name_a2s":"Uncletopia | Chicago | 2 | All Maps","protocol":17,"map":"cp_process_final","folder":"tf","game":"Team Fortress","app_id":440,"player_count":18,"max_players":24,"Bots":0,"server_type":"Dedicated","server_os":"Linux","password":true,"vac":true,"version":"7961495","steam_id":85568392924469985,"keywords":["cp","nocrits","nodmgspread","uncletopia"],"game_id":440,"stv_port":27026,"stv_name":"Uncletopia | Chicago | 2 | All Maps | STV","players":[{"user_id":399,"name":"-π- BakaD","steam_id":76561197960559169,"connected_time":0,"state":"spawning","ping":17},{"user_id":366,"name":"kite","steam_id":76561198346516392,"connected_time":2596000000000,"state":"active","ping":70},{"user_id":351,"name":"The Jar","steam_id":76561198146013385,"connected_time":3362000000000,"state":"active","ping":71},{"user_id":380,"name":"norphel08","steam_id":76561198174779475,"connected_time":1559000000000,"state":"active","ping":71},{"user_id":385,"name":"IEatCrayons","steam_id":76561198361029815,"connected_time":1211000000000,"state":"active","ping":79},{"user_id":396,"name":"dree","steam_id":76561198079178866,"connected_time":61000000000,"state":"active","ping":75},{"user_id":394,"name":"Toast","steam_id":76561199207957224,"connected_time":239000000000,"state":"active","ping":73},{"user_id":378,"name":"gooch_masta","steam_id":76561198151578423,"connected_time":1904000000000,"state":"active","ping":56},{"user_id":375,"name":"Dead_Stranger","steam_id":76561198120804563,"connected_time":2017000000000,"state":"active","ping":85},{"user_id":234,"name":"Sonic Mania 2 [100 Real Leaked","steam_id":76561198062764039,"connected_time":11035000000000,"state":"active","ping":45},{"user_id":395,"name":"loscemo","steam_id":76561197994884609,"connected_time":231000000000,"state":"active","ping":71},{"user_id":335,"name":"on that zaza?","steam_id":76561198038713198,"connected_time":4494000000000,"state":"active","ping":72},{"user_id":294,"name":"Shrim","steam_id":76561198068455981,"connected_time":6289000000000,"state":"active","ping":75},{"user_id":386,"name":"Dance4gravy","steam_id":76561198007325113,"connected_time":1210000000000,"state":"active","ping":59},{"user_id":329,"name":"The Russian Aristocrat","steam_id":76561198136982572,"connected_time":4848000000000,"state":"active","ping":100},{"user_id":324,"name":"SIN K4RMA","steam_id":76561198869287223,"connected_time":5038000000000,"state":"active","ping":67},{"user_id":393,"name":"darkelaine227","steam_id":76561198097330521,"connected_time":313000000000,"state":"active","ping":152},{"user_id":397,"name":"Beebo, Son of Beebo","steam_id":76561198055948497,"connected_time":60000000000,"state":"active","ping":45}]},{"server_id":402,"name":"Uncletopia | Chicago | 3 | All Maps","name_short":"chi-3","host":"chi-1.us.uncletopia.com","port":27035,"enabled":true,"region":"us-central","cc":"us","latitude":41.881832,"longitude":-87.62318,"reserved":0,"last_update":"0001-01-01T00:00:00Z","name_a2s":"Uncletopia | Chicago | 3 | All Maps","protocol":17,"map":"pl_badwater","folder":"tf","game":"Team Fortress","app_id":440,"player_count":24,"max_players":24,"Bots":0,"server_type":"Dedicated","server_os":"Linux","password":true,"vac":true,"version":"7961495","steam_id":85568392924515191,"keywords":["nocrits","nodmgspread","payload","uncletopia"],"game_id":440,"stv_port":27036,"stv_name":"Uncletopia | Chicago | 3 | All Maps | STV","players":[{"user_id":224,"name":"Nexusuxen","steam_id":76561198117547131,"connected_time":7024000000000,"state":"active","ping":74},{"user_id":316,"name":"The Extra Crispy Colonel","steam_id":76561198153495976,"connected_time":1412000000000,"state":"active","ping":48},{"user_id":321,"name":"daffodil","steam_id":76561198049480053,"connected_time":1284000000000,"state":"active","ping":61},{"user_id":269,"name":"Alejandro","steam_id":76561197970051493,"connected_time":4849000000000,"state":"active","ping":120},{"user_id":318,"name":"Gasoline Guzzler","steam_id":76561199224746593,"connected_time":1397000000000,"state":"active","ping":84},{"user_id":299,"name":"Hooked","steam_id":76561198007302139,"connected_time":2511000000000,"state":"active","ping":76},{"user_id":330,"name":"eduard","steam_id":76561198136550093,"connected_time":382000000000,"state":"active","ping":71},{"user_id":255,"name":"TheGrassMan (He/Him)","steam_id":76561198118984048,"connected_time":5949000000000,"state":"active","ping":64},{"user_id":315,"name":"FAKE TAXI PRANKS","steam_id":76561198136746987,"connected_time":1537000000000,"state":"active","ping":74},{"user_id":326,"name":"Scuba Steve","steam_id":76561198313018251,"connected_time":701000000000,"state":"active","ping":85},{"user_id":320,"name":"dumsurfer","steam_id":76561198407056645,"connected_time":1384000000000,"state":"active","ping":74},{"user_id":301,"name":"Winter the Witchie","steam_id":76561198151971178,"connected_time":2493000000000,"state":"active","ping":155},{"user_id":309,"name":"GMFD! Juustin","steam_id":76561198121922413,"connected_time":2027000000000,"state":"active","ping":99},{"user_id":319,"name":"SlawBunny","steam_id":76561198094913841,"connected_time":1394000000000,"state":"active","ping":84},{"user_id":327,"name":"NovaSc6ut","steam_id":76561198277163301,"connected_time":699000000000,"state":"active","ping":73},{"user_id":323,"name":"Rein","steam_id":76561198300340427,"connected_time":1028000000000,"state":"active","ping":61},{"user_id":331,"name":"neeK","steam_id":76561198106571410,"connected_time":278000000000,"state":"active","ping":96},{"user_id":328,"name":"Anthid","steam_id":76561198074493797,"connected_time":627000000000,"state":"active","ping":60},{"user_id":305,"name":"screaming fire in public places","steam_id":76561197995620232,"connected_time":2401000000000,"state":"active","ping":59},{"user_id":311,"name":"winrarFanatic","steam_id":76561198026538317,"connected_time":1972000000000,"state":"active","ping":58},{"user_id":254,"name":"dog","steam_id":76561198263873491,"connected_time":6032000000000,"state":"active","ping":41},{"user_id":230,"name":"Hashmere","steam_id":76561198002797253,"connected_time":6962000000000,"state":"active","ping":85},{"user_id":297,"name":"nav","steam_id":76561198872608266,"connected_time":3334000000000,"state":"active","ping":79},{"user_id":324,"name":"Lia_Rein","steam_id":76561198151569597,"connected_time":883000000000,"state":"active","ping":150}]},{"server_id":403,"name":"Uncletopia | Chicago | 4 | All Maps","name_short":"chi-4","host":"chi-1.us.uncletopia.com","port":27045,"enabled":true,"region":"us-central","cc":"us","latitude":41.881832,"longitude":-87.62318,"reserved":0,"last_update":"0001-01-01T00:00:00Z","name_a2s":"Uncletopia | Chicago | 4 | All Maps","protocol":17,"map":"pl_badwater","folder":"tf","game":"Team Fortress","app_id":440,"player_count":25,"max_players":24,"Bots":0,"server_type":"Dedicated","server_os":"Linux","password":true,"vac":true,"version":"7961495","steam_id":85568392924515193,"keywords":["nocrits","nodmgspread","payload","uncletopia"],"game_id":440,"stv_port":27046,"stv_name":"Uncletopia | Chicago | 4 | All Maps | STV","players":[{"user_id":198,"name":"SoldMyKidneyForCollege","steam_id":76561198096329559,"connected_time":963000000000,"state":"active","ping":93},{"user_id":191,"name":"Jessicamustdie","steam_id":76561198045230921,"connected_time":1365000000000,"state":"active","ping":58},{"user_id":197,"name":"chicken nucket","steam_id":76561198042831480,"connected_time":983000000000,"state":"active","ping":70},{"user_id":181,"name":"fartin luther kang junyuh","steam_id":76561198155465253,"connected_time":2391000000000,"state":"active","ping":77},{"user_id":126,"name":"daemon","steam_id":76561198001541433,"connected_time":6728000000000,"state":"active","ping":57},{"user_id":183,"name":"Stonks","steam_id":76561199490085068,"connected_time":2055000000000,"state":"active","ping":81},{"user_id":209,"name":"Fish Lambert","steam_id":76561198098279668,"connected_time":20000000000,"state":"active","ping":91},{"user_id":144,"name":"t.tv/ibbKitty  ∑:3","steam_id":76561198110858518,"connected_time":5949000000000,"state":"active","ping":60},{"user_id":200,"name":"the zoo","steam_id":76561198013732450,"connected_time":875000000000,"state":"active","ping":57},{"user_id":193,"name":"dox","steam_id":76561198838245430,"connected_time":1320000000000,"state":"active","ping":69},{"user_id":199,"name":"fruitslicer","steam_id":76561198100015794,"connected_time":961000000000,"state":"active","ping":59},{"user_id":192,"name":"smosh anthony","steam_id":76561198129030655,"connected_time":1351000000000,"state":"active","ping":70},{"user_id":195,"name":"2inch","steam_id":76561198082116747,"connected_time":1291000000000,"state":"active","ping":70},{"user_id":171,"name":"Krissy","steam_id":76561197960848174,"connected_time":3734000000000,"state":"active","ping":68},{"user_id":169,"name":"Midget on roller skates","steam_id":76561198061103166,"connected_time":3750000000000,"state":"active","ping":58},{"user_id":207,"name":"Cruisin'","steam_id":76561199245457119,"connected_time":274000000000,"state":"connecting","ping":0},{"user_id":202,"name":"rust","steam_id":76561199039337171,"connected_time":627000000000,"state":"active","ping":72},{"user_id":206,"name":"[NAME-REDACTED]","steam_id":76561198035682975,"connected_time":345000000000,"state":"active","ping":67},{"user_id":187,"name":"BigBirdBeComingForYou","steam_id":76561198336271980,"connected_time":1656000000000,"state":"active","ping":64},{"user_id":179,"name":"bonked off the hobo","steam_id":76561198123287268,"connected_time":2493000000000,"state":"active","ping":46},{"user_id":160,"name":"shalankawanak","steam_id":76561198987719376,"connected_time":4704000000000,"state":"active","ping":60},{"user_id":210,"name":"Strange Festive Femboy","steam_id":76561198050385093,"connected_time":4000000000,"state":"spawning","ping":64},{"user_id":201,"name":"Vector","steam_id":76561199055958107,"connected_time":841000000000,"state":"active","ping":55},{"user_id":80,"name":"Captain Offencoch","steam_id":76561198121025705,"connected_time":10314000000000,"state":"active","ping":181},{"user_id":208,"name":"hue","steam_id":76561198009694550,"connected_time":247000000000,"state":"active","ping":45}]},{"server_id":36,"name":"Uncletopia | Chicago | 5 | All Maps","name_short":"chi-5","host":"chi-2.us.uncletopia.com","port":27015,"enabled":true,"region":"us-central","cc":"us","latitude":41.881832,"longitude":-87.62318,"reserved":0,"last_update":"0001-01-01T00:00:00Z","name_a2s":"Uncletopia | Chicago | 5 | All Maps","protocol":17,"map":"pl_barnblitz","folder":"tf","game":"Team Fortress","app_id":440,"player_count":24,"max_players":24,"Bots":0,"server_type":"Dedicated","server_os":"Linux","password":true,"vac":true,"version":"7961495","steam_id":85568392924866362,"keywords":["nocrits","nodmgspread","payload","uncletopia"],"game_id":440,"stv_port":27016,"stv_name":"Uncletopia | Chicago | 5 | All Maps | STV","players":[{"user_id":207,"name":"brisky","steam_id":76561198869675719,"connected_time":4689000000000,"state":"active","ping":69},{"user_id":288,"name":"Zawg","steam_id":76561198346423306,"connected_time":99000000000,"state":"active","ping":71},{"user_id":204,"name":"a toaster  -_-","steam_id":76561199117706873,"connected_time":4914000000000,"state":"active","ping":103},{"user_id":260,"name":"Sergeant Joker LFT","steam_id":76561198854616604,"connected_time":1783000000000,"state":"active","ping":66},{"user_id":283,"name":"sasharudzik","steam_id":76561199126617781,"connected_time":718000000000,"state":"active","ping":71},{"user_id":257,"name":"Business man","steam_id":76561199037536878,"connected_time":2166000000000,"state":"active","ping":83},{"user_id":265,"name":"scrapheap","steam_id":76561198202407087,"connected_time":1440000000000,"state":"active","ping":66},{"user_id":267,"name":"Koopinator","steam_id":76561198135747412,"connected_time":1326000000000,"state":"active","ping":71},{"user_id":178,"name":"Sizenberg","steam_id":76561198115842661,"connected_time":6215000000000,"state":"active","ping":74},{"user_id":212,"name":"LittleFieryOne","steam_id":76561198107463724,"connected_time":4518000000000,"state":"active","ping":60},{"user_id":252,"name":"Decrepit Bones","steam_id":76561198053046161,"connected_time":2420000000000,"state":"active","ping":62},{"user_id":279,"name":"Beef Wellington","steam_id":76561198049837377,"connected_time":831000000000,"state":"active","ping":51},{"user_id":246,"name":"Maddening Whisper","steam_id":76561198369050108,"connected_time":2541000000000,"state":"active","ping":74},{"user_id":278,"name":"Billyjoe3000","steam_id":76561198306524388,"connected_time":927000000000,"state":"active","ping":108},{"user_id":280,"name":"Tokyo_Timeshift_","steam_id":76561198048677523,"connected_time":813000000000,"state":"active","ping":50},{"user_id":272,"name":"303","steam_id":76561199052840531,"connected_time":1203000000000,"state":"active","ping":59},{"user_id":255,"name":"Dinosaur","steam_id":76561199079626189,"connected_time":2270000000000,"state":"active","ping":95},{"user_id":235,"name":"DeckofDragons","steam_id":76561198057398213,"connected_time":3240000000000,"state":"active","ping":79},{"user_id":284,"name":"davidflyswag","steam_id":76561198979060652,"connected_time":462000000000,"state":"active","ping":78},{"user_id":287,"name":"red orb","steam_id":76561199090224667,"connected_time":288000000000,"state":"active","ping":67},{"user_id":275,"name":"AbbyRoads","steam_id":76561198868564212,"connected_time":1175000000000,"state":"active","ping":85},{"user_id":242,"name":"pest","steam_id":76561198052571208,"connected_time":2797000000000,"state":"active","ping":74},{"user_id":256,"name":"Elliot","steam_id":76561198052843856,"connected_time":2268000000000,"state":"active","ping":73},{"user_id":286,"name":"Morgbot","steam_id":76561197998418404,"connected_time":442000000000,"state":"active","ping":86}]},{"server_id":37,"name":"Uncletopia | Chicago | 6 | All Maps","name_short":"chi-6","host":"chi-2.us.uncletopia.com","port":27025,"enabled":true,"region":"us-central","cc":"us","latitude":41.881832,"longitude":-87.62318,"reserved":0,"last_update":"0001-01-01T00:00:00Z","name_a2s":"Uncletopia | Chicago | 6 | All Maps","protocol":17,"map":"pl_barnblitz","folder":"tf","game":"Team Fortress","app_id":440,"player_count":24,"max_players":24,"Bots":0,"server_type":"Dedicated","server_os":"Linux","password":true,"vac":true,"version":"7961495","steam_id":85568392924866363,"keywords":["nocrits","nodmgspread","payload","uncletopia"],"game_id":440,"stv_port":27026,"stv_name":"Uncletopia | Chicago | 6 | All Maps | STV","players":[{"user_id":238,"name":"Lv3 Kobold Shadow Sorcerer","steam_id":76561198042068995,"connected_time":957000000000,"state":"active","ping":93},{"user_id":231,"name":"nonagon infinity","steam_id":76561198397662124,"connected_time":1614000000000,"state":"active","ping":87},{"user_id":146,"name":"desinn","steam_id":76561198065434191,"connected_time":8309000000000,"state":"active","ping":85},{"user_id":247,"name":"StudioMania (#SAVETF2)","steam_id":76561198211315795,"connected_time":334000000000,"state":"active","ping":67},{"user_id":230,"name":"I shit myself","steam_id":76561199174310124,"connected_time":1654000000000,"state":"active","ping":71},{"user_id":236,"name":"steppa pig","steam_id":76561198034141393,"connected_time":1267000000000,"state":"active","ping":71},{"user_id":248,"name":"Calvin?","steam_id":76561198034069587,"connected_time":327000000000,"state":"active","ping":77},{"user_id":229,"name":"slashproc","steam_id":76561198035307579,"connected_time":1802000000000,"state":"active","ping":67},{"user_id":233,"name":"Boyos","steam_id":76561197995225368,"connected_time":1569000000000,"state":"active","ping":39},{"user_id":245,"name":"Gravity Bomb","steam_id":76561198190417719,"connected_time":356000000000,"state":"active","ping":52},{"user_id":152,"name":"Dax","steam_id":76561198035787288,"connected_time":7974000000000,"state":"active","ping":92},{"user_id":246,"name":":)","steam_id":76561198079892116,"connected_time":350000000000,"state":"active","ping":46},{"user_id":241,"name":"Aznavour","steam_id":76561198260418417,"connected_time":852000000000,"state":"active","ping":73},{"user_id":240,"name":"Hunterkio1222","steam_id":76561198240237672,"connected_time":927000000000,"state":"active","ping":75},{"user_id":211,"name":"Kirby.exe","steam_id":76561198242714582,"connected_time":3130000000000,"state":"active","ping":68},{"user_id":204,"name":"Carton","steam_id":76561198989473391,"connected_time":3298000000000,"state":"active","ping":69},{"user_id":249,"name":"TheMadHattah","steam_id":76561198066587266,"connected_time":327000000000,"state":"active","ping":75},{"user_id":111,"name":"kszn","steam_id":76561199068623664,"connected_time":10096000000000,"state":"active","ping":103},{"user_id":252,"name":"Ua","steam_id":76561198092176972,"connected_time":107000000000,"state":"active","ping":75},{"user_id":223,"name":"The Fordster","steam_id":76561198266913403,"connected_time":2113000000000,"state":"active","ping":91},{"user_id":244,"name":"Chambersite","steam_id":76561198197022399,"connected_time":644000000000,"state":"active","ping":170},{"user_id":251,"name":"vanta","steam_id":76561198084317504,"connected_time":289000000000,"state":"active","ping":48},{"user_id":116,"name":"doro","steam_id":76561198099041747,"connected_time":9775000000000,"state":"active","ping":99},{"user_id":183,"name":"Rowmaster","steam_id":76561198271659574,"connected_time":5235000000000,"state":"active","ping":85}]},{"server_id":38,"name":"Uncletopia | Chicago | 7 | Stopwatch","name_short":"chi-7","host":"chi-2.us.uncletopia.com","port":27035,"enabled":true,"region":"us-central","cc":"us","latitude":41.881832,"longitude":-87.62318,"reserved":0,"last_update":"0001-01-01T00:00:00Z","name_a2s":"Uncletopia | Chicago | 7 | Stopwatch","protocol":17,"map":"cp_snakewater_final1","folder":"tf","game":"Team Fortress","app_id":440,"player_count":22,"max_players":24,"Bots":0,"server_type":"Dedicated","server_os":"Linux","password":true,"vac":true,"version":"7961495","steam_id":85568392924866364,"keywords":["cp","nocrits","nodmgspread","uncletopia"],"game_id":440,"stv_port":27036,"stv_name":"Uncletopia | Chicago | 7 | Stopwatch | STV","players":[{"user_id":48,"name":"Mer","steam_id":76561198192171041,"connected_time":3033000000000,"state":"active","ping":112},{"user_id":64,"name":"Fuyu","steam_id":76561198362623656,"connected_time":2075000000000,"state":"active","ping":98},{"user_id":28,"name":"dt-Burt B'dert","steam_id":76561197996380095,"connected_time":3450000000000,"state":"active","ping":56},{"user_id":22,"name":"bleach65","steam_id":76561198115270571,"connected_time":3641000000000,"state":"active","ping":89},{"user_id":102,"name":"[12V] Marv","steam_id":76561198158638384,"connected_time":6000000000,"state":"spawning","ping":390},{"user_id":70,"name":"Lobstyr","steam_id":76561198884406859,"connected_time":1725000000000,"state":"active","ping":87},{"user_id":91,"name":"Blue_car_Reid","steam_id":76561198161120719,"connected_time":444000000000,"state":"active","ping":45},{"user_id":86,"name":"Supasorcerer","steam_id":76561198074150595,"connected_time":830000000000,"state":"active","ping":66},{"user_id":32,"name":"lbs_sdl","steam_id":76561198277796622,"connected_time":3311000000000,"state":"active","ping":77},{"user_id":89,"name":"posed2","steam_id":76561198017539604,"connected_time":701000000000,"state":"active","ping":68},{"user_id":73,"name":"bologna forklift 2012","steam_id":76561198199061206,"connected_time":1616000000000,"state":"active","ping":56},{"user_id":93,"name":"craig dishwasher","steam_id":76561198402235691,"connected_time":356000000000,"state":"active","ping":63},{"user_id":30,"name":"TREY DRAGON","steam_id":76561198039768144,"connected_time":3327000000000,"state":"active","ping":76},{"user_id":31,"name":"Shadowknight156","steam_id":76561198160071613,"connected_time":3319000000000,"state":"active","ping":80},{"user_id":100,"name":"chippy","steam_id":76561198079655664,"connected_time":11000000000,"state":"active","ping":77},{"user_id":101,"name":"Randumb","steam_id":76561199083286636,"connected_time":11000000000,"state":"active","ping":57},{"user_id":71,"name":"6 million bees","steam_id":76561198400438007,"connected_time":1718000000000,"state":"spawning","ping":63},{"user_id":38,"name":"PileBunkerA4","steam_id":76561198798201486,"connected_time":3217000000000,"state":"active","ping":76},{"user_id":82,"name":"Keani_Who_Hid_In_Dumpster","steam_id":76561198849855476,"connected_time":1257000000000,"state":"spawning","ping":217},{"user_id":83,"name":"Adam (Cursed Confetti Creature)","steam_id":76561198317690197,"connected_time":982000000000,"state":"spawning","ping":136},{"user_id":94,"name":"non_ai","steam_id":76561198270951938,"connected_time":212000000000,"state":"active","ping":69},{"user_id":47,"name":"sapnu puas","steam_id":76561198009546994,"connected_time":3115000000000,"state":"active","ping":1288}]},{"server_id":39,"name":"Uncletopia | Chicago | 8 | Community","name_short":"chi-8","host":"chi-2.us.uncletopia.com","port":27045,"enabled":true,"region":"us-central","cc":"us","latitude":41.881832,"longitude":-87.62318,"reserved":0,"last_update":"0001-01-01T00:00:00Z","name_a2s":"Uncletopia | Chicago | 8 | Community","protocol":17,"map":"workshop/koth_ramjam_rc1.ugc459778887","folder":"tf","game":"Team Fortress","app_id":440,"player_count":0,"max_players":24,"Bots":0,"server_type":"Dedicated","server_os":"Linux","password":true,"vac":true,"version":"7961495","steam_id":85568392924866365,"keywords":["cp","nocrits","nodmgspread","uncletopia"],"game_id":440,"stv_port":27046,"stv_name":"Uncletopia | Chicago | 8 | Community | STV","players":null},{"server_id":8,"name":"Uncletopia | Dallas | 1 | All Maps","name_short":"dal-1","host":"dal-1.us.uncletopia.com","port":27015,"enabled":true,"region":"us-central","cc":"us","latitude":32.779167,"longitude":-96.80889,"reserved":0,"last_update":"0001-01-01T00:00:00Z","name_a2s":"Uncletopia | Dallas | 1 | All Maps","protocol":17,"map":"pl_barnblitz","folder":"tf","game":"Team Fortress","app_id":440,"player_count":24,"max_players":24,"Bots":0,"server_type":"Dedicated","server_os":"Linux","password":true,"vac":true,"version":"7961495","steam_id":85568392924469986,"keywords":["nocrits","nodmgspread","payload","uncletopia"],"game_id":440,"stv_port":27016,"stv_name":"Uncletopia | Dallas | 1 | All Maps | STV","players":[{"user_id":147,"name":"blademiss","steam_id":76561198062083019,"connected_time":728000000000,"state":"active","ping":79},{"user_id":104,"name":"You Don't Nomi.","steam_id":76561197969137836,"connected_time":5386000000000,"state":"active","ping":87},{"user_id":160,"name":"KickButtNess","steam_id":76561198093986236,"connected_time":355000000000,"state":"active","ping":80},{"user_id":155,"name":"radicalPolio","steam_id":76561197961561855,"connected_time":502000000000,"state":"active","ping":45},{"user_id":164,"name":"Phos","steam_id":76561198122339506,"connected_time":166000000000,"state":"active","ping":75},{"user_id":122,"name":"mkl","steam_id":76561197986401685,"connected_time":3958000000000,"state":"active","ping":56},{"user_id":90,"name":"Giselle","steam_id":76561198162593640,"connected_time":7039000000000,"state":"active","ping":106},{"user_id":146,"name":"story","steam_id":76561199088496817,"connected_time":751000000000,"state":"active","ping":62},{"user_id":165,"name":"w00my.jpg","steam_id":76561198799320631,"connected_time":25000000000,"state":"spawning","ping":78},{"user_id":151,"name":"stickg","steam_id":76561199193020423,"connected_time":634000000000,"state":"active","ping":88},{"user_id":105,"name":"bub games","steam_id":76561198040455711,"connected_time":5375000000000,"state":"active","ping":70},{"user_id":159,"name":"Darling","steam_id":76561198127525888,"connected_time":398000000000,"state":"active","ping":47},{"user_id":153,"name":"BitPieStudios","steam_id":76561198059216393,"connected_time":524000000000,"state":"active","ping":86},{"user_id":156,"name":"matthatter98","steam_id":76561198953709416,"connected_time":487000000000,"state":"active","ping":96},{"user_id":131,"name":"f0xh0le0ne","steam_id":76561199471269566,"connected_time":1998000000000,"state":"active","ping":54},{"user_id":125,"name":"barker bill","steam_id":76561198018451994,"connected_time":3679000000000,"state":"active","ping":60},{"user_id":106,"name":"AtomicSpeedFT","steam_id":76561198378581038,"connected_time":5366000000000,"state":"active","ping":89},{"user_id":163,"name":"wincel hampton","steam_id":76561198083095146,"connected_time":176000000000,"state":"active","ping":87},{"user_id":135,"name":"leesh","steam_id":76561198079603938,"connected_time":1844000000000,"state":"active","ping":62},{"user_id":158,"name":"calamari rings","steam_id":76561199248960166,"connected_time":402000000000,"state":"active","ping":90},{"user_id":144,"name":"A_dude","steam_id":76561199261495418,"connected_time":915000000000,"state":"active","ping":123},{"user_id":116,"name":"Tuvok Shakur","steam_id":76561198018875334,"connected_time":4794000000000,"state":"active","ping":64},{"user_id":121,"name":"ihave80hp","steam_id":76561199251621911,"connected_time":3983000000000,"state":"active","ping":70},{"user_id":141,"name":"Lemon Lime Soda","steam_id":76561198274005814,"connected_time":1135000000000,"state":"active","ping":91}]},{"server_id":108,"name":"Uncletopia | Dallas | 2 | All Maps","name_short":"dal-2","host":"dal-1.us.uncletopia.com","port":27025,"enabled":true,"region":"us-central","cc":"us","latitude":32.779167,"longitude":-96.80889,"reserved":0,"last_update":"0001-01-01T00:00:00Z","name_a2s":"Uncletopia | Dallas | 2 | All Maps","protocol":17,"map":"koth_highpass","folder":"tf","game":"Team Fortress","app_id":440,"player_count":24,"max_players":24,"Bots":0,"server_type":"Dedicated","server_os":"Linux","password":true,"vac":true,"version":"7961495","steam_id":85568392924469988,"keywords":["cp","nocrits","nodmgspread","uncletopia"],"game_id":440,"stv_port":27026,"stv_name":"Uncletopia | Dallas | 2 | All Maps | STV","players":[{"user_id":635,"name":"LG_Fridge_User","steam_id":76561198977815014,"connected_time":574000000000,"state":"active","ping":75},{"user_id":513,"name":"Brains . . .","steam_id":76561198100249037,"connected_time":10745000000000,"state":"active","ping":59},{"user_id":562,"name":"snail2646","steam_id":76561198061411251,"connected_time":6000000000000,"state":"active","ping":63},{"user_id":626,"name":"Johnny Lawrence #JohnnyMaxxing","steam_id":76561199367141671,"connected_time":1346000000000,"state":"active","ping":89},{"user_id":597,"name":"❀lo mein lacht sep chicken❀","steam_id":76561198059580373,"connected_time":3456000000000,"state":"active","ping":95},{"user_id":517,"name":"Hazeyboi","steam_id":76561198130687838,"connected_time":10397000000000,"state":"active","ping":67},{"user_id":606,"name":"Ich Bin Doge","steam_id":76561198880653063,"connected_time":2425000000000,"state":"active","ping":94},{"user_id":611,"name":"A Good Boy","steam_id":76561198066998594,"connected_time":2326000000000,"state":"active","ping":102},{"user_id":630,"name":"Sauce","steam_id":76561198398722419,"connected_time":1165000000000,"state":"active","ping":80},{"user_id":581,"name":"GardenOfStone","steam_id":76561199069870534,"connected_time":4239000000000,"state":"active","ping":85},{"user_id":582,"name":"Thunder","steam_id":76561198097721532,"connected_time":4235000000000,"state":"active","ping":76},{"user_id":637,"name":"poke_ravi","steam_id":76561198006619886,"connected_time":523000000000,"state":"active","ping":84},{"user_id":609,"name":"Melon","steam_id":76561198041266286,"connected_time":2408000000000,"state":"active","ping":68},{"user_id":628,"name":"Mediocre Gaming","steam_id":76561199230467980,"connected_time":1295000000000,"state":"active","ping":88},{"user_id":638,"name":"JustAnotherHuman","steam_id":76561199018122924,"connected_time":121000000000,"state":"active","ping":129},{"user_id":632,"name":"GangstaPuddin","steam_id":76561198045414782,"connected_time":1035000000000,"state":"active","ping":76},{"user_id":639,"name":"void","steam_id":76561198107501413,"connected_time":73000000000,"state":"active","ping":60},{"user_id":610,"name":"imng","steam_id":76561198014988031,"connected_time":2405000000000,"state":"active","ping":70},{"user_id":631,"name":"amablehughes","steam_id":76561199007131236,"connected_time":1128000000000,"state":"active","ping":115},{"user_id":640,"name":"Huntpk","steam_id":76561198340591674,"connected_time":50000000000,"state":"active","ping":66},{"user_id":633,"name":"NexFrost","steam_id":76561197985774837,"connected_time":1020000000000,"state":"active","ping":41},{"user_id":629,"name":"Kaestal","steam_id":76561198033174157,"connected_time":1261000000000,"state":"active","ping":54},{"user_id":636,"name":"sappy","steam_id":76561198200749235,"connected_time":559000000000,"state":"active","ping":86},{"user_id":515,"name":"Maximum Flame","steam_id":76561198073682529,"connected_time":10479000000000,"state":"active","ping":61}]},{"server_id":404,"name":"Uncletopia | Dallas | 3 | All Maps","name_short":"dal-3","host":"dal-1.us.uncletopia.com","port":27035,"enabled":true,"region":"us-central","cc":"us","latitude":32.779167,"longitude":-96.80889,"reserved":0,"last_update":"0001-01-01T00:00:00Z","name_a2s":"Uncletopia | Dallas | 3 | All Maps","protocol":17,"map":"cp_altitude","folder":"tf","game":"Team Fortress","app_id":440,"player_count":0,"max_players":24,"Bots":0,"server_type":"Dedicated","server_os":"Linux","password":true,"vac":true,"version":"7961495","steam_id":85568392924515219,"keywords":["cp","nocrits","nodmgspread","uncletopia"],"game_id":440,"stv_port":27036,"stv_name":"Uncletopia | Dallas | 3 | All Maps | STV","players":null},{"server_id":405,"name":"Uncletopia | Dallas | 4 | Community","name_short":"dal-4","host":"dal-1.us.uncletopia.com","port":27045,"enabled":true,"region":"us-central","cc":"us","latitude":32.779167,"longitude":-96.80889,"reserved":0,"last_update":"0001-01-01T00:00:00Z","name_a2s":"Uncletopia | Dallas | 4 | Community","protocol":17,"map":"workshop/cp_hazyfort_rc6.ugc1365963729","folder":"tf","game":"Team Fortress","app_id":440,"player_count":0,"max_players":24,"Bots":0,"server_type":"Dedicated","server_os":"Linux","password":true,"vac":true,"version":"7961495","steam_id":85568392924515220,"keywords":["cp","nocrits","nodmgspread","uncletopia"],"game_id":440,"stv_port":27046,"stv_name":"Uncletopia | Dallas | 4 | Community | STV","players":null},{"server_id":5,"name":"Uncletopia | Frankfurt | 1 | All Maps","name_short":"frk-1","host":"frk-1.de.uncletopia.com","port":27015,"enabled":true,"region":"eu","cc":"de","latitude":50.110924,"longitude":8.682127,"reserved":0,"last_update":"0001-01-01T00:00:00Z","name_a2s":"Uncletopia | Frankfurt | 1 | All Maps","protocol":17,"map":"pl_frontier_final","folder":"tf","game":"Team Fortress","app_id":440,"player_count":0,"max_players":24,"Bots":0,"server_type":"Dedicated","server_os":"Linux","password":true,"vac":true,"version":"7961495","steam_id":85568392924469989,"keywords":["nocrits","nodmgspread","payload","uncletopia"],"game_id":440,"stv_port":27016,"stv_name":"Uncletopia | Frankfurt | 1 | All Maps | STV","players":null},{"server_id":110,"name":"Uncletopia | Frankfurt | 2 | All Maps","name_short":"frk-2","host":"frk-1.de.uncletopia.com","port":27025,"enabled":true,"region":"eu","cc":"de","latitude":50.110924,"longitude":8.682127,"reserved":0,"last_update":"0001-01-01T00:00:00Z","name_a2s":"Uncletopia | Frankfurt | 2 | All Maps","protocol":17,"map":"pl_borneo","folder":"tf","game":"Team Fortress","app_id":440,"player_count":4,"max_players":24,"Bots":0,"server_type":"Dedicated","server_os":"Linux","password":true,"vac":true,"version":"7961495","steam_id":85568392924469990,"keywords":["nocrits","nodmgspread","payload","uncletopia"],"game_id":440,"stv_port":27026,"stv_name":"Uncletopia | Frankfurt | 2 | All Maps | STV","players":[{"user_id":557,"name":"Bob the Juicer","steam_id":76561198284932136,"connected_time":594000000000,"state":"active","ping":75},{"user_id":559,"name":"Yinsoo","steam_id":76561198127697875,"connected_time":11000000000,"state":"active","ping":76},{"user_id":553,"name":"ion luca caragiale","steam_id":76561198132025408,"connected_time":1131000000000,"state":"active","ping":60},{"user_id":548,"name":"Tomato","steam_id":76561199124472513,"connected_time":2171000000000,"state":"active","ping":118}]},{"server_id":308,"name":"Uncletopia | Frankfurt | 3 | All Maps","name_short":"frk-3","host":"frk-1.de.uncletopia.com","port":27035,"enabled":true,"region":"eu","cc":"de","latitude":50.110924,"longitude":8.682127,"reserved":0,"last_update":"0001-01-01T00:00:00Z","name_a2s":"Uncletopia | Frankfurt | 3 | All Maps","protocol":17,"map":"koth_harvest_final","folder":"tf","game":"Team Fortress","app_id":440,"player_count":0,"max_players":24,"Bots":0,"server_type":"Dedicated","server_os":"Linux","password":true,"vac":true,"version":"7961495","steam_id":85568392924504274,"keywords":["cp","nocrits","nodmgspread","uncletopia"],"game_id":440,"stv_port":27036,"stv_name":"Uncletopia | Frankfurt | 3 | All Maps | STV","players":null},{"server_id":309,"name":"Uncletopia | Frankfurt | 4 | All Maps","name_short":"frk-4","host":"frk-1.de.uncletopia.com","port":27045,"enabled":true,"region":"eu","cc":"de","latitude":50.110924,"longitude":8.682127,"reserved":0,"last_update":"0001-01-01T00:00:00Z","name_a2s":"Uncletopia | Frankfurt | 4 | All Maps","protocol":17,"map":"pl_badwater","folder":"tf","game":"Team Fortress","app_id":440,"player_count":0,"max_players":24,"Bots":0,"server_type":"Dedicated","server_os":"Linux","password":true,"vac":true,"version":"7961495","steam_id":85568392924504275,"keywords":["nocrits","nodmgspread","payload","uncletopia"],"game_id":440,"stv_port":27046,"stv_name":"Uncletopia | Frankfurt | 4 | All Maps | STV","players":null},{"server_id":310,"name":"Uncletopia | Frankfurt | 5 | All Maps","name_short":"frk-5","host":"frk-1.de.uncletopia.com","port":27055,"enabled":true,"region":"eu","cc":"de","latitude":50.110924,"longitude":8.682127,"reserved":0,"last_update":"0001-01-01T00:00:00Z","name_a2s":"Uncletopia | Frankfurt | 5 | All Maps","protocol":17,"map":"pl_swiftwater_final1","folder":"tf","game":"Team Fortress","app_id":440,"player_count":0,"max_players":24,"Bots":0,"server_type":"Dedicated","server_os":"Linux","password":true,"vac":true,"version":"7961495","steam_id":85568392924504277,"keywords":["nocrits","nodmgspread","payload","uncletopia"],"game_id":440,"stv_port":27056,"stv_name":"Uncletopia | Frankfurt | 5 | All Maps | STV","players":null},{"server_id":311,"name":"Uncletopia | Frankfurt | 6 | All Maps","name_short":"frk-6","host":"frk-1.de.uncletopia.com","port":27065,"enabled":true,"region":"eu","cc":"de","latitude":50.110924,"longitude":8.682127,"reserved":0,"last_update":"0001-01-01T00:00:00Z","name_a2s":"Uncletopia | Frankfurt | 6 | All Maps","protocol":17,"map":"pl_badwater","folder":"tf","game":"Team Fortress","app_id":440,"player_count":0,"max_players":24,"Bots":0,"server_type":"Dedicated","server_os":"Linux","password":true,"vac":true,"version":"7961495","steam_id":85568392924504278,"keywords":["nocrits","nodmgspread","payload","uncletopia"],"game_id":440,"stv_port":27066,"stv_name":"Uncletopia | Frankfurt | 6 | All Maps | STV","players":null},{"server_id":23,"name":"Uncletopia | Frankfurt | 7 | Stopwatch","name_short":"frk-7","host":"frk-1.de.uncletopia.com","port":27075,"enabled":true,"region":"eu","cc":"de","latitude":50.110924,"longitude":8.682127,"reserved":0,"last_update":"0001-01-01T00:00:00Z","name_a2s":"Uncletopia | Frankfurt | 7 | Stopwatch","protocol":17,"map":"workshop/koth_ashville_final.ugc2130459942","folder":"tf","game":"Team Fortress","app_id":440,"player_count":0,"max_players":24,"Bots":0,"server_type":"Dedicated","server_os":"Linux","password":true,"vac":true,"version":"7961495","steam_id":85568392924742827,"keywords":["cp","nocrits","nodmgspread","uncletopia"],"game_id":440,"stv_port":27076,"stv_name":"Uncletopia | Frankfurt | 7 | Stopwatch | STV","players":null},{"server_id":24,"name":"Uncletopia | Frankfurt | 8 | Community","name_short":"frk-8","host":"frk-1.de.uncletopia.com","port":27085,"enabled":true,"region":"eu","cc":"de","latitude":50.110924,"longitude":8.682127,"reserved":0,"last_update":"0001-01-01T00:00:00Z","name_a2s":"Uncletopia | Frankfurt | 8 | Community","protocol":17,"map":"workshop/koth_slaughter_rc1.ugc1712845210","folder":"tf","game":"Team Fortress","app_id":440,"player_count":0,"max_players":24,"Bots":0,"server_type":"Dedicated","server_os":"Linux","password":true,"vac":true,"version":"7961495","steam_id":85568392924742828,"keywords":["cp","nocrits","nodmgspread","uncletopia"],"game_id":440,"stv_port":27086,"stv_name":"Uncletopia | Frankfurt | 8 | Community | STV","players":null},{"server_id":202,"name":"Uncletopia | Hong Kong | 1 | All Maps","name_short":"hgk-1","host":"hgk-1.hk.uncletopia.com","port":27015,"enabled":true,"region":"asia","cc":"hk","latitude":22.302711,"longitude":114.177216,"reserved":0,"last_update":"0001-01-01T00:00:00Z","name_a2s":"Uncletopia | Hong Kong | 1 | All Maps","protocol":17,"map":"pl_frontier_final","folder":"tf","game":"Team Fortress","app_id":440,"player_count":1,"max_players":24,"Bots":0,"server_type":"Dedicated","server_os":"Linux","password":true,"vac":true,"version":"7961495","steam_id":85568392924494504,"keywords":["nocrits","nodmgspread","payload","uncletopia"],"game_id":440,"stv_port":27016,"stv_name":"Uncletopia | Hong Kong | 1 | All Maps | STV","players":[{"user_id":3,"name":"cau be thieu nang","steam_id":76561199273435519,"connected_time":51000000000,"state":"active","ping":66}]},{"server_id":1,"name":"Uncletopia | Los Angeles | 1 | All Maps","name_short":"lax-1","host":"lax-1.us.uncletopia.com","port":27015,"enabled":true,"region":"us-west","cc":"us","latitude":33.94279,"longitude":-118.41004,"reserved":0,"last_update":"0001-01-01T00:00:00Z","name_a2s":"Uncletopia | Los Angeles | 1 | All Maps","protocol":17,"map":"pl_borneo","folder":"tf","game":"Team Fortress","app_id":440,"player_count":0,"max_players":24,"Bots":0,"server_type":"Dedicated","server_os":"Linux","password":true,"vac":true,"version":"7961495","steam_id":85568392924469991,"keywords":["nocrits","nodmgspread","payload","uncletopia"],"game_id":440,"stv_port":27016,"stv_name":"Uncletopia | Los Angeles | 1 | All Maps | STV","players":null},{"server_id":112,"name":"Uncletopia | Los Angeles | 2 | All Maps","name_short":"lax-2","host":"lax-1.us.uncletopia.com","port":27025,"enabled":true,"region":"us-west","cc":"us","latitude":33.94279,"longitude":-118.41004,"reserved":0,"last_update":"0001-01-01T00:00:00Z","name_a2s":"Uncletopia | Los Angeles | 2 | All Maps","protocol":17,"map":"cp_dustbowl","folder":"tf","game":"Team Fortress","app_id":440,"player_count":24,"max_players":24,"Bots":0,"server_type":"Dedicated","server_os":"Linux","password":true,"vac":true,"version":"7961495","steam_id":85568392924469992,"keywords":["cp","nocrits","nodmgspread","uncletopia"],"game_id":440,"stv_port":27026,"stv_name":"Uncletopia | Los Angeles | 2 | All Maps | STV","players":[{"user_id":387,"name":"jdm","steam_id":76561199497603020,"connected_time":4662000000000,"state":"active","ping":45},{"user_id":415,"name":"waggyaggy","steam_id":76561197998241407,"connected_time":2917000000000,"state":"active","ping":45},{"user_id":432,"name":"❤[S'more]❤","steam_id":76561198817361963,"connected_time":1317000000000,"state":"active","ping":77},{"user_id":412,"name":"El Duderino","steam_id":76561198084404539,"connected_time":3169000000000,"state":"active","ping":126},{"user_id":437,"name":"roach","steam_id":76561198354811369,"connected_time":1092000000000,"state":"active","ping":48},{"user_id":441,"name":"Ethanol Buttchugger","steam_id":76561199127590316,"connected_time":471000000000,"state":"active","ping":62},{"user_id":407,"name":"chocolat3823","steam_id":76561199249875689,"connected_time":3509000000000,"state":"active","ping":49},{"user_id":420,"name":"MineOpal","steam_id":76561198044716407,"connected_time":2349000000000,"state":"active","ping":45},{"user_id":421,"name":"Dwake","steam_id":76561198121943676,"connected_time":2333000000000,"state":"active","ping":55},{"user_id":425,"name":"ButterNutz","steam_id":76561198122404516,"connected_time":2027000000000,"state":"active","ping":101},{"user_id":430,"name":"SpotEmDropEm","steam_id":76561198079345584,"connected_time":1334000000000,"state":"active","ping":52},{"user_id":433,"name":"fis","steam_id":76561198065097426,"connected_time":1253000000000,"state":"active","ping":55},{"user_id":417,"name":"Banana Sword","steam_id":76561199076361445,"connected_time":2753000000000,"state":"active","ping":65},{"user_id":434,"name":"Sharp","steam_id":76561198044565001,"connected_time":1250000000000,"state":"active","ping":122},{"user_id":427,"name":"Future Tusk","steam_id":76561198199635217,"connected_time":1966000000000,"state":"active","ping":62},{"user_id":431,"name":"oog","steam_id":76561199089730744,"connected_time":1327000000000,"state":"active","ping":66},{"user_id":416,"name":"Furious George","steam_id":76561198405111646,"connected_time":2797000000000,"state":"active","ping":64},{"user_id":406,"name":"Whisper!","steam_id":76561198119609795,"connected_time":3516000000000,"state":"active","ping":57},{"user_id":395,"name":"master_minion","steam_id":76561198170693990,"connected_time":4197000000000,"state":"active","ping":50},{"user_id":419,"name":"heck","steam_id":76561198315694520,"connected_time":2688000000000,"state":"active","ping":45},{"user_id":363,"name":"Joh Bags","steam_id":76561198097004438,"connected_time":6443000000000,"state":"active","ping":75},{"user_id":438,"name":"I'mFromSpace","steam_id":76561198808969653,"connected_time":765000000000,"state":"active","ping":85},{"user_id":335,"name":"(° ͜   °)","steam_id":76561198064273568,"connected_time":7958000000000,"state":"active","ping":46},{"user_id":440,"name":"cielael","steam_id":76561198043971956,"connected_time":524000000000,"state":"active","ping":57}]},{"server_id":324,"name":"Uncletopia | Los Angeles | 3 | All Maps","name_short":"lax-3","host":"lax-1.us.uncletopia.com","port":27035,"enabled":true,"region":"us-west","cc":"us","latitude":33.94279,"longitude":-118.41004,"reserved":0,"last_update":"0001-01-01T00:00:00Z","name_a2s":"Uncletopia | Los Angeles | 3 | All Maps","protocol":17,"map":"pl_frontier_final","folder":"tf","game":"Team Fortress","app_id":440,"player_count":2,"max_players":24,"Bots":0,"server_type":"Dedicated","server_os":"Linux","password":true,"vac":true,"version":"7961495","steam_id":85568392924510198,"keywords":["nocrits","nodmgspread","payload","uncletopia"],"game_id":440,"stv_port":27036,"stv_name":"Uncletopia | Los Angeles | 3 | All Maps | STV","players":[{"user_id":9,"name":"luigigario","steam_id":76561198881262416,"connected_time":1479000000000,"state":"active","ping":64},{"user_id":10,"name":"Poodwecker","steam_id":76561198344264859,"connected_time":1125000000000,"state":"active","ping":87}]},{"server_id":25,"name":"Uncletopia | Los Angeles | 4 | Stopwatch","name_short":"lax-4","host":"lax-1.us.uncletopia.com","port":27045,"enabled":true,"region":"us-west","cc":"us","latitude":33.94279,"longitude":-118.41004,"reserved":0,"last_update":"0001-01-01T00:00:00Z","name_a2s":"Uncletopia | Los Angeles | 4 | Stopwatch","protocol":17,"map":"koth_lakeside_final","folder":"tf","game":"Team Fortress","app_id":440,"player_count":0,"max_players":24,"Bots":0,"server_type":"Dedicated","server_os":"Linux","password":true,"vac":true,"version":"7961495","steam_id":85568392924510199,"keywords":["cp","nocrits","nodmgspread","uncletopia"],"game_id":440,"stv_port":27046,"stv_name":"Uncletopia | Los Angeles | 4 | Stopwatch | STV","players":null},{"server_id":11,"name":"Uncletopia | London | 1 | All Maps","name_short":"lon-1","host":"lon-1.uk.uncletopia.com","port":27015,"enabled":true,"region":"eu","cc":"gb","latitude":51.509865,"longitude":-0.118092,"reserved":0,"last_update":"0001-01-01T00:00:00Z","name_a2s":"Uncletopia | London | 1 | All Maps","protocol":17,"map":"cp_dustbowl","folder":"tf","game":"Team Fortress","app_id":440,"player_count":24,"max_players":24,"Bots":0,"server_type":"Dedicated","server_os":"Linux","password":true,"vac":true,"version":"7961495","steam_id":85568392924367362,"keywords":["cp","nocrits","nodmgspread","uncletopia"],"game_id":440,"stv_port":27016,"stv_name":"Uncletopia | London | 1 | All Maps | STV","players":[{"user_id":742,"name":"zxchat","steam_id":76561198394082814,"connected_time":4595000000000,"state":"active","ping":108},{"user_id":786,"name":"dirty rascal","steam_id":76561198000871038,"connected_time":843000000000,"state":"active","ping":44},{"user_id":624,"name":"god's eepiest girl","steam_id":76561198128327529,"connected_time":14215000000000,"state":"active","ping":45},{"user_id":744,"name":"Valen","steam_id":76561198049614521,"connected_time":4575000000000,"state":"active","ping":70},{"user_id":766,"name":"Dr_Agent","steam_id":76561198330355519,"connected_time":3165000000000,"state":"active","ping":67},{"user_id":757,"name":"Velvet","steam_id":76561199394742012,"connected_time":4174000000000,"state":"active","ping":67},{"user_id":787,"name":"Proto-arc","steam_id":76561198012776747,"connected_time":706000000000,"state":"active","ping":55},{"user_id":628,"name":"SKY_","steam_id":76561198080980508,"connected_time":13446000000000,"state":"active","ping":68},{"user_id":782,"name":"bebed bedba bedda","steam_id":76561198277943630,"connected_time":1796000000000,"state":"active","ping":75},{"user_id":745,"name":"noseb","steam_id":76561199480942903,"connected_time":4573000000000,"state":"active","ping":68},{"user_id":739,"name":"Sonnakai","steam_id":76561198051688749,"connected_time":4682000000000,"state":"active","ping":41},{"user_id":737,"name":"`Fox","steam_id":76561198079000692,"connected_time":4780000000000,"state":"active","ping":149},{"user_id":656,"name":"rigel_","steam_id":76561198148640847,"connected_time":11970000000000,"state":"active","ping":82},{"user_id":769,"name":"♥BlueGIRL64♥","steam_id":76561198443876365,"connected_time":2848000000000,"state":"active","ping":77},{"user_id":688,"name":"Purps","steam_id":76561198053886680,"connected_time":9051000000000,"state":"active","ping":45},{"user_id":652,"name":"fluffy gurl :3","steam_id":76561198139632682,"connected_time":12062000000000,"state":"active","ping":85},{"user_id":775,"name":"brodie mon","steam_id":76561198001359683,"connected_time":2625000000000,"state":"active","ping":74},{"user_id":788,"name":"Piellino","steam_id":76561198156873276,"connected_time":698000000000,"state":"active","ping":104},{"user_id":791,"name":"Zoomfix","steam_id":76561198280001106,"connected_time":315000000000,"state":"active","ping":80},{"user_id":747,"name":"tm`","steam_id":76561197993580412,"connected_time":4553000000000,"state":"active","ping":67},{"user_id":790,"name":"Economic crisis","steam_id":76561198063562843,"connected_time":611000000000,"state":"active","ping":71},{"user_id":794,"name":"Infantile Pillock","steam_id":76561198283851362,"connected_time":173000000000,"state":"active","ping":68},{"user_id":762,"name":"else1","steam_id":76561197996558319,"connected_time":4023000000000,"state":"active","ping":91},{"user_id":693,"name":"teddy","steam_id":76561198007436837,"connected_time":8577000000000,"state":"active","ping":32}]},{"server_id":114,"name":"Uncletopia | London | 2 | All Maps","name_short":"lon-2","host":"lon-1.uk.uncletopia.com","port":27025,"enabled":true,"region":"eu","cc":"gb","latitude":51.509865,"longitude":-0.118092,"reserved":0,"last_update":"0001-01-01T00:00:00Z","name_a2s":"Uncletopia | London | 2 | All Maps","protocol":17,"map":"koth_lakeside_final","folder":"tf","game":"Team Fortress","app_id":440,"player_count":0,"max_players":24,"Bots":0,"server_type":"Dedicated","server_os":"Linux","password":true,"vac":true,"version":"7961495","steam_id":85568392924470941,"keywords":["cp","nocrits","nodmgspread","uncletopia"],"game_id":440,"stv_port":27026,"stv_name":"Uncletopia | London | 2 | All Maps | STV","players":null},{"server_id":320,"name":"Uncletopia | London | 3 | All Maps","name_short":"lon-3","host":"lon-1.uk.uncletopia.com","port":27035,"enabled":true,"region":"eu","cc":"gb","latitude":51.509865,"longitude":-0.118092,"reserved":0,"last_update":"0001-01-01T00:00:00Z","name_a2s":"Uncletopia | London | 3 | All Maps","protocol":17,"map":"pl_barnblitz","folder":"tf","game":"Team Fortress","app_id":440,"player_count":17,"max_players":24,"Bots":0,"server_type":"Dedicated","server_os":"Linux","password":true,"vac":true,"version":"7961495","steam_id":85568392924510192,"keywords":["nocrits","nodmgspread","payload","uncletopia"],"game_id":440,"stv_port":27036,"stv_name":"Uncletopia | London | 3 | All Maps | STV","players":[{"user_id":691,"name":"remi, she wrote.","steam_id":76561198044045655,"connected_time":3593000000000,"state":"active","ping":85},{"user_id":663,"name":"Robotnik gaming","steam_id":76561198070536845,"connected_time":5240000000000,"state":"active","ping":75},{"user_id":734,"name":"Standard Issue Frog","steam_id":76561198041267891,"connected_time":40000000000,"state":"active","ping":60},{"user_id":685,"name":"heathheathriley","steam_id":76561199236661111,"connected_time":4048000000000,"state":"active","ping":53},{"user_id":730,"name":"Silver Fiddle","steam_id":76561199015369139,"connected_time":284000000000,"state":"active","ping":153},{"user_id":732,"name":"☁ Laz","steam_id":76561197978099948,"connected_time":129000000000,"state":"active","ping":51},{"user_id":731,"name":"Deocyn","steam_id":76561197990495033,"connected_time":262000000000,"state":"active","ping":58},{"user_id":649,"name":"Syke Jr","steam_id":76561198038479641,"connected_time":5839000000000,"state":"active","ping":59},{"user_id":724,"name":"Wobblyboyz","steam_id":76561198289356209,"connected_time":1171000000000,"state":"active","ping":45},{"user_id":733,"name":"sticks","steam_id":76561198127099299,"connected_time":109000000000,"state":"active","ping":42},{"user_id":726,"name":"Bobirulez","steam_id":76561198009125458,"connected_time":696000000000,"state":"active","ping":74},{"user_id":695,"name":"Portal2Player","steam_id":76561198062870114,"connected_time":3547000000000,"state":"active","ping":133},{"user_id":728,"name":"Quake 1 CTF","steam_id":76561197989948359,"connected_time":360000000000,"state":"active","ping":68},{"user_id":708,"name":"Testy","steam_id":76561198169996602,"connected_time":2343000000000,"state":"active","ping":57},{"user_id":716,"name":"Shlongulator","steam_id":76561198149779201,"connected_time":2036000000000,"state":"active","ping":45},{"user_id":709,"name":"Stop The Violence","steam_id":76561198044876779,"connected_time":2265000000000,"state":"active","ping":72},{"user_id":725,"name":"[HOL] Solringen","steam_id":76561198003584681,"connected_time":1130000000000,"state":"active","ping":76}]},{"server_id":321,"name":"Uncletopia | London | 4 | All Maps","name_short":"lon-4","host":"lon-1.uk.uncletopia.com","port":27045,"enabled":true,"region":"eu","cc":"gb","latitude":51.509865,"longitude":-0.118092,"reserved":0,"last_update":"0001-01-01T00:00:00Z","name_a2s":"Uncletopia | London | 4 | All Maps","protocol":17,"map":"koth_viaduct","folder":"tf","game":"Team Fortress","app_id":440,"player_count":0,"max_players":24,"Bots":0,"server_type":"Dedicated","server_os":"Linux","password":true,"vac":true,"version":"7961495","steam_id":85568392924510193,"keywords":["cp","nocrits","nodmgspread","uncletopia"],"game_id":440,"stv_port":27046,"stv_name":"Uncletopia | London | 4 | All Maps | STV","players":null},{"server_id":21,"name":"Uncletopia | London | 5 | All Maps","name_short":"lon-5","host":"lon-1.uk.uncletopia.com","port":27055,"enabled":true,"region":"eu","cc":"gb","latitude":51.509865,"longitude":-0.118092,"reserved":0,"last_update":"0001-01-01T00:00:00Z","name_a2s":"Uncletopia | London | 5 | All Maps","protocol":17,"map":"pl_badwater","folder":"tf","game":"Team Fortress","app_id":440,"player_count":0,"max_players":24,"Bots":0,"server_type":"Dedicated","server_os":"Linux","password":true,"vac":true,"version":"7961495","steam_id":85568392924742829,"keywords":["nocrits","nodmgspread","payload","uncletopia"],"game_id":440,"stv_port":27056,"stv_name":"Uncletopia | London | 5 | All Maps | STV","players":null},{"server_id":22,"name":"Uncletopia | London | 6 | All Maps","name_short":"lon-6","host":"lon-1.uk.uncletopia.com","port":27065,"enabled":true,"region":"eu","cc":"gb","latitude":51.509865,"longitude":-0.118092,"reserved":0,"last_update":"0001-01-01T00:00:00Z","name_a2s":"Uncletopia | London | 6 | All Maps","protocol":17,"map":"pl_badwater","folder":"tf","game":"Team Fortress","app_id":440,"player_count":21,"max_players":24,"Bots":0,"server_type":"Dedicated","server_os":"Linux","password":true,"vac":true,"version":"7961495","steam_id":85568392924742830,"keywords":["nocrits","nodmgspread","payload","uncletopia"],"game_id":440,"stv_port":27066,"stv_name":"Uncletopia | London | 6 | All Maps | STV","players":[{"user_id":544,"name":"ุ","steam_id":76561197992023317,"connected_time":1512000000000,"state":"active","ping":93},{"user_id":558,"name":"Cosmo","steam_id":76561198078378048,"connected_time":518000000000,"state":"active","ping":46},{"user_id":565,"name":"harper","steam_id":76561198188642265,"connected_time":356000000000,"state":"active","ping":62},{"user_id":551,"name":"yuno appreciator","steam_id":76561198083286511,"connected_time":1251000000000,"state":"active","ping":36},{"user_id":560,"name":"Iris","steam_id":76561198430295815,"connected_time":449000000000,"state":"active","ping":69},{"user_id":562,"name":"Luigi","steam_id":76561198196910287,"connected_time":425000000000,"state":"active","ping":64},{"user_id":530,"name":"1 toke 4 mars bars","steam_id":76561198056460000,"connected_time":3096000000000,"state":"active","ping":74},{"user_id":533,"name":"Bobo","steam_id":76561198052308399,"connected_time":2249000000000,"state":"active","ping":73},{"user_id":568,"name":"mr mufasi","steam_id":76561198068453867,"connected_time":44000000000,"state":"active","ping":54},{"user_id":564,"name":"Bubbel","steam_id":76561198059540376,"connected_time":375000000000,"state":"active","ping":75},{"user_id":569,"name":"puck","steam_id":76561198121260981,"connected_time":13000000000,"state":"active","ping":38},{"user_id":566,"name":"Cosmonaut","steam_id":76561198086803330,"connected_time":298000000000,"state":"active","ping":88},{"user_id":541,"name":"✧₊⁎༚","steam_id":76561199441196540,"connected_time":1560000000000,"state":"active","ping":69},{"user_id":567,"name":"BUTTS \u0026 TITS \u0026 $$$","steam_id":76561198049405872,"connected_time":256000000000,"state":"active","ping":57},{"user_id":549,"name":"Sorry","steam_id":76561198040722720,"connected_time":1353000000000,"state":"active","ping":138},{"user_id":471,"name":"Harbor Seal","steam_id":76561198162631724,"connected_time":6895000000000,"state":"active","ping":126},{"user_id":543,"name":"monkmoder","steam_id":76561198027033926,"connected_time":1558000000000,"state":"active","ping":52},{"user_id":554,"name":"☁ Lou1smeister ☁","steam_id":76561198004032968,"connected_time":1076000000000,"state":"active","ping":76},{"user_id":526,"name":"Lucky Number 13","steam_id":76561198043951279,"connected_time":3771000000000,"state":"active","ping":109},{"user_id":548,"name":"tadisab","steam_id":76561199484049632,"connected_time":1376000000000,"state":"active","ping":146},{"user_id":550,"name":"The_Pulle","steam_id":76561199390511229,"connected_time":1352000000000,"state":"active","ping":61}]},{"server_id":40,"name":"Uncletopia | London | 7 | Stopwatch","name_short":"lon-7","host":"lon-1.uk.uncletopia.com","port":27075,"enabled":true,"region":"eu","cc":"gb","latitude":51.509865,"longitude":-0.118092,"reserved":0,"last_update":"0001-01-01T00:00:00Z","name_a2s":"Uncletopia | London | 7 | Stopwatch","protocol":17,"map":"workshop/koth_product_final.ugc454272353","folder":"tf","game":"Team Fortress","app_id":440,"player_count":0,"max_players":24,"Bots":0,"server_type":"Dedicated","server_os":"Linux","password":true,"vac":true,"version":"7961495","steam_id":85568392924964314,"keywords":["cp","nocrits","nodmgspread","uncletopia"],"game_id":440,"stv_port":27076,"stv_name":"Uncletopia | London | 7 | Stopwatch | STV","players":null},{"server_id":41,"name":"Uncletopia | London | 8 | Community","name_short":"lon-8","host":"lon-1.uk.uncletopia.com","port":27085,"enabled":true,"region":"eu","cc":"gb","latitude":51.509865,"longitude":-0.118092,"reserved":0,"last_update":"0001-01-01T00:00:00Z","name_a2s":"Uncletopia | London | 8 | Community","protocol":17,"map":"workshop/pl_shoreleave_rc2.ugc1238849347","folder":"tf","game":"Team Fortress","app_id":440,"player_count":0,"max_players":24,"Bots":0,"server_type":"Dedicated","server_os":"Linux","password":true,"vac":true,"version":"7961495","steam_id":85568392924964315,"keywords":["nocrits","nodmgspread","payload","uncletopia"],"game_id":440,"stv_port":27086,"stv_name":"Uncletopia | London | 8 | Community | STV","players":null},{"server_id":300,"name":"Uncletopia | Montréal | 1 | One Thousand Uncles","name_short":"mtl-1","host":"mtl-1.ca.uncletopia.com","port":27015,"enabled":true,"region":"us-east","cc":"ca","latitude":45.50889,"longitude":-73.56167,"reserved":0,"last_update":"0001-01-01T00:00:00Z","name_a2s":"","protocol":0,"map":"","folder":"","game":"","app_id":0,"player_count":0,"max_players":0,"Bots":0,"server_type":"","server_os":"","password":false,"vac":false,"version":"","steam_id":0,"keywords":null,"game_id":0,"stv_port":0,"stv_name":"","players":null},{"server_id":301,"name":"Uncletopia | Montréal | 2 | One Thousand Uncles","name_short":"mtl-2","host":"mtl-1.ca.uncletopia.com","port":27025,"enabled":true,"region":"us-east","cc":"ca","latitude":45.50889,"longitude":-73.56167,"reserved":0,"last_update":"0001-01-01T00:00:00Z","name_a2s":"","protocol":0,"map":"","folder":"","game":"","app_id":0,"player_count":12,"max_players":0,"Bots":0,"server_type":"","server_os":"","password":false,"vac":false,"version":"","steam_id":0,"keywords":null,"game_id":0,"stv_port":0,"stv_name":"","players":[{"user_id":116,"name":"TrashBoat","steam_id":76561199089671432,"connected_time":134000000000,"state":"active","ping":80},{"user_id":105,"name":"Yimberly","steam_id":76561199206923109,"connected_time":1864000000000,"state":"active","ping":78},{"user_id":102,"name":"Delta","steam_id":76561198158985472,"connected_time":2496000000000,"state":"active","ping":134},{"user_id":103,"name":"JustANormalOlive-ia","steam_id":76561198809645656,"connected_time":2384000000000,"state":"active","ping":97},{"user_id":106,"name":"sexnothaver","steam_id":76561198172943006,"connected_time":1598000000000,"state":"active","ping":60},{"user_id":104,"name":"Arachna.cadabra","steam_id":76561198039437427,"connected_time":2202000000000,"state":"active","ping":100},{"user_id":107,"name":"manbearswineflu","steam_id":76561198083945137,"connected_time":855000000000,"state":"active","ping":70},{"user_id":117,"name":"V_","steam_id":76561198147577835,"connected_time":107000000000,"state":"active","ping":100},{"user_id":118,"name":"Dracula's Lawyer","steam_id":76561199038108510,"connected_time":68000000000,"state":"active","ping":80},{"user_id":110,"name":"Territe","steam_id":76561199122213824,"connected_time":410000000000,"state":"active","ping":52},{"user_id":119,"name":"Bug","steam_id":76561199441290425,"connected_time":6000000000,"state":"spawning","ping":64},{"user_id":115,"name":"Rhutebeer","steam_id":76561198018302761,"connected_time":228000000000,"state":"active","ping":101}]},{"server_id":302,"name":"Uncletopia | Montréal | 3 | One Thousand Uncles","name_short":"mtl-3","host":"mtl-1.ca.uncletopia.com","port":27035,"enabled":true,"region":"us-east","cc":"ca","latitude":45.50889,"longitude":-73.56167,"reserved":0,"last_update":"0001-01-01T00:00:00Z","name_a2s":"","protocol":0,"map":"","folder":"","game":"","app_id":0,"player_count":0,"max_players":0,"Bots":0,"server_type":"","server_os":"","password":false,"vac":false,"version":"","steam_id":0,"keywords":null,"game_id":0,"stv_port":0,"stv_name":"","players":null},{"server_id":13,"name":"Uncletopia | New York City | 1 | All Maps","name_short":"nyc-1","host":"nyc-1.us.uncletopia.com","port":27015,"enabled":true,"region":"us-east","cc":"us","latitude":40.73061,"longitude":-73.93524,"reserved":0,"last_update":"0001-01-01T00:00:00Z","name_a2s":"Uncletopia | New York City | 1 | All Maps","protocol":17,"map":"pl_pier","folder":"tf","game":"Team Fortress","app_id":440,"player_count":24,"max_players":24,"Bots":0,"server_type":"Dedicated","server_os":"Linux","password":true,"vac":true,"version":"7961495","steam_id":85568392924469993,"keywords":["nocrits","nodmgspread","payload","uncletopia"],"game_id":440,"stv_port":27016,"stv_name":"Uncletopia | New York City | 1 | All Maps | STV","players":[{"user_id":342,"name":"CDBeans","steam_id":76561198046990367,"connected_time":7261000000000,"state":"active","ping":82},{"user_id":425,"name":"David Blaine","steam_id":76561198980560578,"connected_time":873000000000,"state":"active","ping":65},{"user_id":429,"name":"Maurdakar","steam_id":76561197983420976,"connected_time":842000000000,"state":"active","ping":82},{"user_id":437,"name":"Hardfall","steam_id":76561198044603323,"connected_time":98000000000,"state":"active","ping":43},{"user_id":432,"name":"Robin","steam_id":76561198825412838,"connected_time":552000000000,"state":"active","ping":71},{"user_id":379,"name":"lexi","steam_id":76561198176299759,"connected_time":4395000000000,"state":"active","ping":87},{"user_id":412,"name":"Sickduck Mcgee","steam_id":76561198028577159,"connected_time":1899000000000,"state":"active","ping":60},{"user_id":413,"name":"㋛ countblanc","steam_id":76561197993171771,"connected_time":1896000000000,"state":"active","ping":62},{"user_id":411,"name":"Meskoozy","steam_id":76561198102394479,"connected_time":1915000000000,"state":"active","ping":91},{"user_id":426,"name":"Bubbly","steam_id":76561199014095959,"connected_time":872000000000,"state":"active","ping":75},{"user_id":340,"name":"The Nikocado Enjoyer","steam_id":76561198263154374,"connected_time":7345000000000,"state":"active","ping":60},{"user_id":414,"name":"chicken on quack","steam_id":76561199235538552,"connected_time":1871000000000,"state":"active","ping":119},{"user_id":409,"name":"Two-Teste Tommy","steam_id":76561198064308936,"connected_time":2251000000000,"state":"active","ping":60},{"user_id":427,"name":"chill guy","steam_id":76561198322479866,"connected_time":859000000000,"state":"active","ping":42},{"user_id":385,"name":"Kid named download","steam_id":76561199192074448,"connected_time":3995000000000,"state":"active","ping":94},{"user_id":428,"name":"✪Type_Alpha","steam_id":76561198122780598,"connected_time":858000000000,"state":"active","ping":59},{"user_id":417,"name":"Your Local Jester","steam_id":76561199120223717,"connected_time":1664000000000,"state":"active","ping":67},{"user_id":431,"name":"Curse of the Blackened Eye","steam_id":76561198097175164,"connected_time":593000000000,"state":"active","ping":76},{"user_id":434,"name":"Jericho von Generico","steam_id":76561198206139559,"connected_time":202000000000,"state":"active","ping":59},{"user_id":406,"name":"Menachem","steam_id":76561198041226420,"connected_time":2615000000000,"state":"active","ping":70},{"user_id":421,"name":"Horse","steam_id":76561198332887086,"connected_time":1275000000000,"state":"active","ping":45},{"user_id":372,"name":"msay","steam_id":76561198170888029,"connected_time":4965000000000,"state":"active","ping":73},{"user_id":408,"name":"AlpacaPickaxe","steam_id":76561199453651646,"connected_time":2323000000000,"state":"active","ping":68},{"user_id":423,"name":"Bulk","steam_id":76561199009814535,"connected_time":1116000000000,"state":"active","ping":47}]},{"server_id":14,"name":"Uncletopia | New York City | 2 | All Maps","name_short":"nyc-2","host":"nyc-1.us.uncletopia.com","port":27025,"enabled":true,"region":"us-east","cc":"us","latitude":40.73061,"longitude":-73.93524,"reserved":0,"last_update":"0001-01-01T00:00:00Z","name_a2s":"Uncletopia | New York City | 2 | All Maps","protocol":17,"map":"pl_borneo","folder":"tf","game":"Team Fortress","app_id":440,"player_count":24,"max_players":24,"Bots":0,"server_type":"Dedicated","server_os":"Linux","password":true,"vac":true,"version":"7961495","steam_id":85568392924469994,"keywords":["nocrits","nodmgspread","payload","uncletopia"],"game_id":440,"stv_port":27026,"stv_name":"Uncletopia | New York City | 2 | All Maps | STV","players":[{"user_id":341,"name":"wool","steam_id":76561198869689933,"connected_time":103000000000,"state":"active","ping":59},{"user_id":339,"name":"cosmic ambiance","steam_id":76561198042788986,"connected_time":539000000000,"state":"active","ping":71},{"user_id":334,"name":"Caribou","steam_id":76561197997211265,"connected_time":868000000000,"state":"active","ping":62},{"user_id":340,"name":"Atomiix","steam_id":76561198116132552,"connected_time":107000000000,"state":"active","ping":45},{"user_id":342,"name":"Prsm","steam_id":76561198053344995,"connected_time":92000000000,"state":"active","ping":35},{"user_id":274,"name":"trepplze","steam_id":76561198261896958,"connected_time":5921000000000,"state":"active","ping":45},{"user_id":327,"name":"Johni3FireFly","steam_id":76561198089760607,"connected_time":1470000000000,"state":"active","ping":89},{"user_id":314,"name":"THE APPLE","steam_id":76561199258176303,"connected_time":2628000000000,"state":"active","ping":70},{"user_id":325,"name":"High School Nudical","steam_id":76561198172120615,"connected_time":1591000000000,"state":"active","ping":39},{"user_id":336,"name":"bumrusherz","steam_id":76561198440658195,"connected_time":846000000000,"state":"active","ping":76},{"user_id":328,"name":"Doctor Glocktorpus [NGC]","steam_id":76561198049194645,"connected_time":1228000000000,"state":"active","ping":51},{"user_id":332,"name":"Chad","steam_id":76561199013400087,"connected_time":886000000000,"state":"active","ping":101},{"user_id":322,"name":"RyInc","steam_id":76561198874261643,"connected_time":1828000000000,"state":"active","ping":60},{"user_id":185,"name":"Not a Russian","steam_id":76561198880311217,"connected_time":11810000000000,"state":"active","ping":86},{"user_id":335,"name":"Sgt. Pepper","steam_id":76561198063674627,"connected_time":861000000000,"state":"active","ping":86},{"user_id":295,"name":"Nerrrd_","steam_id":76561198870129960,"connected_time":3777000000000,"state":"active","ping":45},{"user_id":237,"name":"Unk","steam_id":76561198031717617,"connected_time":7717000000000,"state":"active","ping":35},{"user_id":269,"name":"ZeroFour","steam_id":76561198209641323,"connected_time":6499000000000,"state":"active","ping":83},{"user_id":338,"name":"HalfDead","steam_id":76561198049700226,"connected_time":779000000000,"state":"active","ping":79},{"user_id":337,"name":"Asanez3","steam_id":76561198037381436,"connected_time":818000000000,"state":"active","ping":65},{"user_id":329,"name":"Sir_Dounut_III","steam_id":76561198447537093,"connected_time":906000000000,"state":"active","ping":66},{"user_id":320,"name":"blood-thirsty pitbull","steam_id":76561198106690989,"connected_time":2129000000000,"state":"active","ping":50},{"user_id":253,"name":"Arkh","steam_id":76561198862003669,"connected_time":7068000000000,"state":"active","ping":70},{"user_id":289,"name":"Ntbol","steam_id":76561198063071791,"connected_time":4043000000000,"state":"active","ping":67}]},{"server_id":15,"name":"Uncletopia | New York City | 3 | Stopwatch","name_short":"nyc-3","host":"nyc-1.us.uncletopia.com","port":27035,"enabled":true,"region":"us-east","cc":"us","latitude":40.73061,"longitude":-73.93524,"reserved":0,"last_update":"0001-01-01T00:00:00Z","name_a2s":"Uncletopia | New York City | 3 | Stopwatch","protocol":17,"map":"pl_borneo","folder":"tf","game":"Team Fortress","app_id":440,"player_count":24,"max_players":24,"Bots":0,"server_type":"Dedicated","server_os":"Linux","password":true,"vac":true,"version":"7961495","steam_id":85568392924742820,"keywords":["nocrits","nodmgspread","payload","uncletopia"],"game_id":440,"stv_port":27036,"stv_name":"Uncletopia | New York City | 3 | Stopwatch | STV","players":[{"user_id":38,"name":"IanTheAwsm","steam_id":76561198093031738,"connected_time":1523000000000,"state":"active","ping":74},{"user_id":39,"name":"mountain goat","steam_id":76561198326628884,"connected_time":1448000000000,"state":"active","ping":54},{"user_id":69,"name":"totallynot_raf","steam_id":76561198211437197,"connected_time":63000000000,"state":"active","ping":66},{"user_id":41,"name":"ArcticRescue","steam_id":76561198055362404,"connected_time":1338000000000,"state":"active","ping":56},{"user_id":32,"name":"CatBoyGaming","steam_id":76561199485678347,"connected_time":2472000000000,"state":"active","ping":81},{"user_id":35,"name":"Mothra","steam_id":76561198140195389,"connected_time":1902000000000,"state":"active","ping":72},{"user_id":43,"name":"Eccentric","steam_id":76561198850391975,"connected_time":978000000000,"state":"active","ping":76},{"user_id":45,"name":"Evenaris","steam_id":76561198087544319,"connected_time":956000000000,"state":"active","ping":108},{"user_id":46,"name":"HOOD Bowl","steam_id":76561198101325132,"connected_time":939000000000,"state":"active","ping":73},{"user_id":47,"name":"Honesty","steam_id":76561198066094995,"connected_time":933000000000,"state":"active","ping":103},{"user_id":48,"name":"Stargale","steam_id":76561198086599361,"connected_time":915000000000,"state":"active","ping":137},{"user_id":49,"name":"[bonar] chad420","steam_id":76561198028218520,"connected_time":914000000000,"state":"active","ping":79},{"user_id":57,"name":"poobis","steam_id":76561198043034787,"connected_time":798000000000,"state":"active","ping":120},{"user_id":51,"name":"Samara_Rei","steam_id":76561198080265445,"connected_time":891000000000,"state":"active","ping":115},{"user_id":52,"name":"realCptJack","steam_id":76561198021082168,"connected_time":886000000000,"state":"active","ping":89},{"user_id":53,"name":"Angelica","steam_id":76561198057538053,"connected_time":885000000000,"state":"active","ping":170},{"user_id":67,"name":"inphlate","steam_id":76561199016973013,"connected_time":304000000000,"state":"active","ping":69},{"user_id":59,"name":"Hatted One","steam_id":76561198295370010,"connected_time":744000000000,"state":"active","ping":104},{"user_id":60,"name":"Humanbean37","steam_id":76561199232932739,"connected_time":726000000000,"state":"active","ping":54},{"user_id":68,"name":"cellogamer","steam_id":76561198016937098,"connected_time":147000000000,"state":"active","ping":50},{"user_id":62,"name":"nino","steam_id":76561198853681221,"connected_time":711000000000,"state":"active","ping":79},{"user_id":63,"name":"illious","steam_id":76561198169925494,"connected_time":699000000000,"state":"active","ping":62},{"user_id":64,"name":"\u003c3","steam_id":76561198065872641,"connected_time":695000000000,"state":"active","ping":126},{"user_id":65,"name":"cherry bomb (the boys episode 2","steam_id":76561199071495058,"connected_time":694000000000,"state":"active","ping":48}]},{"server_id":16,"name":"Uncletopia | New York City | 4 | Community","name_short":"nyc-4","host":"nyc-1.us.uncletopia.com","port":27045,"enabled":true,"region":"us-east","cc":"us","latitude":40.73061,"longitude":-73.93524,"reserved":0,"last_update":"0001-01-01T00:00:00Z","name_a2s":"Uncletopia | New York City | 4 | Community","protocol":17,"map":"workshop/rd_asteroid_redux_b1.ugc2154902912","folder":"tf","game":"Team Fortress","app_id":440,"player_count":0,"max_players":24,"Bots":0,"server_type":"Dedicated","server_os":"Linux","password":true,"vac":true,"version":"7961495","steam_id":85568392924742821,"keywords":["beta","nocrits","nodmgspread","rd","uncletopia"],"game_id":440,"stv_port":27046,"stv_name":"Uncletopia | New York City | 4 | Community | STV","players":null},{"server_id":142,"name":"Uncletopia | São Paulo | 1 | All Maps","name_short":"sao-1","host":"sao-1.br.uncletopia.com","port":27015,"enabled":true,"region":"sa","cc":"br","latitude":-23.533773,"longitude":-46.62529,"reserved":0,"last_update":"0001-01-01T00:00:00Z","name_a2s":"Uncletopia | São Paulo | 1 | All Maps","protocol":17,"map":"koth_highpass","folder":"tf","game":"Team Fortress","app_id":440,"player_count":0,"max_players":24,"Bots":0,"server_type":"Dedicated","server_os":"Linux","password":true,"vac":true,"version":"7961495","steam_id":85568392924469996,"keywords":["cp","nocrits","nodmgspread","uncletopia"],"game_id":440,"stv_port":27016,"stv_name":"Uncletopia | São Paulo | 1 | All Maps | STV","players":null},{"server_id":143,"name":"Uncletopia | São Paulo | 2 | Community","name_short":"sao-2","host":"sao-2.br.uncletopia.com","port":27015,"enabled":true,"region":"sa","cc":"br","latitude":-23.533773,"longitude":-46.62529,"reserved":0,"last_update":"0001-01-01T00:00:00Z","name_a2s":"Uncletopia | São Paulo | 2 | Community","protocol":17,"map":"workshop/cp_bruhstbowl_b6.ugc2878604990","folder":"tf","game":"Team Fortress","app_id":440,"player_count":0,"max_players":24,"Bots":0,"server_type":"Dedicated","server_os":"Linux","password":true,"vac":true,"version":"7961495","steam_id":85568392924485349,"keywords":["cp","nocrits","nodmgspread","uncletopia"],"game_id":440,"stv_port":27016,"stv_name":"Uncletopia | São Paulo | 2 | Community | STV","players":null},{"server_id":7,"name":"Uncletopia | Seattle | 1 | All Maps","name_short":"sea-1","host":"sea-1.us.uncletopia.com","port":27015,"enabled":true,"region":"us-west","cc":"us","latitude":47.608013,"longitude":-122.33517,"reserved":0,"last_update":"0001-01-01T00:00:00Z","name_a2s":"Uncletopia | Seattle | 1 | All Maps","protocol":17,"map":"pl_badwater","folder":"tf","game":"Team Fortress","app_id":440,"player_count":23,"max_players":24,"Bots":0,"server_type":"Dedicated","server_os":"Linux","password":true,"vac":true,"version":"7961495","steam_id":85568392924469997,"keywords":["nocrits","nodmgspread","payload","uncletopia"],"game_id":440,"stv_port":27016,"stv_name":"Uncletopia | Seattle | 1 | All Maps | STV","players":[{"user_id":294,"name":"imasheep","steam_id":76561198210322871,"connected_time":127000000000,"state":"active","ping":80},{"user_id":292,"name":"moomin","steam_id":76561198336244269,"connected_time":174000000000,"state":"active","ping":77},{"user_id":281,"name":"Attrition","steam_id":76561197969881916,"connected_time":410000000000,"state":"active","ping":50},{"user_id":251,"name":"Y2K (^_^) ! ! !","steam_id":76561199191855486,"connected_time":5037000000000,"state":"active","ping":52},{"user_id":284,"name":"SneekiCheekiQbone","steam_id":76561198045077980,"connected_time":356000000000,"state":"active","ping":74},{"user_id":295,"name":"chunkysquare","steam_id":76561199076468383,"connected_time":98000000000,"state":"active","ping":61},{"user_id":283,"name":"Alchemist","steam_id":76561198094238189,"connected_time":383000000000,"state":"active","ping":90},{"user_id":206,"name":"Tsunami","steam_id":76561198097188001,"connected_time":7590000000000,"state":"active","ping":44},{"user_id":293,"name":"Qas","steam_id":76561198067564482,"connected_time":154000000000,"state":"active","ping":74},{"user_id":262,"name":"goofy goober","steam_id":76561199024079388,"connected_time":3657000000000,"state":"active","ping":53},{"user_id":128,"name":"woodpigeon","steam_id":76561199488457138,"connected_time":14388000000000,"state":"active","ping":59},{"user_id":243,"name":"Defeat","steam_id":76561198065203818,"connected_time":5797000000000,"state":"active","ping":36},{"user_id":267,"name":"Doctor Fat Balls","steam_id":76561198060418001,"connected_time":2636000000000,"state":"active","ping":105},{"user_id":268,"name":"Dimple","steam_id":76561198980324190,"connected_time":2447000000000,"state":"active","ping":48},{"user_id":257,"name":"Name that starts with A","steam_id":76561198828172686,"connected_time":3930000000000,"state":"active","ping":77},{"user_id":273,"name":"smeasly","steam_id":76561198028718812,"connected_time":2187000000000,"state":"active","ping":44},{"user_id":285,"name":"Daz","steam_id":76561198041431938,"connected_time":355000000000,"state":"active","ping":51},{"user_id":276,"name":"jayeskae","steam_id":76561198144220801,"connected_time":1845000000000,"state":"active","ping":51},{"user_id":253,"name":"SHADOW WIZZARD MONEY GANG","steam_id":76561198060846419,"connected_time":4393000000000,"state":"active","ping":47},{"user_id":266,"name":"Krieg","steam_id":76561198094517450,"connected_time":2667000000000,"state":"active","ping":36},{"user_id":169,"name":"Translucent૮₍ • ᴥ •","steam_id":76561199212057076,"connected_time":11080000000000,"state":"active","ping":77},{"user_id":279,"name":"Dullahan","steam_id":76561198119668908,"connected_time":1309000000000,"state":"active","ping":67},{"user_id":280,"name":"Dog","steam_id":76561198041841128,"connected_time":1204000000000,"state":"active","ping":77}]},{"server_id":119,"name":"Uncletopia | Seattle | 2 | All Maps","name_short":"sea-2","host":"sea-1.us.uncletopia.com","port":27025,"enabled":true,"region":"us-west","cc":"us","latitude":47.608013,"longitude":-122.33517,"reserved":0,"last_update":"0001-01-01T00:00:00Z","name_a2s":"Uncletopia | Seattle | 2 | All Maps","protocol":17,"map":"pl_upward","folder":"tf","game":"Team Fortress","app_id":440,"player_count":0,"max_players":24,"Bots":0,"server_type":"Dedicated","server_os":"Linux","password":true,"vac":true,"version":"7961495","steam_id":85568392924469998,"keywords":["nocrits","nodmgspread","payload","uncletopia"],"game_id":440,"stv_port":27026,"stv_name":"Uncletopia | Seattle | 2 | All Maps | STV","players":null},{"server_id":406,"name":"Uncletopia | Seattle | 3 | Stopwatch","name_short":"sea-3","host":"sea-1.us.uncletopia.com","port":27035,"enabled":true,"region":"us-west","cc":"us","latitude":47.608013,"longitude":-122.33517,"reserved":0,"last_update":"0001-01-01T00:00:00Z","name_a2s":"Uncletopia | Seattle | 3 | Stopwatch","protocol":17,"map":"cp_snakewater_final1","folder":"tf","game":"Team Fortress","app_id":440,"player_count":18,"max_players":24,"Bots":0,"server_type":"Dedicated","server_os":"Linux","password":true,"vac":true,"version":"7961495","steam_id":85568392924515217,"keywords":["cp","nocrits","nodmgspread","uncletopia"],"game_id":440,"stv_port":27036,"stv_name":"Uncletopia | Seattle | 3 | Stopwatch | STV","players":[{"user_id":74,"name":"Symphonic2005","steam_id":76561198315149716,"connected_time":1693000000000,"state":"active","ping":97},{"user_id":99,"name":"Dosario","steam_id":76561198298095535,"connected_time":140000000000,"state":"active","ping":42},{"user_id":100,"name":"[BBC] myr","steam_id":76561198200786939,"connected_time":68000000000,"state":"active","ping":38},{"user_id":38,"name":"Wilhelmktx","steam_id":76561198158102295,"connected_time":3879000000000,"state":"active","ping":94},{"user_id":97,"name":"An Alien Mango","steam_id":76561198864823970,"connected_time":178000000000,"state":"active","ping":49},{"user_id":91,"name":"moe","steam_id":76561198929586245,"connected_time":797000000000,"state":"active","ping":78},{"user_id":101,"name":"BiggestHistoryNerd","steam_id":76561198027677672,"connected_time":10000000000,"state":"spawning","ping":75},{"user_id":86,"name":"funkeymonkey15","steam_id":76561198930961042,"connected_time":1164000000000,"state":"active","ping":101},{"user_id":88,"name":"Cookie","steam_id":76561198283317413,"connected_time":980000000000,"state":"active","ping":109},{"user_id":98,"name":"Cheddar","steam_id":76561199123994392,"connected_time":175000000000,"state":"active","ping":438},{"user_id":102,"name":"Silly Shark","steam_id":76561198130714378,"connected_time":8000000000,"state":"spawning","ping":56},{"user_id":57,"name":"xLeoparrd","steam_id":76561198940657194,"connected_time":2939000000000,"state":"active","ping":104},{"user_id":24,"name":"shitass (Reaping and Sowing)","steam_id":76561198210572481,"connected_time":4292000000000,"state":"active","ping":75},{"user_id":76,"name":"neet","steam_id":76561197968115168,"connected_time":1621000000000,"state":"active","ping":106},{"user_id":36,"name":"catgirl giantess in heat","steam_id":76561198439042583,"connected_time":4018000000000,"state":"active","ping":106},{"user_id":66,"name":"greenpeace","steam_id":76561197983221708,"connected_time":2044000000000,"state":"active","ping":60},{"user_id":68,"name":"Lazy Broadcasts","steam_id":76561198132871394,"connected_time":1966000000000,"state":"active","ping":60},{"user_id":81,"name":"Rude Dog","steam_id":76561197980385816,"connected_time":1410000000000,"state":"active","ping":42}]},{"server_id":17,"name":"Uncletopia | San Francisco | 1 | All Maps","name_short":"sfo-1","host":"sfo-1.us.uncletopia.com","port":27015,"enabled":true,"region":"us-west","cc":"us","latitude":37.77397,"longitude":-122.4313,"reserved":0,"last_update":"0001-01-01T00:00:00Z","name_a2s":"Uncletopia | San Francisco | 1 | All Maps","protocol":17,"map":"koth_lakeside_final","folder":"tf","game":"Team Fortress","app_id":440,"player_count":3,"max_players":24,"Bots":0,"server_type":"Dedicated","server_os":"Linux","password":true,"vac":true,"version":"7961495","steam_id":85568392924469999,"keywords":["cp","nocrits","nodmgspread","uncletopia"],"game_id":440,"stv_port":27016,"stv_name":"Uncletopia | San Francisco | 1 | All Maps | STV","players":[{"user_id":13,"name":"HailedClown","steam_id":76561199225239977,"connected_time":2136000000000,"state":"active","ping":71},{"user_id":14,"name":"Engineer Gaming","steam_id":76561198840761529,"connected_time":1913000000000,"state":"active","ping":90},{"user_id":16,"name":"MeKaso TropStar","steam_id":76561199109895840,"connected_time":214000000000,"state":"active","ping":103}]},{"server_id":18,"name":"Uncletopia | San Francisco | 2 | All Maps","name_short":"sfo-2","host":"sfo-1.us.uncletopia.com","port":27025,"enabled":true,"region":"us-west","cc":"us","latitude":37.77397,"longitude":-122.4313,"reserved":0,"last_update":"0001-01-01T00:00:00Z","name_a2s":"Uncletopia | San Francisco | 2 | All Maps","protocol":17,"map":"pl_frontier_final","folder":"tf","game":"Team Fortress","app_id":440,"player_count":0,"max_players":24,"Bots":0,"server_type":"Dedicated","server_os":"Linux","password":true,"vac":true,"version":"7961495","steam_id":85568392924470000,"keywords":["nocrits","nodmgspread","payload","uncletopia"],"game_id":440,"stv_port":27026,"stv_name":"Uncletopia | San Francisco | 2 | All Maps | STV","players":null},{"server_id":19,"name":"Uncletopia | San Francisco | 3 | Stopwatch","name_short":"sfo-3","host":"sfo-1.us.uncletopia.com","port":27035,"enabled":true,"region":"us-west","cc":"us","latitude":37.77397,"longitude":-122.4313,"reserved":0,"last_update":"0001-01-01T00:00:00Z","name_a2s":"Uncletopia | San Francisco | 3 | Stopwatch","protocol":17,"map":"pl_pier","folder":"tf","game":"Team Fortress","app_id":440,"player_count":0,"max_players":24,"Bots":0,"server_type":"Dedicated","server_os":"Linux","password":true,"vac":true,"version":"7961495","steam_id":85568392924742824,"keywords":["nocrits","nodmgspread","payload","uncletopia"],"game_id":440,"stv_port":27036,"stv_name":"Uncletopia | San Francisco | 3 | Stopwatch | STV","players":null},{"server_id":20,"name":"Uncletopia | San Francisco | 4 | Community","name_short":"sfo-4","host":"sfo-1.us.uncletopia.com","port":27045,"enabled":true,"region":"us-west","cc":"us","latitude":37.77397,"longitude":-122.4313,"reserved":0,"last_update":"0001-01-01T00:00:00Z","name_a2s":"Uncletopia | San Francisco | 4 | Community","protocol":17,"map":"workshop/pl_barnblitz_pro7.ugc582280235","folder":"tf","game":"Team Fortress","app_id":440,"player_count":24,"max_players":24,"Bots":0,"server_type":"Dedicated","server_os":"Linux","password":true,"vac":true,"version":"7961495","steam_id":85568392924742826,"keywords":["nocrits","nodmgspread","payload","uncletopia"],"game_id":440,"stv_port":27046,"stv_name":"Uncletopia | San Francisco | 4 | Community | STV","players":[{"user_id":70,"name":"Noir","steam_id":76561198358530465,"connected_time":423000000000,"state":"active","ping":184},{"user_id":67,"name":"typical continental philosopher","steam_id":76561198007464245,"connected_time":537000000000,"state":"active","ping":104},{"user_id":35,"name":"Phrog","steam_id":76561198072975322,"connected_time":3012000000000,"state":"active","ping":82},{"user_id":69,"name":"the fruitcake","steam_id":76561198127639913,"connected_time":437000000000,"state":"active","ping":54},{"user_id":44,"name":"Shadoe","steam_id":76561198218577281,"connected_time":1498000000000,"state":"active","ping":93},{"user_id":56,"name":"BobBallin","steam_id":76561198355299724,"connected_time":824000000000,"state":"active","ping":46},{"user_id":43,"name":"eeellliii1","steam_id":76561198056261636,"connected_time":1610000000000,"state":"active","ping":77},{"user_id":66,"name":"Yoi Ishiya","steam_id":76561198041639985,"connected_time":616000000000,"state":"active","ping":73},{"user_id":46,"name":"bluefoxx118","steam_id":76561198182884975,"connected_time":1443000000000,"state":"active","ping":103},{"user_id":63,"name":"ancientfunland","steam_id":76561199220174291,"connected_time":657000000000,"state":"active","ping":127},{"user_id":47,"name":"SEGNO","steam_id":76561198102780113,"connected_time":1426000000000,"state":"active","ping":66},{"user_id":14,"name":"Vrita","steam_id":76561198059483641,"connected_time":3786000000000,"state":"active","ping":57},{"user_id":57,"name":"Angus Mackenzie","steam_id":76561198060624982,"connected_time":804000000000,"state":"active","ping":44},{"user_id":71,"name":"Rallo","steam_id":76561198324357861,"connected_time":375000000000,"state":"active","ping":104},{"user_id":72,"name":"Buff Birdy","steam_id":76561198357195619,"connected_time":354000000000,"state":"active","ping":148},{"user_id":73,"name":"always peel your sheep","steam_id":76561198057054984,"connected_time":349000000000,"state":"active","ping":111},{"user_id":75,"name":"MrLeftTurn","steam_id":76561198856743969,"connected_time":306000000000,"state":"active","ping":100},{"user_id":76,"name":"darren","steam_id":76561199050155136,"connected_time":271000000000,"state":"active","ping":55},{"user_id":77,"name":"Octo","steam_id":76561198024056355,"connected_time":235000000000,"state":"active","ping":66},{"user_id":60,"name":"twitch.tv/rustyorion","steam_id":76561198439186347,"connected_time":705000000000,"state":"active","ping":88},{"user_id":78,"name":"MonkyLovr","steam_id":76561198219598283,"connected_time":205000000000,"state":"active","ping":114},{"user_id":79,"name":"TacoMan4Life","steam_id":76561198832562728,"connected_time":156000000000,"state":"active","ping":67},{"user_id":80,"name":":)","steam_id":76561198982415497,"connected_time":154000000000,"state":"active","ping":52},{"user_id":81,"name":"Context","steam_id":76561197972634187,"connected_time":120000000000,"state":"active","ping":43}]},{"server_id":141,"name":"Uncletopia | Sydney | 1 | All Maps","name_short":"syd-1","host":"syd-1.au.uncletopia.com","port":27015,"enabled":true,"region":"au","cc":"au","latitude":-33.865143,"longitude":151.2099,"reserved":0,"last_update":"0001-01-01T00:00:00Z","name_a2s":"Uncletopia | Sydney | 1 | All Maps","protocol":17,"map":"koth_viaduct","folder":"tf","game":"Team Fortress","app_id":440,"player_count":0,"max_players":24,"Bots":0,"server_type":"Dedicated","server_os":"Linux","password":true,"vac":true,"version":"7961495","steam_id":85568392924470001,"keywords":["cp","nocrits","nodmgspread","uncletopia"],"game_id":440,"stv_port":27016,"stv_name":"Uncletopia | Sydney | 1 | All Maps | STV","players":null},{"server_id":123,"name":"Uncletopia | Sydney | 2 | All Maps","name_short":"syd-2","host":"syd-1.au.uncletopia.com","port":27025,"enabled":true,"region":"au","cc":"au","latitude":-33.865143,"longitude":151.2099,"reserved":0,"last_update":"0001-01-01T00:00:00Z","name_a2s":"Uncletopia | Sydney | 2 | All Maps","protocol":17,"map":"koth_lakeside_final","folder":"tf","game":"Team Fortress","app_id":440,"player_count":0,"max_players":24,"Bots":0,"server_type":"Dedicated","server_os":"Linux","password":true,"vac":true,"version":"7961495","steam_id":85568392924470002,"keywords":["cp","nocrits","nodmgspread","uncletopia"],"game_id":440,"stv_port":27026,"stv_name":"Uncletopia | Sydney | 2 | All Maps | STV","players":null},{"server_id":395,"name":"Uncletopia | Sydney | 3 | All Maps","name_short":"syd-3","host":"syd-1.au.uncletopia.com","port":27035,"enabled":true,"region":"au","cc":"au","latitude":-33.865143,"longitude":151.2099,"reserved":0,"last_update":"0001-01-01T00:00:00Z","name_a2s":"Uncletopia | Sydney | 3 | All Maps","protocol":17,"map":"pl_frontier_final","folder":"tf","game":"Team Fortress","app_id":440,"player_count":0,"max_players":24,"Bots":0,"server_type":"Dedicated","server_os":"Linux","password":true,"vac":true,"version":"7961495","steam_id":85568392925194467,"keywords":["nocrits","nodmgspread","payload","uncletopia"],"game_id":440,"stv_port":27036,"stv_name":"Uncletopia | Sydney | 3 | All Maps | STV","players":null},{"server_id":396,"name":"Uncletopia | Sydney | 4 | All Maps","name_short":"syd-4","host":"syd-1.au.uncletopia.com","port":27045,"enabled":true,"region":"au","cc":"au","latitude":-33.865143,"longitude":151.2099,"reserved":0,"last_update":"0001-01-01T00:00:00Z","name_a2s":"Uncletopia | Sydney | 4 | All Maps","protocol":17,"map":"koth_lakeside_final","folder":"tf","game":"Team Fortress","app_id":440,"player_count":0,"max_players":24,"Bots":0,"server_type":"Dedicated","server_os":"Linux","password":true,"vac":true,"version":"7961495","steam_id":85568392925397958,"keywords":["cp","nocrits","nodmgspread","uncletopia"],"game_id":440,"stv_port":27046,"stv_name":"Uncletopia | Sydney | 4 | All Maps | STV","players":null},{"server_id":58,"name":"Uncletopia | Sydney | 5 | Stopwatch","name_short":"syd-5","host":"syd-1.au.uncletopia.com","port":27055,"enabled":true,"region":"au","cc":"au","latitude":-33.865143,"longitude":151.2099,"reserved":0,"last_update":"0001-01-01T00:00:00Z","name_a2s":"Uncletopia | Sydney | 5 | Stopwatch","protocol":17,"map":"pl_frontier_final","folder":"tf","game":"Team Fortress","app_id":440,"player_count":0,"max_players":24,"Bots":0,"server_type":"Dedicated","server_os":"Linux","password":true,"vac":true,"version":"7961495","steam_id":85568392925397959,"keywords":["nocrits","nodmgspread","payload","uncletopia"],"game_id":440,"stv_port":27056,"stv_name":"Uncletopia | Sydney | 5 | Stopwatch | STV","players":null},{"server_id":59,"name":"Uncletopia | Sydney | 6 | Community","name_short":"syd-6","host":"syd-1.au.uncletopia.com","port":27065,"enabled":true,"region":"au","cc":"au","latitude":-33.865143,"longitude":151.2099,"reserved":0,"last_update":"0001-01-01T00:00:00Z","name_a2s":"Uncletopia | Sydney | 6 | Community","protocol":17,"map":"cp_sunshine","folder":"tf","game":"Team Fortress","app_id":440,"player_count":0,"max_players":24,"Bots":0,"server_type":"Dedicated","server_os":"Linux","password":true,"vac":true,"version":"7961495","steam_id":85568392925397960,"keywords":["cp","nocrits","nodmgspread","uncletopia"],"game_id":440,"stv_port":27066,"stv_name":"Uncletopia | Sydney | 6 | Community | STV","players":null},{"server_id":49,"name":"Uncletopia | Warsaw | 1 | One Thousand Uncles","name_short":"waw-1","host":"waw-1.pl.uncletopia.com","port":27015,"enabled":true,"region":"eu","cc":"pl","latitude":52.2297,"longitude":21.017532,"reserved":0,"last_update":"0001-01-01T00:00:00Z","name_a2s":"Uncletopia | Warsaw | 1 | One Thousand Uncles","protocol":17,"map":"cp_mossrock","folder":"tf","game":"Team Fortress","app_id":440,"player_count":0,"max_players":32,"Bots":0,"server_type":"Dedicated","server_os":"Linux","password":true,"vac":true,"version":"7961495","steam_id":85568392925397850,"keywords":["alltalk","cp","danepve","increased_maxplayers","nocrits","norespawntime","uncletopia"],"game_id":440,"stv_port":0,"stv_name":"","players":null},{"server_id":50,"name":"Uncletopia | Warsaw | 2 | One Thousand Uncles","name_short":"waw-2","host":"waw-1.pl.uncletopia.com","port":27025,"enabled":true,"region":"eu","cc":"pl","latitude":52.2297,"longitude":21.017532,"reserved":0,"last_update":"0001-01-01T00:00:00Z","name_a2s":"Uncletopia | Warsaw | 2 | One Thousand Uncles","protocol":17,"map":"pl_hoodoo_final","folder":"tf","game":"Team Fortress","app_id":440,"player_count":0,"max_players":32,"Bots":0,"server_type":"Dedicated","server_os":"Linux","password":true,"vac":true,"version":"7961495","steam_id":85568392925397851,"keywords":["alltalk","danepve","increased_maxplayers","nocrits","norespawntime","payload","uncletopia"],"game_id":440,"stv_port":0,"stv_name":"","players":null},{"server_id":51,"name":"Uncletopia | Warsaw | 3 | All Maps","name_short":"waw-3","host":"waw-1.pl.uncletopia.com","port":27035,"enabled":true,"region":"eu","cc":"pl","latitude":52.2297,"longitude":21.017532,"reserved":0,"last_update":"0001-01-01T00:00:00Z","name_a2s":"Uncletopia | Warsaw | 3 | All Maps","protocol":17,"map":"plr_pipeline","folder":"tf","game":"Team Fortress","app_id":440,"player_count":0,"max_players":24,"Bots":0,"server_type":"Dedicated","server_os":"Linux","password":true,"vac":true,"version":"7961495","steam_id":85568392925397852,"keywords":["nocrits","nodmgspread","payload","uncletopia"],"game_id":440,"stv_port":27036,"stv_name":"Uncletopia | Warsaw | 3 | All Maps | STV","players":null},{"server_id":52,"name":"Uncletopia | Warsaw | 4 | All Maps","name_short":"waw-4","host":"waw-1.pl.uncletopia.com","port":27045,"enabled":true,"region":"eu","cc":"pl","latitude":52.2297,"longitude":21.017532,"reserved":0,"last_update":"0001-01-01T00:00:00Z","name_a2s":"Uncletopia | Warsaw | 4 | All Maps","protocol":17,"map":"koth_viaduct","folder":"tf","game":"Team Fortress","app_id":440,"player_count":0,"max_players":24,"Bots":0,"server_type":"Dedicated","server_os":"Linux","password":true,"vac":true,"version":"7961495","steam_id":85568392925397853,"keywords":["cp","nocrits","nodmgspread","uncletopia"],"game_id":440,"stv_port":27046,"stv_name":"Uncletopia | Warsaw | 4 | All Maps | STV","players":null},{"server_id":53,"name":"Uncletopia | Warsaw | 5 | Stopwatch","name_short":"waw-5","host":"waw-1.pl.uncletopia.com","port":27055,"enabled":true,"region":"eu","cc":"pl","latitude":52.2297,"longitude":21.017532,"reserved":0,"last_update":"0001-01-01T00:00:00Z","name_a2s":"Uncletopia | Warsaw | 5 | Stopwatch","protocol":17,"map":"workshop/koth_ramjam_rc1.ugc459778887","folder":"tf","game":"Team Fortress","app_id":440,"player_count":0,"max_players":24,"Bots":0,"server_type":"Dedicated","server_os":"Linux","password":true,"vac":true,"version":"7961495","steam_id":85568392925397854,"keywords":["cp","nocrits","nodmgspread","uncletopia"],"game_id":440,"stv_port":27056,"stv_name":"Uncletopia | Warsaw | 5 | Stopwatch | STV","players":null},{"server_id":54,"name":"Uncletopia | Warsaw | 6 | Community","name_short":"waw-6","host":"waw-1.pl.uncletopia.com","port":27065,"enabled":true,"region":"eu","cc":"pl","latitude":52.2297,"longitude":21.017532,"reserved":0,"last_update":"0001-01-01T00:00:00Z","name_a2s":"Uncletopia | Warsaw | 6 | Community","protocol":17,"map":"workshop/koth_trenchfoot_ab1.ugc731436616","folder":"tf","game":"Team Fortress","app_id":440,"player_count":0,"max_players":24,"Bots":0,"server_type":"Dedicated","server_os":"Linux","password":true,"vac":true,"version":"7961495","steam_id":85568392925397856,"keywords":["cp","nocrits","nodmgspread","uncletopia"],"game_id":440,"stv_port":27066,"stv_name":"Uncletopia | Warsaw | 6 | Community | STV","players":null}]}