{"status":true,"message":"","result":[{"server_id":9,"name":"Uncletopia | Atlanta | 1 | All Maps","name_short":"atl-1","host":"atl-1.us.uncletopia.com","port":27015,"enabled":true,"region":"us-east","cc":"us","latitude":33.753746,"longitude":-84.38633,"reserved":0,"last_update":"0001-01-01T00:00:00Z","name_a2s":"Uncletopia | Atlanta | 1 | All Maps","protocol":17,"map":"koth_lakeside_final","folder":"tf","game":"Team Fortress","app_id":440,"player_count":6,"max_players":24,"Bots":0,"server_type":"Dedicated","server_os":"Linux","password":true,"vac":true,"version":"7723704","steam_id":85568392924469982,"keywords":["cp","nocrits","nodmgspread","uncletopia"],"game_id":440,"stv_port":27016,"stv_name":"Uncletopia | Atlanta | 1 | All Maps | STV","players":[{"user_id":186,"name":"TehBroccolini","steam_id":76561198150308387,"connected_time":1089000000000,"state":"active","ping":99},{"user_id":183,"name":"VidzCMC","steam_id":76561198848142973,"connected_time":2284000000000,"state":"active","ping":57},{"user_id":187,"name":"Gloteran","steam_id":76561199092623161,"connected_time":979000000000,"state":"active","ping":148},{"user_id":184,"name":"和平精益实干家","steam_id":76561198054697958,"connected_time":2013000000000,"state":"active","ping":110},{"user_id":188,"name":"Jesus Loves You57","steam_id":76561199058833769,"connected_time":835000000000,"state":"active","ping":98},{"user_id":189,"name":"Yukari Floof","steam_id":76561198851725294,"connected_time":368000000000,"state":"active","ping":85}]},{"server_id":400,"name":"Uncletopia | Atlanta | 3 | Stopwatch Beta","name_short":"atl-3","host":"atl-1.us.uncletopia.com","port":27035,"enabled":true,"region":"us-east","cc":"us","latitude":33.753746,"longitude":-84.38633,"reserved":0,"last_update":"0001-01-01T00:00:00Z","name_a2s":"Uncletopia | Atlanta | 3 | Stopwatch Beta","protocol":17,"map":"koth_cascade","folder":"tf","game":"Team Fortress","app_id":440,"player_count":0,"max_players":24,"Bots":0,"server_type":"Dedicated","server_os":"Linux","password":true,"vac":true,"version":"7723704","steam_id":85568392924515187,"keywords":["cp","nocrits","nodmgspread","uncletopia"],"game_id":440,"stv_port":27036,"stv_name":"Uncletopia | Atlanta | 3 | Stopwatch Beta | STV","players":null},{"server_id":401,"name":"Uncletopia | Atlanta | 4 | No Payload","name_short":"atl-4","host":"atl-1.us.uncletopia.com","port":27045,"enabled":true,"region":"us-east","cc":"us","latitude":33.753746,"longitude":-84.38633,"reserved":0,"last_update":"0001-01-01T00:00:00Z","name_a2s":"Uncletopia | Atlanta | 4 | No Payload","protocol":17,"map":"plr_pipeline","folder":"tf","game":"Team Fortress","app_id":440,"player_count":0,"max_players":24,"Bots":0,"server_type":"Dedicated","server_os":"Linux","password":true,"vac":true,"version":"7723704","steam_id":85568392924515188,"keywords":["nocrits","nodmgspread","payload","uncletopia"],"game_id":440,"stv_port":27046,"stv_name":"Uncletopia | Atlanta | 4 | No Payload | STV","players":null},{"server_id":2,"name":"Uncletopia | Chicago | 1 | All Maps","name_short":"chi-1","host":"chi-1.us.uncletopia.com","port":27015,"enabled":true,"region":"us-central","cc":"us","latitude":41.881832,"longitude":-87.62318,"reserved":0,"last_update":"0001-01-01T00:00:00Z","name_a2s":"Uncletopia | Chicago | 1 | All Maps","protocol":17,"map":"pl_swiftwater_final1","folder":"tf","game":"Team Fortress","app_id":440,"player_count":24,"max_players":24,"Bots":0,"server_type":"Dedicated","server_os":"Linux","password":true,"vac":true,"version":"7723704","steam_id":85568392924469984,"keywords":["nocrits","nodmgspread","payload","uncletopia"],"game_id":440,"stv_port":27016,"stv_name":"Uncletopia | Chicago | 1 | All Maps | STV","players":[{"user_id":330,"name":"Vem","steam_id":76561198117273112,"connected_time":594000000000,"state":"active","ping":66},{"user_id":319,"name":"KingToaster","steam_id":76561198007903802,"connected_time":1276000000000,"state":"active","ping":86},{"user_id":325,"name":"Scorpie Doodle","steam_id":76561198021845763,"connected_time":956000000000,"state":"active","ping":41},{"user_id":315,"name":"trackball gaming","steam_id":76561198057371485,"connected_time":1543000000000,"state":"active","ping":90},{"user_id":312,"name":"yaoi waoi","steam_id":76561198046073848,"connected_time":1662000000000,"state":"active","ping":90},{"user_id":290,"name":"Amaretto Sour","steam_id":76561198063112844,"connected_time":2554000000000,"state":"active","ping":80},{"user_id":333,"name":"DSM-IVCE","steam_id":76561199438515797,"connected_time":156000000000,"state":"active","ping":160},{"user_id":292,"name":"lukamine","steam_id":76561198166827208,"connected_time":2547000000000,"state":"active","ping":95},{"user_id":268,"name":"psy","steam_id":76561198013195018,"connected_time":3208000000000,"state":"active","ping":75},{"user_id":335,"name":"pinglefingle","steam_id":76561198216580197,"connected_time":84000000000,"state":"active","ping":83},{"user_id":309,"name":"annie","steam_id":76561197994492154,"connected_time":1722000000000,"state":"active","ping":166},{"user_id":329,"name":"HELP ME, the engineer","steam_id":76561198035698704,"connected_time":769000000000,"state":"active","ping":93},{"user_id":324,"name":"Mythius","steam_id":76561198401392472,"connected_time":988000000000,"state":"active","ping":68},{"user_id":275,"name":"Masotan","steam_id":76561199047187302,"connected_time":3042000000000,"state":"active","ping":49},{"user_id":282,"name":"Barbo","steam_id":76561198149438431,"connected_time":2815000000000,"state":"active","ping":150},{"user_id":279,"name":"iLoveNapalm","steam_id":76561198107368031,"connected_time":2937000000000,"state":"active","ping":114},{"user_id":322,"name":"Smuggs","steam_id":76561197999456003,"connected_time":1184000000000,"state":"active","ping":147},{"user_id":326,"name":"Super Noob","steam_id":76561199179611350,"connected_time":951000000000,"state":"active","ping":55},{"user_id":332,"name":"Bruce Leeroy","steam_id":76561198010708247,"connected_time":292000000000,"state":"active","ping":60},{"user_id":331,"name":"goblingon","steam_id":76561198157296770,"connected_time":564000000000,"state":"active","ping":60},{"user_id":328,"name":"Croissant Guy","steam_id":76561198077719901,"connected_time":866000000000,"state":"active","ping":79},{"user_id":334,"name":"timestew","steam_id":76561198367583372,"connected_time":121000000000,"state":"active","ping":78},{"user_id":300,"name":"Industrial Disaster","steam_id":76561198209881263,"connected_time":2409000000000,"state":"active","ping":99},{"user_id":307,"name":"NRG Balbodane","steam_id":76561198322872416,"connected_time":1789000000000,"state":"active","ping":139}]},{"server_id":106,"name":"Uncletopia | Chicago | 2 | All Maps","name_short":"chi-2","host":"chi-1.us.uncletopia.com","port":27025,"enabled":true,"region":"us-central","cc":"us","latitude":41.881832,"longitude":-87.62318,"reserved":0,"last_update":"0001-01-01T00:00:00Z","name_a2s":"Uncletopia | Chicago | 2 | All Maps","protocol":17,"map":"cp_dustbowl","folder":"tf","game":"Team Fortress","app_id":440,"player_count":0,"max_players":24,"Bots":0,"server_type":"Dedicated","server_os":"Linux","password":true,"vac":true,"version":"7723704","steam_id":85568392924469985,"keywords":["cp","nocrits","nodmgspread","uncletopia"],"game_id":440,"stv_port":27026,"stv_name":"Uncletopia | Chicago | 2 | All Maps | STV","players":null},{"server_id":402,"name":"Uncletopia | Chicago | 3 | All Maps","name_short":"chi-3","host":"chi-1.us.uncletopia.com","port":27035,"enabled":true,"region":"us-central","cc":"us","latitude":41.881832,"longitude":-87.62318,"reserved":0,"last_update":"0001-01-01T00:00:00Z","name_a2s":"Uncletopia | Chicago | 3 | All Maps","protocol":17,"map":"cp_dustbowl","folder":"tf","game":"Team Fortress","app_id":440,"player_count":0,"max_players":24,"Bots":0,"server_type":"Dedicated","server_os":"Linux","password":true,"vac":true,"version":"7723704","steam_id":85568392924515191,"keywords":["cp","nocrits","nodmgspread","uncletopia"],"game_id":440,"stv_port":27036,"stv_name":"Uncletopia | Chicago | 3 | All Maps | STV","players":null},{"server_id":403,"name":"Uncletopia | Chicago | 4 | All Maps","name_short":"chi-4","host":"chi-1.us.uncletopia.com","port":27045,"enabled":true,"region":"us-central","cc":"us","latitude":41.881832,"longitude":-87.62318,"reserved":0,"last_update":"0001-01-01T00:00:00Z","name_a2s":"Uncletopia | Chicago | 4 | All Maps","protocol":17,"map":"cp_coldfront","folder":"tf","game":"Team Fortress","app_id":440,"player_count":0,"max_players":24,"Bots":0,"server_type":"Dedicated","server_os":"Linux","password":true,"vac":true,"version":"7723704","steam_id":85568392924515193,"keywords":["cp","nocrits","nodmgspread","uncletopia"],"game_id":440,"stv_port":27046,"stv_name":"Uncletopia | Chicago | 4 | All Maps | STV","players":null},{"server_id":36,"name":"Uncletopia | Chicago | 5 | All Maps","name_short":"chi-5","host":"chi-2.us.uncletopia.com","port":27015,"enabled":true,"region":"us-central","cc":"us","latitude":41.881832,"longitude":-87.62318,"reserved":0,"last_update":"0001-01-01T00:00:00Z","name_a2s":"Uncletopia | Chicago | 5 | All Maps","protocol":17,"map":"pl_borneo","folder":"tf","game":"Team Fortress","app_id":440,"player_count":0,"max_players":24,"Bots":0,"server_type":"Dedicated","server_os":"Linux","password":true,"vac":true,"version":"7723704","steam_id":85568392924866362,"keywords":["nocrits","nodmgspread","payload","uncletopia"],"game_id":440,"stv_port":27016,"stv_name":"Uncletopia | Chicago | 5 | All Maps | STV","players":null},{"server_id":37,"name":"Uncletopia | Chicago | 6 | All Maps","name_short":"chi-6","host":"chi-2.us.uncletopia.com","port":27025,"enabled":true,"region":"us-central","cc":"us","latitude":41.881832,"longitude":-87.62318,"reserved":0,"last_update":"0001-01-01T00:00:00Z","name_a2s":"Uncletopia | Chicago | 6 | All Maps","protocol":17,"map":"cp_mountainlab","folder":"tf","game":"Team Fortress","app_id":440,"player_count":0,"max_players":24,"Bots":0,"server_type":"Dedicated","server_os":"Linux","password":true,"vac":true,"version":"7723704","steam_id":85568392924866363,"keywords":["cp","nocrits","nodmgspread","uncletopia"],"game_id":440,"stv_port":27026,"stv_name":"Uncletopia | Chicago | 6 | All Maps | STV","players":null},{"server_id":38,"name":"Uncletopia | Chicago | 7 | Stopwatch Beta","name_short":"chi-7","host":"chi-2.us.uncletopia.com","port":27035,"enabled":true,"region":"us-central","cc":"us","latitude":41.881832,"longitude":-87.62318,"reserved":0,"last_update":"0001-01-01T00:00:00Z","name_a2s":"Uncletopia | Chicago | 7 | Stopwatch Beta","protocol":17,"map":"pl_badwater","folder":"tf","game":"Team Fortress","app_id":440,"player_count":0,"max_players":24,"Bots":0,"server_type":"Dedicated","server_os":"Linux","password":true,"vac":true,"version":"7723704","steam_id":85568392924866364,"keywords":["nocrits","nodmgspread","payload","uncletopia"],"game_id":440,"stv_port":27036,"stv_name":"Uncletopia | Chicago | 7 | Stopwatch Beta | STV","players":null},{"server_id":39,"name":"Uncletopia | Chicago | 8 | Community","name_short":"chi-8","host":"chi-2.us.uncletopia.com","port":27045,"enabled":true,"region":"us-central","cc":"us","latitude":41.881832,"longitude":-87.62318,"reserved":0,"last_update":"0001-01-01T00:00:00Z","name_a2s":"Uncletopia | Chicago | 8 | Community","protocol":17,"map":"workshop/koth_slaughter_rc1.ugc1712845210","folder":"tf","game":"Team Fortress","app_id":440,"player_count":0,"max_players":24,"Bots":0,"server_type":"Dedicated","server_os":"Linux","password":true,"vac":true,"version":"7723704","steam_id":85568392924866365,"keywords":["cp","nocrits","nodmgspread","uncletopia"],"game_id":440,"stv_port":27046,"stv_name":"Uncletopia | Chicago | 8 | Community | STV","players":null},{"server_id":8,"name":"Uncletopia | Dallas | 1 | All Maps","name_short":"dal-1","host":"dal-1.us.uncletopia.com","port":27015,"enabled":true,"region":"us-central","cc":"us","latitude":32.779167,"longitude":-96.80889,"reserved":0,"last_update":"0001-01-01T00:00:00Z","name_a2s":"Uncletopia | Dallas | 1 | All Maps","protocol":17,"map":"cp_altitude","folder":"tf","game":"Team Fortress","app_id":440,"player_count":0,"max_players":24,"Bots":0,"server_type":"Dedicated","server_os":"Linux","password":true,"vac":true,"version":"7723704","steam_id":85568392924469986,"keywords":["cp","nocrits","nodmgspread","uncletopia"],"game_id":440,"stv_port":27016,"stv_name":"Uncletopia | Dallas | 1 | All Maps | STV","players":null},{"server_id":108,"name":"Uncletopia | Dallas | 2 | All Maps","name_short":"dal-2","host":"dal-1.us.uncletopia.com","port":27025,"enabled":true,"region":"us-central","cc":"us","latitude":32.779167,"longitude":-96.80889,"reserved":0,"last_update":"0001-01-01T00:00:00Z","name_a2s":"Uncletopia | Dallas | 2 | All Maps","protocol":17,"map":"pl_snowycoast","folder":"tf","game":"Team Fortress","app_id":440,"player_count":10,"max_players":24,"Bots":0,"server_type":"Dedicated","server_os":"Linux","password":true,"vac":true,"version":"7723704","steam_id":85568392924469988,"keywords":["nocrits","nodmgspread","payload","uncletopia"],"game_id":440,"stv_port":27026,"stv_name":"Uncletopia | Dallas | 2 | All Maps | STV","players":[{"user_id":208,"name":"saywhat_","steam_id":76561198088191503,"connected_time":91000000000,"state":"active","ping":63},{"user_id":209,"name":"OnlyFilip","steam_id":76561199435797816,"connected_time":71000000000,"state":"active","ping":232},{"user_id":175,"name":"COLOSSAL HOG","steam_id":76561198079923652,"connected_time":2779000000000,"state":"active","ping":45},{"user_id":190,"name":"coffee bagel","steam_id":76561198141198352,"connected_time":1807000000000,"state":"active","ping":60},{"user_id":145,"name":"AGTCO Texas","steam_id":76561198053276976,"connected_time":4884000000000,"state":"active","ping":89},{"user_id":196,"name":"sheep","steam_id":76561198172943006,"connected_time":1267000000000,"state":"active","ping":60},{"user_id":181,"name":"QuarterAnnualLiposuction #SvTF2","steam_id":76561198119886429,"connected_time":2553000000000,"state":"active","ping":80},{"user_id":147,"name":"33","steam_id":76561198894676484,"connected_time":4766000000000,"state":"active","ping":68},{"user_id":204,"name":"Radiv","steam_id":76561198118298009,"connected_time":592000000000,"state":"active","ping":172},{"user_id":205,"name":"Rusted Cake","steam_id":76561198209755931,"connected_time":579000000000,"state":"active","ping":77}]},{"server_id":5,"name":"Uncletopia | Frankfurt | 1 | All Maps","name_short":"frk-1","host":"frk-1.de.uncletopia.com","port":27015,"enabled":true,"region":"eu","cc":"de","latitude":50.110924,"longitude":8.682127,"reserved":0,"last_update":"0001-01-01T00:00:00Z","name_a2s":"Uncletopia | Frankfurt | 1 | All Maps","protocol":17,"map":"koth_highpass","folder":"tf","game":"Team Fortress","app_id":440,"player_count":0,"max_players":24,"Bots":0,"server_type":"Dedicated","server_os":"Linux","password":true,"vac":true,"version":"7723704","steam_id":85568392924469989,"keywords":["cp","nocrits","nodmgspread","uncletopia"],"game_id":440,"stv_port":27016,"stv_name":"Uncletopia | Frankfurt | 1 | All Maps | STV","players":null},{"server_id":110,"name":"Uncletopia | Frankfurt | 2 | All Maps","name_short":"frk-2","host":"frk-1.de.uncletopia.com","port":27025,"enabled":true,"region":"eu","cc":"de","latitude":50.110924,"longitude":8.682127,"reserved":0,"last_update":"0001-01-01T00:00:00Z","name_a2s":"Uncletopia | Frankfurt | 2 | All Maps","protocol":17,"map":"pl_swiftwater_final1","folder":"tf","game":"Team Fortress","app_id":440,"player_count":8,"max_players":24,"Bots":0,"server_type":"Dedicated","server_os":"Linux","password":true,"vac":true,"version":"7723704","steam_id":85568392924469990,"keywords":["nocrits","nodmgspread","payload","uncletopia"],"game_id":440,"stv_port":27026,"stv_name":"Uncletopia | Frankfurt | 2 | All Maps | STV","players":[{"user_id":7,"name":"GregerUlander","steam_id":76561198152375055,"connected_time":1111000000000,"state":"active","ping":53},{"user_id":6,"name":"juan","steam_id":76561199098499873,"connected_time":1762000000000,"state":"active","ping":67},{"user_id":8,"name":"fried","steam_id":76561198307522022,"connected_time":733000000000,"state":"active","ping":45},{"user_id":11,"name":"Jonkheervanflep","steam_id":76561198006853101,"connected_time":396000000000,"state":"active","ping":239},{"user_id":12,"name":"Malik794","steam_id":76561198967164437,"connected_time":309000000000,"state":"active","ping":162},{"user_id":16,"name":"ralph wiggum","steam_id":76561198041034886,"connected_time":98000000000,"state":"active","ping":60},{"user_id":15,"name":"Cathedra","steam_id":76561198430227030,"connected_time":122000000000,"state":"active","ping":50},{"user_id":17,"name":"Marginal","steam_id":76561198935566138,"connected_time":0,"state":"spawning","ping":37}]},{"server_id":308,"name":"Uncletopia | Frankfurt | 3 | All Maps","name_short":"frk-3","host":"frk-1.de.uncletopia.com","port":27035,"enabled":true,"region":"eu","cc":"de","latitude":50.110924,"longitude":8.682127,"reserved":0,"last_update":"0001-01-01T00:00:00Z","name_a2s":"Uncletopia | Frankfurt | 3 | All Maps","protocol":17,"map":"pl_pier","folder":"tf","game":"Team Fortress","app_id":440,"player_count":24,"max_players":24,"Bots":0,"server_type":"Dedicated","server_os":"Linux","password":true,"vac":true,"version":"7723704","steam_id":85568392924504274,"keywords":["nocrits","nodmgspread","payload","uncletopia"],"game_id":440,"stv_port":27036,"stv_name":"Uncletopia | Frankfurt | 3 | All Maps | STV","players":[{"user_id":84,"name":"Iron","steam_id":76561198056114975,"connected_time":114000000000,"state":"active","ping":69},{"user_id":77,"name":"Kolmannen","steam_id":76561198288826376,"connected_time":341000000000,"state":"active","ping":74},{"user_id":51,"name":"My name is Spencer, Di Spencer","steam_id":76561198152697674,"connected_time":2288000000000,"state":"active","ping":56},{"user_id":12,"name":"The Wolf Leader","steam_id":76561198038007462,"connected_time":4831000000000,"state":"active","ping":58},{"user_id":57,"name":"gagalak","steam_id":76561198089979108,"connected_time":1894000000000,"state":"active","ping":90},{"user_id":56,"name":"Caliban","steam_id":76561197999696839,"connected_time":2032000000000,"state":"active","ping":89},{"user_id":54,"name":"Arame","steam_id":76561198847822257,"connected_time":2138000000000,"state":"active","ping":60},{"user_id":80,"name":"davlevan","steam_id":76561198090848620,"connected_time":187000000000,"state":"active","ping":60},{"user_id":18,"name":"wieto","steam_id":76561198050626427,"connected_time":4573000000000,"state":"active","ping":60},{"user_id":81,"name":"SunZi","steam_id":76561198139243535,"connected_time":181000000000,"state":"active","ping":77},{"user_id":66,"name":"vani","steam_id":76561197991778291,"connected_time":1239000000000,"state":"active","ping":72},{"user_id":22,"name":"blazeeight","steam_id":76561198159456502,"connected_time":4468000000000,"state":"active","ping":61},{"user_id":70,"name":"Average Sandvich Enjoyer","steam_id":76561198970762992,"connected_time":1004000000000,"state":"active","ping":62},{"user_id":71,"name":"kayblu","steam_id":76561198182394257,"connected_time":937000000000,"state":"active","ping":84},{"user_id":85,"name":"(Hu$tl3r) E1s","steam_id":76561198894958917,"connected_time":53000000000,"state":"active","ping":44},{"user_id":53,"name":"A creature","steam_id":76561199176610938,"connected_time":2139000000000,"state":"active","ping":62},{"user_id":75,"name":"wamw","steam_id":76561199206660048,"connected_time":611000000000,"state":"active","ping":59},{"user_id":82,"name":"GujjuBhai","steam_id":76561198203140924,"connected_time":136000000000,"state":"active","ping":189},{"user_id":83,"name":"Handy","steam_id":76561198125055365,"connected_time":135000000000,"state":"active","ping":75},{"user_id":73,"name":"Fezlex","steam_id":76561198042511188,"connected_time":732000000000,"state":"active","ping":74},{"user_id":76,"name":"Mulλ²","steam_id":76561198262578392,"connected_time":364000000000,"state":"active","ping":61},{"user_id":50,"name":"Sedoy","steam_id":76561198390666516,"connected_time":2402000000000,"state":"active","ping":91},{"user_id":62,"name":"Gencay","steam_id":76561198973232202,"connected_time":1485000000000,"state":"active","ping":90},{"user_id":40,"name":"snazyyy","steam_id":76561198143529110,"connected_time":3364000000000,"state":"active","ping":45}]},{"server_id":309,"name":"Uncletopia | Frankfurt | 4 | All Maps","name_short":"frk-4","host":"frk-1.de.uncletopia.com","port":27045,"enabled":true,"region":"eu","cc":"de","latitude":50.110924,"longitude":8.682127,"reserved":0,"last_update":"0001-01-01T00:00:00Z","name_a2s":"Uncletopia | Frankfurt | 4 | All Maps","protocol":17,"map":"pl_snowycoast","folder":"tf","game":"Team Fortress","app_id":440,"player_count":0,"max_players":24,"Bots":0,"server_type":"Dedicated","server_os":"Linux","password":true,"vac":true,"version":"7723704","steam_id":85568392924504275,"keywords":["nocrits","nodmgspread","payload","uncletopia"],"game_id":440,"stv_port":27046,"stv_name":"Uncletopia | Frankfurt | 4 | All Maps | STV","players":null},{"server_id":310,"name":"Uncletopia | Frankfurt | 5 | All Maps","name_short":"frk-5","host":"frk-1.de.uncletopia.com","port":27055,"enabled":true,"region":"eu","cc":"de","latitude":50.110924,"longitude":8.682127,"reserved":0,"last_update":"0001-01-01T00:00:00Z","name_a2s":"Uncletopia | Frankfurt | 5 | All Maps","protocol":17,"map":"pl_pier","folder":"tf","game":"Team Fortress","app_id":440,"player_count":18,"max_players":24,"Bots":0,"server_type":"Dedicated","server_os":"Linux","password":true,"vac":true,"version":"7723704","steam_id":85568392924504277,"keywords":["nocrits","nodmgspread","payload","uncletopia"],"game_id":440,"stv_port":27056,"stv_name":"Uncletopia | Frankfurt | 5 | All Maps | STV","players":[{"user_id":12,"name":"UNO, The Ubisoft Original","steam_id":76561198846784757,"connected_time":2219000000000,"state":"active","ping":65},{"user_id":46,"name":"(wm) Das Fleisch","steam_id":76561198001250715,"connected_time":324000000000,"state":"active","ping":52},{"user_id":5,"name":"ashsbhop","steam_id":76561199155075476,"connected_time":3073000000000,"state":"active","ping":86},{"user_id":47,"name":"Rachugh","steam_id":76561199235852578,"connected_time":49000000000,"state":"active","ping":179},{"user_id":11,"name":"Wujek Cacek","steam_id":76561198010267943,"connected_time":2278000000000,"state":"active","ping":62},{"user_id":14,"name":"Coyote29","steam_id":76561198344502070,"connected_time":2072000000000,"state":"active","ping":76},{"user_id":21,"name":"SantiThePug #ReviveTheCaber","steam_id":76561199049615996,"connected_time":1627000000000,"state":"active","ping":67},{"user_id":22,"name":"Löysä Masa","steam_id":76561198343396172,"connected_time":1417000000000,"state":"active","ping":105},{"user_id":18,"name":"Lepek","steam_id":76561198092532526,"connected_time":1879000000000,"state":"active","ping":61},{"user_id":20,"name":"ribs","steam_id":76561198354735240,"connected_time":1670000000000,"state":"active","ping":68},{"user_id":24,"name":"Mar","steam_id":76561198127633424,"connected_time":1335000000000,"state":"active","ping":77},{"user_id":26,"name":".bRdyyy","steam_id":76561198057256978,"connected_time":1109000000000,"state":"active","ping":45},{"user_id":27,"name":"toe eater","steam_id":76561199272782484,"connected_time":1097000000000,"state":"active","ping":100},{"user_id":28,"name":"TheGuyFromFortnite","steam_id":76561199099649565,"connected_time":1067000000000,"state":"active","ping":73},{"user_id":32,"name":"wertiop","steam_id":76561198260627072,"connected_time":915000000000,"state":"active","ping":96},{"user_id":39,"name":"Andrew Sheikh","steam_id":76561198089957950,"connected_time":719000000000,"state":"active","ping":78},{"user_id":41,"name":"simn","steam_id":76561198159182269,"connected_time":512000000000,"state":"active","ping":54},{"user_id":45,"name":"xuyanamurtveca","steam_id":76561198340489448,"connected_time":417000000000,"state":"active","ping":61}]},{"server_id":311,"name":"Uncletopia | Frankfurt | 6 | All Maps","name_short":"frk-6","host":"frk-1.de.uncletopia.com","port":27065,"enabled":true,"region":"eu","cc":"de","latitude":50.110924,"longitude":8.682127,"reserved":0,"last_update":"0001-01-01T00:00:00Z","name_a2s":"Uncletopia | Frankfurt | 6 | All Maps","protocol":17,"map":"pl_swiftwater_final1","folder":"tf","game":"Team Fortress","app_id":440,"player_count":0,"max_players":24,"Bots":0,"server_type":"Dedicated","server_os":"Linux","password":true,"vac":true,"version":"7723704","steam_id":85568392924504278,"keywords":["nocrits","nodmgspread","payload","uncletopia"],"game_id":440,"stv_port":27066,"stv_name":"Uncletopia | Frankfurt | 6 | All Maps | STV","players":null},{"server_id":23,"name":"Uncletopia | Frankfurt | 7 | Stopwatch Beta","name_short":"frk-7","host":"frk-1.de.uncletopia.com","port":27075,"enabled":true,"region":"eu","cc":"de","latitude":50.110924,"longitude":8.682127,"reserved":0,"last_update":"0001-01-01T00:00:00Z","name_a2s":"Uncletopia | Frankfurt | 7 | Stopwatch Beta","protocol":17,"map":"koth_viaduct","folder":"tf","game":"Team Fortress","app_id":440,"player_count":0,"max_players":24,"Bots":0,"server_type":"Dedicated","server_os":"Linux","password":true,"vac":true,"version":"7723704","steam_id":85568392924742827,"keywords":["cp","nocrits","nodmgspread","uncletopia"],"game_id":440,"stv_port":27076,"stv_name":"Uncletopia | Frankfurt | 7 | Stopwatch Beta | STV","players":null},{"server_id":24,"name":"Uncletopia | Frankfurt | 8 | Community","name_short":"frk-8","host":"frk-1.de.uncletopia.com","port":27085,"enabled":true,"region":"eu","cc":"de","latitude":50.110924,"longitude":8.682127,"reserved":0,"last_update":"0001-01-01T00:00:00Z","name_a2s":"Uncletopia | Frankfurt | 8 | Community","protocol":17,"map":"pl_frontier_final","folder":"tf","game":"Team Fortress","app_id":440,"player_count":0,"max_players":24,"Bots":0,"server_type":"Dedicated","server_os":"Linux","password":true,"vac":true,"version":"7723704","steam_id":85568392924742828,"keywords":["nocrits","nodmgspread","payload","uncletopia"],"game_id":440,"stv_port":27086,"stv_name":"Uncletopia | Frankfurt | 8 | Community | STV","players":null},{"server_id":202,"name":"Uncletopia | Hong Kong | 1 | All Maps","name_short":"hgk-1","host":"hgk-1.hk.uncletopia.com","port":27015,"enabled":true,"region":"asia","cc":"hk","latitude":22.302711,"longitude":114.177216,"reserved":0,"last_update":"0001-01-01T00:00:00Z","name_a2s":"Uncletopia | Hong Kong | 1 | All Maps","protocol":17,"map":"pl_snowycoast","folder":"tf","game":"Team Fortress","app_id":440,"player_count":24,"max_players":24,"Bots":0,"server_type":"Dedicated","server_os":"Linux","password":true,"vac":true,"version":"7723704","steam_id":85568392924494504,"keywords":["nocrits","nodmgspread","payload","uncletopia"],"game_id":440,"stv_port":27016,"stv_name":"Uncletopia | Hong Kong | 1 | All Maps | STV","players":[{"user_id":126,"name":"derek.patriarca30","steam_id":76561199427230206,"connected_time":2192000000000,"state":"active","ping":59},{"user_id":131,"name":"Pochita","steam_id":76561198203073201,"connected_time":1848000000000,"state":"active","ping":55},{"user_id":151,"name":"Creeper-Chan","steam_id":76561198172623219,"connected_time":431000000000,"state":"active","ping":50},{"user_id":102,"name":"Junior","steam_id":76561198933854372,"connected_time":4113000000000,"state":"active","ping":167},{"user_id":141,"name":"Lúd","steam_id":76561198828840546,"connected_time":1481000000000,"state":"active","ping":74},{"user_id":8,"name":"Pillboi","steam_id":76561198011172886,"connected_time":11826000000000,"state":"active","ping":51},{"user_id":76,"name":"uptriste","steam_id":76561198158666692,"connected_time":6486000000000,"state":"active","ping":41},{"user_id":119,"name":"Cipher(#savetf2)","steam_id":76561198796591492,"connected_time":3766000000000,"state":"active","ping":110},{"user_id":132,"name":"greeny","steam_id":76561198024666371,"connected_time":1780000000000,"state":"active","ping":90},{"user_id":55,"name":"bistek","steam_id":76561198230213828,"connected_time":8318000000000,"state":"active","ping":67},{"user_id":133,"name":"jkl","steam_id":76561198063912736,"connected_time":1683000000000,"state":"active","ping":101},{"user_id":161,"name":"Bertengkar","steam_id":76561198213031155,"connected_time":35000000000,"state":"spawning","ping":277},{"user_id":97,"name":"Cheesey","steam_id":76561198975684137,"connected_time":5483000000000,"state":"active","ping":90},{"user_id":147,"name":"Tume","steam_id":76561199117576868,"connected_time":1171000000000,"state":"active","ping":114},{"user_id":146,"name":"TomProPlayer","steam_id":76561199223292521,"connected_time":1251000000000,"state":"active","ping":66},{"user_id":94,"name":"Michael Scott","steam_id":76561198023082794,"connected_time":5577000000000,"state":"active","ping":43},{"user_id":145,"name":"tiden2000","steam_id":76561198092969425,"connected_time":1258000000000,"state":"active","ping":70},{"user_id":150,"name":"boxnet","steam_id":76561198411165133,"connected_time":487000000000,"state":"active","ping":72},{"user_id":149,"name":"cet","steam_id":76561198070892013,"connected_time":715000000000,"state":"active","ping":116},{"user_id":106,"name":"Momoxhien","steam_id":76561198414997429,"connected_time":4060000000000,"state":"active","ping":63},{"user_id":156,"name":"Lym0n","steam_id":76561199192420260,"connected_time":350000000000,"state":"active","ping":114},{"user_id":110,"name":"Puddin","steam_id":76561198140052918,"connected_time":3995000000000,"state":"active","ping":86},{"user_id":128,"name":"MR. T","steam_id":76561198847421088,"connected_time":2009000000000,"state":"active","ping":148},{"user_id":89,"name":"bakabazooka(merrychrismas)","steam_id":76561198061628689,"connected_time":5666000000000,"state":"active","ping":55}]},{"server_id":1,"name":"Uncletopia | Los Angeles | 1 | All Maps","name_short":"lax-1","host":"lax-1.us.uncletopia.com","port":27015,"enabled":true,"region":"us-west","cc":"us","latitude":33.94279,"longitude":-118.41004,"reserved":0,"last_update":"0001-01-01T00:00:00Z","name_a2s":"Uncletopia | Los Angeles | 1 | All Maps","protocol":17,"map":"pl_snowycoast","folder":"tf","game":"Team Fortress","app_id":440,"player_count":0,"max_players":24,"Bots":0,"server_type":"Dedicated","server_os":"Linux","password":true,"vac":true,"version":"7723704","steam_id":85568392924469991,"keywords":["nocrits","nodmgspread","payload","uncletopia"],"game_id":440,"stv_port":27016,"stv_name":"Uncletopia | Los Angeles | 1 | All Maps | STV","players":null},{"server_id":112,"name":"Uncletopia | Los Angeles | 2 | All Maps","name_short":"lax-2","host":"lax-1.us.uncletopia.com","port":27025,"enabled":true,"region":"us-west","cc":"us","latitude":33.94279,"longitude":-118.41004,"reserved":0,"last_update":"0001-01-01T00:00:00Z","name_a2s":"Uncletopia | Los Angeles | 2 | All Maps","protocol":17,"map":"koth_viaduct","folder":"tf","game":"Team Fortress","app_id":440,"player_count":0,"max_players":24,"Bots":0,"server_type":"Dedicated","server_os":"Linux","password":true,"vac":true,"version":"7723704","steam_id":85568392924469992,"keywords":["cp","nocrits","nodmgspread","uncletopia"],"game_id":440,"stv_port":27026,"stv_name":"Uncletopia | Los Angeles | 2 | All Maps | STV","players":null},{"server_id":324,"name":"Uncletopia | Los Angeles | 3 | All Maps","name_short":"lax-3","host":"lax-1.us.uncletopia.com","port":27035,"enabled":true,"region":"us-west","cc":"us","latitude":33.94279,"longitude":-118.41004,"reserved":0,"last_update":"0001-01-01T00:00:00Z","name_a2s":"Uncletopia | Los Angeles | 3 | All Maps","protocol":17,"map":"koth_viaduct","folder":"tf","game":"Team Fortress","app_id":440,"player_count":0,"max_players":24,"Bots":0,"server_type":"Dedicated","server_os":"Linux","password":true,"vac":true,"version":"7723704","steam_id":85568392924510198,"keywords":["cp","nocrits","nodmgspread","uncletopia"],"game_id":440,"stv_port":27036,"stv_name":"Uncletopia | Los Angeles | 3 | All Maps | STV","players":null},{"server_id":25,"name":"Uncletopia | Los Angeles | 4 | Stopwatch Beta","name_short":"lax-4","host":"lax-1.us.uncletopia.com","port":27045,"enabled":true,"region":"us-west","cc":"us","latitude":33.94279,"longitude":-118.41004,"reserved":0,"last_update":"0001-01-01T00:00:00Z","name_a2s":"Uncletopia | Los Angeles | 4 | Stopwatch Beta","protocol":17,"map":"cp_sunshine","folder":"tf","game":"Team Fortress","app_id":440,"player_count":0,"max_players":24,"Bots":0,"server_type":"Dedicated","server_os":"Linux","password":true,"vac":true,"version":"7723704","steam_id":85568392924510199,"keywords":["cp","nocrits","nodmgspread","uncletopia"],"game_id":440,"stv_port":27046,"stv_name":"Uncletopia | Los Angeles | 4 | Stopwatch Beta | STV","players":null},{"server_id":11,"name":"Uncletopia | London | 1 | All Maps","name_short":"lon-1","host":"lon-1.uk.uncletopia.com","port":27015,"enabled":true,"region":"eu","cc":"gb","latitude":51.509865,"longitude":-0.118092,"reserved":0,"last_update":"0001-01-01T00:00:00Z","name_a2s":"Uncletopia | London | 1 | All Maps","protocol":17,"map":"koth_viaduct","folder":"tf","game":"Team Fortress","app_id":440,"player_count":0,"max_players":24,"Bots":0,"server_type":"Dedicated","server_os":"Linux","password":true,"vac":true,"version":"7723704","steam_id":85568392924367362,"keywords":["cp","nocrits","nodmgspread","uncletopia"],"game_id":440,"stv_port":27016,"stv_name":"Uncletopia | London | 1 | All Maps | STV","players":null},{"server_id":114,"name":"Uncletopia | London | 2 | All Maps","name_short":"lon-2","host":"lon-1.uk.uncletopia.com","port":27025,"enabled":true,"region":"eu","cc":"gb","latitude":51.509865,"longitude":-0.118092,"reserved":0,"last_update":"0001-01-01T00:00:00Z","name_a2s":"Uncletopia | London | 2 | All Maps","protocol":17,"map":"pl_upward","folder":"tf","game":"Team Fortress","app_id":440,"player_count":1,"max_players":24,"Bots":0,"server_type":"Dedicated","server_os":"Linux","password":true,"vac":true,"version":"7723704","steam_id":85568392924470941,"keywords":["nocrits","nodmgspread","payload","uncletopia"],"game_id":440,"stv_port":27026,"stv_name":"Uncletopia | London | 2 | All Maps | STV","players":[{"user_id":3,"name":"downtown boy","steam_id":76561197983094802,"connected_time":51000000000,"state":"active","ping":89}]},{"server_id":320,"name":"Uncletopia | London | 3 | All Maps","name_short":"lon-3","host":"lon-1.uk.uncletopia.com","port":27035,"enabled":true,"region":"eu","cc":"gb","latitude":51.509865,"longitude":-0.118092,"reserved":0,"last_update":"0001-01-01T00:00:00Z","name_a2s":"Uncletopia | London | 3 | All Maps","protocol":17,"map":"pl_snowycoast","folder":"tf","game":"Team Fortress","app_id":440,"player_count":24,"max_players":24,"Bots":0,"server_type":"Dedicated","server_os":"Linux","password":true,"vac":true,"version":"7723704","steam_id":85568392924510192,"keywords":["nocrits","nodmgspread","payload","uncletopia"],"game_id":440,"stv_port":27036,"stv_name":"Uncletopia | London | 3 | All Maps | STV","players":[{"user_id":93,"name":"americano","steam_id":76561198033695429,"connected_time":3353000000000,"state":"active","ping":37},{"user_id":92,"name":"Nika","steam_id":76561198355965587,"connected_time":3357000000000,"state":"active","ping":60},{"user_id":113,"name":"EvilMelon.","steam_id":76561197975718875,"connected_time":1670000000000,"state":"active","ping":45},{"user_id":9,"name":"catboy trickster","steam_id":76561198075665211,"connected_time":9355000000000,"state":"active","ping":38},{"user_id":131,"name":"le unfunny dog","steam_id":76561198415020571,"connected_time":173000000000,"state":"active","ping":83},{"user_id":130,"name":"Paulie Walnuts","steam_id":76561198146194820,"connected_time":461000000000,"state":"active","ping":50},{"user_id":119,"name":"lulu","steam_id":76561199147764133,"connected_time":1230000000000,"state":"active","ping":74},{"user_id":120,"name":"heff","steam_id":76561198121744206,"connected_time":1222000000000,"state":"active","ping":35},{"user_id":134,"name":"Merry Cat","steam_id":76561198073769916,"connected_time":38000000000,"state":"active","ping":60},{"user_id":101,"name":"Lena ^^","steam_id":76561199435586696,"connected_time":2894000000000,"state":"active","ping":97},{"user_id":19,"name":"NoShield","steam_id":76561198831300551,"connected_time":8427000000000,"state":"active","ping":122},{"user_id":97,"name":"BlindManCassidy1829","steam_id":76561198429658370,"connected_time":3291000000000,"state":"active","ping":132},{"user_id":55,"name":"Guy with squares as username","steam_id":76561198269524918,"connected_time":6475000000000,"state":"active","ping":51},{"user_id":90,"name":"Largo","steam_id":76561198844368927,"connected_time":3627000000000,"state":"active","ping":77},{"user_id":94,"name":"Deva Path","steam_id":76561198085763542,"connected_time":3353000000000,"state":"active","ping":83},{"user_id":128,"name":"del2o","steam_id":76561199072601822,"connected_time":514000000000,"state":"active","ping":129},{"user_id":126,"name":"pechena kamchia","steam_id":76561198253323044,"connected_time":730000000000,"state":"active","ping":85},{"user_id":124,"name":"Gordon Freemason.","steam_id":76561199249733628,"connected_time":926000000000,"state":"active","ping":145},{"user_id":96,"name":"Alice can't hit pipes","steam_id":76561198052410860,"connected_time":3335000000000,"state":"active","ping":146},{"user_id":86,"name":"♦Silvia♦","steam_id":76561198373039444,"connected_time":4039000000000,"state":"active","ping":111},{"user_id":98,"name":"GEP Gun","steam_id":76561197981821003,"connected_time":3279000000000,"state":"active","ping":52},{"user_id":123,"name":"The Funny Cat-Heaby","steam_id":76561198439978112,"connected_time":1110000000000,"state":"active","ping":100},{"user_id":106,"name":"󠀡󠀡","steam_id":76561198174454655,"connected_time":2429000000000,"state":"active","ping":73},{"user_id":133,"name":"The Grinch","steam_id":76561198088975546,"connected_time":160000000000,"state":"active","ping":186}]},{"server_id":321,"name":"Uncletopia | London | 4 | All Maps","name_short":"lon-4","host":"lon-1.uk.uncletopia.com","port":27045,"enabled":true,"region":"eu","cc":"gb","latitude":51.509865,"longitude":-0.118092,"reserved":0,"last_update":"0001-01-01T00:00:00Z","name_a2s":"Uncletopia | London | 4 | All Maps","protocol":17,"map":"koth_lakeside_final","folder":"tf","game":"Team Fortress","app_id":440,"player_count":0,"max_players":24,"Bots":0,"server_type":"Dedicated","server_os":"Linux","password":true,"vac":true,"version":"7723704","steam_id":85568392924510193,"keywords":["cp","nocrits","nodmgspread","uncletopia"],"game_id":440,"stv_port":27046,"stv_name":"Uncletopia | London | 4 | All Maps | STV","players":null},{"server_id":21,"name":"Uncletopia | London | 5 | All Maps","name_short":"lon-5","host":"lon-1.uk.uncletopia.com","port":27055,"enabled":true,"region":"eu","cc":"gb","latitude":51.509865,"longitude":-0.118092,"reserved":0,"last_update":"0001-01-01T00:00:00Z","name_a2s":"Uncletopia | London | 5 | All Maps","protocol":17,"map":"koth_viaduct","folder":"tf","game":"Team Fortress","app_id":440,"player_count":0,"max_players":24,"Bots":0,"server_type":"Dedicated","server_os":"Linux","password":true,"vac":true,"version":"7723704","steam_id":85568392924742829,"keywords":["cp","nocrits","nodmgspread","uncletopia"],"game_id":440,"stv_port":27056,"stv_name":"Uncletopia | London | 5 | All Maps | STV","players":null},{"server_id":22,"name":"Uncletopia | London | 6 | All Maps","name_short":"lon-6","host":"lon-1.uk.uncletopia.com","port":27065,"enabled":true,"region":"eu","cc":"gb","latitude":51.509865,"longitude":-0.118092,"reserved":0,"last_update":"0001-01-01T00:00:00Z","name_a2s":"Uncletopia | London | 6 | All Maps","protocol":17,"map":"cp_process_final","folder":"tf","game":"Team Fortress","app_id":440,"player_count":0,"max_players":24,"Bots":0,"server_type":"Dedicated","server_os":"Linux","password":true,"vac":true,"version":"7723704","steam_id":85568392924742830,"keywords":["cp","nocrits","nodmgspread","uncletopia"],"game_id":440,"stv_port":27066,"stv_name":"Uncletopia | London | 6 | All Maps | STV","players":null},{"server_id":40,"name":"Uncletopia | London | 7 | No Payload","name_short":"lon-7","host":"lon-1.uk.uncletopia.com","port":27075,"enabled":true,"region":"eu","cc":"gb","latitude":51.509865,"longitude":-0.118092,"reserved":0,"last_update":"0001-01-01T00:00:00Z","name_a2s":"Uncletopia | London | 7 | No Payload","protocol":17,"map":"koth_viaduct","folder":"tf","game":"Team Fortress","app_id":440,"player_count":0,"max_players":24,"Bots":0,"server_type":"Dedicated","server_os":"Linux","password":true,"vac":true,"version":"7723704","steam_id":85568392924964314,"keywords":["cp","nocrits","nodmgspread","uncletopia"],"game_id":440,"stv_port":27076,"stv_name":"Uncletopia | London | 7 | No Payload | STV","players":null},{"server_id":41,"name":"Uncletopia | London | 8 | Community","name_short":"lon-8","host":"lon-1.uk.uncletopia.com","port":27085,"enabled":true,"region":"eu","cc":"gb","latitude":51.509865,"longitude":-0.118092,"reserved":0,"last_update":"0001-01-01T00:00:00Z","name_a2s":"Uncletopia | London | 8 | Community","protocol":17,"map":"koth_highpass","folder":"tf","game":"Team Fortress","app_id":440,"player_count":0,"max_players":24,"Bots":0,"server_type":"Dedicated","server_os":"Linux","password":true,"vac":true,"version":"7723704","steam_id":85568392924964315,"keywords":["cp","nocrits","nodmgspread","uncletopia"],"game_id":440,"stv_port":27086,"stv_name":"Uncletopia | London | 8 | Community | STV","players":null},{"server_id":300,"name":"Uncletopia | Montréal | 1 | All Maps","name_short":"mtl-1","host":"mtl-1.ca.uncletopia.com","port":27015,"enabled":true,"region":"us-east","cc":"ca","latitude":45.50889,"longitude":-73.56167,"reserved":0,"last_update":"0001-01-01T00:00:00Z","name_a2s":"Uncletopia | Montréal | 1 | All Maps","protocol":17,"map":"pl_snowycoast","folder":"tf","game":"Team Fortress","app_id":440,"player_count":0,"max_players":24,"Bots":0,"server_type":"Dedicated","server_os":"Linux","password":true,"vac":true,"version":"7723704","steam_id":85568392924500087,"keywords":["nocrits","nodmgspread","payload","uncletopia"],"game_id":440,"stv_port":27016,"stv_name":"Uncletopia | Montréal | 1 | All Maps | STV","players":null},{"server_id":301,"name":"Uncletopia | Montréal | 2 | All Maps","name_short":"mtl-2","host":"mtl-1.ca.uncletopia.com","port":27025,"enabled":true,"region":"us-east","cc":"ca","latitude":45.50889,"longitude":-73.56167,"reserved":0,"last_update":"0001-01-01T00:00:00Z","name_a2s":"Uncletopia | Montréal | 2 | All Maps","protocol":17,"map":"cp_process_final","folder":"tf","game":"Team Fortress","app_id":440,"player_count":0,"max_players":24,"Bots":0,"server_type":"Dedicated","server_os":"Linux","password":true,"vac":true,"version":"7723704","steam_id":85568392924500088,"keywords":["cp","nocrits","nodmgspread","uncletopia"],"game_id":440,"stv_port":27026,"stv_name":"Uncletopia | Montréal | 2 | All Maps | STV","players":null},{"server_id":302,"name":"Uncletopia | Montréal | 3 | All Maps","name_short":"mtl-3","host":"mtl-1.ca.uncletopia.com","port":27035,"enabled":true,"region":"us-east","cc":"ca","latitude":45.50889,"longitude":-73.56167,"reserved":0,"last_update":"0001-01-01T00:00:00Z","name_a2s":"Uncletopia | Montréal | 3 | All Maps","protocol":17,"map":"pl_barnblitz","folder":"tf","game":"Team Fortress","app_id":440,"player_count":0,"max_players":24,"Bots":0,"server_type":"Dedicated","server_os":"Linux","password":true,"vac":true,"version":"7723704","steam_id":85568392924500089,"keywords":["nocrits","nodmgspread","payload","uncletopia"],"game_id":440,"stv_port":27036,"stv_name":"Uncletopia | Montréal | 3 | All Maps | STV","players":null},{"server_id":303,"name":"Uncletopia | Montréal | 4 | No Payload","name_short":"mtl-4","host":"mtl-1.ca.uncletopia.com","port":27045,"enabled":true,"region":"us-east","cc":"ca","latitude":45.50889,"longitude":-73.56167,"reserved":0,"last_update":"0001-01-01T00:00:00Z","name_a2s":"Uncletopia | Montréal | 4 | No Payload","protocol":17,"map":"koth_cascade","folder":"tf","game":"Team Fortress","app_id":440,"player_count":0,"max_players":24,"Bots":0,"server_type":"Dedicated","server_os":"Linux","password":true,"vac":true,"version":"7723704","steam_id":85568392924500090,"keywords":["cp","nocrits","nodmgspread","uncletopia"],"game_id":440,"stv_port":27046,"stv_name":"Uncletopia | Montréal | 4 | No Payload | STV","players":null},{"server_id":13,"name":"Uncletopia | New York City | 1 | All Maps","name_short":"nyc-1","host":"nyc-1.us.uncletopia.com","port":27015,"enabled":true,"region":"us-east","cc":"us","latitude":40.73061,"longitude":-73.93524,"reserved":0,"last_update":"0001-01-01T00:00:00Z","name_a2s":"Uncletopia | New York City | 1 | All Maps","protocol":17,"map":"koth_viaduct","folder":"tf","game":"Team Fortress","app_id":440,"player_count":0,"max_players":24,"Bots":0,"server_type":"Dedicated","server_os":"Linux","password":true,"vac":true,"version":"7723704","steam_id":85568392924469993,"keywords":["cp","nocrits","nodmgspread","uncletopia"],"game_id":440,"stv_port":27016,"stv_name":"Uncletopia | New York City | 1 | All Maps | STV","players":null},{"server_id":14,"name":"Uncletopia | New York City | 2 | All Maps","name_short":"nyc-2","host":"nyc-1.us.uncletopia.com","port":27025,"enabled":true,"region":"us-east","cc":"us","latitude":40.73061,"longitude":-73.93524,"reserved":0,"last_update":"0001-01-01T00:00:00Z","name_a2s":"Uncletopia | New York City | 2 | All Maps","protocol":17,"map":"koth_cascade","folder":"tf","game":"Team Fortress","app_id":440,"player_count":0,"max_players":24,"Bots":0,"server_type":"Dedicated","server_os":"Linux","password":true,"vac":true,"version":"7723704","steam_id":85568392924469994,"keywords":["cp","nocrits","nodmgspread","uncletopia"],"game_id":440,"stv_port":27026,"stv_name":"Uncletopia | New York City | 2 | All Maps | STV","players":null},{"server_id":15,"name":"Uncletopia | New York City | 3 | Stopwatch Beta","name_short":"nyc-3","host":"nyc-1.us.uncletopia.com","port":27035,"enabled":true,"region":"us-east","cc":"us","latitude":40.73061,"longitude":-73.93524,"reserved":0,"last_update":"0001-01-01T00:00:00Z","name_a2s":"Uncletopia | New York City | 3 | Stopwatch Beta","protocol":17,"map":"workshop/cp_reckoner_rc6.ugc674719999","folder":"tf","game":"Team Fortress","app_id":440,"player_count":0,"max_players":24,"Bots":0,"server_type":"Dedicated","server_os":"Linux","password":true,"vac":true,"version":"7723704","steam_id":85568392924742820,"keywords":["cp","nocrits","nodmgspread","uncletopia"],"game_id":440,"stv_port":27036,"stv_name":"Uncletopia | New York City | 3 | Stopwatch Beta | STV","players":null},{"server_id":16,"name":"Uncletopia | New York City | 4 | Community","name_short":"nyc-4","host":"nyc-1.us.uncletopia.com","port":27045,"enabled":true,"region":"us-east","cc":"us","latitude":40.73061,"longitude":-73.93524,"reserved":0,"last_update":"0001-01-01T00:00:00Z","name_a2s":"Uncletopia | New York City | 4 | Community","protocol":17,"map":"workshop/pl_eruption_b8c.ugc2865677281","folder":"tf","game":"Team Fortress","app_id":440,"player_count":0,"max_players":24,"Bots":0,"server_type":"Dedicated","server_os":"Linux","password":true,"vac":true,"version":"7723704","steam_id":85568392924742821,"keywords":["nocrits","nodmgspread","payload","uncletopia"],"game_id":440,"stv_port":27046,"stv_name":"Uncletopia | New York City | 4 | Community | STV","players":null},{"server_id":142,"name":"Uncletopia | São Paulo | 1 | All Maps","name_short":"sao-1","host":"sao-1.br.uncletopia.com","port":27015,"enabled":true,"region":"sa","cc":"br","latitude":-23.533773,"longitude":-46.62529,"reserved":0,"last_update":"0001-01-01T00:00:00Z","name_a2s":"Uncletopia | São Paulo | 1 | All Maps","protocol":17,"map":"pl_barnblitz","folder":"tf","game":"Team Fortress","app_id":440,"player_count":0,"max_players":24,"Bots":0,"server_type":"Dedicated","server_os":"Linux","password":true,"vac":true,"version":"7723704","steam_id":85568392924469996,"keywords":["nocrits","nodmgspread","payload","uncletopia"],"game_id":440,"stv_port":27016,"stv_name":"Uncletopia | São Paulo | 1 | All Maps | STV","players":null},{"server_id":143,"name":"Uncletopia | São Paulo | 2 | All Maps","name_short":"sao-2","host":"sao-2.br.uncletopia.com","port":27015,"enabled":true,"region":"sa","cc":"br","latitude":-23.533773,"longitude":-46.62529,"reserved":0,"last_update":"0001-01-01T00:00:00Z","name_a2s":"Uncletopia | São Paulo | 2 | All Maps","protocol":17,"map":"pl_frontier_final","folder":"tf","game":"Team Fortress","app_id":440,"player_count":0,"max_players":24,"Bots":0,"server_type":"Dedicated","server_os":"Linux","password":true,"vac":true,"version":"7723704","steam_id":85568392924485349,"keywords":["nocrits","nodmgspread","payload","uncletopia"],"game_id":440,"stv_port":27016,"stv_name":"Uncletopia | São Paulo | 2 | All Maps | STV","players":null},{"server_id":7,"name":"Uncletopia | Seattle | 1 | All Maps","name_short":"sea-1","host":"sea-1.us.uncletopia.com","port":27015,"enabled":true,"region":"us-west","cc":"us","latitude":47.608013,"longitude":-122.33517,"reserved":0,"last_update":"0001-01-01T00:00:00Z","name_a2s":"Uncletopia | Seattle | 1 | All Maps","protocol":17,"map":"koth_highpass","folder":"tf","game":"Team Fortress","app_id":440,"player_count":0,"max_players":24,"Bots":0,"server_type":"Dedicated","server_os":"Linux","password":true,"vac":true,"version":"7723704","steam_id":85568392924469997,"keywords":["cp","nocrits","nodmgspread","uncletopia"],"game_id":440,"stv_port":27016,"stv_name":"Uncletopia | Seattle | 1 | All Maps | STV","players":null},{"server_id":119,"name":"Uncletopia | Seattle | 2 | All Maps","name_short":"sea-2","host":"sea-1.us.uncletopia.com","port":27025,"enabled":true,"region":"us-west","cc":"us","latitude":47.608013,"longitude":-122.33517,"reserved":0,"last_update":"0001-01-01T00:00:00Z","name_a2s":"Uncletopia | Seattle | 2 | All Maps","protocol":17,"map":"koth_king","folder":"tf","game":"Team Fortress","app_id":440,"player_count":17,"max_players":24,"Bots":0,"server_type":"Dedicated","server_os":"Linux","password":true,"vac":true,"version":"7723704","steam_id":85568392924469998,"keywords":["cp","nocrits","nodmgspread","uncletopia"],"game_id":440,"stv_port":27026,"stv_name":"Uncletopia | Seattle | 2 | All Maps | STV","players":[{"user_id":145,"name":"Iawen","steam_id":76561197984522405,"connected_time":155000000000,"state":"active","ping":104},{"user_id":144,"name":"Tom","steam_id":76561198258980884,"connected_time":294000000000,"state":"active","ping":57},{"user_id":146,"name":"blightrot","steam_id":76561198099445256,"connected_time":48000000000,"state":"active","ping":115},{"user_id":103,"name":"Saggle","steam_id":76561198056075147,"connected_time":6046000000000,"state":"active","ping":184},{"user_id":141,"name":"paj","steam_id":76561198080026026,"connected_time":711000000000,"state":"active","ping":76},{"user_id":98,"name":"SkyLark","steam_id":76561198303618132,"connected_time":7075000000000,"state":"active","ping":50},{"user_id":133,"name":"haj","steam_id":76561198043902911,"connected_time":1622000000000,"state":"active","ping":45},{"user_id":147,"name":"mommy claus","steam_id":76561199230929836,"connected_time":17000000000,"state":"active","ping":106},{"user_id":140,"name":"rorytherednosedreindeer","steam_id":76561198065825165,"connected_time":1343000000000,"state":"active","ping":68},{"user_id":142,"name":"served","steam_id":76561199438267625,"connected_time":583000000000,"state":"active","ping":95},{"user_id":143,"name":"An Old Lady","steam_id":76561198047480318,"connected_time":468000000000,"state":"active","ping":63},{"user_id":117,"name":"smeasly","steam_id":76561198028718812,"connected_time":4572000000000,"state":"active","ping":44},{"user_id":125,"name":"summerlis","steam_id":76561198165324438,"connected_time":3527000000000,"state":"active","ping":59},{"user_id":106,"name":"Ducks","steam_id":76561198130038345,"connected_time":4920000000000,"state":"active","ping":65},{"user_id":139,"name":"Stev the Prurient Oxymoron","steam_id":76561197999442625,"connected_time":1499000000000,"state":"active","ping":54},{"user_id":100,"name":"PopcornNinja101","steam_id":76561198330680181,"connected_time":6606000000000,"state":"active","ping":45},{"user_id":29,"name":"jorts","steam_id":76561199041179985,"connected_time":15615000000000,"state":"active","ping":59}]},{"server_id":406,"name":"Uncletopia | Seattle | 3 | Stopwatch Beta","name_short":"sea-3","host":"sea-1.us.uncletopia.com","port":27035,"enabled":true,"region":"us-west","cc":"us","latitude":47.608013,"longitude":-122.33517,"reserved":0,"last_update":"0001-01-01T00:00:00Z","name_a2s":"Uncletopia | Seattle | 3 | Stopwatch Beta","protocol":17,"map":"cp_altitude","folder":"tf","game":"Team Fortress","app_id":440,"player_count":0,"max_players":24,"Bots":0,"server_type":"Dedicated","server_os":"Linux","password":true,"vac":false,"version":"7723704","steam_id":0,"keywords":["cp","nocrits","nodmgspread","uncletopia"],"game_id":440,"stv_port":27036,"stv_name":"Uncletopia | Seattle | 3 | Stopwatch Beta | STV","players":null},{"server_id":17,"name":"Uncletopia | San Francisco | 1 | All Maps","name_short":"sfo-1","host":"sfo-1.us.uncletopia.com","port":27015,"enabled":true,"region":"us-west","cc":"us","latitude":37.77397,"longitude":-122.4313,"reserved":0,"last_update":"0001-01-01T00:00:00Z","name_a2s":"Uncletopia | San Francisco | 1 | All Maps","protocol":17,"map":"pl_upward","folder":"tf","game":"Team Fortress","app_id":440,"player_count":23,"max_players":24,"Bots":0,"server_type":"Dedicated","server_os":"Linux","password":true,"vac":true,"version":"7723704","steam_id":85568392924469999,"keywords":["nocrits","nodmgspread","payload","uncletopia"],"game_id":440,"stv_port":27016,"stv_name":"Uncletopia | San Francisco | 1 | All Maps | STV","players":[{"user_id":284,"name":"plutonium isotope","steam_id":76561198319442494,"connected_time":1123000000000,"state":"active","ping":59},{"user_id":288,"name":"Mudkip","steam_id":76561198164192160,"connected_time":840000000000,"state":"active","ping":59},{"user_id":263,"name":"dzcreeper","steam_id":76561198072250723,"connected_time":1399000000000,"state":"active","ping":74},{"user_id":169,"name":"guy","steam_id":76561198196443262,"connected_time":5529000000000,"state":"active","ping":88},{"user_id":286,"name":"Roman lettuce","steam_id":76561199079310990,"connected_time":1073000000000,"state":"active","ping":61},{"user_id":297,"name":"The Caretaker","steam_id":76561198125241411,"connected_time":150000000000,"state":"active","ping":119},{"user_id":296,"name":"birbneedsumseed","steam_id":76561198853439850,"connected_time":551000000000,"state":"active","ping":50},{"user_id":198,"name":"Goob","steam_id":76561198256918638,"connected_time":4135000000000,"state":"active","ping":44},{"user_id":207,"name":"goldhed","steam_id":76561198051751133,"connected_time":3739000000000,"state":"active","ping":77},{"user_id":287,"name":"N64Kanroji","steam_id":76561198045209288,"connected_time":879000000000,"state":"active","ping":59},{"user_id":220,"name":"Admiral Misanthrope","steam_id":76561197999529704,"connected_time":2816000000000,"state":"active","ping":54},{"user_id":227,"name":"canadian birds","steam_id":76561198059466588,"connected_time":2634000000000,"state":"active","ping":120},{"user_id":267,"name":"xFactr","steam_id":76561198129007422,"connected_time":1336000000000,"state":"active","ping":113},{"user_id":212,"name":"Stealing Your WiFi","steam_id":76561197999963686,"connected_time":3355000000000,"state":"active","ping":110},{"user_id":221,"name":"Indica","steam_id":76561197996611634,"connected_time":2811000000000,"state":"active","ping":61},{"user_id":291,"name":"Rommel2007","steam_id":76561198041744631,"connected_time":756000000000,"state":"active","ping":84},{"user_id":136,"name":"Vojdo","steam_id":76561198064781517,"connected_time":6641000000000,"state":"active","ping":61},{"user_id":194,"name":"Optimore","steam_id":76561198047662990,"connected_time":4632000000000,"state":"active","ping":54},{"user_id":222,"name":"Jack from Jack in The Box","steam_id":76561199083594971,"connected_time":2807000000000,"state":"active","ping":61},{"user_id":268,"name":"chicken","steam_id":76561198982373765,"connected_time":1322000000000,"state":"active","ping":104},{"user_id":293,"name":"Punished Jඞff #NeverSimpAgain","steam_id":76561198304252584,"connected_time":751000000000,"state":"active","ping":45},{"user_id":234,"name":"video games","steam_id":76561198334059206,"connected_time":2371000000000,"state":"active","ping":59},{"user_id":272,"name":"carnotaurusjurassicdarktreylonT","steam_id":76561198825089330,"connected_time":1273000000000,"state":"active","ping":88}]},{"server_id":18,"name":"Uncletopia | San Francisco | 2 | All Maps","name_short":"sfo-2","host":"sfo-1.us.uncletopia.com","port":27025,"enabled":true,"region":"us-west","cc":"us","latitude":37.77397,"longitude":-122.4313,"reserved":0,"last_update":"0001-01-01T00:00:00Z","name_a2s":"Uncletopia | San Francisco | 2 | All Maps","protocol":17,"map":"pl_borneo","folder":"tf","game":"Team Fortress","app_id":440,"player_count":0,"max_players":24,"Bots":0,"server_type":"Dedicated","server_os":"Linux","password":true,"vac":true,"version":"7723704","steam_id":85568392924470000,"keywords":["nocrits","nodmgspread","payload","uncletopia"],"game_id":440,"stv_port":27026,"stv_name":"Uncletopia | San Francisco | 2 | All Maps | STV","players":null},{"server_id":19,"name":"Uncletopia | San Francisco | 3 | Stopwatch Beta","name_short":"sfo-3","host":"sfo-1.us.uncletopia.com","port":27035,"enabled":true,"region":"us-west","cc":"us","latitude":37.77397,"longitude":-122.4313,"reserved":0,"last_update":"0001-01-01T00:00:00Z","name_a2s":"Uncletopia | San Francisco | 3 | Stopwatch Beta","protocol":17,"map":"cp_gullywash_final1","folder":"tf","game":"Team Fortress","app_id":440,"player_count":0,"max_players":24,"Bots":0,"server_type":"Dedicated","server_os":"Linux","password":true,"vac":true,"version":"7723704","steam_id":85568392924742824,"keywords":["cp","nocrits","nodmgspread","uncletopia"],"game_id":440,"stv_port":27036,"stv_name":"Uncletopia | San Francisco | 3 | Stopwatch Beta | STV","players":null},{"server_id":20,"name":"Uncletopia | San Francisco | 4 | Community","name_short":"sfo-4","host":"sfo-1.us.uncletopia.com","port":27045,"enabled":true,"region":"us-west","cc":"us","latitude":37.77397,"longitude":-122.4313,"reserved":0,"last_update":"0001-01-01T00:00:00Z","name_a2s":"Uncletopia | San Francisco | 4 | Community","protocol":17,"map":"koth_cascade","folder":"tf","game":"Team Fortress","app_id":440,"player_count":0,"max_players":24,"Bots":0,"server_type":"Dedicated","server_os":"Linux","password":true,"vac":true,"version":"7723704","steam_id":85568392924742826,"keywords":["cp","nocrits","nodmgspread","uncletopia"],"game_id":440,"stv_port":27046,"stv_name":"Uncletopia | San Francisco | 4 | Community | STV","players":null},{"server_id":141,"name":"Uncletopia | Sydney | 1 | All Maps","name_short":"syd-1","host":"syd-1.au.uncletopia.com","port":27015,"enabled":true,"region":"au","cc":"au","latitude":-33.865143,"longitude":151.2099,"reserved":0,"last_update":"0001-01-01T00:00:00Z","name_a2s":"Uncletopia | Sydney | 1 | All Maps","protocol":17,"map":"pl_upward","folder":"tf","game":"Team Fortress","app_id":440,"player_count":24,"max_players":24,"Bots":0,"server_type":"Dedicated","server_os":"Linux","password":true,"vac":true,"version":"7723704","steam_id":85568392924470001,"keywords":["nocrits","nodmgspread","payload","uncletopia"],"game_id":440,"stv_port":27016,"stv_name":"Uncletopia | Sydney | 1 | All Maps | STV","players":[{"user_id":86,"name":"ben","steam_id":76561198223331996,"connected_time":305000000000,"state":"active","ping":71},{"user_id":82,"name":"Bing Soy","steam_id":76561198057093383,"connected_time":626000000000,"state":"active","ping":47},{"user_id":64,"name":"Reddaye","steam_id":76561198025232124,"connected_time":1757000000000,"state":"active","ping":44},{"user_id":24,"name":"Glockenspe (She/Her)","steam_id":76561199184115241,"connected_time":4223000000000,"state":"active","ping":47},{"user_id":11,"name":"LightningBlock","steam_id":76561198289997742,"connected_time":5582000000000,"state":"active","ping":33},{"user_id":15,"name":"Piyo.","steam_id":76561197985114373,"connected_time":5261000000000,"state":"active","ping":66},{"user_id":88,"name":"Level 20 Commoner","steam_id":76561198020401609,"connected_time":164000000000,"state":"active","ping":54},{"user_id":93,"name":"Hippity_Hoppity","steam_id":76561198861050395,"connected_time":84000000000,"state":"active","ping":50},{"user_id":72,"name":"Not A F2P","steam_id":76561198376756608,"connected_time":1353000000000,"state":"active","ping":76},{"user_id":85,"name":"Pabonulf","steam_id":76561198076371615,"connected_time":375000000000,"state":"active","ping":65},{"user_id":18,"name":"Kintaro","steam_id":76561199400481258,"connected_time":4853000000000,"state":"active","ping":39},{"user_id":58,"name":"penis muncher","steam_id":76561198288259746,"connected_time":2037000000000,"state":"active","ping":54},{"user_id":54,"name":"Flakey","steam_id":76561198021618682,"connected_time":2204000000000,"state":"active","ping":62},{"user_id":77,"name":"monocrumb","steam_id":76561199126588682,"connected_time":768000000000,"state":"active","ping":68},{"user_id":91,"name":"jd","steam_id":76561198047063515,"connected_time":104000000000,"state":"active","ping":54},{"user_id":28,"name":"bweegus wagoogus glumbus","steam_id":76561198063481761,"connected_time":3988000000000,"state":"active","ping":45},{"user_id":46,"name":"Tim","steam_id":76561197963434870,"connected_time":3246000000000,"state":"active","ping":43},{"user_id":74,"name":"tenten","steam_id":76561198402822072,"connected_time":1166000000000,"state":"active","ping":108},{"user_id":34,"name":"Shibby2142","steam_id":76561199445490119,"connected_time":3839000000000,"state":"active","ping":35},{"user_id":70,"name":"CypressFluff (She/Her)","steam_id":76561198174667818,"connected_time":1434000000000,"state":"active","ping":58},{"user_id":62,"name":"M A N I C","steam_id":76561199242541551,"connected_time":1950000000000,"state":"active","ping":66},{"user_id":94,"name":"Moorane","steam_id":76561198071091263,"connected_time":77000000000,"state":"active","ping":65},{"user_id":87,"name":"Wolf","steam_id":76561198067256350,"connected_time":251000000000,"state":"active","ping":57},{"user_id":92,"name":"OBI","steam_id":76561198300017538,"connected_time":103000000000,"state":"active","ping":66}]},{"server_id":123,"name":"Uncletopia | Sydney | 2 | All Maps","name_short":"syd-2","host":"syd-1.au.uncletopia.com","port":27025,"enabled":true,"region":"au","cc":"au","latitude":-33.865143,"longitude":151.2099,"reserved":0,"last_update":"0001-01-01T00:00:00Z","name_a2s":"Uncletopia | Sydney | 2 | All Maps","protocol":17,"map":"pl_badwater","folder":"tf","game":"Team Fortress","app_id":440,"player_count":18,"max_players":24,"Bots":0,"server_type":"Dedicated","server_os":"Linux","password":true,"vac":true,"version":"7723704","steam_id":85568392924470002,"keywords":["nocrits","nodmgspread","payload","uncletopia"],"game_id":440,"stv_port":27026,"stv_name":"Uncletopia | Sydney | 2 | All Maps | STV","players":[{"user_id":126,"name":"jeff","steam_id":76561198327306842,"connected_time":2308000000000,"state":"active","ping":116},{"user_id":151,"name":"giant giovanni","steam_id":76561198813886004,"connected_time":1119000000000,"state":"spawning","ping":145},{"user_id":113,"name":"james16","steam_id":76561198362678073,"connected_time":3041000000000,"state":"active","ping":38},{"user_id":157,"name":"Burger Man Chips","steam_id":76561198019107403,"connected_time":606000000000,"state":"active","ping":62},{"user_id":158,"name":"bro","steam_id":76561198310908346,"connected_time":599000000000,"state":"active","ping":92},{"user_id":166,"name":"Mungbean","steam_id":76561198192300679,"connected_time":82000000000,"state":"active","ping":63},{"user_id":163,"name":"PivotLime","steam_id":76561198111187073,"connected_time":318000000000,"state":"active","ping":60},{"user_id":150,"name":"krandlez` (Any/All)","steam_id":76561198044839726,"connected_time":1292000000000,"state":"active","ping":30},{"user_id":134,"name":"William","steam_id":76561198043300035,"connected_time":2186000000000,"state":"active","ping":57},{"user_id":154,"name":"eroweh","steam_id":76561198050955934,"connected_time":897000000000,"state":"active","ping":75},{"user_id":92,"name":"cyne","steam_id":76561198216406179,"connected_time":4521000000000,"state":"active","ping":87},{"user_id":139,"name":"Q","steam_id":76561198055600105,"connected_time":1924000000000,"state":"active","ping":75},{"user_id":152,"name":"absolute tf2 shitter","steam_id":76561199251626605,"connected_time":1037000000000,"state":"active","ping":110},{"user_id":162,"name":"Hot Yoga Instructor","steam_id":76561199163801558,"connected_time":376000000000,"state":"active","ping":40},{"user_id":144,"name":"Eagle","steam_id":76561198076227203,"connected_time":1623000000000,"state":"active","ping":62},{"user_id":155,"name":"Meerkat","steam_id":76561198298662979,"connected_time":875000000000,"state":"active","ping":39},{"user_id":95,"name":"zen","steam_id":76561198302670452,"connected_time":4173000000000,"state":"active","ping":59},{"user_id":156,"name":"howl","steam_id":76561198213150435,"connected_time":869000000000,"state":"active","ping":45}]},{"server_id":395,"name":"Uncletopia | Sydney | 3 | All Maps","name_short":"syd-3","host":"syd-1.au.uncletopia.com","port":27035,"enabled":true,"region":"au","cc":"au","latitude":-33.865143,"longitude":151.2099,"reserved":0,"last_update":"0001-01-01T00:00:00Z","name_a2s":"Uncletopia | Sydney | 3 | All Maps","protocol":17,"map":"pl_frontier_final","folder":"tf","game":"Team Fortress","app_id":440,"player_count":0,"max_players":24,"Bots":0,"server_type":"Dedicated","server_os":"Linux","password":true,"vac":true,"version":"7723704","steam_id":85568392925194467,"keywords":["nocrits","nodmgspread","payload","uncletopia"],"game_id":440,"stv_port":27036,"stv_name":"Uncletopia | Sydney | 3 | All Maps | STV","players":null},{"server_id":396,"name":"Uncletopia | Sydney | 4 | All Maps","name_short":"syd-4","host":"syd-1.au.uncletopia.com","port":27045,"enabled":true,"region":"au","cc":"au","latitude":-33.865143,"longitude":151.2099,"reserved":0,"last_update":"0001-01-01T00:00:00Z","name_a2s":"Uncletopia | Sydney | 4 | All Maps","protocol":17,"map":"pl_pier","folder":"tf","game":"Team Fortress","app_id":440,"player_count":0,"max_players":24,"Bots":0,"server_type":"Dedicated","server_os":"Linux","password":true,"vac":true,"version":"7723704","steam_id":85568392925397958,"keywords":["nocrits","nodmgspread","payload","uncletopia"],"game_id":440,"stv_port":27046,"stv_name":"Uncletopia | Sydney | 4 | All Maps | STV","players":null},{"server_id":58,"name":"Uncletopia | Sydney | 5 | Stopwatch Beta","name_short":"syd-5","host":"syd-1.au.uncletopia.com","port":27055,"enabled":true,"region":"au","cc":"au","latitude":-33.865143,"longitude":151.2099,"reserved":0,"last_update":"0001-01-01T00:00:00Z","name_a2s":"Uncletopia | Sydney | 5 | Stopwatch Beta","protocol":17,"map":"cp_altitude","folder":"tf","game":"Team Fortress","app_id":440,"player_count":0,"max_players":24,"Bots":0,"server_type":"Dedicated","server_os":"Linux","password":true,"vac":true,"version":"7723704","steam_id":85568392925397959,"keywords":["cp","nocrits","nodmgspread","uncletopia"],"game_id":440,"stv_port":27056,"stv_name":"Uncletopia | Sydney | 5 | Stopwatch Beta | STV","players":null},{"server_id":59,"name":"Uncletopia | Sydney | 6 | Community","name_short":"syd-6","host":"syd-1.au.uncletopia.com","port":27065,"enabled":true,"region":"au","cc":"au","latitude":-33.865143,"longitude":151.2099,"reserved":0,"last_update":"0001-01-01T00:00:00Z","name_a2s":"Uncletopia | Sydney | 6 | Community","protocol":17,"map":"pl_frontier_final","folder":"tf","game":"Team Fortress","app_id":440,"player_count":0,"max_players":24,"Bots":0,"server_type":"Dedicated","server_os":"Linux","password":true,"vac":true,"version":"7723704","steam_id":85568392925397960,"keywords":["nocrits","nodmgspread","payload","uncletopia"],"game_id":440,"stv_port":27066,"stv_name":"Uncletopia | Sydney | 6 | Community | STV","players":null},{"server_id":49,"name":"Uncletopia | Warsaw | 1 | All Maps","name_short":"waw-1","host":"waw-1.pl.uncletopia.com","port":27015,"enabled":true,"region":"eu","cc":"pl","latitude":52.2297,"longitude":21.017532,"reserved":0,"last_update":"0001-01-01T00:00:00Z","name_a2s":"Uncletopia | Warsaw | 1 | All Maps","protocol":17,"map":"pl_pier","folder":"tf","game":"Team Fortress","app_id":440,"player_count":0,"max_players":24,"Bots":0,"server_type":"Dedicated","server_os":"Linux","password":true,"vac":true,"version":"7723704","steam_id":85568392925397850,"keywords":["nocrits","nodmgspread","payload","uncletopia"],"game_id":440,"stv_port":27016,"stv_name":"Uncletopia | Warsaw | 1 | All Maps | STV","players":null},{"server_id":50,"name":"Uncletopia | Warsaw | 2 | All Maps","name_short":"waw-2","host":"waw-1.pl.uncletopia.com","port":27025,"enabled":true,"region":"eu","cc":"pl","latitude":52.2297,"longitude":21.017532,"reserved":0,"last_update":"0001-01-01T00:00:00Z","name_a2s":"Uncletopia | Warsaw | 2 | All Maps","protocol":17,"map":"pl_barnblitz","folder":"tf","game":"Team Fortress","app_id":440,"player_count":0,"max_players":24,"Bots":0,"server_type":"Dedicated","server_os":"Linux","password":true,"vac":true,"version":"7723704","steam_id":85568392925397851,"keywords":["nocrits","nodmgspread","payload","uncletopia"],"game_id":440,"stv_port":27026,"stv_name":"Uncletopia | Warsaw | 2 | All Maps | STV","players":null},{"server_id":51,"name":"Uncletopia | Warsaw | 3 | All Maps","name_short":"waw-3","host":"waw-1.pl.uncletopia.com","port":27035,"enabled":true,"region":"eu","cc":"pl","latitude":52.2297,"longitude":21.017532,"reserved":0,"last_update":"0001-01-01T00:00:00Z","name_a2s":"Uncletopia | Warsaw | 3 | All Maps","protocol":17,"map":"pl_barnblitz","folder":"tf","game":"Team Fortress","app_id":440,"player_count":0,"max_players":24,"Bots":0,"server_type":"Dedicated","server_os":"Linux","password":true,"vac":true,"version":"7723704","steam_id":85568392925397852,"keywords":["nocrits","nodmgspread","payload","uncletopia"],"game_id":440,"stv_port":27036,"stv_name":"Uncletopia | Warsaw | 3 | All Maps | STV","players":null},{"server_id":52,"name":"Uncletopia | Warsaw | 4 | All Maps","name_short":"waw-4","host":"waw-1.pl.uncletopia.com","port":27045,"enabled":true,"region":"eu","cc":"pl","latitude":52.2297,"longitude":21.017532,"reserved":0,"last_update":"0001-01-01T00:00:00Z","name_a2s":"Uncletopia | Warsaw | 4 | All Maps","protocol":17,"map":"pl_upward","folder":"tf","game":"Team Fortress","app_id":440,"player_count":0,"max_players":24,"Bots":0,"server_type":"Dedicated","server_os":"Linux","password":true,"vac":true,"version":"7723704","steam_id":85568392925397853,"keywords":["nocrits","nodmgspread","payload","uncletopia"],"game_id":440,"stv_port":27046,"stv_name":"Uncletopia | Warsaw | 4 | All Maps | STV","players":null},{"server_id":53,"name":"Uncletopia | Warsaw | 5 | Stopwatch Beta","name_short":"waw-5","host":"waw-1.pl.uncletopia.com","port":27055,"enabled":true,"region":"eu","cc":"pl","latitude":52.2297,"longitude":21.017532,"reserved":0,"last_update":"0001-01-01T00:00:00Z","name_a2s":"Uncletopia | Warsaw | 5 | Stopwatch Beta","protocol":17,"map":"cp_sunshine","folder":"tf","game":"Team Fortress","app_id":440,"player_count":0,"max_players":24,"Bots":0,"server_type":"Dedicated","server_os":"Linux","password":true,"vac":true,"version":"7723704","steam_id":85568392925397854,"keywords":["cp","nocrits","nodmgspread","uncletopia"],"game_id":440,"stv_port":27056,"stv_name":"Uncletopia | Warsaw | 5 | Stopwatch Beta | STV","players":null},{"server_id":54,"name":"Uncletopia | Warsaw | 6 | Community","name_short":"waw-6","host":"waw-1.pl.uncletopia.com","port":27065,"enabled":true,"region":"eu","cc":"pl","latitude":52.2297,"longitude":21.017532,"reserved":0,"last_update":"0001-01-01T00:00:00Z","name_a2s":"Uncletopia | Warsaw | 6 | Community","protocol":17,"map":"pl_snowycoast","folder":"tf","game":"Team Fortress","app_id":440,"player_count":0,"max_players":24,"Bots":0,"server_type":"Dedicated","server_os":"Linux","password":true,"vac":true,"version":"7723704","steam_id":85568392925397856,"keywords":["nocrits","nodmgspread","payload","uncletopia"],"game_id":440,"stv_port":27066,"stv_name":"Uncletopia | Warsaw | 6 | Community | STV","players":null}]}