{"status":true,"message":"","result":[{"server_id":9,"name":"Uncletopia | Atlanta | 1 | All Maps","name_short":"atl-1","host":"atl-1.us.uncletopia.com","port":27015,"enabled":true,"region":"us-east","cc":"us","latitude":33.753746,"longitude":-84.38633,"reserved":0,"last_update":"0001-01-01T00:00:00Z","name_a2s":"Uncletopia | Atlanta | 1 | All Maps","protocol":17,"map":"koth_suijin","folder":"tf","game":"Team Fortress","app_id":440,"player_count":0,"max_players":24,"Bots":0,"server_type":"Dedicated","server_os":"Linux","password":true,"vac":true,"version":"7708610","steam_id":85568392924469982,"keywords":["cp","nocrits","nodmgspread","uncletopia"],"game_id":440,"stv_port":27016,"stv_name":"Uncletopia | Atlanta | 1 | All Maps | STV","players":null},{"server_id":400,"name":"Uncletopia | Atlanta | 3 | All Maps","name_short":"atl-3","host":"atl-1.us.uncletopia.com","port":27035,"enabled":true,"region":"us-east","cc":"us","latitude":33.753746,"longitude":-84.38633,"reserved":0,"last_update":"0001-01-01T00:00:00Z","name_a2s":"Uncletopia | Atlanta | 3 | All Maps","protocol":17,"map":"koth_highpass","folder":"tf","game":"Team Fortress","app_id":440,"player_count":0,"max_players":24,"Bots":0,"server_type":"Dedicated","server_os":"Linux","password":true,"vac":true,"version":"7708610","steam_id":85568392924515187,"keywords":["cp","nocrits","nodmgspread","uncletopia"],"game_id":440,"stv_port":27036,"stv_name":"Uncletopia | Atlanta | 3 | All Maps | STV","players":null},{"server_id":401,"name":"Uncletopia | Atlanta | 4 | No Payload","name_short":"atl-4","host":"atl-1.us.uncletopia.com","port":27045,"enabled":true,"region":"us-east","cc":"us","latitude":33.753746,"longitude":-84.38633,"reserved":0,"last_update":"0001-01-01T00:00:00Z","name_a2s":"Uncletopia | Atlanta | 4 | No Payload","protocol":17,"map":"cp_altitude","folder":"tf","game":"Team Fortress","app_id":440,"player_count":0,"max_players":24,"Bots":0,"server_type":"Dedicated","server_os":"Linux","password":true,"vac":true,"version":"7708610","steam_id":85568392924515188,"keywords":["cp","nocrits","nodmgspread","uncletopia"],"game_id":440,"stv_port":27046,"stv_name":"Uncletopia | Atlanta | 4 | No Payload | STV","players":null},{"server_id":2,"name":"Uncletopia | Chicago | 1 | All Maps","name_short":"chi-1","host":"chi-1.us.uncletopia.com","port":27015,"enabled":true,"region":"us-central","cc":"us","latitude":41.881832,"longitude":-87.62318,"reserved":0,"last_update":"0001-01-01T00:00:00Z","name_a2s":"Uncletopia | Chicago | 1 | All Maps","protocol":17,"map":"cp_process_final","folder":"tf","game":"Team Fortress","app_id":440,"player_count":24,"max_players":24,"Bots":0,"server_type":"Dedicated","server_os":"Linux","password":true,"vac":true,"version":"7708610","steam_id":85568392924469984,"keywords":["cp","nocrits","nodmgspread","uncletopia"],"game_id":440,"stv_port":27016,"stv_name":"Uncletopia | Chicago | 1 | All Maps | STV","players":[{"user_id":82,"name":"Rasputia","steam_id":76561198132051047,"connected_time":4915000000000,"state":"active","ping":99},{"user_id":129,"name":"Rat God","steam_id":76561198066161598,"connected_time":72000000000,"state":"active","ping":146},{"user_id":131,"name":"kibble","steam_id":76561198239909096,"connected_time":58000000000,"state":"active","ping":81},{"user_id":120,"name":"paj","steam_id":76561198080026026,"connected_time":1840000000000,"state":"active","ping":94},{"user_id":6,"name":"Atlas","steam_id":76561198127975050,"connected_time":10290000000000,"state":"active","ping":57},{"user_id":122,"name":"Dill","steam_id":76561197985091914,"connected_time":1556000000000,"state":"active","ping":65},{"user_id":81,"name":"luxin","steam_id":76561198399383047,"connected_time":4971000000000,"state":"active","ping":57},{"user_id":132,"name":"Scorpie Doodle","steam_id":76561198021845763,"connected_time":50000000000,"state":"active","ping":49},{"user_id":133,"name":"Clean","steam_id":76561198061224922,"connected_time":29000000000,"state":"active","ping":75},{"user_id":116,"name":"Cozy","steam_id":76561198003807560,"connected_time":2203000000000,"state":"active","ping":162},{"user_id":108,"name":"username","steam_id":76561198130826890,"connected_time":3303000000000,"state":"active","ping":77},{"user_id":14,"name":"defcon","steam_id":76561198100656328,"connected_time":10268000000000,"state":"active","ping":70},{"user_id":114,"name":"ÒwÓ","steam_id":76561197997304387,"connected_time":2207000000000,"state":"active","ping":54},{"user_id":121,"name":"DJ Chalice","steam_id":76561197974872458,"connected_time":1826000000000,"state":"active","ping":63},{"user_id":127,"name":"Ruusty","steam_id":76561198327249755,"connected_time":994000000000,"state":"active","ping":63},{"user_id":123,"name":"Rusty","steam_id":76561197972625397,"connected_time":1275000000000,"state":"active","ping":60},{"user_id":119,"name":"Neil Degrassy","steam_id":76561198132980934,"connected_time":1979000000000,"state":"active","ping":49},{"user_id":50,"name":"kermitcreeper(ZAZA)","steam_id":76561199222829972,"connected_time":8015000000000,"state":"active","ping":46},{"user_id":25,"name":"177013","steam_id":76561198072303290,"connected_time":10183000000000,"state":"active","ping":60},{"user_id":126,"name":"SnowStorm","steam_id":76561198095817025,"connected_time":1220000000000,"state":"active","ping":47},{"user_id":57,"name":"ඞ","steam_id":76561198275101482,"connected_time":7841000000000,"state":"active","ping":151},{"user_id":125,"name":"Mr. Tickle","steam_id":76561198126684647,"connected_time":1234000000000,"state":"active","ping":53},{"user_id":130,"name":"The BeamNG Mattress","steam_id":76561198026640869,"connected_time":69000000000,"state":"active","ping":73},{"user_id":102,"name":"Splinto","steam_id":76561198111260488,"connected_time":3730000000000,"state":"active","ping":46}]},{"server_id":106,"name":"Uncletopia | Chicago | 2 | All Maps","name_short":"chi-2","host":"chi-1.us.uncletopia.com","port":27025,"enabled":true,"region":"us-central","cc":"us","latitude":41.881832,"longitude":-87.62318,"reserved":0,"last_update":"0001-01-01T00:00:00Z","name_a2s":"Uncletopia | Chicago | 2 | All Maps","protocol":17,"map":"cp_sunshine","folder":"tf","game":"Team Fortress","app_id":440,"player_count":0,"max_players":24,"Bots":0,"server_type":"Dedicated","server_os":"Linux","password":true,"vac":true,"version":"7708610","steam_id":85568392924469985,"keywords":["cp","nocrits","nodmgspread","uncletopia"],"game_id":440,"stv_port":0,"stv_name":"","players":null},{"server_id":402,"name":"Uncletopia | Chicago | 3 | All Maps","name_short":"chi-3","host":"chi-1.us.uncletopia.com","port":27035,"enabled":true,"region":"us-central","cc":"us","latitude":41.881832,"longitude":-87.62318,"reserved":0,"last_update":"0001-01-01T00:00:00Z","name_a2s":"Uncletopia | Chicago | 3 | All Maps","protocol":17,"map":"cp_dustbowl","folder":"tf","game":"Team Fortress","app_id":440,"player_count":0,"max_players":24,"Bots":0,"server_type":"Dedicated","server_os":"Linux","password":true,"vac":true,"version":"7708610","steam_id":85568392924515191,"keywords":["cp","nocrits","nodmgspread","uncletopia"],"game_id":440,"stv_port":0,"stv_name":"","players":null},{"server_id":403,"name":"Uncletopia | Chicago | 4 | All Maps","name_short":"chi-4","host":"chi-1.us.uncletopia.com","port":27045,"enabled":true,"region":"us-central","cc":"us","latitude":41.881832,"longitude":-87.62318,"reserved":0,"last_update":"0001-01-01T00:00:00Z","name_a2s":"Uncletopia | Chicago | 4 | All Maps","protocol":17,"map":"koth_lakeside_final","folder":"tf","game":"Team Fortress","app_id":440,"player_count":0,"max_players":24,"Bots":0,"server_type":"Dedicated","server_os":"Linux","password":true,"vac":true,"version":"7708610","steam_id":85568392924515193,"keywords":["cp","nocrits","nodmgspread","uncletopia"],"game_id":440,"stv_port":27046,"stv_name":"Uncletopia | Chicago | 4 | All Maps | STV","players":null},{"server_id":36,"name":"Uncletopia | Chicago | 5 | All Maps","name_short":"chi-5","host":"chi-2.us.uncletopia.com","port":27015,"enabled":true,"region":"us-central","cc":"us","latitude":41.881832,"longitude":-87.62318,"reserved":0,"last_update":"0001-01-01T00:00:00Z","name_a2s":"Uncletopia | Chicago | 5 | All Maps","protocol":17,"map":"cp_snakewater_final1","folder":"tf","game":"Team Fortress","app_id":440,"player_count":0,"max_players":24,"Bots":0,"server_type":"Dedicated","server_os":"Linux","password":true,"vac":true,"version":"7708610","steam_id":85568392924866362,"keywords":["cp","nocrits","nodmgspread","uncletopia"],"game_id":440,"stv_port":0,"stv_name":"","players":null},{"server_id":37,"name":"Uncletopia | Chicago | 6 | All Maps","name_short":"chi-6","host":"chi-2.us.uncletopia.com","port":27025,"enabled":true,"region":"us-central","cc":"us","latitude":41.881832,"longitude":-87.62318,"reserved":0,"last_update":"0001-01-01T00:00:00Z","name_a2s":"Uncletopia | Chicago | 6 | All Maps","protocol":17,"map":"koth_cascade","folder":"tf","game":"Team Fortress","app_id":440,"player_count":0,"max_players":24,"Bots":0,"server_type":"Dedicated","server_os":"Linux","password":true,"vac":true,"version":"7708610","steam_id":85568392924866363,"keywords":["cp","nocrits","nodmgspread","uncletopia"],"game_id":440,"stv_port":0,"stv_name":"","players":null},{"server_id":38,"name":"Uncletopia | Chicago | 7 | No Payload","name_short":"chi-7","host":"chi-2.us.uncletopia.com","port":27035,"enabled":true,"region":"us-central","cc":"us","latitude":41.881832,"longitude":-87.62318,"reserved":0,"last_update":"0001-01-01T00:00:00Z","name_a2s":"Uncletopia | Chicago | 7 | No Payload","protocol":17,"map":"koth_viaduct","folder":"tf","game":"Team Fortress","app_id":440,"player_count":0,"max_players":24,"Bots":0,"server_type":"Dedicated","server_os":"Linux","password":true,"vac":true,"version":"7708610","steam_id":85568392924866364,"keywords":["cp","nocrits","nodmgspread","uncletopia"],"game_id":440,"stv_port":0,"stv_name":"","players":null},{"server_id":39,"name":"Uncletopia | Chicago | 8 | Community","name_short":"chi-8","host":"chi-2.us.uncletopia.com","port":27045,"enabled":true,"region":"us-central","cc":"us","latitude":41.881832,"longitude":-87.62318,"reserved":0,"last_update":"0001-01-01T00:00:00Z","name_a2s":"Uncletopia | Chicago | 8 | Community","protocol":17,"map":"pl_pier","folder":"tf","game":"Team Fortress","app_id":440,"player_count":0,"max_players":24,"Bots":0,"server_type":"Dedicated","server_os":"Linux","password":true,"vac":true,"version":"7708610","steam_id":85568392924866365,"keywords":["nocrits","nodmgspread","payload","uncletopia"],"game_id":440,"stv_port":0,"stv_name":"","players":null},{"server_id":8,"name":"Uncletopia | Dallas | 1 | All Maps","name_short":"dal-1","host":"dal-1.us.uncletopia.com","port":27015,"enabled":true,"region":"us-central","cc":"us","latitude":32.779167,"longitude":-96.80889,"reserved":0,"last_update":"0001-01-01T00:00:00Z","name_a2s":"Uncletopia | Dallas | 1 | All Maps","protocol":17,"map":"cp_mountainlab","folder":"tf","game":"Team Fortress","app_id":440,"player_count":0,"max_players":24,"Bots":0,"server_type":"Dedicated","server_os":"Linux","password":true,"vac":true,"version":"7708610","steam_id":85568392924469986,"keywords":["cp","nocrits","nodmgspread","uncletopia"],"game_id":440,"stv_port":0,"stv_name":"","players":null},{"server_id":108,"name":"Uncletopia | Dallas | 2 | All Maps","name_short":"dal-2","host":"dal-1.us.uncletopia.com","port":27025,"enabled":true,"region":"us-central","cc":"us","latitude":32.779167,"longitude":-96.80889,"reserved":0,"last_update":"0001-01-01T00:00:00Z","name_a2s":"Uncletopia | Dallas | 2 | All Maps","protocol":17,"map":"pl_barnblitz","folder":"tf","game":"Team Fortress","app_id":440,"player_count":0,"max_players":24,"Bots":0,"server_type":"Dedicated","server_os":"Linux","password":true,"vac":true,"version":"7708610","steam_id":85568392924469988,"keywords":["nocrits","nodmgspread","payload","uncletopia"],"game_id":440,"stv_port":0,"stv_name":"","players":null},{"server_id":5,"name":"Uncletopia | Frankfurt | 1 | All Maps","name_short":"frk-1","host":"frk-1.de.uncletopia.com","port":27015,"enabled":true,"region":"eu","cc":"de","latitude":50.110924,"longitude":8.682127,"reserved":0,"last_update":"0001-01-01T00:00:00Z","name_a2s":"Uncletopia | Frankfurt | 1 | All Maps","protocol":17,"map":"pl_barnblitz","folder":"tf","game":"Team Fortress","app_id":440,"player_count":24,"max_players":24,"Bots":0,"server_type":"Dedicated","server_os":"Linux","password":true,"vac":true,"version":"7708610","steam_id":85568392924469989,"keywords":["nocrits","nodmgspread","payload","uncletopia"],"game_id":440,"stv_port":27016,"stv_name":"Uncletopia | Frankfurt | 1 | All Maps | STV","players":[{"user_id":148,"name":"desperate rogue","steam_id":76561199016050401,"connected_time":516000000000,"state":"active","ping":128},{"user_id":95,"name":"cosmetical","steam_id":76561198444036574,"connected_time":2655000000000,"state":"active","ping":66},{"user_id":142,"name":"doktorspiele","steam_id":76561199057953617,"connected_time":781000000000,"state":"active","ping":60},{"user_id":140,"name":"Nick (Mute banned on Uncletopia","steam_id":76561198036109469,"connected_time":964000000000,"state":"active","ping":89},{"user_id":138,"name":"lil goobling #lootget","steam_id":76561198081559669,"connected_time":1003000000000,"state":"active","ping":69},{"user_id":124,"name":"Spinach_Tropphy","steam_id":76561198807233328,"connected_time":1359000000000,"state":"active","ping":60},{"user_id":97,"name":"Insegura?","steam_id":76561198211621756,"connected_time":2635000000000,"state":"active","ping":53},{"user_id":98,"name":"Sasha","steam_id":76561199037894293,"connected_time":2623000000000,"state":"active","ping":81},{"user_id":116,"name":"Kareem","steam_id":76561198364462049,"connected_time":2188000000000,"state":"active","ping":103},{"user_id":31,"name":"Dunboi","steam_id":76561198120949216,"connected_time":6367000000000,"state":"active","ping":60},{"user_id":103,"name":"kbbq","steam_id":76561198346638308,"connected_time":2491000000000,"state":"active","ping":53},{"user_id":133,"name":"Löysä Masa","steam_id":76561198343396172,"connected_time":1162000000000,"state":"active","ping":100},{"user_id":137,"name":"who bvilding they bbc","steam_id":76561198106049954,"connected_time":1112000000000,"state":"active","ping":79},{"user_id":149,"name":"Silent Person","steam_id":76561198107763537,"connected_time":37000000000,"state":"active","ping":73},{"user_id":134,"name":"SvbK","steam_id":76561198201478866,"connected_time":1159000000000,"state":"active","ping":77},{"user_id":75,"name":"DeCypher","steam_id":76561198171992619,"connected_time":4348000000000,"state":"active","ping":65},{"user_id":135,"name":"ZazyLou_","steam_id":76561198411134617,"connected_time":1155000000000,"state":"active","ping":63},{"user_id":147,"name":"ULTIMATE_GORDON","steam_id":76561198044470038,"connected_time":652000000000,"state":"active","ping":47},{"user_id":125,"name":"tealoverr.190","steam_id":76561199028497703,"connected_time":1346000000000,"state":"active","ping":99},{"user_id":136,"name":"AleXandriX","steam_id":76561198035203950,"connected_time":1150000000000,"state":"active","ping":62},{"user_id":79,"name":"chocolate flavoured femboy","steam_id":76561198819353867,"connected_time":4171000000000,"state":"active","ping":49},{"user_id":145,"name":"MrFumble","steam_id":76561198000555490,"connected_time":739000000000,"state":"active","ping":90},{"user_id":92,"name":"Cobb Salads","steam_id":76561197971140507,"connected_time":2701000000000,"state":"active","ping":75},{"user_id":141,"name":"Maxmen","steam_id":76561198188541510,"connected_time":964000000000,"state":"active","ping":136}]},{"server_id":110,"name":"Uncletopia | Frankfurt | 2 | All Maps","name_short":"frk-2","host":"frk-1.de.uncletopia.com","port":27025,"enabled":true,"region":"eu","cc":"de","latitude":50.110924,"longitude":8.682127,"reserved":0,"last_update":"0001-01-01T00:00:00Z","name_a2s":"Uncletopia | Frankfurt | 2 | All Maps","protocol":17,"map":"pl_borneo","folder":"tf","game":"Team Fortress","app_id":440,"player_count":24,"max_players":24,"Bots":0,"server_type":"Dedicated","server_os":"Linux","password":true,"vac":true,"version":"7708610","steam_id":85568392924469990,"keywords":["nocrits","nodmgspread","payload","uncletopia"],"game_id":440,"stv_port":27026,"stv_name":"Uncletopia | Frankfurt | 2 | All Maps | STV","players":[{"user_id":145,"name":"Signor_UpB","steam_id":76561199145637231,"connected_time":442000000000,"state":"active","ping":93},{"user_id":114,"name":"Jovy Kujoh","steam_id":76561198410598772,"connected_time":2286000000000,"state":"active","ping":50},{"user_id":138,"name":"Animatic","steam_id":76561198186421601,"connected_time":1217000000000,"state":"active","ping":172},{"user_id":88,"name":"Redmailbox","steam_id":76561198042930322,"connected_time":4216000000000,"state":"active","ping":60},{"user_id":146,"name":"Perämiehenä","steam_id":76561197968945306,"connected_time":342000000000,"state":"active","ping":74},{"user_id":147,"name":"Dr Doe Gaming","steam_id":76561199104748293,"connected_time":277000000000,"state":"active","ping":81},{"user_id":132,"name":"Saint","steam_id":76561198003296382,"connected_time":1688000000000,"state":"active","ping":67},{"user_id":148,"name":"VERS","steam_id":76561198884232373,"connected_time":275000000000,"state":"active","ping":45},{"user_id":149,"name":"ОrangePortals","steam_id":76561198282172748,"connected_time":262000000000,"state":"active","ping":104},{"user_id":150,"name":"After8","steam_id":76561198090750865,"connected_time":234000000000,"state":"active","ping":61},{"user_id":111,"name":"RockFrenzy","steam_id":76561198005428050,"connected_time":2422000000000,"state":"active","ping":64},{"user_id":151,"name":"Compolo1459_","steam_id":76561199436665635,"connected_time":209000000000,"state":"active","ping":85},{"user_id":152,"name":"relaxtionfuel","steam_id":76561198868673990,"connected_time":185000000000,"state":"active","ping":166},{"user_id":122,"name":"F2P gameing","steam_id":76561198834713682,"connected_time":1998000000000,"state":"active","ping":72},{"user_id":153,"name":"Нечуй-Левицький","steam_id":76561198870926865,"connected_time":178000000000,"state":"active","ping":51},{"user_id":89,"name":"Matteo Besho","steam_id":76561199159657855,"connected_time":4182000000000,"state":"active","ping":69},{"user_id":144,"name":"greeneyo","steam_id":76561198316173029,"connected_time":801000000000,"state":"active","ping":46},{"user_id":124,"name":"amogus","steam_id":76561198119439177,"connected_time":1968000000000,"state":"active","ping":60},{"user_id":154,"name":"Umberto Bossi","steam_id":76561198136150267,"connected_time":160000000000,"state":"active","ping":41},{"user_id":155,"name":"player","steam_id":76561198054474684,"connected_time":154000000000,"state":"active","ping":75},{"user_id":156,"name":"Neytan","steam_id":76561198027024747,"connected_time":115000000000,"state":"active","ping":114},{"user_id":129,"name":"クマ","steam_id":76561197993892057,"connected_time":1855000000000,"state":"active","ping":82},{"user_id":140,"name":"早上好中国","steam_id":76561198033205384,"connected_time":1198000000000,"state":"active","ping":60},{"user_id":103,"name":"tuukka","steam_id":76561198890409949,"connected_time":3364000000000,"state":"active","ping":101}]},{"server_id":308,"name":"Uncletopia | Frankfurt | 3 | All Maps","name_short":"frk-3","host":"frk-1.de.uncletopia.com","port":27035,"enabled":true,"region":"eu","cc":"de","latitude":50.110924,"longitude":8.682127,"reserved":0,"last_update":"0001-01-01T00:00:00Z","name_a2s":"Uncletopia | Frankfurt | 3 | All Maps","protocol":17,"map":"koth_cascade","folder":"tf","game":"Team Fortress","app_id":440,"player_count":0,"max_players":24,"Bots":0,"server_type":"Dedicated","server_os":"Linux","password":true,"vac":true,"version":"7708610","steam_id":85568392924504274,"keywords":["cp","nocrits","nodmgspread","uncletopia"],"game_id":440,"stv_port":0,"stv_name":"","players":null},{"server_id":309,"name":"Uncletopia | Frankfurt | 4 | All Maps","name_short":"frk-4","host":"frk-1.de.uncletopia.com","port":27045,"enabled":true,"region":"eu","cc":"de","latitude":50.110924,"longitude":8.682127,"reserved":0,"last_update":"0001-01-01T00:00:00Z","name_a2s":"Uncletopia | Frankfurt | 4 | All Maps","protocol":17,"map":"koth_highpass","folder":"tf","game":"Team Fortress","app_id":440,"player_count":0,"max_players":24,"Bots":0,"server_type":"Dedicated","server_os":"Linux","password":true,"vac":true,"version":"7708610","steam_id":85568392924504275,"keywords":["cp","nocrits","nodmgspread","uncletopia"],"game_id":440,"stv_port":27046,"stv_name":"Uncletopia | Frankfurt | 4 | All Maps | STV","players":null},{"server_id":310,"name":"Uncletopia | Frankfurt | 5 | All Maps","name_short":"frk-5","host":"frk-1.de.uncletopia.com","port":27055,"enabled":true,"region":"eu","cc":"de","latitude":50.110924,"longitude":8.682127,"reserved":0,"last_update":"0001-01-01T00:00:00Z","name_a2s":"Uncletopia | Frankfurt | 5 | All Maps","protocol":17,"map":"koth_cascade","folder":"tf","game":"Team Fortress","app_id":440,"player_count":0,"max_players":24,"Bots":0,"server_type":"Dedicated","server_os":"Linux","password":true,"vac":true,"version":"7708610","steam_id":85568392924504277,"keywords":["cp","nocrits","nodmgspread","uncletopia"],"game_id":440,"stv_port":0,"stv_name":"","players":null},{"server_id":311,"name":"Uncletopia | Frankfurt | 6 | All Maps","name_short":"frk-6","host":"frk-1.de.uncletopia.com","port":27065,"enabled":true,"region":"eu","cc":"de","latitude":50.110924,"longitude":8.682127,"reserved":0,"last_update":"0001-01-01T00:00:00Z","name_a2s":"Uncletopia | Frankfurt | 6 | All Maps","protocol":17,"map":"cp_snakewater_final1","folder":"tf","game":"Team Fortress","app_id":440,"player_count":0,"max_players":24,"Bots":0,"server_type":"Dedicated","server_os":"Linux","password":true,"vac":true,"version":"7708610","steam_id":85568392924504278,"keywords":["cp","nocrits","nodmgspread","uncletopia"],"game_id":440,"stv_port":27066,"stv_name":"Uncletopia | Frankfurt | 6 | All Maps | STV","players":null},{"server_id":23,"name":"Uncletopia | Frankfurt | 7 | No Payload","name_short":"frk-7","host":"frk-1.de.uncletopia.com","port":27075,"enabled":true,"region":"eu","cc":"de","latitude":50.110924,"longitude":8.682127,"reserved":0,"last_update":"0001-01-01T00:00:00Z","name_a2s":"Uncletopia | Frankfurt | 7 | No Payload","protocol":17,"map":"koth_harvest_final","folder":"tf","game":"Team Fortress","app_id":440,"player_count":19,"max_players":24,"Bots":0,"server_type":"Dedicated","server_os":"Linux","password":true,"vac":true,"version":"7708610","steam_id":85568392924742827,"keywords":["cp","nocrits","nodmgspread","uncletopia"],"game_id":440,"stv_port":27076,"stv_name":"Uncletopia | Frankfurt | 7 | No Payload | STV","players":[{"user_id":43,"name":"PerskuleBenener","steam_id":76561198156899375,"connected_time":100000000000,"state":"active","ping":76},{"user_id":45,"name":"swueuws","steam_id":76561198020716743,"connected_time":8000000000,"state":"active","ping":105},{"user_id":33,"name":"Perci gyerek","steam_id":76561198097789669,"connected_time":579000000000,"state":"active","ping":60},{"user_id":36,"name":"Ork","steam_id":76561197968575924,"connected_time":416000000000,"state":"active","ping":66},{"user_id":25,"name":"Him","steam_id":76561198086400484,"connected_time":964000000000,"state":"active","ping":65},{"user_id":16,"name":"BIGGEST MAC","steam_id":76561198847517098,"connected_time":2439000000000,"state":"active","ping":154},{"user_id":22,"name":"[UiF] BafTac r/f*ckcars","steam_id":76561198060547050,"connected_time":985000000000,"state":"active","ping":46},{"user_id":23,"name":"poliakov.noam","steam_id":76561199259322961,"connected_time":980000000000,"state":"active","ping":98},{"user_id":24,"name":"[UiF] Sgt. Beebo","steam_id":76561198061094637,"connected_time":975000000000,"state":"active","ping":59},{"user_id":27,"name":"robbob","steam_id":76561198137375391,"connected_time":920000000000,"state":"active","ping":71},{"user_id":41,"name":"xxRainman90xx","steam_id":76561199185785875,"connected_time":268000000000,"state":"active","ping":126},{"user_id":29,"name":"Kokos","steam_id":76561198085501501,"connected_time":715000000000,"state":"active","ping":118},{"user_id":34,"name":"cat (they/them)","steam_id":76561198416657815,"connected_time":561000000000,"state":"active","ping":69},{"user_id":31,"name":"JohnnyRakieta","steam_id":76561198855789287,"connected_time":694000000000,"state":"active","ping":64},{"user_id":32,"name":"Waffles","steam_id":76561199086942763,"connected_time":640000000000,"state":"active","ping":83},{"user_id":35,"name":"Arturias","steam_id":76561198188720263,"connected_time":467000000000,"state":"active","ping":56},{"user_id":37,"name":"I-I","steam_id":76561198267969436,"connected_time":398000000000,"state":"active","ping":65},{"user_id":39,"name":"Pyro","steam_id":76561197972691893,"connected_time":326000000000,"state":"active","ping":43},{"user_id":42,"name":"Brothu","steam_id":76561198095120859,"connected_time":177000000000,"state":"active","ping":62}]},{"server_id":24,"name":"Uncletopia | Frankfurt | 8 | Community","name_short":"frk-8","host":"frk-1.de.uncletopia.com","port":27085,"enabled":true,"region":"eu","cc":"de","latitude":50.110924,"longitude":8.682127,"reserved":0,"last_update":"0001-01-01T00:00:00Z","name_a2s":"Uncletopia | Frankfurt | 8 | Community","protocol":17,"map":"workshop/pl_vigil_rc9.ugc1266210012","folder":"tf","game":"Team Fortress","app_id":440,"player_count":0,"max_players":24,"Bots":0,"server_type":"Dedicated","server_os":"Linux","password":true,"vac":true,"version":"7708610","steam_id":85568392924742828,"keywords":["nocrits","nodmgspread","payload","uncletopia"],"game_id":440,"stv_port":27086,"stv_name":"Uncletopia | Frankfurt | 8 | Community | STV","players":null},{"server_id":202,"name":"Uncletopia | Hong Kong | 1 | All Maps","name_short":"hgk-1","host":"hgk-1.hk.uncletopia.com","port":27015,"enabled":true,"region":"asia","cc":"hk","latitude":22.302711,"longitude":114.177216,"reserved":0,"last_update":"0001-01-01T00:00:00Z","name_a2s":"Uncletopia | Hong Kong | 1 | All Maps","protocol":17,"map":"cp_gorge","folder":"tf","game":"Team Fortress","app_id":440,"player_count":24,"max_players":24,"Bots":0,"server_type":"Dedicated","server_os":"Linux","password":true,"vac":true,"version":"7708610","steam_id":85568392924494504,"keywords":["cp","nocrits","nodmgspread","uncletopia"],"game_id":440,"stv_port":27016,"stv_name":"Uncletopia | Hong Kong | 1 | All Maps | STV","players":[{"user_id":539,"name":"raping and rapping","steam_id":76561198442507642,"connected_time":819000000000,"state":"active","ping":75},{"user_id":542,"name":"greeny","steam_id":76561198024666371,"connected_time":786000000000,"state":"active","ping":90},{"user_id":538,"name":"yhn","steam_id":76561198413116920,"connected_time":822000000000,"state":"active","ping":79},{"user_id":540,"name":"Feelsbad","steam_id":76561198132207861,"connected_time":817000000000,"state":"active","ping":112},{"user_id":524,"name":"val or something idk","steam_id":76561198981897135,"connected_time":2194000000000,"state":"active","ping":79},{"user_id":502,"name":"Banana Milk","steam_id":76561198005156257,"connected_time":3443000000000,"state":"active","ping":123},{"user_id":525,"name":"Michael Scott","steam_id":76561198023082794,"connected_time":2182000000000,"state":"active","ping":47},{"user_id":541,"name":"Talkk More","steam_id":76561198305424433,"connected_time":813000000000,"state":"active","ping":76},{"user_id":528,"name":"여름","steam_id":76561198274438558,"connected_time":1878000000000,"state":"active","ping":87},{"user_id":543,"name":"AzureWares","steam_id":76561199439340850,"connected_time":292000000000,"state":"active","ping":68},{"user_id":390,"name":"table","steam_id":76561198055553140,"connected_time":12225000000000,"state":"active","ping":83},{"user_id":531,"name":"Bertengkar","steam_id":76561198213031155,"connected_time":851000000000,"state":"active","ping":105},{"user_id":545,"name":"Momoxhien","steam_id":76561198414997429,"connected_time":278000000000,"state":"active","ping":64},{"user_id":523,"name":"bonito borzoi","steam_id":76561198230213828,"connected_time":2344000000000,"state":"active","ping":66},{"user_id":412,"name":"AmaiToxic","steam_id":76561199122491157,"connected_time":9865000000000,"state":"active","ping":63},{"user_id":532,"name":"母の肉団子","steam_id":76561198069561896,"connected_time":845000000000,"state":"active","ping":45},{"user_id":533,"name":"Hallucates","steam_id":76561198872636453,"connected_time":841000000000,"state":"active","ping":98},{"user_id":467,"name":"UwU","steam_id":76561198823521095,"connected_time":6359000000000,"state":"active","ping":46},{"user_id":477,"name":"Wakiiiz","steam_id":76561198850134590,"connected_time":5602000000000,"state":"active","ping":58},{"user_id":534,"name":"Aug","steam_id":76561199212711900,"connected_time":840000000000,"state":"active","ping":114},{"user_id":529,"name":"unironicallylearning2pipejesus","steam_id":76561198116054243,"connected_time":1248000000000,"state":"active","ping":52},{"user_id":535,"name":"the big man","steam_id":76561198412329672,"connected_time":839000000000,"state":"active","ping":90},{"user_id":536,"name":"17","steam_id":76561198241530712,"connected_time":839000000000,"state":"active","ping":60},{"user_id":537,"name":"4G. Turbo.RF4","steam_id":76561199061012484,"connected_time":838000000000,"state":"active","ping":71}]},{"server_id":1,"name":"Uncletopia | Los Angeles | 1 | All Maps","name_short":"lax-1","host":"lax-1.us.uncletopia.com","port":27015,"enabled":true,"region":"us-west","cc":"us","latitude":33.94279,"longitude":-118.41004,"reserved":0,"last_update":"0001-01-01T00:00:00Z","name_a2s":"Uncletopia | Los Angeles | 1 | All Maps","protocol":17,"map":"cp_process_final","folder":"tf","game":"Team Fortress","app_id":440,"player_count":0,"max_players":24,"Bots":0,"server_type":"Dedicated","server_os":"Linux","password":true,"vac":true,"version":"7708610","steam_id":85568392924469991,"keywords":["cp","nocrits","nodmgspread","uncletopia"],"game_id":440,"stv_port":0,"stv_name":"","players":null},{"server_id":112,"name":"Uncletopia | Los Angeles | 2 | All Maps","name_short":"lax-2","host":"lax-1.us.uncletopia.com","port":27025,"enabled":true,"region":"us-west","cc":"us","latitude":33.94279,"longitude":-118.41004,"reserved":0,"last_update":"0001-01-01T00:00:00Z","name_a2s":"Uncletopia | Los Angeles | 2 | All Maps","protocol":17,"map":"cp_altitude","folder":"tf","game":"Team Fortress","app_id":440,"player_count":0,"max_players":24,"Bots":0,"server_type":"Dedicated","server_os":"Linux","password":true,"vac":true,"version":"7708610","steam_id":85568392924469992,"keywords":["cp","nocrits","nodmgspread","uncletopia"],"game_id":440,"stv_port":0,"stv_name":"","players":null},{"server_id":324,"name":"Uncletopia | Los Angeles | 3 | All Maps","name_short":"lax-3","host":"lax-1.us.uncletopia.com","port":27035,"enabled":true,"region":"us-west","cc":"us","latitude":33.94279,"longitude":-118.41004,"reserved":0,"last_update":"0001-01-01T00:00:00Z","name_a2s":"Uncletopia | Los Angeles | 3 | All Maps","protocol":17,"map":"cp_altitude","folder":"tf","game":"Team Fortress","app_id":440,"player_count":0,"max_players":24,"Bots":0,"server_type":"Dedicated","server_os":"Linux","password":true,"vac":true,"version":"7708610","steam_id":85568392924510198,"keywords":["cp","nocrits","nodmgspread","uncletopia"],"game_id":440,"stv_port":0,"stv_name":"","players":null},{"server_id":25,"name":"Uncletopia | Los Angeles | 4 | No Payload","name_short":"lax-4","host":"lax-1.us.uncletopia.com","port":27045,"enabled":true,"region":"us-west","cc":"us","latitude":33.94279,"longitude":-118.41004,"reserved":0,"last_update":"0001-01-01T00:00:00Z","name_a2s":"Uncletopia | Los Angeles | 4 | No Payload","protocol":17,"map":"pl_upward","folder":"tf","game":"Team Fortress","app_id":440,"player_count":0,"max_players":24,"Bots":0,"server_type":"Dedicated","server_os":"Linux","password":true,"vac":true,"version":"7708610","steam_id":85568392924510199,"keywords":["nocrits","nodmgspread","payload","uncletopia"],"game_id":440,"stv_port":0,"stv_name":"","players":null},{"server_id":11,"name":"Uncletopia | London | 1 | All Maps","name_short":"lon-1","host":"lon-1.uk.uncletopia.com","port":27015,"enabled":true,"region":"eu","cc":"gb","latitude":51.509865,"longitude":-0.118092,"reserved":0,"last_update":"0001-01-01T00:00:00Z","name_a2s":"Uncletopia | London | 1 | All Maps","protocol":17,"map":"pl_snowycoast","folder":"tf","game":"Team Fortress","app_id":440,"player_count":0,"max_players":24,"Bots":0,"server_type":"Dedicated","server_os":"Linux","password":true,"vac":true,"version":"7708610","steam_id":85568392924367362,"keywords":["nocrits","nodmgspread","payload","uncletopia"],"game_id":440,"stv_port":27016,"stv_name":"Uncletopia | London | 1 | All Maps | STV","players":null},{"server_id":114,"name":"Uncletopia | London | 2 | All Maps","name_short":"lon-2","host":"lon-1.uk.uncletopia.com","port":27025,"enabled":true,"region":"eu","cc":"gb","latitude":51.509865,"longitude":-0.118092,"reserved":0,"last_update":"0001-01-01T00:00:00Z","name_a2s":"Uncletopia | London | 2 | All Maps","protocol":17,"map":"koth_cascade","folder":"tf","game":"Team Fortress","app_id":440,"player_count":0,"max_players":24,"Bots":0,"server_type":"Dedicated","server_os":"Linux","password":true,"vac":true,"version":"7708610","steam_id":85568392924470941,"keywords":["cp","nocrits","nodmgspread","uncletopia"],"game_id":440,"stv_port":27026,"stv_name":"Uncletopia | London | 2 | All Maps | STV","players":null},{"server_id":320,"name":"Uncletopia | London | 3 | All Maps","name_short":"lon-3","host":"lon-1.uk.uncletopia.com","port":27035,"enabled":true,"region":"eu","cc":"gb","latitude":51.509865,"longitude":-0.118092,"reserved":0,"last_update":"0001-01-01T00:00:00Z","name_a2s":"Uncletopia | London | 3 | All Maps","protocol":17,"map":"pl_borneo","folder":"tf","game":"Team Fortress","app_id":440,"player_count":3,"max_players":24,"Bots":0,"server_type":"Dedicated","server_os":"Linux","password":true,"vac":true,"version":"7708610","steam_id":85568392924510192,"keywords":["nocrits","nodmgspread","payload","uncletopia"],"game_id":440,"stv_port":27036,"stv_name":"Uncletopia | London | 3 | All Maps | STV","players":[{"user_id":8,"name":"heisenberg","steam_id":76561199440401458,"connected_time":749000000000,"state":"active","ping":227},{"user_id":10,"name":"randomoneye","steam_id":76561199380157176,"connected_time":424000000000,"state":"active","ping":90},{"user_id":13,"name":"Roboolet","steam_id":76561198107353953,"connected_time":110000000000,"state":"active","ping":46}]},{"server_id":321,"name":"Uncletopia | London | 4 | All Maps","name_short":"lon-4","host":"lon-1.uk.uncletopia.com","port":27045,"enabled":true,"region":"eu","cc":"gb","latitude":51.509865,"longitude":-0.118092,"reserved":0,"last_update":"0001-01-01T00:00:00Z","name_a2s":"Uncletopia | London | 4 | All Maps","protocol":17,"map":"pl_swiftwater_final1","folder":"tf","game":"Team Fortress","app_id":440,"player_count":0,"max_players":24,"Bots":0,"server_type":"Dedicated","server_os":"Linux","password":true,"vac":true,"version":"7708610","steam_id":85568392924510193,"keywords":["nocrits","nodmgspread","payload","uncletopia"],"game_id":440,"stv_port":27046,"stv_name":"Uncletopia | London | 4 | All Maps | STV","players":null},{"server_id":21,"name":"Uncletopia | London | 5 | All Maps","name_short":"lon-5","host":"lon-1.uk.uncletopia.com","port":27055,"enabled":true,"region":"eu","cc":"gb","latitude":51.509865,"longitude":-0.118092,"reserved":0,"last_update":"0001-01-01T00:00:00Z","name_a2s":"Uncletopia | London | 5 | All Maps","protocol":17,"map":"koth_viaduct","folder":"tf","game":"Team Fortress","app_id":440,"player_count":20,"max_players":24,"Bots":0,"server_type":"Dedicated","server_os":"Linux","password":true,"vac":true,"version":"7708610","steam_id":85568392924742829,"keywords":["cp","nocrits","nodmgspread","uncletopia"],"game_id":440,"stv_port":27056,"stv_name":"Uncletopia | London | 5 | All Maps | STV","players":[{"user_id":49,"name":"Bottomest","steam_id":76561198091734693,"connected_time":1904000000000,"state":"active","ping":74},{"user_id":88,"name":"Revettah","steam_id":76561198040442214,"connected_time":390000000000,"state":"active","ping":40},{"user_id":5,"name":"WonderVaflya","steam_id":76561198077281374,"connected_time":3915000000000,"state":"active","ping":71},{"user_id":6,"name":"Andreus","steam_id":76561199403926001,"connected_time":3894000000000,"state":"active","ping":72},{"user_id":91,"name":"When Life gives you Lemons","steam_id":76561198318290663,"connected_time":164000000000,"state":"active","ping":58},{"user_id":73,"name":"Bob_Tostas","steam_id":76561198249006560,"connected_time":1168000000000,"state":"active","ping":79},{"user_id":80,"name":"Ser_Jimbob","steam_id":76561198071942020,"connected_time":903000000000,"state":"active","ping":69},{"user_id":87,"name":"Nomad994","steam_id":76561198051908201,"connected_time":439000000000,"state":"active","ping":82},{"user_id":64,"name":"Инспектор Атас","steam_id":76561199175688390,"connected_time":1350000000000,"state":"active","ping":89},{"user_id":84,"name":"AsuX","steam_id":76561197990333289,"connected_time":686000000000,"state":"active","ping":60},{"user_id":85,"name":"Prpl","steam_id":76561198117263867,"connected_time":568000000000,"state":"active","ping":73},{"user_id":59,"name":"Nassu","steam_id":76561198147367577,"connected_time":1565000000000,"state":"active","ping":158},{"user_id":71,"name":"average ultiduo medic","steam_id":76561198103285012,"connected_time":1227000000000,"state":"active","ping":59},{"user_id":63,"name":"Smag","steam_id":76561198153675141,"connected_time":1455000000000,"state":"active","ping":49},{"user_id":82,"name":"F1-M","steam_id":76561198198409875,"connected_time":867000000000,"state":"active","ping":123},{"user_id":25,"name":"ciliorkun18","steam_id":76561198228942500,"connected_time":3296000000000,"state":"active","ping":89},{"user_id":62,"name":"DeepBlue","steam_id":76561198140075795,"connected_time":1460000000000,"state":"active","ping":61},{"user_id":86,"name":"Seth6537","steam_id":76561198404633529,"connected_time":526000000000,"state":"active","ping":132},{"user_id":69,"name":"Wuzi Mugen","steam_id":76561199163831495,"connected_time":1273000000000,"state":"active","ping":70},{"user_id":46,"name":"Another Creater","steam_id":76561199157485240,"connected_time":2315000000000,"state":"active","ping":63}]},{"server_id":22,"name":"Uncletopia | London | 6 | All Maps","name_short":"lon-6","host":"lon-1.uk.uncletopia.com","port":27065,"enabled":true,"region":"eu","cc":"gb","latitude":51.509865,"longitude":-0.118092,"reserved":0,"last_update":"0001-01-01T00:00:00Z","name_a2s":"Uncletopia | London | 6 | All Maps","protocol":17,"map":"pl_borneo","folder":"tf","game":"Team Fortress","app_id":440,"player_count":23,"max_players":24,"Bots":0,"server_type":"Dedicated","server_os":"Linux","password":true,"vac":true,"version":"7708610","steam_id":85568392924742830,"keywords":["nocrits","nodmgspread","payload","uncletopia"],"game_id":440,"stv_port":27066,"stv_name":"Uncletopia | London | 6 | All Maps | STV","players":[{"user_id":393,"name":"PrinceGrotle","steam_id":76561198206131603,"connected_time":491000000000,"state":"active","ping":116},{"user_id":348,"name":"Zateske","steam_id":76561198047446276,"connected_time":3875000000000,"state":"active","ping":66},{"user_id":355,"name":"jt7","steam_id":76561198073655162,"connected_time":3363000000000,"state":"active","ping":74},{"user_id":376,"name":"htraB","steam_id":76561198043122677,"connected_time":2365000000000,"state":"active","ping":63},{"user_id":392,"name":"copper wires","steam_id":76561199250808808,"connected_time":569000000000,"state":"active","ping":80},{"user_id":394,"name":"Derek Pappalardo Gaming","steam_id":76561198215428069,"connected_time":477000000000,"state":"active","ping":65},{"user_id":395,"name":"DOMINOS","steam_id":76561198334591211,"connected_time":472000000000,"state":"active","ping":66},{"user_id":399,"name":"Shawty","steam_id":76561198256704286,"connected_time":4000000000,"state":"spawning","ping":77},{"user_id":377,"name":"the joy of recycling","steam_id":76561198138509827,"connected_time":2358000000000,"state":"active","ping":75},{"user_id":388,"name":"hulluheppu1","steam_id":76561198093458326,"connected_time":723000000000,"state":"active","ping":78},{"user_id":349,"name":"LAMC","steam_id":76561199066888917,"connected_time":3830000000000,"state":"active","ping":69},{"user_id":379,"name":"Knoxx","steam_id":76561198260692541,"connected_time":2110000000000,"state":"active","ping":56},{"user_id":382,"name":"ff:ff:ff:ff:ff:ff","steam_id":76561198072122983,"connected_time":1485000000000,"state":"active","ping":68},{"user_id":384,"name":"Dolcelatte","steam_id":76561198038501770,"connected_time":1248000000000,"state":"active","ping":61},{"user_id":367,"name":"Ham Fatty","steam_id":76561198071454198,"connected_time":3057000000000,"state":"active","ping":151},{"user_id":325,"name":"hushhx","steam_id":76561198216200092,"connected_time":5597000000000,"state":"active","ping":48},{"user_id":396,"name":"Circular","steam_id":76561198001536710,"connected_time":467000000000,"state":"active","ping":47},{"user_id":380,"name":"Cal","steam_id":76561198094515936,"connected_time":1842000000000,"state":"active","ping":37},{"user_id":340,"name":"Joseph Stalin LFT","steam_id":76561198033199746,"connected_time":4396000000000,"state":"active","ping":54},{"user_id":397,"name":"Splarvis","steam_id":76561198007792525,"connected_time":439000000000,"state":"active","ping":42},{"user_id":389,"name":"Weeb","steam_id":76561198297928869,"connected_time":617000000000,"state":"active","ping":58},{"user_id":398,"name":"you (DK)","steam_id":76561198061472971,"connected_time":430000000000,"state":"active","ping":62},{"user_id":386,"name":"Sniper","steam_id":76561198414175953,"connected_time":960000000000,"state":"active","ping":56}]},{"server_id":40,"name":"Uncletopia | London | 7 | No Payload","name_short":"lon-7","host":"lon-1.uk.uncletopia.com","port":27075,"enabled":true,"region":"eu","cc":"gb","latitude":51.509865,"longitude":-0.118092,"reserved":0,"last_update":"0001-01-01T00:00:00Z","name_a2s":"Uncletopia | London | 7 | No Payload","protocol":17,"map":"plr_hightower","folder":"tf","game":"Team Fortress","app_id":440,"player_count":0,"max_players":24,"Bots":0,"server_type":"Dedicated","server_os":"Linux","password":true,"vac":true,"version":"7708610","steam_id":85568392924964314,"keywords":["nocrits","nodmgspread","payload","uncletopia"],"game_id":440,"stv_port":27076,"stv_name":"Uncletopia | London | 7 | No Payload | STV","players":null},{"server_id":41,"name":"Uncletopia | London | 8 | Community","name_short":"lon-8","host":"lon-1.uk.uncletopia.com","port":27085,"enabled":true,"region":"eu","cc":"gb","latitude":51.509865,"longitude":-0.118092,"reserved":0,"last_update":"0001-01-01T00:00:00Z","name_a2s":"Uncletopia | London | 8 | Community","protocol":17,"map":"cp_snakewater_final1","folder":"tf","game":"Team Fortress","app_id":440,"player_count":0,"max_players":24,"Bots":0,"server_type":"Dedicated","server_os":"Linux","password":true,"vac":true,"version":"7708610","steam_id":85568392924964315,"keywords":["cp","nocrits","nodmgspread","uncletopia"],"game_id":440,"stv_port":0,"stv_name":"","players":null},{"server_id":300,"name":"Uncletopia | Montréal | 1 | All Maps","name_short":"mtl-1","host":"mtl-1.ca.uncletopia.com","port":27015,"enabled":true,"region":"us-east","cc":"ca","latitude":45.50889,"longitude":-73.56167,"reserved":0,"last_update":"0001-01-01T00:00:00Z","name_a2s":"Uncletopia | Montréal | 1 | All Maps","protocol":17,"map":"koth_cascade","folder":"tf","game":"Team Fortress","app_id":440,"player_count":0,"max_players":24,"Bots":0,"server_type":"Dedicated","server_os":"Linux","password":true,"vac":true,"version":"7708610","steam_id":85568392924500087,"keywords":["cp","nocrits","nodmgspread","uncletopia"],"game_id":440,"stv_port":27016,"stv_name":"Uncletopia | Montréal | 1 | All Maps | STV","players":null},{"server_id":301,"name":"Uncletopia | Montréal | 2 | All Maps","name_short":"mtl-2","host":"mtl-1.ca.uncletopia.com","port":27025,"enabled":true,"region":"us-east","cc":"ca","latitude":45.50889,"longitude":-73.56167,"reserved":0,"last_update":"0001-01-01T00:00:00Z","name_a2s":"Uncletopia | Montréal | 2 | All Maps","protocol":17,"map":"pl_frontier_final","folder":"tf","game":"Team Fortress","app_id":440,"player_count":0,"max_players":24,"Bots":0,"server_type":"Dedicated","server_os":"Linux","password":true,"vac":true,"version":"7708610","steam_id":85568392924500088,"keywords":["nocrits","nodmgspread","payload","uncletopia"],"game_id":440,"stv_port":0,"stv_name":"","players":null},{"server_id":302,"name":"Uncletopia | Montréal | 3 | All Maps","name_short":"mtl-3","host":"mtl-1.ca.uncletopia.com","port":27035,"enabled":true,"region":"us-east","cc":"ca","latitude":45.50889,"longitude":-73.56167,"reserved":0,"last_update":"0001-01-01T00:00:00Z","name_a2s":"Uncletopia | Montréal | 3 | All Maps","protocol":17,"map":"pl_snowycoast","folder":"tf","game":"Team Fortress","app_id":440,"player_count":0,"max_players":24,"Bots":0,"server_type":"Dedicated","server_os":"Linux","password":true,"vac":true,"version":"7708610","steam_id":85568392924500089,"keywords":["nocrits","nodmgspread","payload","uncletopia"],"game_id":440,"stv_port":0,"stv_name":"","players":null},{"server_id":303,"name":"Uncletopia | Montréal | 4 | No Payload","name_short":"mtl-4","host":"mtl-1.ca.uncletopia.com","port":27045,"enabled":true,"region":"us-east","cc":"ca","latitude":45.50889,"longitude":-73.56167,"reserved":0,"last_update":"0001-01-01T00:00:00Z","name_a2s":"Uncletopia | Montréal | 4 | No Payload","protocol":17,"map":"pl_frontier_final","folder":"tf","game":"Team Fortress","app_id":440,"player_count":0,"max_players":24,"Bots":0,"server_type":"Dedicated","server_os":"Linux","password":true,"vac":true,"version":"7708610","steam_id":85568392924500090,"keywords":["nocrits","nodmgspread","payload","uncletopia"],"game_id":440,"stv_port":0,"stv_name":"","players":null},{"server_id":13,"name":"Uncletopia | New York City | 1 | All Maps","name_short":"nyc-1","host":"nyc-1.us.uncletopia.com","port":27015,"enabled":true,"region":"us-east","cc":"us","latitude":40.73061,"longitude":-73.93524,"reserved":0,"last_update":"0001-01-01T00:00:00Z","name_a2s":"Uncletopia | New York City | 1 | All Maps","protocol":17,"map":"koth_highpass","folder":"tf","game":"Team Fortress","app_id":440,"player_count":0,"max_players":24,"Bots":0,"server_type":"Dedicated","server_os":"Linux","password":true,"vac":true,"version":"7708610","steam_id":85568392924469993,"keywords":["cp","nocrits","nodmgspread","uncletopia"],"game_id":440,"stv_port":27016,"stv_name":"Uncletopia | New York City | 1 | All Maps | STV","players":null},{"server_id":14,"name":"Uncletopia | New York City | 2 | All Maps","name_short":"nyc-2","host":"nyc-1.us.uncletopia.com","port":27025,"enabled":true,"region":"us-east","cc":"us","latitude":40.73061,"longitude":-73.93524,"reserved":0,"last_update":"0001-01-01T00:00:00Z","name_a2s":"Uncletopia | New York City | 2 | All Maps","protocol":17,"map":"pl_pier","folder":"tf","game":"Team Fortress","app_id":440,"player_count":0,"max_players":24,"Bots":0,"server_type":"Dedicated","server_os":"Linux","password":true,"vac":true,"version":"7708610","steam_id":85568392924469994,"keywords":["nocrits","nodmgspread","payload","uncletopia"],"game_id":440,"stv_port":27026,"stv_name":"Uncletopia | New York City | 2 | All Maps | STV","players":null},{"server_id":15,"name":"Uncletopia | New York City | 3 | All Maps","name_short":"nyc-3","host":"nyc-1.us.uncletopia.com","port":27035,"enabled":true,"region":"us-east","cc":"us","latitude":40.73061,"longitude":-73.93524,"reserved":0,"last_update":"0001-01-01T00:00:00Z","name_a2s":"Uncletopia | New York City | 3 | All Maps","protocol":17,"map":"cp_sunshine","folder":"tf","game":"Team Fortress","app_id":440,"player_count":0,"max_players":24,"Bots":0,"server_type":"Dedicated","server_os":"Linux","password":true,"vac":true,"version":"7708610","steam_id":85568392924742820,"keywords":["cp","nocrits","nodmgspread","uncletopia"],"game_id":440,"stv_port":0,"stv_name":"","players":null},{"server_id":16,"name":"Uncletopia | New York City | 4 | Community","name_short":"nyc-4","host":"nyc-1.us.uncletopia.com","port":27045,"enabled":true,"region":"us-east","cc":"us","latitude":40.73061,"longitude":-73.93524,"reserved":0,"last_update":"0001-01-01T00:00:00Z","name_a2s":"Uncletopia | New York City | 4 | Community","protocol":17,"map":"pl_badwater","folder":"tf","game":"Team Fortress","app_id":440,"player_count":0,"max_players":24,"Bots":0,"server_type":"Dedicated","server_os":"Linux","password":true,"vac":true,"version":"7708610","steam_id":85568392924742821,"keywords":["nocrits","nodmgspread","payload","uncletopia"],"game_id":440,"stv_port":0,"stv_name":"","players":null},{"server_id":142,"name":"Uncletopia | São Paulo | 1 | All Maps","name_short":"sao-1","host":"sao-1.br.uncletopia.com","port":27015,"enabled":true,"region":"sa","cc":"br","latitude":-23.533773,"longitude":-46.62529,"reserved":0,"last_update":"0001-01-01T00:00:00Z","name_a2s":"Uncletopia | São Paulo | 1 | All Maps","protocol":17,"map":"cp_dustbowl","folder":"tf","game":"Team Fortress","app_id":440,"player_count":10,"max_players":24,"Bots":0,"server_type":"Dedicated","server_os":"Linux","password":true,"vac":true,"version":"7708610","steam_id":85568392924469996,"keywords":["cp","nocrits","nodmgspread","uncletopia"],"game_id":440,"stv_port":27016,"stv_name":"Uncletopia | São Paulo | 1 | All Maps | STV","players":[{"user_id":4,"name":"vervict","steam_id":76561198902827458,"connected_time":5322000000000,"state":"active","ping":37},{"user_id":31,"name":"ThisIsTheRealRAFAEL","steam_id":76561198875962372,"connected_time":419000000000,"state":"active","ping":43},{"user_id":7,"name":"khauz","steam_id":76561198162767783,"connected_time":4356000000000,"state":"active","ping":55},{"user_id":32,"name":"victourino (F2P)","steam_id":76561199058995595,"connected_time":314000000000,"state":"active","ping":65},{"user_id":26,"name":"Matheus Alves(Youtuber)","steam_id":76561198163920834,"connected_time":1368000000000,"state":"active","ping":55},{"user_id":13,"name":"Edge","steam_id":76561198850405241,"connected_time":3352000000000,"state":"active","ping":42},{"user_id":14,"name":"Joji","steam_id":76561199227687766,"connected_time":2820000000000,"state":"active","ping":43},{"user_id":19,"name":"[-LC-] Sir Crusher","steam_id":76561198124065641,"connected_time":1958000000000,"state":"active","ping":75},{"user_id":20,"name":"Thompy","steam_id":76561199409024712,"connected_time":1945000000000,"state":"active","ping":49},{"user_id":27,"name":"CoronelSaas","steam_id":76561199281128588,"connected_time":1366000000000,"state":"active","ping":70}]},{"server_id":143,"name":"Uncletopia | São Paulo | 2 | All Maps","name_short":"sao-2","host":"sao-2.br.uncletopia.com","port":27015,"enabled":true,"region":"sa","cc":"br","latitude":-23.533773,"longitude":-46.62529,"reserved":0,"last_update":"0001-01-01T00:00:00Z","name_a2s":"Uncletopia | São Paulo | 2 | All Maps","protocol":17,"map":"koth_lakeside_final","folder":"tf","game":"Team Fortress","app_id":440,"player_count":0,"max_players":24,"Bots":0,"server_type":"Dedicated","server_os":"Linux","password":true,"vac":true,"version":"7708610","steam_id":85568392924485349,"keywords":["cp","nocrits","nodmgspread","uncletopia"],"game_id":440,"stv_port":0,"stv_name":"","players":null},{"server_id":7,"name":"Uncletopia | Seattle | 1 | All Maps","name_short":"sea-1","host":"sea-1.us.uncletopia.com","port":27015,"enabled":true,"region":"us-west","cc":"us","latitude":47.608013,"longitude":-122.33517,"reserved":0,"last_update":"0001-01-01T00:00:00Z","name_a2s":"Uncletopia | Seattle | 1 | All Maps","protocol":17,"map":"koth_cascade","folder":"tf","game":"Team Fortress","app_id":440,"player_count":0,"max_players":24,"Bots":0,"server_type":"Dedicated","server_os":"Linux","password":true,"vac":true,"version":"7708610","steam_id":85568392924469997,"keywords":["cp","nocrits","nodmgspread","uncletopia"],"game_id":440,"stv_port":0,"stv_name":"","players":null},{"server_id":119,"name":"Uncletopia | Seattle | 2 | All Maps","name_short":"sea-2","host":"sea-1.us.uncletopia.com","port":27025,"enabled":true,"region":"us-west","cc":"us","latitude":47.608013,"longitude":-122.33517,"reserved":0,"last_update":"0001-01-01T00:00:00Z","name_a2s":"Uncletopia | Seattle | 2 | All Maps","protocol":17,"map":"cp_process_final","folder":"tf","game":"Team Fortress","app_id":440,"player_count":0,"max_players":24,"Bots":0,"server_type":"Dedicated","server_os":"Linux","password":true,"vac":true,"version":"7708610","steam_id":85568392924469998,"keywords":["cp","nocrits","nodmgspread","uncletopia"],"game_id":440,"stv_port":0,"stv_name":"","players":null},{"server_id":17,"name":"Uncletopia | San Francisco | 1 | All Maps","name_short":"sfo-1","host":"sfo-1.us.uncletopia.com","port":27015,"enabled":true,"region":"us-west","cc":"us","latitude":37.77397,"longitude":-122.4313,"reserved":0,"last_update":"0001-01-01T00:00:00Z","name_a2s":"Uncletopia | San Francisco | 1 | All Maps","protocol":17,"map":"cp_sunshine","folder":"tf","game":"Team Fortress","app_id":440,"player_count":0,"max_players":24,"Bots":0,"server_type":"Dedicated","server_os":"Linux","password":true,"vac":true,"version":"7708610","steam_id":85568392924469999,"keywords":["cp","nocrits","nodmgspread","uncletopia"],"game_id":440,"stv_port":0,"stv_name":"","players":null},{"server_id":18,"name":"Uncletopia | San Francisco | 2 | All Maps","name_short":"sfo-2","host":"sfo-1.us.uncletopia.com","port":27025,"enabled":true,"region":"us-west","cc":"us","latitude":37.77397,"longitude":-122.4313,"reserved":0,"last_update":"0001-01-01T00:00:00Z","name_a2s":"Uncletopia | San Francisco | 2 | All Maps","protocol":17,"map":"koth_cascade","folder":"tf","game":"Team Fortress","app_id":440,"player_count":0,"max_players":24,"Bots":0,"server_type":"Dedicated","server_os":"Linux","password":true,"vac":true,"version":"7708610","steam_id":85568392924470000,"keywords":["cp","nocrits","nodmgspread","uncletopia"],"game_id":440,"stv_port":0,"stv_name":"","players":null},{"server_id":19,"name":"Uncletopia | San Francisco | 3 | No Payload","name_short":"sfo-3","host":"sfo-1.us.uncletopia.com","port":27035,"enabled":true,"region":"us-west","cc":"us","latitude":37.77397,"longitude":-122.4313,"reserved":0,"last_update":"0001-01-01T00:00:00Z","name_a2s":"Uncletopia | San Francisco | 3 | No Payload","protocol":17,"map":"cp_snakewater_final1","folder":"tf","game":"Team Fortress","app_id":440,"player_count":0,"max_players":24,"Bots":0,"server_type":"Dedicated","server_os":"Linux","password":true,"vac":true,"version":"7708610","steam_id":85568392924742824,"keywords":["cp","nocrits","nodmgspread","uncletopia"],"game_id":440,"stv_port":0,"stv_name":"","players":null},{"server_id":20,"name":"Uncletopia | San Francisco | 4 | Community","name_short":"sfo-4","host":"sfo-1.us.uncletopia.com","port":27045,"enabled":true,"region":"us-west","cc":"us","latitude":37.77397,"longitude":-122.4313,"reserved":0,"last_update":"0001-01-01T00:00:00Z","name_a2s":"Uncletopia | San Francisco | 4 | Community","protocol":17,"map":"pl_barnblitz","folder":"tf","game":"Team Fortress","app_id":440,"player_count":0,"max_players":24,"Bots":0,"server_type":"Dedicated","server_os":"Linux","password":true,"vac":true,"version":"7708610","steam_id":85568392924742826,"keywords":["nocrits","nodmgspread","payload","uncletopia"],"game_id":440,"stv_port":0,"stv_name":"","players":null},{"server_id":141,"name":"Uncletopia | Sydney | 1 | All Maps","name_short":"syd-1","host":"syd-1.au.uncletopia.com","port":27015,"enabled":true,"region":"au","cc":"au","latitude":-33.865143,"longitude":151.2099,"reserved":0,"last_update":"0001-01-01T00:00:00Z","name_a2s":"Uncletopia | Sydney | 1 | All Maps","protocol":17,"map":"cp_sunshine","folder":"tf","game":"Team Fortress","app_id":440,"player_count":8,"max_players":24,"Bots":0,"server_type":"Dedicated","server_os":"Linux","password":true,"vac":true,"version":"7708610","steam_id":85568392924470001,"keywords":["cp","nocrits","nodmgspread","uncletopia"],"game_id":440,"stv_port":27016,"stv_name":"Uncletopia | Sydney | 1 | All Maps | STV","players":[{"user_id":559,"name":"Farron","steam_id":76561198202709811,"connected_time":4032000000000,"state":"active","ping":59},{"user_id":610,"name":"MetalWorks","steam_id":76561198369012887,"connected_time":797000000000,"state":"active","ping":51},{"user_id":601,"name":"Tretton","steam_id":76561198038951129,"connected_time":1432000000000,"state":"active","ping":42},{"user_id":614,"name":"A threat unbeknownst","steam_id":76561198293776102,"connected_time":289000000000,"state":"active","ping":32},{"user_id":615,"name":"Sun","steam_id":76561198044315520,"connected_time":111000000000,"state":"active","ping":42},{"user_id":595,"name":"Baccy Beug Benefactor","steam_id":76561198158704430,"connected_time":1957000000000,"state":"active","ping":58},{"user_id":585,"name":"Milk Man","steam_id":76561198882677157,"connected_time":2481000000000,"state":"active","ping":46},{"user_id":586,"name":"harley.harrison97","steam_id":76561198330332636,"connected_time":2472000000000,"state":"active","ping":45}]},{"server_id":123,"name":"Uncletopia | Sydney | 2 | All Maps","name_short":"syd-2","host":"syd-1.au.uncletopia.com","port":27025,"enabled":true,"region":"au","cc":"au","latitude":-33.865143,"longitude":151.2099,"reserved":0,"last_update":"0001-01-01T00:00:00Z","name_a2s":"Uncletopia | Sydney | 2 | All Maps","protocol":17,"map":"koth_cascade","folder":"tf","game":"Team Fortress","app_id":440,"player_count":0,"max_players":24,"Bots":0,"server_type":"Dedicated","server_os":"Linux","password":true,"vac":true,"version":"7708610","steam_id":85568392924470002,"keywords":["cp","nocrits","nodmgspread","uncletopia"],"game_id":440,"stv_port":27026,"stv_name":"Uncletopia | Sydney | 2 | All Maps | STV","players":null},{"server_id":395,"name":"Uncletopia | Sydney | 3 | All Maps","name_short":"syd-3","host":"syd-1.au.uncletopia.com","port":27035,"enabled":true,"region":"au","cc":"au","latitude":-33.865143,"longitude":151.2099,"reserved":0,"last_update":"0001-01-01T00:00:00Z","name_a2s":"Uncletopia | Sydney | 3 | All Maps","protocol":17,"map":"pl_barnblitz","folder":"tf","game":"Team Fortress","app_id":440,"player_count":0,"max_players":24,"Bots":0,"server_type":"Dedicated","server_os":"Linux","password":true,"vac":true,"version":"7708610","steam_id":85568392925194467,"keywords":["nocrits","nodmgspread","payload","uncletopia"],"game_id":440,"stv_port":27036,"stv_name":"Uncletopia | Sydney | 3 | All Maps | STV","players":null},{"server_id":396,"name":"Uncletopia | Sydney | 4 | All Maps","name_short":"syd-4","host":"syd-1.au.uncletopia.com","port":27045,"enabled":true,"region":"au","cc":"au","latitude":-33.865143,"longitude":151.2099,"reserved":0,"last_update":"0001-01-01T00:00:00Z","name_a2s":"Uncletopia | Sydney | 4 | All Maps","protocol":17,"map":"koth_cascade","folder":"tf","game":"Team Fortress","app_id":440,"player_count":0,"max_players":24,"Bots":0,"server_type":"Dedicated","server_os":"Linux","password":true,"vac":true,"version":"7708610","steam_id":85568392925397958,"keywords":["cp","nocrits","nodmgspread","uncletopia"],"game_id":440,"stv_port":27046,"stv_name":"Uncletopia | Sydney | 4 | All Maps | STV","players":null},{"server_id":58,"name":"Uncletopia | Sydney | 5 | No Payload","name_short":"syd-5","host":"syd-1.au.uncletopia.com","port":27055,"enabled":true,"region":"au","cc":"au","latitude":-33.865143,"longitude":151.2099,"reserved":0,"last_update":"0001-01-01T00:00:00Z","name_a2s":"Uncletopia | Sydney | 5 | No Payload","protocol":17,"map":"koth_cascade","folder":"tf","game":"Team Fortress","app_id":440,"player_count":0,"max_players":24,"Bots":0,"server_type":"Dedicated","server_os":"Linux","password":true,"vac":true,"version":"7708610","steam_id":85568392925397959,"keywords":["cp","nocrits","nodmgspread","uncletopia"],"game_id":440,"stv_port":0,"stv_name":"","players":null},{"server_id":59,"name":"Uncletopia | Sydney | 6 | Community","name_short":"syd-6","host":"syd-1.au.uncletopia.com","port":27065,"enabled":true,"region":"au","cc":"au","latitude":-33.865143,"longitude":151.2099,"reserved":0,"last_update":"0001-01-01T00:00:00Z","name_a2s":"Uncletopia | Sydney | 6 | Community","protocol":17,"map":"workshop/rd_asteroid_redux_rc9.ugc2154902912","folder":"tf","game":"Team Fortress","app_id":440,"player_count":0,"max_players":24,"Bots":0,"server_type":"Dedicated","server_os":"Linux","password":true,"vac":true,"version":"7708610","steam_id":85568392925397960,"keywords":["beta","nocrits","nodmgspread","rd","uncletopia"],"game_id":440,"stv_port":27066,"stv_name":"Uncletopia | Sydney | 6 | Community | STV","players":null},{"server_id":49,"name":"Uncletopia | Warsaw | 1 | All Maps","name_short":"waw-1","host":"waw-1.pl.uncletopia.com","port":27015,"enabled":true,"region":"eu","cc":"pl","latitude":52.2297,"longitude":21.017532,"reserved":0,"last_update":"0001-01-01T00:00:00Z","name_a2s":"Uncletopia | Warsaw | 1 | All Maps","protocol":17,"map":"pl_frontier_final","folder":"tf","game":"Team Fortress","app_id":440,"player_count":0,"max_players":24,"Bots":0,"server_type":"Dedicated","server_os":"Linux","password":true,"vac":true,"version":"7708610","steam_id":85568392925397850,"keywords":["nocrits","nodmgspread","payload","uncletopia"],"game_id":440,"stv_port":27016,"stv_name":"Uncletopia | Warsaw | 1 | All Maps | STV","players":null},{"server_id":50,"name":"Uncletopia | Warsaw | 2 | All Maps","name_short":"waw-2","host":"waw-1.pl.uncletopia.com","port":27025,"enabled":true,"region":"eu","cc":"pl","latitude":52.2297,"longitude":21.017532,"reserved":0,"last_update":"0001-01-01T00:00:00Z","name_a2s":"Uncletopia | Warsaw | 2 | All Maps","protocol":17,"map":"pl_frontier_final","folder":"tf","game":"Team Fortress","app_id":440,"player_count":0,"max_players":24,"Bots":0,"server_type":"Dedicated","server_os":"Linux","password":true,"vac":true,"version":"7708610","steam_id":85568392925397851,"keywords":["nocrits","nodmgspread","payload","uncletopia"],"game_id":440,"stv_port":27026,"stv_name":"Uncletopia | Warsaw | 2 | All Maps | STV","players":null},{"server_id":51,"name":"Uncletopia | Warsaw | 3 | All Maps","name_short":"waw-3","host":"waw-1.pl.uncletopia.com","port":27035,"enabled":true,"region":"eu","cc":"pl","latitude":52.2297,"longitude":21.017532,"reserved":0,"last_update":"0001-01-01T00:00:00Z","name_a2s":"Uncletopia | Warsaw | 3 | All Maps","protocol":17,"map":"koth_cascade","folder":"tf","game":"Team Fortress","app_id":440,"player_count":0,"max_players":24,"Bots":0,"server_type":"Dedicated","server_os":"Linux","password":true,"vac":true,"version":"7708610","steam_id":85568392925397852,"keywords":["cp","nocrits","nodmgspread","uncletopia"],"game_id":440,"stv_port":0,"stv_name":"","players":null},{"server_id":52,"name":"Uncletopia | Warsaw | 4 | All Maps","name_short":"waw-4","host":"waw-1.pl.uncletopia.com","port":27045,"enabled":true,"region":"eu","cc":"pl","latitude":52.2297,"longitude":21.017532,"reserved":0,"last_update":"0001-01-01T00:00:00Z","name_a2s":"Uncletopia | Warsaw | 4 | All Maps","protocol":17,"map":"cp_mountainlab","folder":"tf","game":"Team Fortress","app_id":440,"player_count":0,"max_players":24,"Bots":0,"server_type":"Dedicated","server_os":"Linux","password":true,"vac":true,"version":"7708610","steam_id":85568392925397853,"keywords":["cp","nocrits","nodmgspread","uncletopia"],"game_id":440,"stv_port":0,"stv_name":"","players":null},{"server_id":53,"name":"Uncletopia | Warsaw | 5 | No Payload","name_short":"waw-5","host":"waw-1.pl.uncletopia.com","port":27055,"enabled":true,"region":"eu","cc":"pl","latitude":52.2297,"longitude":21.017532,"reserved":0,"last_update":"0001-01-01T00:00:00Z","name_a2s":"Uncletopia | Warsaw | 5 | No Payload","protocol":17,"map":"cp_dustbowl","folder":"tf","game":"Team Fortress","app_id":440,"player_count":0,"max_players":24,"Bots":0,"server_type":"Dedicated","server_os":"Linux","password":true,"vac":true,"version":"7708610","steam_id":85568392925397854,"keywords":["cp","nocrits","nodmgspread","uncletopia"],"game_id":440,"stv_port":0,"stv_name":"","players":null},{"server_id":54,"name":"Uncletopia | Warsaw | 6 | Community","name_short":"waw-6","host":"waw-1.pl.uncletopia.com","port":27065,"enabled":true,"region":"eu","cc":"pl","latitude":52.2297,"longitude":21.017532,"reserved":0,"last_update":"0001-01-01T00:00:00Z","name_a2s":"Uncletopia | Warsaw | 6 | Community","protocol":17,"map":"koth_highpass","folder":"tf","game":"Team Fortress","app_id":440,"player_count":0,"max_players":24,"Bots":0,"server_type":"Dedicated","server_os":"Linux","password":true,"vac":true,"version":"7708610","steam_id":85568392925397856,"keywords":["cp","nocrits","nodmgspread","uncletopia"],"game_id":440,"stv_port":0,"stv_name":"","players":null}]}