{"status":true,"message":"","result":[{"server_id":9,"name":"Uncletopia | Atlanta | 1 | All Maps","name_short":"atl-1","host":"atl-1.us.uncletopia.com","port":27015,"enabled":true,"region":"us-east","cc":"us","latitude":33.753746,"longitude":-84.38633,"reserved":0,"last_update":"0001-01-01T00:00:00Z","name_a2s":"Uncletopia | Atlanta | 1 | All Maps","protocol":17,"map":"pl_frontier_final","folder":"tf","game":"Team Fortress","app_id":440,"player_count":24,"max_players":24,"Bots":0,"server_type":"Dedicated","server_os":"Linux","password":true,"vac":true,"version":"7742253","steam_id":85568392924469982,"keywords":["nocrits","nodmgspread","payload","uncletopia"],"game_id":440,"stv_port":27016,"stv_name":"Uncletopia | Atlanta | 1 | All Maps | STV","players":[{"user_id":233,"name":"Snazzi","steam_id":76561198085208276,"connected_time":1571000000000,"state":"active","ping":66},{"user_id":247,"name":"Mirari","steam_id":76561198126889358,"connected_time":850000000000,"state":"active","ping":77},{"user_id":259,"name":"mahik","steam_id":76561198012270322,"connected_time":549000000000,"state":"active","ping":68},{"user_id":175,"name":"Bunt","steam_id":76561198124477567,"connected_time":6833000000000,"state":"active","ping":44},{"user_id":241,"name":"febfowl","steam_id":76561198023888890,"connected_time":1311000000000,"state":"active","ping":70},{"user_id":245,"name":"ATL1 | SALEM","steam_id":76561198116281100,"connected_time":906000000000,"state":"active","ping":34},{"user_id":246,"name":"battle clown","steam_id":76561198045788371,"connected_time":903000000000,"state":"active","ping":82},{"user_id":253,"name":"Psychosis","steam_id":76561198078659070,"connected_time":763000000000,"state":"active","ping":78},{"user_id":257,"name":"floofy","steam_id":76561198389769098,"connected_time":641000000000,"state":"active","ping":88},{"user_id":254,"name":"WillieMakit","steam_id":76561197985391684,"connected_time":761000000000,"state":"active","ping":112},{"user_id":250,"name":"ricky_racquetball_2009","steam_id":76561198098631397,"connected_time":792000000000,"state":"active","ping":65},{"user_id":242,"name":"LG_Fridge_User","steam_id":76561198977815014,"connected_time":1272000000000,"state":"active","ping":103},{"user_id":252,"name":"Danie","steam_id":76561198015579399,"connected_time":787000000000,"state":"active","ping":108},{"user_id":239,"name":"peter griffin","steam_id":76561198079485096,"connected_time":1399000000000,"state":"active","ping":76},{"user_id":235,"name":"thelegend28","steam_id":76561198954987923,"connected_time":1552000000000,"state":"active","ping":63},{"user_id":215,"name":"$50 amazon gift card","steam_id":76561198978797171,"connected_time":3385000000000,"state":"active","ping":74},{"user_id":261,"name":"pungabot","steam_id":76561198009088243,"connected_time":455000000000,"state":"active","ping":80},{"user_id":35,"name":"ATL1 | to4st","steam_id":76561198981009008,"connected_time":17975000000000,"state":"active","ping":71},{"user_id":210,"name":"Mr.Mug","steam_id":76561199282207802,"connected_time":3507000000000,"state":"active","ping":72},{"user_id":243,"name":"Echo of Abyss","steam_id":76561198981841782,"connected_time":1266000000000,"state":"active","ping":171},{"user_id":255,"name":"QuackyMario","steam_id":76561198838548459,"connected_time":756000000000,"state":"active","ping":101},{"user_id":263,"name":"chexo4","steam_id":76561198150532531,"connected_time":34000000000,"state":"active","ping":55},{"user_id":260,"name":"squaggies","steam_id":76561198041298544,"connected_time":515000000000,"state":"active","ping":62},{"user_id":262,"name":"ATL1 | icyy","steam_id":76561198968001329,"connected_time":442000000000,"state":"active","ping":52}]},{"server_id":400,"name":"Uncletopia | Atlanta | 3 | Stopwatch Beta","name_short":"atl-3","host":"atl-1.us.uncletopia.com","port":27035,"enabled":true,"region":"us-east","cc":"us","latitude":33.753746,"longitude":-84.38633,"reserved":0,"last_update":"0001-01-01T00:00:00Z","name_a2s":"Uncletopia | Atlanta | 3 | Stopwatch Beta","protocol":17,"map":"koth_lakeside_final","folder":"tf","game":"Team Fortress","app_id":440,"player_count":0,"max_players":24,"Bots":0,"server_type":"Dedicated","server_os":"Linux","password":true,"vac":true,"version":"7742253","steam_id":85568392924515187,"keywords":["cp","nocrits","nodmgspread","uncletopia"],"game_id":440,"stv_port":27036,"stv_name":"Uncletopia | Atlanta | 3 | Stopwatch Beta | STV","players":null},{"server_id":401,"name":"Uncletopia | Atlanta | 4 | No Payload","name_short":"atl-4","host":"atl-1.us.uncletopia.com","port":27045,"enabled":true,"region":"us-east","cc":"us","latitude":33.753746,"longitude":-84.38633,"reserved":0,"last_update":"0001-01-01T00:00:00Z","name_a2s":"Uncletopia | Atlanta | 4 | No Payload","protocol":17,"map":"pl_pier","folder":"tf","game":"Team Fortress","app_id":440,"player_count":0,"max_players":24,"Bots":0,"server_type":"Dedicated","server_os":"Linux","password":true,"vac":true,"version":"7723704","steam_id":85568392924515188,"keywords":["nocrits","nodmgspread","payload","uncletopia"],"game_id":440,"stv_port":27046,"stv_name":"Uncletopia | Atlanta | 4 | No Payload | STV","players":null},{"server_id":2,"name":"Uncletopia | Chicago | 1 | All Maps","name_short":"chi-1","host":"chi-1.us.uncletopia.com","port":27015,"enabled":true,"region":"us-central","cc":"us","latitude":41.881832,"longitude":-87.62318,"reserved":0,"last_update":"0001-01-01T00:00:00Z","name_a2s":"Uncletopia | Chicago | 1 | All Maps","protocol":17,"map":"pl_frontier_final","folder":"tf","game":"Team Fortress","app_id":440,"player_count":24,"max_players":24,"Bots":0,"server_type":"Dedicated","server_os":"Linux","password":true,"vac":true,"version":"7742253","steam_id":85568392924469984,"keywords":["nocrits","nodmgspread","payload","uncletopia"],"game_id":440,"stv_port":27016,"stv_name":"Uncletopia | Chicago | 1 | All Maps | STV","players":[{"user_id":93,"name":"Penrose42","steam_id":76561198288577396,"connected_time":165000000000,"state":"active","ping":74},{"user_id":72,"name":"‚ùÑÔ∏éPISS JIZZER JILL‚ùÑ","steam_id":76561198061955351,"connected_time":2456000000000,"state":"active","ping":49},{"user_id":28,"name":"PKBEAST_7","steam_id":76561198177136537,"connected_time":3915000000000,"state":"active","ping":80},{"user_id":81,"name":"IGotTheLettuce","steam_id":76561198062473897,"connected_time":1262000000000,"state":"active","ping":80},{"user_id":89,"name":"wahooka","steam_id":76561197981211922,"connected_time":212000000000,"state":"active","ping":71},{"user_id":82,"name":"ItzFluffyex","steam_id":76561198289521685,"connected_time":1167000000000,"state":"active","ping":53},{"user_id":94,"name":"BladedBloom4611","steam_id":76561198416655215,"connected_time":164000000000,"state":"active","ping":142},{"user_id":54,"name":"srv","steam_id":76561198026589960,"connected_time":3071000000000,"state":"active","ping":47},{"user_id":61,"name":"pelt","steam_id":76561197993593754,"connected_time":2965000000000,"state":"active","ping":59},{"user_id":38,"name":"Bsantini","steam_id":76561198156242552,"connected_time":3351000000000,"state":"active","ping":69},{"user_id":40,"name":"Lullaby","steam_id":76561198061103166,"connected_time":3288000000000,"state":"active","ping":52},{"user_id":85,"name":"DOMO_MR_ROBOTO","steam_id":76561198077108345,"connected_time":977000000000,"state":"active","ping":95},{"user_id":79,"name":"Derfla","steam_id":76561198081722845,"connected_time":1445000000000,"state":"active","ping":62},{"user_id":90,"name":"beta central","steam_id":76561198301876831,"connected_time":194000000000,"state":"active","ping":53},{"user_id":44,"name":"Cthulwho?","steam_id":76561198165550810,"connected_time":3235000000000,"state":"active","ping":61},{"user_id":75,"name":"Buffalo Soldier","steam_id":76561198089364545,"connected_time":2203000000000,"state":"active","ping":51},{"user_id":98,"name":"Squid121","steam_id":76561198038832034,"connected_time":127000000000,"state":"active","ping":98},{"user_id":78,"name":"Lunartik","steam_id":76561199004827382,"connected_time":1528000000000,"state":"active","ping":62},{"user_id":99,"name":"extinct111","steam_id":76561199013696367,"connected_time":18000000000,"state":"spawning","ping":76},{"user_id":97,"name":"Lil Text 2.0","steam_id":76561198126796502,"connected_time":142000000000,"state":"active","ping":87},{"user_id":76,"name":"goombinus","steam_id":76561198136164826,"connected_time":2184000000000,"state":"active","ping":46},{"user_id":91,"name":"Rizzasaurus Rex","steam_id":76561198927517471,"connected_time":187000000000,"state":"active","ping":75},{"user_id":92,"name":"Marc G","steam_id":76561198062650363,"connected_time":187000000000,"state":"active","ping":62},{"user_id":73,"name":"dribbler","steam_id":76561198078992548,"connected_time":2449000000000,"state":"active","ping":75}]},{"server_id":106,"name":"Uncletopia | Chicago | 2 | All Maps","name_short":"chi-2","host":"chi-1.us.uncletopia.com","port":27025,"enabled":true,"region":"us-central","cc":"us","latitude":41.881832,"longitude":-87.62318,"reserved":0,"last_update":"0001-01-01T00:00:00Z","name_a2s":"Uncletopia | Chicago | 2 | All Maps","protocol":17,"map":"plr_hightower","folder":"tf","game":"Team Fortress","app_id":440,"player_count":24,"max_players":24,"Bots":0,"server_type":"Dedicated","server_os":"Linux","password":true,"vac":true,"version":"7742253","steam_id":85568392924469985,"keywords":["nocrits","nodmgspread","payload","uncletopia"],"game_id":440,"stv_port":27026,"stv_name":"Uncletopia | Chicago | 2 | All Maps | STV","players":[{"user_id":157,"name":"Spoicy Fish","steam_id":76561198282764599,"connected_time":2029000000000,"state":"active","ping":46},{"user_id":196,"name":"stungoperation","steam_id":76561199162409918,"connected_time":163000000000,"state":"active","ping":66},{"user_id":171,"name":"Danmar33","steam_id":76561198056453091,"connected_time":1274000000000,"state":"active","ping":47},{"user_id":56,"name":"[slug]","steam_id":76561197989592178,"connected_time":10884000000000,"state":"active","ping":63},{"user_id":148,"name":"b4rry","steam_id":76561198365887154,"connected_time":3643000000000,"state":"active","ping":65},{"user_id":190,"name":"I like cheese (real)","steam_id":76561198882837408,"connected_time":415000000000,"state":"active","ping":98},{"user_id":11,"name":"YellerImp","steam_id":76561199221805167,"connected_time":13541000000000,"state":"active","ping":45},{"user_id":158,"name":"Watsukun","steam_id":76561198151924677,"connected_time":2023000000000,"state":"active","ping":65},{"user_id":159,"name":"Loki‚ù§","steam_id":76561198280150602,"connected_time":1990000000000,"state":"active","ping":96},{"user_id":187,"name":"Qinxnix","steam_id":76561198091538771,"connected_time":666000000000,"state":"active","ping":111},{"user_id":181,"name":"Jovo","steam_id":76561197993265970,"connected_time":860000000000,"state":"active","ping":84},{"user_id":177,"name":"coal","steam_id":76561198027252280,"connected_time":910000000000,"state":"active","ping":59},{"user_id":186,"name":"ElektreecK","steam_id":76561198135229661,"connected_time":685000000000,"state":"active","ping":87},{"user_id":197,"name":"PorSurface","steam_id":76561198999584253,"connected_time":163000000000,"state":"active","ping":46},{"user_id":175,"name":"A Fruit","steam_id":76561198951830050,"connected_time":931000000000,"state":"active","ping":60},{"user_id":184,"name":"boofgall319","steam_id":76561199122095813,"connected_time":754000000000,"state":"active","ping":74},{"user_id":192,"name":"squid game","steam_id":76561199248960166,"connected_time":346000000000,"state":"active","ping":81},{"user_id":199,"name":"i suffer from ligma","steam_id":76561199158496518,"connected_time":85000000000,"state":"active","ping":80},{"user_id":164,"name":"no","steam_id":76561198248853140,"connected_time":1823000000000,"state":"active","ping":51},{"user_id":146,"name":"LunarrD","steam_id":76561198811220107,"connected_time":3800000000000,"state":"active","ping":80},{"user_id":194,"name":"The rat seller","steam_id":76561198405911337,"connected_time":310000000000,"state":"active","ping":113},{"user_id":103,"name":"Dumbus Denny","steam_id":76561198052328616,"connected_time":6635000000000,"state":"active","ping":58},{"user_id":166,"name":"Sir, this is a Wendy's","steam_id":76561198983656317,"connected_time":1791000000000,"state":"active","ping":73},{"user_id":195,"name":"Rock Kickass","steam_id":76561198450510841,"connected_time":280000000000,"state":"active","ping":103}]},{"server_id":402,"name":"Uncletopia | Chicago | 3 | All Maps","name_short":"chi-3","host":"chi-1.us.uncletopia.com","port":27035,"enabled":true,"region":"us-central","cc":"us","latitude":41.881832,"longitude":-87.62318,"reserved":0,"last_update":"0001-01-01T00:00:00Z","name_a2s":"Uncletopia | Chicago | 3 | All Maps","protocol":17,"map":"cp_mountainlab","folder":"tf","game":"Team Fortress","app_id":440,"player_count":24,"max_players":24,"Bots":0,"server_type":"Dedicated","server_os":"Linux","password":true,"vac":true,"version":"7742253","steam_id":85568392924515191,"keywords":["cp","nocrits","nodmgspread","uncletopia"],"game_id":440,"stv_port":27036,"stv_name":"Uncletopia | Chicago | 3 | All Maps | STV","players":[{"user_id":242,"name":"Mr.Pan","steam_id":76561198069030613,"connected_time":3201000000000,"state":"active","ping":63},{"user_id":197,"name":"jstn","steam_id":76561198845283665,"connected_time":6235000000000,"state":"active","ping":69},{"user_id":231,"name":"the deadliest pyroshark","steam_id":76561198374227766,"connected_time":4342000000000,"state":"active","ping":74},{"user_id":232,"name":"jan kili","steam_id":76561198289894834,"connected_time":4338000000000,"state":"active","ping":63},{"user_id":281,"name":"fruity","steam_id":76561198855810297,"connected_time":246000000000,"state":"active","ping":75},{"user_id":254,"name":"Arquone.","steam_id":76561199070959226,"connected_time":2373000000000,"state":"active","ping":100},{"user_id":237,"name":"Jazz2T","steam_id":76561198154418867,"connected_time":4325000000000,"state":"active","ping":102},{"user_id":221,"name":"hydrochloric acid drinker","steam_id":76561198077272494,"connected_time":4865000000000,"state":"active","ping":52},{"user_id":275,"name":"Owl Pacino","steam_id":76561197979970666,"connected_time":588000000000,"state":"active","ping":56},{"user_id":247,"name":"Bread Baker","steam_id":76561198185335103,"connected_time":2694000000000,"state":"active","ping":48},{"user_id":248,"name":"Wind Fucker","steam_id":76561198275362375,"connected_time":2668000000000,"state":"active","ping":92},{"user_id":276,"name":"Mania13","steam_id":76561198334886955,"connected_time":562000000000,"state":"active","ping":103},{"user_id":278,"name":"Yali_Ekstein","steam_id":76561199147884934,"connected_time":506000000000,"state":"active","ping":188},{"user_id":284,"name":"Jackie (She/They)","steam_id":76561199096964288,"connected_time":15000000000,"state":"spawning","ping":56},{"user_id":233,"name":"bane","steam_id":76561198196769297,"connected_time":4337000000000,"state":"active","ping":53},{"user_id":277,"name":"Watch Bee \u0026 Puppycat on Netflix","steam_id":76561198039423448,"connected_time":549000000000,"state":"active","ping":71},{"user_id":273,"name":"The_Quiet_One","steam_id":76561198132476501,"connected_time":677000000000,"state":"active","ping":51},{"user_id":280,"name":"Chicanery","steam_id":76561198977589038,"connected_time":289000000000,"state":"active","ping":80},{"user_id":271,"name":"Jutsu","steam_id":76561198058671945,"connected_time":721000000000,"state":"active","ping":79},{"user_id":283,"name":"[XEN] Jbomb","steam_id":76561199197866625,"connected_time":218000000000,"state":"active","ping":121},{"user_id":269,"name":"·πΩ‚ßâ cookie","steam_id":76561197998884823,"connected_time":1261000000000,"state":"active","ping":65},{"user_id":222,"name":"Wild_Rumpus","steam_id":76561198066393719,"connected_time":4863000000000,"state":"active","ping":47},{"user_id":162,"name":"177013","steam_id":76561198072303290,"connected_time":10282000000000,"state":"active","ping":61},{"user_id":230,"name":"Flourish (she/her)","steam_id":76561198087413354,"connected_time":4348000000000,"state":"active","ping":98}]},{"server_id":403,"name":"Uncletopia | Chicago | 4 | All Maps","name_short":"chi-4","host":"chi-1.us.uncletopia.com","port":27045,"enabled":true,"region":"us-central","cc":"us","latitude":41.881832,"longitude":-87.62318,"reserved":0,"last_update":"0001-01-01T00:00:00Z","name_a2s":"Uncletopia | Chicago | 4 | All Maps","protocol":17,"map":"koth_lakeside_final","folder":"tf","game":"Team Fortress","app_id":440,"player_count":0,"max_players":24,"Bots":0,"server_type":"Dedicated","server_os":"Linux","password":true,"vac":true,"version":"7742253","steam_id":85568392924515193,"keywords":["cp","nocrits","nodmgspread","uncletopia"],"game_id":440,"stv_port":27046,"stv_name":"Uncletopia | Chicago | 4 | All Maps | STV","players":null},{"server_id":36,"name":"Uncletopia | Chicago | 5 | All Maps","name_short":"chi-5","host":"chi-2.us.uncletopia.com","port":27015,"enabled":true,"region":"us-central","cc":"us","latitude":41.881832,"longitude":-87.62318,"reserved":0,"last_update":"0001-01-01T00:00:00Z","name_a2s":"Uncletopia | Chicago | 5 | All Maps","protocol":17,"map":"pl_upward","folder":"tf","game":"Team Fortress","app_id":440,"player_count":23,"max_players":24,"Bots":0,"server_type":"Dedicated","server_os":"Linux","password":true,"vac":true,"version":"7742253","steam_id":85568392924866362,"keywords":["nocrits","nodmgspread","payload","uncletopia"],"game_id":440,"stv_port":27016,"stv_name":"Uncletopia | Chicago | 5 | All Maps | STV","players":[{"user_id":304,"name":"caption cool","steam_id":76561197990612056,"connected_time":643000000000,"state":"active","ping":46},{"user_id":290,"name":"crazypnut","steam_id":76561198133106114,"connected_time":1250000000000,"state":"active","ping":68},{"user_id":293,"name":"bingle","steam_id":76561198359413453,"connected_time":1208000000000,"state":"active","ping":71},{"user_id":307,"name":"YOU","steam_id":76561198068538473,"connected_time":590000000000,"state":"active","ping":77},{"user_id":299,"name":"lamadre07","steam_id":76561198067337453,"connected_time":1072000000000,"state":"active","ping":95},{"user_id":276,"name":"cavemanDv","steam_id":76561198111927196,"connected_time":2149000000000,"state":"active","ping":72},{"user_id":233,"name":"brimstone","steam_id":76561198066619792,"connected_time":4716000000000,"state":"active","ping":75},{"user_id":218,"name":"Level 1 Crook","steam_id":76561198441098132,"connected_time":5706000000000,"state":"active","ping":55},{"user_id":287,"name":"Got Hat?","steam_id":76561197998486431,"connected_time":1661000000000,"state":"active","ping":64},{"user_id":253,"name":"PotatoSoup","steam_id":76561198996317509,"connected_time":3740000000000,"state":"active","ping":105},{"user_id":306,"name":"Scared Duck","steam_id":76561198081348409,"connected_time":602000000000,"state":"active","ping":56},{"user_id":279,"name":"guap master smelvin (no mic)","steam_id":76561198058209703,"connected_time":2052000000000,"state":"active","ping":51},{"user_id":288,"name":"plutonium isotope","steam_id":76561198319442494,"connected_time":1270000000000,"state":"active","ping":104},{"user_id":294,"name":"the carnivores velociraptor","steam_id":76561198795639476,"connected_time":1182000000000,"state":"active","ping":74},{"user_id":308,"name":"Fluffeline","steam_id":76561198352909489,"connected_time":579000000000,"state":"active","ping":145},{"user_id":295,"name":"Oneslaught","steam_id":76561198403433377,"connected_time":1173000000000,"state":"active","ping":93},{"user_id":298,"name":"Gabagool","steam_id":76561198365935179,"connected_time":1123000000000,"state":"active","ping":77},{"user_id":305,"name":"Incineroar, God's Executioner B","steam_id":76561197994454639,"connected_time":617000000000,"state":"active","ping":78},{"user_id":310,"name":"barry from jetpack joyride","steam_id":76561198881575174,"connected_time":553000000000,"state":"active","ping":184},{"user_id":285,"name":"sagekiss","steam_id":76561198038831240,"connected_time":1763000000000,"state":"active","ping":93},{"user_id":300,"name":"hedahman","steam_id":76561198052398134,"connected_time":1033000000000,"state":"active","ping":92},{"user_id":259,"name":"anoobis","steam_id":76561199120731573,"connected_time":3570000000000,"state":"active","ping":57},{"user_id":311,"name":"te","steam_id":76561198131245396,"connected_time":541000000000,"state":"active","ping":58}]},{"server_id":37,"name":"Uncletopia | Chicago | 6 | All Maps","name_short":"chi-6","host":"chi-2.us.uncletopia.com","port":27025,"enabled":true,"region":"us-central","cc":"us","latitude":41.881832,"longitude":-87.62318,"reserved":0,"last_update":"0001-01-01T00:00:00Z","name_a2s":"Uncletopia | Chicago | 6 | All Maps","protocol":17,"map":"pl_upward","folder":"tf","game":"Team Fortress","app_id":440,"player_count":24,"max_players":24,"Bots":0,"server_type":"Dedicated","server_os":"Linux","password":true,"vac":true,"version":"7742253","steam_id":85568392924866363,"keywords":["nocrits","nodmgspread","payload","uncletopia"],"game_id":440,"stv_port":27026,"stv_name":"Uncletopia | Chicago | 6 | All Maps | STV","players":[{"user_id":225,"name":"John the Fisherman","steam_id":76561198246170448,"connected_time":2166000000000,"state":"active","ping":61},{"user_id":246,"name":"Sgt.DooDooBrown","steam_id":76561197962188053,"connected_time":109000000000,"state":"active","ping":45},{"user_id":205,"name":"Hindmost","steam_id":76561199081837220,"connected_time":3234000000000,"state":"active","ping":123},{"user_id":244,"name":"Lil Birb","steam_id":76561198041046100,"connected_time":121000000000,"state":"active","ping":85},{"user_id":233,"name":"blobb","steam_id":76561198950448488,"connected_time":1403000000000,"state":"active","ping":46},{"user_id":242,"name":"tA.CHRONIC","steam_id":76561197960760990,"connected_time":280000000000,"state":"active","ping":49},{"user_id":226,"name":"borb","steam_id":76561198043706112,"connected_time":2055000000000,"state":"active","ping":62},{"user_id":234,"name":"fish","steam_id":76561198229957260,"connected_time":1335000000000,"state":"active","ping":66},{"user_id":228,"name":"Soldier Impact","steam_id":76561198157004224,"connected_time":1991000000000,"state":"active","ping":70},{"user_id":193,"name":"meow","steam_id":76561198298140571,"connected_time":3927000000000,"state":"active","ping":105},{"user_id":204,"name":"GuyGoom","steam_id":76561198254522178,"connected_time":3469000000000,"state":"active","ping":52},{"user_id":209,"name":"Nnyllazxz","steam_id":76561198247797436,"connected_time":2755000000000,"state":"active","ping":65},{"user_id":247,"name":"–≥—Ä—É—Å—Ç–Ω—ã–π","steam_id":76561198274550638,"connected_time":93000000000,"state":"active","ping":60},{"user_id":211,"name":"footoftheday","steam_id":76561198052712449,"connected_time":2719000000000,"state":"active","ping":76},{"user_id":245,"name":"mr.edderkopper","steam_id":76561198152614478,"connected_time":115000000000,"state":"active","ping":60},{"user_id":177,"name":"Syynth","steam_id":76561198161328298,"connected_time":5525000000000,"state":"active","ping":75},{"user_id":212,"name":"ScoutWantsBobux69","steam_id":76561199316368867,"connected_time":2719000000000,"state":"active","ping":63},{"user_id":218,"name":"punkey","steam_id":76561198193213691,"connected_time":2604000000000,"state":"active","ping":70},{"user_id":239,"name":"Great Value Rice Crispers","steam_id":76561198211512619,"connected_time":755000000000,"state":"active","ping":67},{"user_id":243,"name":"Rornir","steam_id":76561198081829615,"connected_time":276000000000,"state":"active","ping":32},{"user_id":232,"name":"Kiddo0","steam_id":76561198359596849,"connected_time":1553000000000,"state":"active","ping":72},{"user_id":191,"name":"Pancreas Enjoyer","steam_id":76561199438598904,"connected_time":4037000000000,"state":"active","ping":70},{"user_id":240,"name":"SuperFresh","steam_id":76561198200723198,"connected_time":708000000000,"state":"active","ping":45},{"user_id":219,"name":"Rusty","steam_id":76561198055585129,"connected_time":2506000000000,"state":"active","ping":89}]},{"server_id":38,"name":"Uncletopia | Chicago | 7 | Stopwatch Beta","name_short":"chi-7","host":"chi-2.us.uncletopia.com","port":27035,"enabled":true,"region":"us-central","cc":"us","latitude":41.881832,"longitude":-87.62318,"reserved":0,"last_update":"0001-01-01T00:00:00Z","name_a2s":"Uncletopia | Chicago | 7 | Stopwatch Beta","protocol":17,"map":"workshop/koth_ramjam_rc1.ugc459778887","folder":"tf","game":"Team Fortress","app_id":440,"player_count":0,"max_players":24,"Bots":0,"server_type":"Dedicated","server_os":"Linux","password":true,"vac":true,"version":"7742253","steam_id":85568392924866364,"keywords":["cp","nocrits","nodmgspread","uncletopia"],"game_id":440,"stv_port":27036,"stv_name":"Uncletopia | Chicago | 7 | Stopwatch Beta | STV","players":null},{"server_id":39,"name":"Uncletopia | Chicago | 8 | Community","name_short":"chi-8","host":"chi-2.us.uncletopia.com","port":27045,"enabled":true,"region":"us-central","cc":"us","latitude":41.881832,"longitude":-87.62318,"reserved":0,"last_update":"0001-01-01T00:00:00Z","name_a2s":"Uncletopia | Chicago | 8 | Community","protocol":17,"map":"koth_lakeside_final","folder":"tf","game":"Team Fortress","app_id":440,"player_count":0,"max_players":24,"Bots":0,"server_type":"Dedicated","server_os":"Linux","password":true,"vac":true,"version":"7742253","steam_id":85568392924866365,"keywords":["cp","nocrits","nodmgspread","uncletopia"],"game_id":440,"stv_port":27046,"stv_name":"Uncletopia | Chicago | 8 | Community | STV","players":null},{"server_id":8,"name":"Uncletopia | Dallas | 1 | All Maps","name_short":"dal-1","host":"dal-1.us.uncletopia.com","port":27015,"enabled":true,"region":"us-central","cc":"us","latitude":32.779167,"longitude":-96.80889,"reserved":0,"last_update":"0001-01-01T00:00:00Z","name_a2s":"Uncletopia | Dallas | 1 | All Maps","protocol":17,"map":"cp_sunshine","folder":"tf","game":"Team Fortress","app_id":440,"player_count":22,"max_players":24,"Bots":0,"server_type":"Dedicated","server_os":"Linux","password":true,"vac":true,"version":"7742253","steam_id":85568392924469986,"keywords":["cp","nocrits","nodmgspread","uncletopia"],"game_id":440,"stv_port":27016,"stv_name":"Uncletopia | Dallas | 1 | All Maps | STV","players":[{"user_id":110,"name":"Gamer","steam_id":76561198151153750,"connected_time":71000000000,"state":"active","ping":69},{"user_id":108,"name":"BigBubble42","steam_id":76561198136286123,"connected_time":190000000000,"state":"active","ping":30},{"user_id":75,"name":"dontsingofficial","steam_id":76561199455559827,"connected_time":2228000000000,"state":"active","ping":70},{"user_id":95,"name":"Chris P Bacon","steam_id":76561199217021327,"connected_time":539000000000,"state":"active","ping":62},{"user_id":98,"name":"Ap1hw","steam_id":76561199122883466,"connected_time":514000000000,"state":"active","ping":38},{"user_id":96,"name":"josh","steam_id":76561198111565081,"connected_time":537000000000,"state":"active","ping":83},{"user_id":99,"name":"Maid 'n' China","steam_id":76561198423392976,"connected_time":512000000000,"state":"active","ping":78},{"user_id":78,"name":"TrashVortex","steam_id":76561199229200288,"connected_time":2127000000000,"state":"active","ping":60},{"user_id":90,"name":"Blue_Yoshi","steam_id":76561199455280829,"connected_time":1475000000000,"state":"active","ping":63},{"user_id":91,"name":"¬øskitt1eS?","steam_id":76561198330093211,"connected_time":1390000000000,"state":"active","ping":61},{"user_id":111,"name":"SorcererCat","steam_id":76561199219316179,"connected_time":54000000000,"state":"active","ping":149},{"user_id":100,"name":"ink biscuit","steam_id":76561198927983566,"connected_time":498000000000,"state":"active","ping":158},{"user_id":80,"name":"5yt","steam_id":76561198041643833,"connected_time":2094000000000,"state":"active","ping":55},{"user_id":101,"name":"nexxo","steam_id":76561199065498177,"connected_time":482000000000,"state":"active","ping":54},{"user_id":106,"name":"Ben Shapiro","steam_id":76561198861436861,"connected_time":261000000000,"state":"active","ping":60},{"user_id":97,"name":"KageNeeks","steam_id":76561198120450945,"connected_time":536000000000,"state":"active","ping":60},{"user_id":107,"name":"cup","steam_id":76561198121245586,"connected_time":236000000000,"state":"active","ping":80},{"user_id":104,"name":"Len","steam_id":76561199141913673,"connected_time":326000000000,"state":"active","ping":71},{"user_id":83,"name":"MogulSoap","steam_id":76561198043610132,"connected_time":1943000000000,"state":"active","ping":73},{"user_id":52,"name":"Le Pe√±a","steam_id":76561198864220668,"connected_time":3412000000000,"state":"active","ping":62},{"user_id":62,"name":"Chaotic Rushu","steam_id":76561198170054407,"connected_time":2718000000000,"state":"active","ping":89}]},{"server_id":108,"name":"Uncletopia | Dallas | 2 | All Maps","name_short":"dal-2","host":"dal-1.us.uncletopia.com","port":27025,"enabled":true,"region":"us-central","cc":"us","latitude":32.779167,"longitude":-96.80889,"reserved":0,"last_update":"0001-01-01T00:00:00Z","name_a2s":"Uncletopia | Dallas | 2 | All Maps","protocol":17,"map":"cp_altitude","folder":"tf","game":"Team Fortress","app_id":440,"player_count":23,"max_players":24,"Bots":0,"server_type":"Dedicated","server_os":"Linux","password":true,"vac":true,"version":"7742253","steam_id":85568392924469988,"keywords":["cp","nocrits","nodmgspread","uncletopia"],"game_id":440,"stv_port":27026,"stv_name":"Uncletopia | Dallas | 2 | All Maps | STV","players":[{"user_id":164,"name":"Soju","steam_id":76561198044130442,"connected_time":890000000000,"state":"active","ping":44},{"user_id":171,"name":"Rock Paper Scissors Man","steam_id":76561198125725244,"connected_time":64000000000,"state":"active","ping":109},{"user_id":99,"name":"Skidt","steam_id":76561199229045278,"connected_time":4778000000000,"state":"active","ping":49},{"user_id":170,"name":"kebo","steam_id":76561198237159430,"connected_time":476000000000,"state":"active","ping":76},{"user_id":172,"name":"Polyamorous Medic GF","steam_id":76561198031701404,"connected_time":51000000000,"state":"spawning","ping":998},{"user_id":173,"name":"myBaesia","steam_id":76561198046555114,"connected_time":40000000000,"state":"active","ping":100},{"user_id":174,"name":"Vestuvian","steam_id":76561199007823355,"connected_time":19000000000,"state":"active","ping":66},{"user_id":150,"name":"xZackAttack27x","steam_id":76561198035446639,"connected_time":1850000000000,"state":"active","ping":31},{"user_id":127,"name":"intooblivion","steam_id":76561197964080250,"connected_time":3423000000000,"state":"active","ping":50},{"user_id":175,"name":"BlazeHX","steam_id":76561198827408017,"connected_time":9000000000,"state":"spawning","ping":95},{"user_id":162,"name":"I Twitch Lego Star Wars...","steam_id":76561198130280060,"connected_time":1242000000000,"state":"active","ping":113},{"user_id":124,"name":"The Entire Canadian Army","steam_id":76561198014636282,"connected_time":3613000000000,"state":"active","ping":85},{"user_id":113,"name":"Serene Salamander","steam_id":76561198001094770,"connected_time":3978000000000,"state":"active","ping":67},{"user_id":147,"name":"Frost","steam_id":76561198272014381,"connected_time":1918000000000,"state":"active","ping":81},{"user_id":151,"name":"Millie \u003c3","steam_id":76561198201894565,"connected_time":1849000000000,"state":"active","ping":37},{"user_id":131,"name":"FG7","steam_id":76561198381197197,"connected_time":2754000000000,"state":"active","ping":140},{"user_id":148,"name":"PrettyFly-gon","steam_id":76561198119158053,"connected_time":1899000000000,"state":"active","ping":63},{"user_id":81,"name":"Incomprehensible Gibberish","steam_id":76561198967650769,"connected_time":5638000000000,"state":"active","ping":66},{"user_id":165,"name":"HeroOfTime","steam_id":76561199096218001,"connected_time":818000000000,"state":"active","ping":81},{"user_id":160,"name":"dog","steam_id":76561198066521617,"connected_time":1540000000000,"state":"active","ping":95},{"user_id":159,"name":"shlinger binky the 2st","steam_id":76561198255787237,"connected_time":1653000000000,"state":"active","ping":58},{"user_id":166,"name":"Surinferior","steam_id":76561198008953177,"connected_time":817000000000,"state":"active","ping":69},{"user_id":169,"name":"Leroy Sinclair","steam_id":76561198116082889,"connected_time":531000000000,"state":"active","ping":81}]},{"server_id":5,"name":"Uncletopia | Frankfurt | 1 | All Maps","name_short":"frk-1","host":"frk-1.de.uncletopia.com","port":27015,"enabled":true,"region":"eu","cc":"de","latitude":50.110924,"longitude":8.682127,"reserved":0,"last_update":"0001-01-01T00:00:00Z","name_a2s":"Uncletopia | Frankfurt | 1 | All Maps","protocol":17,"map":"pl_borneo","folder":"tf","game":"Team Fortress","app_id":440,"player_count":24,"max_players":24,"Bots":0,"server_type":"Dedicated","server_os":"Linux","password":true,"vac":true,"version":"7742253","steam_id":85568392924469989,"keywords":["nocrits","nodmgspread","payload","uncletopia"],"game_id":440,"stv_port":27016,"stv_name":"Uncletopia | Frankfurt | 1 | All Maps | STV","players":[{"user_id":585,"name":"stonebum","steam_id":76561198057004606,"connected_time":475000000000,"state":"active","ping":48},{"user_id":565,"name":"Zez","steam_id":76561198018928515,"connected_time":2109000000000,"state":"active","ping":67},{"user_id":582,"name":"Chem","steam_id":76561198207459491,"connected_time":701000000000,"state":"active","ping":65},{"user_id":574,"name":"Gordon Birdman","steam_id":76561198013382324,"connected_time":1230000000000,"state":"active","ping":75},{"user_id":575,"name":"That Phlog mfer","steam_id":76561198050416948,"connected_time":1129000000000,"state":"active","ping":56},{"user_id":494,"name":"Cippo95","steam_id":76561198255311582,"connected_time":6762000000000,"state":"active","ping":73},{"user_id":584,"name":"Aydin Channel","steam_id":76561198138031624,"connected_time":479000000000,"state":"active","ping":115},{"user_id":563,"name":"sleep","steam_id":76561198049652518,"connected_time":2135000000000,"state":"active","ping":70},{"user_id":586,"name":"[Leslie]Nielsen","steam_id":76561198062714717,"connected_time":448000000000,"state":"active","ping":70},{"user_id":526,"name":"jingleboob","steam_id":76561198097507847,"connected_time":5038000000000,"state":"active","ping":75},{"user_id":551,"name":"ScarredPixel123","steam_id":76561199165112703,"connected_time":3569000000000,"state":"active","ping":81},{"user_id":554,"name":"Sneakykindaham","steam_id":76561198158743287,"connected_time":2760000000000,"state":"active","ping":53},{"user_id":556,"name":"lvl. 50 honkler","steam_id":76561198061688660,"connected_time":2744000000000,"state":"active","ping":98},{"user_id":573,"name":"teddy","steam_id":76561198007436837,"connected_time":1500000000000,"state":"active","ping":60},{"user_id":570,"name":"üòà COCKDESTROYER üòà","steam_id":76561198042846999,"connected_time":1822000000000,"state":"active","ping":73},{"user_id":561,"name":"invis","steam_id":76561198120668070,"connected_time":2374000000000,"state":"active","ping":62},{"user_id":569,"name":"Klinmir","steam_id":76561198352339376,"connected_time":1925000000000,"state":"active","ping":87},{"user_id":577,"name":"Trydy","steam_id":76561198045322489,"connected_time":1002000000000,"state":"active","ping":67},{"user_id":567,"name":"Semyr","steam_id":76561198125655939,"connected_time":2082000000000,"state":"active","ping":143},{"user_id":562,"name":"bekagaltam","steam_id":76561198046777197,"connected_time":2298000000000,"state":"active","ping":82},{"user_id":587,"name":"Dr.Nefario","steam_id":76561198874586020,"connected_time":434000000000,"state":"active","ping":70},{"user_id":534,"name":"Cheshireycat","steam_id":76561198067204908,"connected_time":4663000000000,"state":"active","ping":64},{"user_id":579,"name":"Carrot","steam_id":76561198119340863,"connected_time":918000000000,"state":"active","ping":55},{"user_id":581,"name":"Ben UFO","steam_id":76561198001648348,"connected_time":845000000000,"state":"active","ping":64}]},{"server_id":110,"name":"Uncletopia | Frankfurt | 2 | All Maps","name_short":"frk-2","host":"frk-1.de.uncletopia.com","port":27025,"enabled":true,"region":"eu","cc":"de","latitude":50.110924,"longitude":8.682127,"reserved":0,"last_update":"0001-01-01T00:00:00Z","name_a2s":"Uncletopia | Frankfurt | 2 | All Maps","protocol":17,"map":"pl_barnblitz","folder":"tf","game":"Team Fortress","app_id":440,"player_count":24,"max_players":24,"Bots":0,"server_type":"Dedicated","server_os":"Linux","password":true,"vac":true,"version":"7742253","steam_id":85568392924469990,"keywords":["nocrits","nodmgspread","payload","uncletopia"],"game_id":440,"stv_port":27026,"stv_name":"Uncletopia | Frankfurt | 2 | All Maps | STV","players":[{"user_id":547,"name":"[P-roc] Lovely","steam_id":76561198074361075,"connected_time":2727000000000,"state":"active","ping":57},{"user_id":553,"name":"Protector.CZ","steam_id":76561197972341084,"connected_time":2546000000000,"state":"active","ping":57},{"user_id":531,"name":"dddd","steam_id":76561198120894372,"connected_time":4188000000000,"state":"active","ping":108},{"user_id":578,"name":"(wm) Das Fleisch","steam_id":76561198001250715,"connected_time":1386000000000,"state":"active","ping":50},{"user_id":545,"name":"[P-roc] Cmm Bert","steam_id":76561198016658674,"connected_time":2741000000000,"state":"active","ping":66},{"user_id":582,"name":"Torrii","steam_id":76561198307916635,"connected_time":967000000000,"state":"active","ping":78},{"user_id":587,"name":"randompixel","steam_id":76561198003941207,"connected_time":91000000000,"state":"active","ping":72},{"user_id":577,"name":"generic alias","steam_id":76561198271607226,"connected_time":1448000000000,"state":"active","ping":88},{"user_id":522,"name":"sylphid","steam_id":76561198043601838,"connected_time":4955000000000,"state":"active","ping":62},{"user_id":584,"name":"Skyfox","steam_id":76561198036647535,"connected_time":818000000000,"state":"active","ping":44},{"user_id":575,"name":"Fbafroguy","steam_id":76561199113010473,"connected_time":1496000000000,"state":"active","ping":55},{"user_id":541,"name":"my m*rge","steam_id":76561198106049954,"connected_time":2921000000000,"state":"active","ping":81},{"user_id":565,"name":"LasseMedQ","steam_id":76561198088534679,"connected_time":2018000000000,"state":"active","ping":62},{"user_id":515,"name":"nox","steam_id":76561198287360892,"connected_time":5239000000000,"state":"active","ping":63},{"user_id":588,"name":"[Sheep] Tomco","steam_id":76561198388549261,"connected_time":40000000000,"state":"spawning","ping":105},{"user_id":585,"name":"Redmailbox","steam_id":76561198042930322,"connected_time":264000000000,"state":"active","ping":60},{"user_id":580,"name":"Blitz","steam_id":76561199046658659,"connected_time":1194000000000,"state":"active","ping":97},{"user_id":535,"name":"sz(k)","steam_id":76561198118500940,"connected_time":3931000000000,"state":"active","ping":62},{"user_id":540,"name":"Rose-Marie","steam_id":76561198055611092,"connected_time":3065000000000,"state":"active","ping":49},{"user_id":573,"name":"Alexander The Great","steam_id":76561198839909755,"connected_time":1656000000000,"state":"active","ping":61},{"user_id":567,"name":"etc","steam_id":76561197998394797,"connected_time":1812000000000,"state":"active","ping":58},{"user_id":576,"name":"brat_wurst","steam_id":76561198265402305,"connected_time":1488000000000,"state":"active","ping":65},{"user_id":523,"name":"taroi","steam_id":76561199057953617,"connected_time":4769000000000,"state":"active","ping":59},{"user_id":571,"name":"Boycie","steam_id":76561198179116027,"connected_time":1714000000000,"state":"active","ping":65}]},{"server_id":308,"name":"Uncletopia | Frankfurt | 3 | All Maps","name_short":"frk-3","host":"frk-1.de.uncletopia.com","port":27035,"enabled":true,"region":"eu","cc":"de","latitude":50.110924,"longitude":8.682127,"reserved":0,"last_update":"0001-01-01T00:00:00Z","name_a2s":"Uncletopia | Frankfurt | 3 | All Maps","protocol":17,"map":"cp_sunshine","folder":"tf","game":"Team Fortress","app_id":440,"player_count":23,"max_players":24,"Bots":0,"server_type":"Dedicated","server_os":"Linux","password":true,"vac":true,"version":"7742253","steam_id":85568392924504274,"keywords":["cp","nocrits","nodmgspread","uncletopia"],"game_id":440,"stv_port":27036,"stv_name":"Uncletopia | Frankfurt | 3 | All Maps | STV","players":[{"user_id":132,"name":"100 OJ","steam_id":76561198054745133,"connected_time":478000000000,"state":"active","ping":74},{"user_id":35,"name":"sid","steam_id":76561198093613358,"connected_time":8139000000000,"state":"active","ping":173},{"user_id":128,"name":"midnight at midnight","steam_id":76561198238955540,"connected_time":580000000000,"state":"active","ping":79},{"user_id":85,"name":"ugly","steam_id":76561199050412617,"connected_time":3370000000000,"state":"active","ping":112},{"user_id":130,"name":"The Ghost Of Siberian | #FIXTF2","steam_id":76561198183368329,"connected_time":497000000000,"state":"active","ping":100},{"user_id":137,"name":"Stoneley","steam_id":76561199182443625,"connected_time":363000000000,"state":"active","ping":53},{"user_id":140,"name":"SoupER","steam_id":76561198063056668,"connected_time":311000000000,"state":"active","ping":57},{"user_id":131,"name":"-rikeOo-","steam_id":76561198303995379,"connected_time":491000000000,"state":"active","ping":64},{"user_id":126,"name":"Montymilian","steam_id":76561198829371575,"connected_time":592000000000,"state":"active","ping":70},{"user_id":134,"name":"miev","steam_id":76561198078278737,"connected_time":463000000000,"state":"active","ping":58},{"user_id":100,"name":"Daddy Donovan","steam_id":76561198140938904,"connected_time":2313000000000,"state":"active","ping":67},{"user_id":64,"name":"KatTheCookiCat","steam_id":76561199054643392,"connected_time":4011000000000,"state":"active","ping":53},{"user_id":114,"name":"IamJacksWastedLife","steam_id":76561198153321616,"connected_time":1336000000000,"state":"active","ping":51},{"user_id":135,"name":"LasagnaLarry22","steam_id":76561198089478290,"connected_time":459000000000,"state":"active","ping":54},{"user_id":136,"name":"HanhiGaming","steam_id":76561198877007477,"connected_time":440000000000,"state":"active","ping":84},{"user_id":89,"name":"MGA","steam_id":76561198006762849,"connected_time":2797000000000,"state":"active","ping":50},{"user_id":111,"name":"Thoom Slayer","steam_id":76561198155010055,"connected_time":1418000000000,"state":"active","ping":125},{"user_id":106,"name":"dongus","steam_id":76561198042774930,"connected_time":1984000000000,"state":"active","ping":82},{"user_id":142,"name":"X-tis","steam_id":76561198043837480,"connected_time":240000000000,"state":"active","ping":78},{"user_id":80,"name":"Louki","steam_id":76561198150080041,"connected_time":3504000000000,"state":"active","ping":55},{"user_id":94,"name":"devious cadaver","steam_id":76561198245109084,"connected_time":2562000000000,"state":"active","ping":149},{"user_id":141,"name":"Random_dude8492","steam_id":76561198986861756,"connected_time":307000000000,"state":"active","ping":72},{"user_id":119,"name":"Fogic yo!","steam_id":76561198084624833,"connected_time":1116000000000,"state":"active","ping":55}]},{"server_id":309,"name":"Uncletopia | Frankfurt | 4 | All Maps","name_short":"frk-4","host":"frk-1.de.uncletopia.com","port":27045,"enabled":true,"region":"eu","cc":"de","latitude":50.110924,"longitude":8.682127,"reserved":0,"last_update":"0001-01-01T00:00:00Z","name_a2s":"Uncletopia | Frankfurt | 4 | All Maps","protocol":17,"map":"cp_process_final","folder":"tf","game":"Team Fortress","app_id":440,"player_count":25,"max_players":24,"Bots":0,"server_type":"Dedicated","server_os":"Linux","password":true,"vac":true,"version":"7742253","steam_id":85568392924504275,"keywords":["cp","nocrits","nodmgspread","uncletopia"],"game_id":440,"stv_port":27046,"stv_name":"Uncletopia | Frankfurt | 4 | All Maps | STV","players":[{"user_id":606,"name":"Rat :)","steam_id":76561198015632261,"connected_time":329000000000,"state":"active","ping":59},{"user_id":555,"name":"Sammy","steam_id":76561199027981643,"connected_time":2482000000000,"state":"active","ping":156},{"user_id":618,"name":"dirty lobster","steam_id":76561198140681057,"connected_time":4000000000,"state":"spawning","ping":119},{"user_id":558,"name":"Mabert","steam_id":76561198436058407,"connected_time":2194000000000,"state":"active","ping":65},{"user_id":613,"name":"foo","steam_id":76561198042000263,"connected_time":113000000000,"state":"active","ping":70},{"user_id":563,"name":"baro.ricky","steam_id":76561198172204039,"connected_time":1627000000000,"state":"active","ping":68},{"user_id":565,"name":"WHUSSKEY","steam_id":76561198137827441,"connected_time":1483000000000,"state":"active","ping":64},{"user_id":593,"name":"Parapluie","steam_id":76561197971640301,"connected_time":618000000000,"state":"active","ping":57},{"user_id":567,"name":"wolffy","steam_id":76561198083145076,"connected_time":1431000000000,"state":"active","ping":61},{"user_id":595,"name":"BananaBG676","steam_id":76561199111813554,"connected_time":597000000000,"state":"active","ping":477},{"user_id":614,"name":"Mythical6","steam_id":76561199222224046,"connected_time":87000000000,"state":"active","ping":150},{"user_id":570,"name":"Knoxxen","steam_id":76561198071114510,"connected_time":1393000000000,"state":"active","ping":73},{"user_id":571,"name":"Elon","steam_id":76561198140751130,"connected_time":1383000000000,"state":"active","ping":69},{"user_id":598,"name":"asjsxdccd","steam_id":76561198211967715,"connected_time":552000000000,"state":"active","ping":105},{"user_id":611,"name":"Palle","steam_id":76561198090101870,"connected_time":165000000000,"state":"active","ping":61},{"user_id":575,"name":"Dictatorial Karelian","steam_id":76561198196736457,"connected_time":1257000000000,"state":"active","ping":75},{"user_id":599,"name":"MathiasCZR01","steam_id":76561197991711202,"connected_time":522000000000,"state":"active","ping":62},{"user_id":600,"name":"Saletti","steam_id":76561198044079380,"connected_time":512000000000,"state":"active","ping":64},{"user_id":583,"name":"zinzyk","steam_id":76561198128011822,"connected_time":1050000000000,"state":"active","ping":57},{"user_id":601,"name":"KLAMA  ‚ù§","steam_id":76561198351549661,"connected_time":504000000000,"state":"active","ping":74},{"user_id":586,"name":"Pasta sauce","steam_id":76561198232919072,"connected_time":971000000000,"state":"active","ping":56},{"user_id":607,"name":"manKe","steam_id":76561198008564860,"connected_time":275000000000,"state":"active","ping":60},{"user_id":616,"name":"SeL-Fish","steam_id":76561198331709006,"connected_time":62000000000,"state":"active","ping":101},{"user_id":589,"name":"plataakais","steam_id":76561198427683993,"connected_time":925000000000,"state":"active","ping":71},{"user_id":617,"name":"–ò–Ω—Å–ø–µ–∫—Ç–æ—Ä –ê—Ç–∞—Å","steam_id":76561199175688390,"connected_time":61000000000,"state":"active","ping":79}]},{"server_id":310,"name":"Uncletopia | Frankfurt | 5 | All Maps","name_short":"frk-5","host":"frk-1.de.uncletopia.com","port":27055,"enabled":true,"region":"eu","cc":"de","latitude":50.110924,"longitude":8.682127,"reserved":0,"last_update":"0001-01-01T00:00:00Z","name_a2s":"Uncletopia | Frankfurt | 5 | All Maps","protocol":17,"map":"pl_borneo","folder":"tf","game":"Team Fortress","app_id":440,"player_count":24,"max_players":24,"Bots":0,"server_type":"Dedicated","server_os":"Linux","password":true,"vac":true,"version":"7742253","steam_id":85568392924504277,"keywords":["nocrits","nodmgspread","payload","uncletopia"],"game_id":440,"stv_port":27056,"stv_name":"Uncletopia | Frankfurt | 5 | All Maps | STV","players":[{"user_id":703,"name":"Mr. Mundy","steam_id":76561198132008918,"connected_time":6124000000000,"state":"active","ping":71},{"user_id":704,"name":"Hexagon","steam_id":76561198151205758,"connected_time":6104000000000,"state":"active","ping":53},{"user_id":740,"name":"lulu","steam_id":76561199147764133,"connected_time":3314000000000,"state":"active","ping":74},{"user_id":732,"name":"scantron","steam_id":76561199103959197,"connected_time":4164000000000,"state":"active","ping":94},{"user_id":716,"name":"Zateske","steam_id":76561198047446276,"connected_time":5273000000000,"state":"active","ping":58},{"user_id":755,"name":"dafydd","steam_id":76561198052200325,"connected_time":1965000000000,"state":"active","ping":76},{"user_id":772,"name":"kokodos","steam_id":76561198362549075,"connected_time":270000000000,"state":"active","ping":59},{"user_id":760,"name":"MomoInTheBox","steam_id":76561197994150695,"connected_time":1563000000000,"state":"active","ping":77},{"user_id":747,"name":"Pepegi","steam_id":76561198001230113,"connected_time":2642000000000,"state":"active","ping":71},{"user_id":746,"name":"MSPaintbrush","steam_id":76561198119987705,"connected_time":2726000000000,"state":"active","ping":65},{"user_id":757,"name":"Fat Pigeon","steam_id":76561198817940142,"connected_time":1941000000000,"state":"active","ping":59},{"user_id":753,"name":"Taipan66","steam_id":76561198154094423,"connected_time":2148000000000,"state":"active","ping":79},{"user_id":749,"name":"DanteFromDmc5","steam_id":76561198390314734,"connected_time":2455000000000,"state":"active","ping":69},{"user_id":768,"name":"Good Lad","steam_id":76561198024458861,"connected_time":377000000000,"state":"active","ping":60},{"user_id":774,"name":"‡∂ûbominasus 2137  #SaveTF2","steam_id":76561198030062981,"connected_time":88000000000,"state":"active","ping":69},{"user_id":769,"name":"Mr Fruitypebbles","steam_id":76561198133823242,"connected_time":367000000000,"state":"active","ping":66},{"user_id":744,"name":"mt","steam_id":76561197961319303,"connected_time":3145000000000,"state":"active","ping":45},{"user_id":773,"name":"Ged","steam_id":76561198079288943,"connected_time":253000000000,"state":"active","ping":131},{"user_id":528,"name":"Spajro","steam_id":76561198257383813,"connected_time":17644000000000,"state":"active","ping":47},{"user_id":718,"name":"Nick","steam_id":76561198036109469,"connected_time":5097000000000,"state":"active","ping":94},{"user_id":771,"name":"falliewagon","steam_id":76561199004886554,"connected_time":299000000000,"state":"active","ping":74},{"user_id":770,"name":"ComedicSoldier","steam_id":76561199220886421,"connected_time":344000000000,"state":"active","ping":175},{"user_id":685,"name":"washed up","steam_id":76561198148115584,"connected_time":8057000000000,"state":"active","ping":78},{"user_id":764,"name":"sexyboob17","steam_id":76561198857396812,"connected_time":1245000000000,"state":"active","ping":50}]},{"server_id":311,"name":"Uncletopia | Frankfurt | 6 | All Maps","name_short":"frk-6","host":"frk-1.de.uncletopia.com","port":27065,"enabled":true,"region":"eu","cc":"de","latitude":50.110924,"longitude":8.682127,"reserved":0,"last_update":"0001-01-01T00:00:00Z","name_a2s":"Uncletopia | Frankfurt | 6 | All Maps","protocol":17,"map":"pl_upward","folder":"tf","game":"Team Fortress","app_id":440,"player_count":24,"max_players":24,"Bots":0,"server_type":"Dedicated","server_os":"Linux","password":true,"vac":true,"version":"7742253","steam_id":85568392924504278,"keywords":["nocrits","nodmgspread","payload","uncletopia"],"game_id":440,"stv_port":27066,"stv_name":"Uncletopia | Frankfurt | 6 | All Maps | STV","players":[{"user_id":156,"name":"Artemis","steam_id":76561198199091801,"connected_time":2259000000000,"state":"active","ping":48},{"user_id":144,"name":"Gandalf","steam_id":76561199072668363,"connected_time":2463000000000,"state":"active","ping":77},{"user_id":190,"name":"JoJo","steam_id":76561198296920548,"connected_time":79000000000,"state":"active","ping":106},{"user_id":165,"name":"Shromide","steam_id":76561198140382935,"connected_time":1838000000000,"state":"active","ping":70},{"user_id":157,"name":"Antonio Gilipollas Caraculo","steam_id":76561198412197820,"connected_time":2258000000000,"state":"active","ping":78},{"user_id":148,"name":"ReseF","steam_id":76561198049390479,"connected_time":2383000000000,"state":"active","ping":101},{"user_id":191,"name":"bola typu ≈õwiƒôta","steam_id":76561199145943588,"connected_time":69000000000,"state":"active","ping":73},{"user_id":178,"name":"Pats [·¥ô-Œº]","steam_id":76561198418538887,"connected_time":1000000000000,"state":"active","ping":94},{"user_id":182,"name":"[T]aKer","steam_id":76561198001778013,"connected_time":977000000000,"state":"active","ping":53},{"user_id":125,"name":"Sanctified","steam_id":76561198057092208,"connected_time":3216000000000,"state":"active","ping":62},{"user_id":150,"name":"Ostarr","steam_id":76561198200054489,"connected_time":2342000000000,"state":"active","ping":66},{"user_id":183,"name":"Merry","steam_id":76561198055728858,"connected_time":976000000000,"state":"active","ping":77},{"user_id":84,"name":"Haiva","steam_id":76561198139999282,"connected_time":4785000000000,"state":"active","ping":71},{"user_id":85,"name":"tom","steam_id":76561198202442602,"connected_time":4775000000000,"state":"active","ping":83},{"user_id":166,"name":"Sipsu","steam_id":76561198059424107,"connected_time":1831000000000,"state":"active","ping":76},{"user_id":185,"name":"denji741games","steam_id":76561198067499762,"connected_time":758000000000,"state":"active","ping":75},{"user_id":187,"name":"tf2 snake","steam_id":76561198193971167,"connected_time":414000000000,"state":"active","ping":60},{"user_id":186,"name":"viddy","steam_id":76561198004383856,"connected_time":698000000000,"state":"active","ping":92},{"user_id":154,"name":"Kelpy G gaming","steam_id":76561198056995633,"connected_time":2285000000000,"state":"active","ping":59},{"user_id":155,"name":"lupe.-","steam_id":76561198079813788,"connected_time":2270000000000,"state":"active","ping":60},{"user_id":160,"name":"Hyperis","steam_id":76561199048110177,"connected_time":2175000000000,"state":"active","ping":60},{"user_id":158,"name":"masatin","steam_id":76561198044967818,"connected_time":2256000000000,"state":"active","ping":61},{"user_id":100,"name":"raiken","steam_id":76561198061150584,"connected_time":4267000000000,"state":"active","ping":75},{"user_id":189,"name":"starduck","steam_id":76561198020590607,"connected_time":210000000000,"state":"active","ping":73}]},{"server_id":23,"name":"Uncletopia | Frankfurt | 7 | Stopwatch Beta","name_short":"frk-7","host":"frk-1.de.uncletopia.com","port":27075,"enabled":true,"region":"eu","cc":"de","latitude":50.110924,"longitude":8.682127,"reserved":0,"last_update":"0001-01-01T00:00:00Z","name_a2s":"Uncletopia | Frankfurt | 7 | Stopwatch Beta","protocol":17,"map":"workshop/koth_bagel_rc5.ugc2514036946","folder":"tf","game":"Team Fortress","app_id":440,"player_count":0,"max_players":24,"Bots":0,"server_type":"Dedicated","server_os":"Linux","password":true,"vac":true,"version":"7742253","steam_id":85568392924742827,"keywords":["cp","nocrits","nodmgspread","uncletopia"],"game_id":440,"stv_port":27076,"stv_name":"Uncletopia | Frankfurt | 7 | Stopwatch Beta | STV","players":null},{"server_id":24,"name":"Uncletopia | Frankfurt | 8 | Community","name_short":"frk-8","host":"frk-1.de.uncletopia.com","port":27085,"enabled":true,"region":"eu","cc":"de","latitude":50.110924,"longitude":8.682127,"reserved":0,"last_update":"0001-01-01T00:00:00Z","name_a2s":"Uncletopia | Frankfurt | 8 | Community","protocol":17,"map":"workshop/pl_barnblitz_pro7.ugc582280235","folder":"tf","game":"Team Fortress","app_id":440,"player_count":24,"max_players":24,"Bots":0,"server_type":"Dedicated","server_os":"Linux","password":true,"vac":true,"version":"7742253","steam_id":85568392924742828,"keywords":["nocrits","nodmgspread","payload","uncletopia"],"game_id":440,"stv_port":27086,"stv_name":"Uncletopia | Frankfurt | 8 | Community | STV","players":[{"user_id":318,"name":"Shawty","steam_id":76561198256704286,"connected_time":853000000000,"state":"active","ping":57},{"user_id":319,"name":"JohnTraveltime","steam_id":76561199244281754,"connected_time":840000000000,"state":"active","ping":77},{"user_id":285,"name":"SoberOnion","steam_id":76561198987711995,"connected_time":2145000000000,"state":"active","ping":77},{"user_id":291,"name":"conk3r","steam_id":76561198070583808,"connected_time":1881000000000,"state":"active","ping":93},{"user_id":323,"name":"GGabesz","steam_id":76561198117199068,"connected_time":711000000000,"state":"active","ping":72},{"user_id":264,"name":"YO MAMA(CZ)","steam_id":76561198057308825,"connected_time":2864000000000,"state":"active","ping":60},{"user_id":300,"name":"eeeeee","steam_id":76561198017786875,"connected_time":1452000000000,"state":"active","ping":51},{"user_id":286,"name":"ChilledIron | Twitch","steam_id":76561198122669215,"connected_time":2108000000000,"state":"active","ping":183},{"user_id":322,"name":"violently racist","steam_id":76561199042470246,"connected_time":782000000000,"state":"active","ping":52},{"user_id":321,"name":"loop zoop","steam_id":76561198969373800,"connected_time":803000000000,"state":"active","ping":73},{"user_id":302,"name":"Carrotcracker","steam_id":76561198034862396,"connected_time":1416000000000,"state":"active","ping":57},{"user_id":293,"name":"drkSOL","steam_id":76561198243336732,"connected_time":1840000000000,"state":"active","ping":102},{"user_id":324,"name":"lbdeathstar","steam_id":76561199224622628,"connected_time":688000000000,"state":"active","ping":157},{"user_id":313,"name":"Peter Griffin","steam_id":76561199058007041,"connected_time":1094000000000,"state":"active","ping":173},{"user_id":314,"name":"Fortezza","steam_id":76561198972539903,"connected_time":1075000000000,"state":"active","ping":57},{"user_id":325,"name":"Fasj.","steam_id":76561198049975379,"connected_time":653000000000,"state":"active","ping":50},{"user_id":282,"name":"BOSHY","steam_id":76561199401166743,"connected_time":2225000000000,"state":"active","ping":89},{"user_id":329,"name":"kgf","steam_id":76561198181442259,"connected_time":276000000000,"state":"active","ping":59},{"user_id":330,"name":"jude !","steam_id":76561198140496425,"connected_time":199000000000,"state":"active","ping":58},{"user_id":304,"name":"Irbynx","steam_id":76561197980421195,"connected_time":1404000000000,"state":"active","ping":76},{"user_id":305,"name":"asdgsfdaujhaswedrvjhfdwsbhk","steam_id":76561198208839507,"connected_time":1400000000000,"state":"active","ping":113},{"user_id":309,"name":"yuta","steam_id":76561198077922992,"connected_time":1271000000000,"state":"active","ping":54},{"user_id":326,"name":"mikesmith2009","steam_id":76561198436424012,"connected_time":602000000000,"state":"active","ping":57},{"user_id":328,"name":"busy busy bee :D","steam_id":76561198128222331,"connected_time":587000000000,"state":"active","ping":136}]},{"server_id":202,"name":"Uncletopia | Hong Kong | 1 | All Maps","name_short":"hgk-1","host":"hgk-1.hk.uncletopia.com","port":27015,"enabled":true,"region":"asia","cc":"hk","latitude":22.302711,"longitude":114.177216,"reserved":0,"last_update":"0001-01-01T00:00:00Z","name_a2s":"Uncletopia | Hong Kong | 1 | All Maps","protocol":17,"map":"pl_badwater","folder":"tf","game":"Team Fortress","app_id":440,"player_count":0,"max_players":24,"Bots":0,"server_type":"Dedicated","server_os":"Linux","password":true,"vac":true,"version":"7742253","steam_id":85568392924494504,"keywords":["nocrits","nodmgspread","payload","uncletopia"],"game_id":440,"stv_port":27016,"stv_name":"Uncletopia | Hong Kong | 1 | All Maps | STV","players":null},{"server_id":1,"name":"Uncletopia | Los Angeles | 1 | All Maps","name_short":"lax-1","host":"lax-1.us.uncletopia.com","port":27015,"enabled":true,"region":"us-west","cc":"us","latitude":33.94279,"longitude":-118.41004,"reserved":0,"last_update":"0001-01-01T00:00:00Z","name_a2s":"Uncletopia | Los Angeles | 1 | All Maps","protocol":17,"map":"cp_dustbowl","folder":"tf","game":"Team Fortress","app_id":440,"player_count":0,"max_players":24,"Bots":0,"server_type":"Dedicated","server_os":"Linux","password":true,"vac":true,"version":"7742253","steam_id":85568392924469991,"keywords":["cp","nocrits","nodmgspread","uncletopia"],"game_id":440,"stv_port":27016,"stv_name":"Uncletopia | Los Angeles | 1 | All Maps | STV","players":null},{"server_id":112,"name":"Uncletopia | Los Angeles | 2 | All Maps","name_short":"lax-2","host":"lax-1.us.uncletopia.com","port":27025,"enabled":true,"region":"us-west","cc":"us","latitude":33.94279,"longitude":-118.41004,"reserved":0,"last_update":"0001-01-01T00:00:00Z","name_a2s":"Uncletopia | Los Angeles | 2 | All Maps","protocol":17,"map":"koth_highpass","folder":"tf","game":"Team Fortress","app_id":440,"player_count":6,"max_players":24,"Bots":0,"server_type":"Dedicated","server_os":"Linux","password":true,"vac":true,"version":"7742253","steam_id":85568392924469992,"keywords":["cp","nocrits","nodmgspread","uncletopia"],"game_id":440,"stv_port":27026,"stv_name":"Uncletopia | Los Angeles | 2 | All Maps | STV","players":[{"user_id":119,"name":"OH JIMMY I'M HOME #SaveTf2","steam_id":76561198396658806,"connected_time":888000000000,"state":"active","ping":40},{"user_id":123,"name":"Frazzer","steam_id":76561198088679707,"connected_time":754000000000,"state":"active","ping":44},{"user_id":121,"name":"Delimeat","steam_id":76561198043824595,"connected_time":858000000000,"state":"active","ping":40},{"user_id":122,"name":"Brinks Truck","steam_id":76561198093851664,"connected_time":781000000000,"state":"active","ping":37},{"user_id":129,"name":"Sparkly Venice","steam_id":76561198056445740,"connected_time":37000000000,"state":"active","ping":91},{"user_id":125,"name":"DonoC","steam_id":76561198274473338,"connected_time":457000000000,"state":"active","ping":97}]},{"server_id":324,"name":"Uncletopia | Los Angeles | 3 | All Maps","name_short":"lax-3","host":"lax-1.us.uncletopia.com","port":27035,"enabled":true,"region":"us-west","cc":"us","latitude":33.94279,"longitude":-118.41004,"reserved":0,"last_update":"0001-01-01T00:00:00Z","name_a2s":"Uncletopia | Los Angeles | 3 | All Maps","protocol":17,"map":"pl_swiftwater_final1","folder":"tf","game":"Team Fortress","app_id":440,"player_count":0,"max_players":24,"Bots":0,"server_type":"Dedicated","server_os":"Linux","password":true,"vac":true,"version":"7742253","steam_id":85568392924510198,"keywords":["nocrits","nodmgspread","payload","uncletopia"],"game_id":440,"stv_port":27036,"stv_name":"Uncletopia | Los Angeles | 3 | All Maps | STV","players":null},{"server_id":25,"name":"Uncletopia | Los Angeles | 4 | Stopwatch Beta","name_short":"lax-4","host":"lax-1.us.uncletopia.com","port":27045,"enabled":true,"region":"us-west","cc":"us","latitude":33.94279,"longitude":-118.41004,"reserved":0,"last_update":"0001-01-01T00:00:00Z","name_a2s":"Uncletopia | Los Angeles | 4 | Stopwatch Beta","protocol":17,"map":"cp_snakewater_final1","folder":"tf","game":"Team Fortress","app_id":440,"player_count":0,"max_players":24,"Bots":0,"server_type":"Dedicated","server_os":"Linux","password":true,"vac":true,"version":"7742253","steam_id":85568392924510199,"keywords":["cp","nocrits","nodmgspread","uncletopia"],"game_id":440,"stv_port":27046,"stv_name":"Uncletopia | Los Angeles | 4 | Stopwatch Beta | STV","players":null},{"server_id":11,"name":"Uncletopia | London | 1 | All Maps","name_short":"lon-1","host":"lon-1.uk.uncletopia.com","port":27015,"enabled":true,"region":"eu","cc":"gb","latitude":51.509865,"longitude":-0.118092,"reserved":0,"last_update":"0001-01-01T00:00:00Z","name_a2s":"Uncletopia | London | 1 | All Maps","protocol":17,"map":"pl_borneo","folder":"tf","game":"Team Fortress","app_id":440,"player_count":24,"max_players":24,"Bots":0,"server_type":"Dedicated","server_os":"Linux","password":true,"vac":true,"version":"7742253","steam_id":85568392924367362,"keywords":["nocrits","nodmgspread","payload","uncletopia"],"game_id":440,"stv_port":27016,"stv_name":"Uncletopia | London | 1 | All Maps | STV","players":[{"user_id":612,"name":"K√§pt'n","steam_id":76561198082347638,"connected_time":709000000000,"state":"active","ping":68},{"user_id":619,"name":"blue mean-eyes","steam_id":76561198060105180,"connected_time":451000000000,"state":"active","ping":69},{"user_id":614,"name":"Heretican","steam_id":76561198018202228,"connected_time":698000000000,"state":"active","ping":61},{"user_id":615,"name":"Dominus.","steam_id":76561199065917088,"connected_time":697000000000,"state":"active","ping":50},{"user_id":624,"name":"kotamine","steam_id":76561198068907991,"connected_time":68000000000,"state":"active","ping":72},{"user_id":579,"name":"Scrumlet","steam_id":76561198339806643,"connected_time":2705000000000,"state":"active","ping":94},{"user_id":593,"name":"dec","steam_id":76561198009660168,"connected_time":2411000000000,"state":"active","ping":56},{"user_id":605,"name":"hans_chr10‚Ñ¢","steam_id":76561198082552666,"connected_time":1554000000000,"state":"active","ping":90},{"user_id":515,"name":"Binky","steam_id":76561198116681081,"connected_time":6671000000000,"state":"active","ping":106},{"user_id":601,"name":"Tedkon","steam_id":76561198034141061,"connected_time":2027000000000,"state":"active","ping":146},{"user_id":623,"name":"daanvanliempt05","steam_id":76561198355398948,"connected_time":121000000000,"state":"active","ping":52},{"user_id":592,"name":".quickfast.","steam_id":76561199438900919,"connected_time":2454000000000,"state":"active","ping":54},{"user_id":595,"name":"J3LLY","steam_id":76561198048453764,"connected_time":2383000000000,"state":"active","ping":49},{"user_id":616,"name":"Vince","steam_id":76561199103000131,"connected_time":679000000000,"state":"active","ping":45},{"user_id":583,"name":"banrab","steam_id":76561198083615367,"connected_time":2611000000000,"state":"active","ping":37},{"user_id":578,"name":"DDO1","steam_id":76561198348234399,"connected_time":2719000000000,"state":"active","ping":53},{"user_id":508,"name":"snsnsnsniff","steam_id":76561198259668029,"connected_time":7783000000000,"state":"active","ping":54},{"user_id":617,"name":"ScottMachine","steam_id":76561198813531432,"connected_time":661000000000,"state":"active","ping":55},{"user_id":599,"name":"Mathieu.","steam_id":76561198039268163,"connected_time":2217000000000,"state":"active","ping":63},{"user_id":621,"name":"SOPHIIEE","steam_id":76561198443798981,"connected_time":206000000000,"state":"active","ping":55},{"user_id":602,"name":"Tafrum","steam_id":76561198053868147,"connected_time":2025000000000,"state":"active","ping":81},{"user_id":604,"name":"lookbrood","steam_id":76561198025592834,"connected_time":1590000000000,"state":"active","ping":50},{"user_id":543,"name":"bladee","steam_id":76561199188883519,"connected_time":4765000000000,"state":"active","ping":49},{"user_id":622,"name":"eggslut","steam_id":76561198010752241,"connected_time":175000000000,"state":"active","ping":61}]},{"server_id":114,"name":"Uncletopia | London | 2 | All Maps","name_short":"lon-2","host":"lon-1.uk.uncletopia.com","port":27025,"enabled":true,"region":"eu","cc":"gb","latitude":51.509865,"longitude":-0.118092,"reserved":0,"last_update":"0001-01-01T00:00:00Z","name_a2s":"Uncletopia | London | 2 | All Maps","protocol":17,"map":"pl_borneo","folder":"tf","game":"Team Fortress","app_id":440,"player_count":24,"max_players":24,"Bots":0,"server_type":"Dedicated","server_os":"Linux","password":true,"vac":true,"version":"7742253","steam_id":85568392924470941,"keywords":["nocrits","nodmgspread","payload","uncletopia"],"game_id":440,"stv_port":27026,"stv_name":"Uncletopia | London | 2 | All Maps | STV","players":[{"user_id":669,"name":"Stille Willem","steam_id":76561198093579428,"connected_time":1512000000000,"state":"active","ping":57},{"user_id":692,"name":"Saken","steam_id":76561198049075295,"connected_time":747000000000,"state":"active","ping":60},{"user_id":645,"name":"Yaire","steam_id":76561198017343510,"connected_time":3045000000000,"state":"active","ping":54},{"user_id":671,"name":"Sheerluck Holmes","steam_id":76561198051161936,"connected_time":1326000000000,"state":"active","ping":49},{"user_id":646,"name":"burial","steam_id":76561198009115060,"connected_time":3029000000000,"state":"active","ping":75},{"user_id":691,"name":"jovi_","steam_id":76561198449280552,"connected_time":907000000000,"state":"active","ping":52},{"user_id":673,"name":"4's up Rigby","steam_id":76561199122067976,"connected_time":1268000000000,"state":"active","ping":50},{"user_id":689,"name":"KFD","steam_id":76561198157183003,"connected_time":989000000000,"state":"active","ping":83},{"user_id":676,"name":"balanced diet","steam_id":76561198240320806,"connected_time":1208000000000,"state":"active","ping":72},{"user_id":697,"name":"Senior","steam_id":76561198065014164,"connected_time":221000000000,"state":"active","ping":51},{"user_id":677,"name":"Saul Goodsex","steam_id":76561198173218318,"connected_time":1164000000000,"state":"active","ping":44},{"user_id":658,"name":"cowboy collins","steam_id":76561198262036705,"connected_time":2439000000000,"state":"active","ping":42},{"user_id":695,"name":"Bob D","steam_id":76561198026375630,"connected_time":574000000000,"state":"active","ping":55},{"user_id":649,"name":"Wheatley","steam_id":76561199059006203,"connected_time":3012000000000,"state":"active","ping":153},{"user_id":661,"name":"socaramel","steam_id":76561197984480336,"connected_time":2353000000000,"state":"active","ping":75},{"user_id":685,"name":"Rain","steam_id":76561198186993269,"connected_time":1079000000000,"state":"active","ping":48},{"user_id":690,"name":"NotExactlyAName","steam_id":76561199131759230,"connected_time":947000000000,"state":"active","ping":72},{"user_id":687,"name":"astralscr","steam_id":76561199090360946,"connected_time":1049000000000,"state":"active","ping":52},{"user_id":615,"name":"I want my dog back","steam_id":76561198318748304,"connected_time":6184000000000,"state":"active","ping":124},{"user_id":681,"name":"Combat Wombat","steam_id":76561197994720068,"connected_time":1147000000000,"state":"active","ping":61},{"user_id":693,"name":"Baklava Enjoyer","steam_id":76561198990679631,"connected_time":637000000000,"state":"active","ping":74},{"user_id":686,"name":"G6 sherlock","steam_id":76561198802967796,"connected_time":1066000000000,"state":"active","ping":118},{"user_id":660,"name":"British Disapproval","steam_id":76561198001375260,"connected_time":2357000000000,"state":"active","ping":56},{"user_id":694,"name":"lego man","steam_id":76561198053394831,"connected_time":629000000000,"state":"active","ping":72}]},{"server_id":320,"name":"Uncletopia | London | 3 | All Maps","name_short":"lon-3","host":"lon-1.uk.uncletopia.com","port":27035,"enabled":true,"region":"eu","cc":"gb","latitude":51.509865,"longitude":-0.118092,"reserved":0,"last_update":"0001-01-01T00:00:00Z","name_a2s":"Uncletopia | London | 3 | All Maps","protocol":17,"map":"cp_dustbowl","folder":"tf","game":"Team Fortress","app_id":440,"player_count":2,"max_players":24,"Bots":0,"server_type":"Dedicated","server_os":"Linux","password":true,"vac":true,"version":"7742253","steam_id":85568392924510192,"keywords":["cp","nocrits","nodmgspread","uncletopia"],"game_id":440,"stv_port":27036,"stv_name":"Uncletopia | London | 3 | All Maps | STV","players":[{"user_id":451,"name":"Brinier","steam_id":76561199012604288,"connected_time":806000000000,"state":"active","ping":62},{"user_id":450,"name":"Snow raze32","steam_id":76561198059871919,"connected_time":864000000000,"state":"active","ping":75}]},{"server_id":321,"name":"Uncletopia | London | 4 | All Maps","name_short":"lon-4","host":"lon-1.uk.uncletopia.com","port":27045,"enabled":true,"region":"eu","cc":"gb","latitude":51.509865,"longitude":-0.118092,"reserved":0,"last_update":"0001-01-01T00:00:00Z","name_a2s":"Uncletopia | London | 4 | All Maps","protocol":17,"map":"koth_highpass","folder":"tf","game":"Team Fortress","app_id":440,"player_count":0,"max_players":24,"Bots":0,"server_type":"Dedicated","server_os":"Linux","password":true,"vac":true,"version":"7742253","steam_id":85568392924510193,"keywords":["cp","nocrits","nodmgspread","uncletopia"],"game_id":440,"stv_port":27046,"stv_name":"Uncletopia | London | 4 | All Maps | STV","players":null},{"server_id":21,"name":"Uncletopia | London | 5 | All Maps","name_short":"lon-5","host":"lon-1.uk.uncletopia.com","port":27055,"enabled":true,"region":"eu","cc":"gb","latitude":51.509865,"longitude":-0.118092,"reserved":0,"last_update":"0001-01-01T00:00:00Z","name_a2s":"Uncletopia | London | 5 | All Maps","protocol":17,"map":"cp_dustbowl","folder":"tf","game":"Team Fortress","app_id":440,"player_count":2,"max_players":24,"Bots":0,"server_type":"Dedicated","server_os":"Linux","password":true,"vac":true,"version":"7742253","steam_id":85568392924742829,"keywords":["cp","nocrits","nodmgspread","uncletopia"],"game_id":440,"stv_port":27056,"stv_name":"Uncletopia | London | 5 | All Maps | STV","players":[{"user_id":339,"name":"AftiksPL #femboygaming","steam_id":76561198875182686,"connected_time":1197000000000,"state":"active","ping":102},{"user_id":336,"name":"scoggan42","steam_id":76561199206140567,"connected_time":1322000000000,"state":"active","ping":139}]},{"server_id":22,"name":"Uncletopia | London | 6 | All Maps","name_short":"lon-6","host":"lon-1.uk.uncletopia.com","port":27065,"enabled":true,"region":"eu","cc":"gb","latitude":51.509865,"longitude":-0.118092,"reserved":0,"last_update":"0001-01-01T00:00:00Z","name_a2s":"Uncletopia | London | 6 | All Maps","protocol":17,"map":"cp_steel","folder":"tf","game":"Team Fortress","app_id":440,"player_count":23,"max_players":24,"Bots":0,"server_type":"Dedicated","server_os":"Linux","password":true,"vac":true,"version":"7742253","steam_id":85568392924742830,"keywords":["cp","nocrits","nodmgspread","uncletopia"],"game_id":440,"stv_port":27066,"stv_name":"Uncletopia | London | 6 | All Maps | STV","players":[{"user_id":261,"name":"‚òÖ sat1ra","steam_id":76561198011382701,"connected_time":526000000000,"state":"active","ping":75},{"user_id":262,"name":"Breadcrab","steam_id":76561198015924039,"connected_time":499000000000,"state":"active","ping":60},{"user_id":263,"name":"Avitz","steam_id":76561197986150359,"connected_time":458000000000,"state":"active","ping":42},{"user_id":218,"name":"Gamer Juice Medic","steam_id":76561198028354201,"connected_time":3357000000000,"state":"active","ping":49},{"user_id":260,"name":"Viennetta Gaming","steam_id":76561198917426802,"connected_time":562000000000,"state":"active","ping":34},{"user_id":265,"name":"Bobr","steam_id":76561199095457184,"connected_time":398000000000,"state":"active","ping":84},{"user_id":266,"name":"Mat-Shades","steam_id":76561198013998031,"connected_time":360000000000,"state":"active","ping":153},{"user_id":267,"name":"Moral","steam_id":76561198130601123,"connected_time":286000000000,"state":"active","ping":65},{"user_id":255,"name":"gory","steam_id":76561199127523368,"connected_time":693000000000,"state":"active","ping":49},{"user_id":251,"name":"iBeKelsey","steam_id":76561198426604784,"connected_time":823000000000,"state":"active","ping":40},{"user_id":205,"name":"Mr.Cupcake","steam_id":76561198152711174,"connected_time":3683000000000,"state":"active","ping":60},{"user_id":269,"name":"RGH","steam_id":76561198037523875,"connected_time":196000000000,"state":"active","ping":42},{"user_id":268,"name":"Benameme","steam_id":76561198074097655,"connected_time":266000000000,"state":"active","ping":49},{"user_id":235,"name":"Langers","steam_id":76561198046966693,"connected_time":2196000000000,"state":"active","ping":45},{"user_id":271,"name":"InsectKing","steam_id":76561199013519071,"connected_time":190000000000,"state":"active","ping":39},{"user_id":272,"name":"jimbo.pedderz","steam_id":76561199226376707,"connected_time":181000000000,"state":"active","ping":62},{"user_id":273,"name":"Hkitchen","steam_id":76561198194779526,"connected_time":176000000000,"state":"active","ping":37},{"user_id":274,"name":"FailedAimBot","steam_id":76561199036264388,"connected_time":156000000000,"state":"active","ping":58},{"user_id":219,"name":"Bur√ªskuryn","steam_id":76561198065789296,"connected_time":3296000000000,"state":"active","ping":47},{"user_id":275,"name":"M A D M A X","steam_id":76561198205304508,"connected_time":152000000000,"state":"active","ping":49},{"user_id":276,"name":"SmithyBoy","steam_id":76561198240601534,"connected_time":140000000000,"state":"active","ping":42},{"user_id":277,"name":"Minigrim0","steam_id":76561198087819466,"connected_time":122000000000,"state":"active","ping":64},{"user_id":278,"name":"SLoW","steam_id":76561198032650972,"connected_time":111000000000,"state":"active","ping":119}]},{"server_id":40,"name":"Uncletopia | London | 7 | No Payload","name_short":"lon-7","host":"lon-1.uk.uncletopia.com","port":27075,"enabled":true,"region":"eu","cc":"gb","latitude":51.509865,"longitude":-0.118092,"reserved":0,"last_update":"0001-01-01T00:00:00Z","name_a2s":"Uncletopia | London | 7 | No Payload","protocol":17,"map":"koth_lakeside_final","folder":"tf","game":"Team Fortress","app_id":440,"player_count":15,"max_players":24,"Bots":0,"server_type":"Dedicated","server_os":"Linux","password":true,"vac":true,"version":"7742253","steam_id":85568392924964314,"keywords":["cp","nocrits","nodmgspread","uncletopia"],"game_id":440,"stv_port":27076,"stv_name":"Uncletopia | London | 7 | No Payload | STV","players":[{"user_id":191,"name":"The Friendly Demo","steam_id":76561199189803939,"connected_time":17000000000,"state":"active","ping":85},{"user_id":190,"name":"Wisely","steam_id":76561198072706490,"connected_time":76000000000,"state":"active","ping":51},{"user_id":162,"name":"Ok","steam_id":76561198356826506,"connected_time":1053000000000,"state":"active","ping":185},{"user_id":143,"name":"Welder","steam_id":76561198355300561,"connected_time":2483000000000,"state":"active","ping":65},{"user_id":185,"name":"slippin jimmy","steam_id":76561199116882319,"connected_time":220000000000,"state":"active","ping":40},{"user_id":188,"name":"GeoDen16","steam_id":76561198133569294,"connected_time":132000000000,"state":"active","ping":38},{"user_id":165,"name":"Campty","steam_id":76561198810134666,"connected_time":828000000000,"state":"active","ping":36},{"user_id":186,"name":"Nxmee","steam_id":76561197999721409,"connected_time":208000000000,"state":"active","ping":46},{"user_id":180,"name":"SpaceGoat","steam_id":76561198091774304,"connected_time":473000000000,"state":"active","ping":50},{"user_id":189,"name":"nya!","steam_id":76561198293309694,"connected_time":87000000000,"state":"active","ping":46},{"user_id":91,"name":"saml","steam_id":76561198040716257,"connected_time":5795000000000,"state":"active","ping":89},{"user_id":114,"name":"Bonk!","steam_id":76561198402289367,"connected_time":4009000000000,"state":"active","ping":51},{"user_id":187,"name":"Daddie","steam_id":76561198276608977,"connected_time":202000000000,"state":"active","ping":45},{"user_id":93,"name":"holykyckling","steam_id":76561198040661615,"connected_time":5789000000000,"state":"active","ping":75},{"user_id":141,"name":"Cobb Salads","steam_id":76561197971140507,"connected_time":2642000000000,"state":"active","ping":76}]},{"server_id":41,"name":"Uncletopia | London | 8 | Community","name_short":"lon-8","host":"lon-1.uk.uncletopia.com","port":27085,"enabled":true,"region":"eu","cc":"gb","latitude":51.509865,"longitude":-0.118092,"reserved":0,"last_update":"0001-01-01T00:00:00Z","name_a2s":"Uncletopia | London | 8 | Community","protocol":17,"map":"workshop/koth_bagel_rc5.ugc2514036946","folder":"tf","game":"Team Fortress","app_id":440,"player_count":0,"max_players":24,"Bots":0,"server_type":"Dedicated","server_os":"Linux","password":true,"vac":true,"version":"7742253","steam_id":85568392924964315,"keywords":["cp","nocrits","nodmgspread","uncletopia"],"game_id":440,"stv_port":27086,"stv_name":"Uncletopia | London | 8 | Community | STV","players":null},{"server_id":300,"name":"Uncletopia | Montr√©al | 1 | All Maps","name_short":"mtl-1","host":"mtl-1.ca.uncletopia.com","port":27015,"enabled":true,"region":"us-east","cc":"ca","latitude":45.50889,"longitude":-73.56167,"reserved":0,"last_update":"0001-01-01T00:00:00Z","name_a2s":"Uncletopia | Montr√©al | 1 | All Maps","protocol":17,"map":"koth_highpass","folder":"tf","game":"Team Fortress","app_id":440,"player_count":0,"max_players":24,"Bots":0,"server_type":"Dedicated","server_os":"Linux","password":true,"vac":true,"version":"7742253","steam_id":85568392924500087,"keywords":["cp","nocrits","nodmgspread","uncletopia"],"game_id":440,"stv_port":27016,"stv_name":"Uncletopia | Montr√©al | 1 | All Maps | STV","players":null},{"server_id":301,"name":"Uncletopia | Montr√©al | 2 | All Maps","name_short":"mtl-2","host":"mtl-1.ca.uncletopia.com","port":27025,"enabled":true,"region":"us-east","cc":"ca","latitude":45.50889,"longitude":-73.56167,"reserved":0,"last_update":"0001-01-01T00:00:00Z","name_a2s":"Uncletopia | Montr√©al | 2 | All Maps","protocol":17,"map":"koth_highpass","folder":"tf","game":"Team Fortress","app_id":440,"player_count":0,"max_players":24,"Bots":0,"server_type":"Dedicated","server_os":"Linux","password":true,"vac":true,"version":"7742253","steam_id":85568392924500088,"keywords":["cp","nocrits","nodmgspread","uncletopia"],"game_id":440,"stv_port":27026,"stv_name":"Uncletopia | Montr√©al | 2 | All Maps | STV","players":null},{"server_id":302,"name":"Uncletopia | Montr√©al | 3 | All Maps","name_short":"mtl-3","host":"mtl-1.ca.uncletopia.com","port":27035,"enabled":true,"region":"us-east","cc":"ca","latitude":45.50889,"longitude":-73.56167,"reserved":0,"last_update":"0001-01-01T00:00:00Z","name_a2s":"Uncletopia | Montr√©al | 3 | All Maps","protocol":17,"map":"pl_swiftwater_final1","folder":"tf","game":"Team Fortress","app_id":440,"player_count":24,"max_players":24,"Bots":0,"server_type":"Dedicated","server_os":"Linux","password":true,"vac":true,"version":"7742253","steam_id":85568392924500089,"keywords":["nocrits","nodmgspread","payload","uncletopia"],"game_id":440,"stv_port":27036,"stv_name":"Uncletopia | Montr√©al | 3 | All Maps | STV","players":[{"user_id":16,"name":"succub3","steam_id":76561198441831653,"connected_time":1306000000000,"state":"active","ping":53},{"user_id":6,"name":"MrBert","steam_id":76561198025034020,"connected_time":1542000000000,"state":"active","ping":43},{"user_id":7,"name":"Gravdiggr","steam_id":76561198049904581,"connected_time":1531000000000,"state":"active","ping":50},{"user_id":33,"name":"ambrotos","steam_id":76561198042600523,"connected_time":690000000000,"state":"active","ping":76},{"user_id":9,"name":"Ash","steam_id":76561198014178713,"connected_time":1509000000000,"state":"active","ping":51},{"user_id":10,"name":"Nathacool68","steam_id":76561198312429048,"connected_time":1509000000000,"state":"active","ping":53},{"user_id":31,"name":"wolfgrey139","steam_id":76561199206554751,"connected_time":933000000000,"state":"active","ping":76},{"user_id":32,"name":"zasvicuful","steam_id":76561198186803294,"connected_time":730000000000,"state":"active","ping":155},{"user_id":13,"name":"Thrill","steam_id":76561198014235899,"connected_time":1495000000000,"state":"active","ping":52},{"user_id":14,"name":"TMStamp","steam_id":76561198035948178,"connected_time":1425000000000,"state":"active","ping":50},{"user_id":35,"name":"Number 1 Ken Marino fan","steam_id":76561199215811448,"connected_time":364000000000,"state":"active","ping":63},{"user_id":17,"name":"FrostyToes","steam_id":76561198020924146,"connected_time":1285000000000,"state":"active","ping":55},{"user_id":18,"name":"bananepizza","steam_id":76561198379375054,"connected_time":1266000000000,"state":"active","ping":65},{"user_id":22,"name":"Grayo","steam_id":76561198059652623,"connected_time":1188000000000,"state":"active","ping":47},{"user_id":36,"name":"QueenSythe","steam_id":76561198340661472,"connected_time":300000000000,"state":"active","ping":61},{"user_id":21,"name":"all_classics","steam_id":76561198012738913,"connected_time":1218000000000,"state":"active","ping":60},{"user_id":23,"name":"The Forgotten","steam_id":76561198355357750,"connected_time":1144000000000,"state":"active","ping":50},{"user_id":34,"name":"Stellar","steam_id":76561197995163852,"connected_time":675000000000,"state":"active","ping":51},{"user_id":25,"name":"{ST} chunkyMerchant","steam_id":76561198318701494,"connected_time":1106000000000,"state":"active","ping":49},{"user_id":26,"name":"surrender to the void","steam_id":76561198055494039,"connected_time":1104000000000,"state":"active","ping":53},{"user_id":37,"name":"Colin102004","steam_id":76561198202384334,"connected_time":299000000000,"state":"active","ping":51},{"user_id":28,"name":"Liquid_Smog","steam_id":76561199033066693,"connected_time":1046000000000,"state":"active","ping":96},{"user_id":29,"name":"Fish_U.S.","steam_id":76561199245543997,"connected_time":1037000000000,"state":"active","ping":59},{"user_id":30,"name":"dicksnip","steam_id":76561198356515396,"connected_time":1036000000000,"state":"active","ping":102}]},{"server_id":303,"name":"Uncletopia | Montr√©al | 4 | No Payload","name_short":"mtl-4","host":"mtl-1.ca.uncletopia.com","port":27045,"enabled":true,"region":"us-east","cc":"ca","latitude":45.50889,"longitude":-73.56167,"reserved":0,"last_update":"0001-01-01T00:00:00Z","name_a2s":"Uncletopia | Montr√©al | 4 | No Payload","protocol":17,"map":"cp_snakewater_final1","folder":"tf","game":"Team Fortress","app_id":440,"player_count":0,"max_players":24,"Bots":0,"server_type":"Dedicated","server_os":"Linux","password":true,"vac":true,"version":"7742253","steam_id":85568392924500090,"keywords":["cp","nocrits","nodmgspread","uncletopia"],"game_id":440,"stv_port":27046,"stv_name":"Uncletopia | Montr√©al | 4 | No Payload | STV","players":null},{"server_id":13,"name":"Uncletopia | New York City | 1 | All Maps","name_short":"nyc-1","host":"nyc-1.us.uncletopia.com","port":27015,"enabled":true,"region":"us-east","cc":"us","latitude":40.73061,"longitude":-73.93524,"reserved":0,"last_update":"0001-01-01T00:00:00Z","name_a2s":"Uncletopia | New York City | 1 | All Maps","protocol":17,"map":"koth_viaduct","folder":"tf","game":"Team Fortress","app_id":440,"player_count":24,"max_players":24,"Bots":0,"server_type":"Dedicated","server_os":"Linux","password":true,"vac":true,"version":"7742253","steam_id":85568392924469993,"keywords":["cp","nocrits","nodmgspread","uncletopia"],"game_id":440,"stv_port":27016,"stv_name":"Uncletopia | New York City | 1 | All Maps | STV","players":[{"user_id":179,"name":"SKIN IS WHERE THE FLAVOR IS","steam_id":76561198115842661,"connected_time":1500000000000,"state":"active","ping":78},{"user_id":195,"name":"monkey d boofy","steam_id":76561198314114834,"connected_time":428000000000,"state":"active","ping":48},{"user_id":194,"name":"pepsibobby","steam_id":76561198853864511,"connected_time":509000000000,"state":"active","ping":73},{"user_id":196,"name":"pouningman","steam_id":76561198037075657,"connected_time":424000000000,"state":"active","ping":65},{"user_id":161,"name":"RibRubz","steam_id":76561199024487700,"connected_time":3147000000000,"state":"active","ping":125},{"user_id":197,"name":"Tourmaline Lazuli","steam_id":76561198987049358,"connected_time":410000000000,"state":"active","ping":56},{"user_id":176,"name":"Chimpin723","steam_id":76561199388637537,"connected_time":1663000000000,"state":"active","ping":41},{"user_id":189,"name":"crippling fumo addiction","steam_id":76561198115874625,"connected_time":808000000000,"state":"active","ping":54},{"user_id":192,"name":"moodi catgirl","steam_id":76561198124028045,"connected_time":630000000000,"state":"active","ping":40},{"user_id":177,"name":"Nexusthenormie","steam_id":76561198880184146,"connected_time":1589000000000,"state":"active","ping":44},{"user_id":138,"name":"spinz","steam_id":76561198353098481,"connected_time":4974000000000,"state":"active","ping":46},{"user_id":200,"name":"Uncle Majic the Hip Hop Magicia","steam_id":76561198107924303,"connected_time":314000000000,"state":"active","ping":49},{"user_id":198,"name":"rain maintainer","steam_id":76561198838282369,"connected_time":366000000000,"state":"active","ping":68},{"user_id":151,"name":"Ekstra","steam_id":76561199031147010,"connected_time":3796000000000,"state":"active","ping":155},{"user_id":141,"name":"Kraftlos","steam_id":76561198074350350,"connected_time":4868000000000,"state":"active","ping":54},{"user_id":201,"name":"Beanboi","steam_id":76561198977881677,"connected_time":252000000000,"state":"active","ping":59},{"user_id":174,"name":"WitheringLeo","steam_id":76561198046722918,"connected_time":2370000000000,"state":"active","ping":49},{"user_id":199,"name":"dogen","steam_id":76561198803769563,"connected_time":358000000000,"state":"active","ping":85},{"user_id":190,"name":"Captain Komi","steam_id":76561198057125157,"connected_time":808000000000,"state":"active","ping":66},{"user_id":144,"name":"McNamJam","steam_id":76561198028128686,"connected_time":4834000000000,"state":"active","ping":119},{"user_id":145,"name":"Bluebird","steam_id":76561199143106401,"connected_time":4828000000000,"state":"active","ping":44},{"user_id":193,"name":"Jumbokiev","steam_id":76561198843763778,"connected_time":621000000000,"state":"active","ping":132},{"user_id":159,"name":"ZekeThePlumber","steam_id":76561197995016724,"connected_time":3178000000000,"state":"active","ping":55},{"user_id":204,"name":"Jake the octoling","steam_id":76561199036068954,"connected_time":67000000000,"state":"spawning","ping":136}]},{"server_id":14,"name":"Uncletopia | New York City | 2 | All Maps","name_short":"nyc-2","host":"nyc-1.us.uncletopia.com","port":27025,"enabled":true,"region":"us-east","cc":"us","latitude":40.73061,"longitude":-73.93524,"reserved":0,"last_update":"0001-01-01T00:00:00Z","name_a2s":"Uncletopia | New York City | 2 | All Maps","protocol":17,"map":"cp_sunshine","folder":"tf","game":"Team Fortress","app_id":440,"player_count":1,"max_players":24,"Bots":0,"server_type":"Dedicated","server_os":"Linux","password":true,"vac":true,"version":"7742253","steam_id":85568392924469994,"keywords":["cp","nocrits","nodmgspread","uncletopia"],"game_id":440,"stv_port":27026,"stv_name":"Uncletopia | New York City | 2 | All Maps | STV","players":[{"user_id":9,"name":"piflle","steam_id":76561199283873577,"connected_time":49000000000,"state":"active","ping":56}]},{"server_id":15,"name":"Uncletopia | New York City | 3 | Stopwatch Beta","name_short":"nyc-3","host":"nyc-1.us.uncletopia.com","port":27035,"enabled":true,"region":"us-east","cc":"us","latitude":40.73061,"longitude":-73.93524,"reserved":0,"last_update":"0001-01-01T00:00:00Z","name_a2s":"Uncletopia | New York City | 3 | Stopwatch Beta","protocol":17,"map":"koth_highpass","folder":"tf","game":"Team Fortress","app_id":440,"player_count":4,"max_players":24,"Bots":0,"server_type":"Dedicated","server_os":"Linux","password":true,"vac":true,"version":"7742253","steam_id":85568392924742820,"keywords":["cp","nocrits","nodmgspread","uncletopia"],"game_id":440,"stv_port":27036,"stv_name":"Uncletopia | New York City | 3 | Stopwatch Beta | STV","players":[{"user_id":24,"name":"ayr","steam_id":76561198083640961,"connected_time":1440000000000,"state":"active","ping":59},{"user_id":25,"name":"3armedfalcon","steam_id":76561199257817140,"connected_time":756000000000,"state":"active","ping":67},{"user_id":26,"name":"cropping","steam_id":76561198026586456,"connected_time":162000000000,"state":"active","ping":129},{"user_id":27,"name":"reka the freeka","steam_id":76561198042746390,"connected_time":155000000000,"state":"active","ping":85}]},{"server_id":16,"name":"Uncletopia | New York City | 4 | Community","name_short":"nyc-4","host":"nyc-1.us.uncletopia.com","port":27045,"enabled":true,"region":"us-east","cc":"us","latitude":40.73061,"longitude":-73.93524,"reserved":0,"last_update":"0001-01-01T00:00:00Z","name_a2s":"Uncletopia | New York City | 4 | Community","protocol":17,"map":"koth_viaduct","folder":"tf","game":"Team Fortress","app_id":440,"player_count":0,"max_players":24,"Bots":0,"server_type":"Dedicated","server_os":"Linux","password":true,"vac":true,"version":"7742253","steam_id":85568392924742821,"keywords":["cp","nocrits","nodmgspread","uncletopia"],"game_id":440,"stv_port":27046,"stv_name":"Uncletopia | New York City | 4 | Community | STV","players":null},{"server_id":142,"name":"Uncletopia | S√£o Paulo | 1 | All Maps","name_short":"sao-1","host":"sao-1.br.uncletopia.com","port":27015,"enabled":true,"region":"sa","cc":"br","latitude":-23.533773,"longitude":-46.62529,"reserved":0,"last_update":"0001-01-01T00:00:00Z","name_a2s":"Uncletopia | S√£o Paulo | 1 | All Maps","protocol":17,"map":"koth_cascade","folder":"tf","game":"Team Fortress","app_id":440,"player_count":9,"max_players":24,"Bots":0,"server_type":"Dedicated","server_os":"Linux","password":true,"vac":true,"version":"7742253","steam_id":85568392924469996,"keywords":["cp","nocrits","nodmgspread","uncletopia"],"game_id":440,"stv_port":27016,"stv_name":"Uncletopia | S√£o Paulo | 1 | All Maps | STV","players":[{"user_id":53,"name":"riZ|n","steam_id":76561197972589972,"connected_time":123000000000,"state":"active","ping":107},{"user_id":43,"name":"Sir Tex","steam_id":76561197976110891,"connected_time":669000000000,"state":"active","ping":51},{"user_id":46,"name":"Stalin","steam_id":76561198073356694,"connected_time":608000000000,"state":"active","ping":62},{"user_id":54,"name":"Destyail","steam_id":76561199115887361,"connected_time":111000000000,"state":"active","ping":38},{"user_id":55,"name":"‡πá‡πá‡πá‡πá‡πá‡πá‡πá‡πá‡πá‡πá","steam_id":76561198444488420,"connected_time":109000000000,"state":"active","ping":51},{"user_id":56,"name":"Blu","steam_id":76561198111052236,"connected_time":108000000000,"state":"active","ping":35},{"user_id":49,"name":"BadSpotted","steam_id":76561198156334217,"connected_time":579000000000,"state":"active","ping":51},{"user_id":50,"name":"Vic Rattlehead","steam_id":76561199232899925,"connected_time":408000000000,"state":"active","ping":52},{"user_id":52,"name":"DaisyIsBestGirl","steam_id":76561198353408382,"connected_time":323000000000,"state":"active","ping":101}]},{"server_id":143,"name":"Uncletopia | S√£o Paulo | 2 | All Maps","name_short":"sao-2","host":"sao-2.br.uncletopia.com","port":27015,"enabled":true,"region":"sa","cc":"br","latitude":-23.533773,"longitude":-46.62529,"reserved":0,"last_update":"0001-01-01T00:00:00Z","name_a2s":"Uncletopia | S√£o Paulo | 2 | All Maps","protocol":17,"map":"pl_pier","folder":"tf","game":"Team Fortress","app_id":440,"player_count":0,"max_players":24,"Bots":0,"server_type":"Dedicated","server_os":"Linux","password":true,"vac":true,"version":"7742253","steam_id":85568392924485349,"keywords":["nocrits","nodmgspread","payload","uncletopia"],"game_id":440,"stv_port":27016,"stv_name":"Uncletopia | S√£o Paulo | 2 | All Maps | STV","players":null},{"server_id":7,"name":"Uncletopia | Seattle | 1 | All Maps","name_short":"sea-1","host":"sea-1.us.uncletopia.com","port":27015,"enabled":true,"region":"us-west","cc":"us","latitude":47.608013,"longitude":-122.33517,"reserved":0,"last_update":"0001-01-01T00:00:00Z","name_a2s":"Uncletopia | Seattle | 1 | All Maps","protocol":17,"map":"pl_barnblitz","folder":"tf","game":"Team Fortress","app_id":440,"player_count":2,"max_players":24,"Bots":0,"server_type":"Dedicated","server_os":"Linux","password":true,"vac":true,"version":"7742253","steam_id":85568392924469997,"keywords":["nocrits","nodmgspread","payload","uncletopia"],"game_id":440,"stv_port":27016,"stv_name":"Uncletopia | Seattle | 1 | All Maps | STV","players":[{"user_id":10,"name":"zottellotte","steam_id":76561199109444136,"connected_time":422000000000,"state":"active","ping":221},{"user_id":11,"name":"CrazzyRoxxy","steam_id":76561198853813465,"connected_time":353000000000,"state":"active","ping":212}]},{"server_id":119,"name":"Uncletopia | Seattle | 2 | All Maps","name_short":"sea-2","host":"sea-1.us.uncletopia.com","port":27025,"enabled":true,"region":"us-west","cc":"us","latitude":47.608013,"longitude":-122.33517,"reserved":0,"last_update":"0001-01-01T00:00:00Z","name_a2s":"Uncletopia | Seattle | 2 | All Maps","protocol":17,"map":"pl_borneo","folder":"tf","game":"Team Fortress","app_id":440,"player_count":24,"max_players":24,"Bots":0,"server_type":"Dedicated","server_os":"Linux","password":true,"vac":true,"version":"7742253","steam_id":85568392924469998,"keywords":["nocrits","nodmgspread","payload","uncletopia"],"game_id":440,"stv_port":27026,"stv_name":"Uncletopia | Seattle | 2 | All Maps | STV","players":[{"user_id":16,"name":"ManWater","steam_id":76561199121562006,"connected_time":3508000000000,"state":"active","ping":38},{"user_id":17,"name":"miu","steam_id":76561198956416788,"connected_time":3429000000000,"state":"active","ping":45},{"user_id":51,"name":"Skabbety","steam_id":76561198168044257,"connected_time":273000000000,"state":"active","ping":35},{"user_id":20,"name":"zoo-music girl","steam_id":76561198325306660,"connected_time":2733000000000,"state":"active","ping":53},{"user_id":21,"name":"CoolKey","steam_id":76561199117070584,"connected_time":2606000000000,"state":"active","ping":51},{"user_id":33,"name":"Mr. Dick‚Ñ¢","steam_id":76561198047309044,"connected_time":1741000000000,"state":"active","ping":106},{"user_id":23,"name":"resting neutral face","steam_id":76561197999259502,"connected_time":2301000000000,"state":"active","ping":60},{"user_id":39,"name":"JON","steam_id":76561198057971005,"connected_time":1579000000000,"state":"active","ping":37},{"user_id":32,"name":"demoman","steam_id":76561199389584938,"connected_time":1835000000000,"state":"active","ping":39},{"user_id":26,"name":"Zebulon Pike","steam_id":76561198025719753,"connected_time":2077000000000,"state":"active","ping":41},{"user_id":27,"name":"bouger king","steam_id":76561198405900060,"connected_time":2052000000000,"state":"active","ping":55},{"user_id":28,"name":"Bluedemons","steam_id":76561199212058684,"connected_time":1998000000000,"state":"active","ping":78},{"user_id":34,"name":"KingTinkerer","steam_id":76561198226856548,"connected_time":1737000000000,"state":"active","ping":65},{"user_id":30,"name":"Stax","steam_id":76561198128901451,"connected_time":1931000000000,"state":"active","ping":54},{"user_id":31,"name":"Oktayey","steam_id":76561198143213426,"connected_time":1916000000000,"state":"active","ping":65},{"user_id":35,"name":"KingEgamer_03","steam_id":76561199283258364,"connected_time":1687000000000,"state":"active","ping":109},{"user_id":36,"name":"MCman","steam_id":76561198412110305,"connected_time":1663000000000,"state":"active","ping":76},{"user_id":49,"name":"Robert E.T.","steam_id":76561197986439371,"connected_time":899000000000,"state":"active","ping":49},{"user_id":38,"name":"saman.ataei","steam_id":76561198995632014,"connected_time":1594000000000,"state":"active","ping":100},{"user_id":40,"name":"Evanb","steam_id":76561198042057792,"connected_time":1557000000000,"state":"active","ping":45},{"user_id":52,"name":"[TrC] Dackstrus","steam_id":76561197973518509,"connected_time":157000000000,"state":"active","ping":58},{"user_id":47,"name":"PopcornNinja101","steam_id":76561198330680181,"connected_time":970000000000,"state":"active","ping":49},{"user_id":54,"name":"penguinlord30","steam_id":76561198437116566,"connected_time":63000000000,"state":"active","ping":269},{"user_id":46,"name":"ORANGE","steam_id":76561198000401769,"connected_time":1332000000000,"state":"active","ping":56}]},{"server_id":406,"name":"Uncletopia | Seattle | 3 | Stopwatch Beta","name_short":"sea-3","host":"sea-1.us.uncletopia.com","port":27035,"enabled":true,"region":"us-west","cc":"us","latitude":47.608013,"longitude":-122.33517,"reserved":0,"last_update":"0001-01-01T00:00:00Z","name_a2s":"Uncletopia | Seattle | 3 | Stopwatch Beta","protocol":17,"map":"workshop/pl_vigil_rc9.ugc1266210012","folder":"tf","game":"Team Fortress","app_id":440,"player_count":0,"max_players":24,"Bots":0,"server_type":"Dedicated","server_os":"Linux","password":true,"vac":true,"version":"7742253","steam_id":85568392924515217,"keywords":["nocrits","nodmgspread","payload","uncletopia"],"game_id":440,"stv_port":27036,"stv_name":"Uncletopia | Seattle | 3 | Stopwatch Beta | STV","players":null},{"server_id":17,"name":"Uncletopia | San Francisco | 1 | All Maps","name_short":"sfo-1","host":"sfo-1.us.uncletopia.com","port":27015,"enabled":true,"region":"us-west","cc":"us","latitude":37.77397,"longitude":-122.4313,"reserved":0,"last_update":"0001-01-01T00:00:00Z","name_a2s":"Uncletopia | San Francisco | 1 | All Maps","protocol":17,"map":"cp_process_final","folder":"tf","game":"Team Fortress","app_id":440,"player_count":0,"max_players":24,"Bots":0,"server_type":"Dedicated","server_os":"Linux","password":true,"vac":true,"version":"7742253","steam_id":85568392924469999,"keywords":["cp","nocrits","nodmgspread","uncletopia"],"game_id":440,"stv_port":27016,"stv_name":"Uncletopia | San Francisco | 1 | All Maps | STV","players":null},{"server_id":18,"name":"Uncletopia | San Francisco | 2 | All Maps","name_short":"sfo-2","host":"sfo-1.us.uncletopia.com","port":27025,"enabled":true,"region":"us-west","cc":"us","latitude":37.77397,"longitude":-122.4313,"reserved":0,"last_update":"0001-01-01T00:00:00Z","name_a2s":"Uncletopia | San Francisco | 2 | All Maps","protocol":17,"map":"cp_altitude","folder":"tf","game":"Team Fortress","app_id":440,"player_count":0,"max_players":24,"Bots":0,"server_type":"Dedicated","server_os":"Linux","password":true,"vac":true,"version":"7742253","steam_id":85568392924470000,"keywords":["cp","nocrits","nodmgspread","uncletopia"],"game_id":440,"stv_port":27026,"stv_name":"Uncletopia | San Francisco | 2 | All Maps | STV","players":null},{"server_id":19,"name":"Uncletopia | San Francisco | 3 | Stopwatch Beta","name_short":"sfo-3","host":"sfo-1.us.uncletopia.com","port":27035,"enabled":true,"region":"us-west","cc":"us","latitude":37.77397,"longitude":-122.4313,"reserved":0,"last_update":"0001-01-01T00:00:00Z","name_a2s":"Uncletopia | San Francisco | 3 | Stopwatch Beta","protocol":17,"map":"koth_lakeside_final","folder":"tf","game":"Team Fortress","app_id":440,"player_count":0,"max_players":24,"Bots":0,"server_type":"Dedicated","server_os":"Linux","password":true,"vac":true,"version":"7742253","steam_id":85568392924742824,"keywords":["cp","nocrits","nodmgspread","uncletopia"],"game_id":440,"stv_port":27036,"stv_name":"Uncletopia | San Francisco | 3 | Stopwatch Beta | STV","players":null},{"server_id":20,"name":"Uncletopia | San Francisco | 4 | Community","name_short":"sfo-4","host":"sfo-1.us.uncletopia.com","port":27045,"enabled":true,"region":"us-west","cc":"us","latitude":37.77397,"longitude":-122.4313,"reserved":0,"last_update":"0001-01-01T00:00:00Z","name_a2s":"Uncletopia | San Francisco | 4 | Community","protocol":17,"map":"workshop/cp_sulfur_rc2.ugc619869471","folder":"tf","game":"Team Fortress","app_id":440,"player_count":0,"max_players":24,"Bots":0,"server_type":"Dedicated","server_os":"Linux","password":true,"vac":true,"version":"7742253","steam_id":85568392924742826,"keywords":["cp","nocrits","nodmgspread","uncletopia"],"game_id":440,"stv_port":27046,"stv_name":"Uncletopia | San Francisco | 4 | Community | STV","players":null},{"server_id":141,"name":"Uncletopia | Sydney | 1 | All Maps","name_short":"syd-1","host":"syd-1.au.uncletopia.com","port":27015,"enabled":true,"region":"au","cc":"au","latitude":-33.865143,"longitude":151.2099,"reserved":0,"last_update":"0001-01-01T00:00:00Z","name_a2s":"Uncletopia | Sydney | 1 | All Maps","protocol":17,"map":"koth_lakeside_final","folder":"tf","game":"Team Fortress","app_id":440,"player_count":0,"max_players":24,"Bots":0,"server_type":"Dedicated","server_os":"Linux","password":true,"vac":true,"version":"7742253","steam_id":85568392924470001,"keywords":["cp","nocrits","nodmgspread","uncletopia"],"game_id":440,"stv_port":27016,"stv_name":"Uncletopia | Sydney | 1 | All Maps | STV","players":null},{"server_id":123,"name":"Uncletopia | Sydney | 2 | All Maps","name_short":"syd-2","host":"syd-1.au.uncletopia.com","port":27025,"enabled":true,"region":"au","cc":"au","latitude":-33.865143,"longitude":151.2099,"reserved":0,"last_update":"0001-01-01T00:00:00Z","name_a2s":"Uncletopia | Sydney | 2 | All Maps","protocol":17,"map":"pl_badwater","folder":"tf","game":"Team Fortress","app_id":440,"player_count":0,"max_players":24,"Bots":0,"server_type":"Dedicated","server_os":"Linux","password":true,"vac":true,"version":"7742253","steam_id":85568392924470002,"keywords":["nocrits","nodmgspread","payload","uncletopia"],"game_id":440,"stv_port":27026,"stv_name":"Uncletopia | Sydney | 2 | All Maps | STV","players":null},{"server_id":395,"name":"Uncletopia | Sydney | 3 | All Maps","name_short":"syd-3","host":"syd-1.au.uncletopia.com","port":27035,"enabled":true,"region":"au","cc":"au","latitude":-33.865143,"longitude":151.2099,"reserved":0,"last_update":"0001-01-01T00:00:00Z","name_a2s":"Uncletopia | Sydney | 3 | All Maps","protocol":17,"map":"koth_viaduct","folder":"tf","game":"Team Fortress","app_id":440,"player_count":0,"max_players":24,"Bots":0,"server_type":"Dedicated","server_os":"Linux","password":true,"vac":true,"version":"7742253","steam_id":85568392925194467,"keywords":["cp","nocrits","nodmgspread","uncletopia"],"game_id":440,"stv_port":27036,"stv_name":"Uncletopia | Sydney | 3 | All Maps | STV","players":null},{"server_id":396,"name":"Uncletopia | Sydney | 4 | All Maps","name_short":"syd-4","host":"syd-1.au.uncletopia.com","port":27045,"enabled":true,"region":"au","cc":"au","latitude":-33.865143,"longitude":151.2099,"reserved":0,"last_update":"0001-01-01T00:00:00Z","name_a2s":"Uncletopia | Sydney | 4 | All Maps","protocol":17,"map":"pl_frontier_final","folder":"tf","game":"Team Fortress","app_id":440,"player_count":0,"max_players":24,"Bots":0,"server_type":"Dedicated","server_os":"Linux","password":true,"vac":true,"version":"7742253","steam_id":85568392925397958,"keywords":["nocrits","nodmgspread","payload","uncletopia"],"game_id":440,"stv_port":27046,"stv_name":"Uncletopia | Sydney | 4 | All Maps | STV","players":null},{"server_id":58,"name":"Uncletopia | Sydney | 5 | Stopwatch Beta","name_short":"syd-5","host":"syd-1.au.uncletopia.com","port":27055,"enabled":true,"region":"au","cc":"au","latitude":-33.865143,"longitude":151.2099,"reserved":0,"last_update":"0001-01-01T00:00:00Z","name_a2s":"Uncletopia | Sydney | 5 | Stopwatch Beta","protocol":17,"map":"cp_sunshine","folder":"tf","game":"Team Fortress","app_id":440,"player_count":0,"max_players":24,"Bots":0,"server_type":"Dedicated","server_os":"Linux","password":true,"vac":true,"version":"7742253","steam_id":85568392925397959,"keywords":["cp","nocrits","nodmgspread","uncletopia"],"game_id":440,"stv_port":27056,"stv_name":"Uncletopia | Sydney | 5 | Stopwatch Beta | STV","players":null},{"server_id":59,"name":"Uncletopia | Sydney | 6 | Community","name_short":"syd-6","host":"syd-1.au.uncletopia.com","port":27065,"enabled":true,"region":"au","cc":"au","latitude":-33.865143,"longitude":151.2099,"reserved":0,"last_update":"0001-01-01T00:00:00Z","name_a2s":"Uncletopia | Sydney | 6 | Community","protocol":17,"map":"workshop/cp_villa_b19.ugc2113052569","folder":"tf","game":"Team Fortress","app_id":440,"player_count":0,"max_players":24,"Bots":0,"server_type":"Dedicated","server_os":"Linux","password":true,"vac":true,"version":"7742253","steam_id":85568392925397960,"keywords":["cp","nocrits","nodmgspread","uncletopia"],"game_id":440,"stv_port":27066,"stv_name":"Uncletopia | Sydney | 6 | Community | STV","players":null},{"server_id":49,"name":"Uncletopia | Warsaw | 1 | All Maps","name_short":"waw-1","host":"waw-1.pl.uncletopia.com","port":27015,"enabled":true,"region":"eu","cc":"pl","latitude":52.2297,"longitude":21.017532,"reserved":0,"last_update":"0001-01-01T00:00:00Z","name_a2s":"","protocol":0,"map":"","folder":"","game":"","app_id":0,"player_count":0,"max_players":0,"Bots":0,"server_type":"","server_os":"","password":false,"vac":false,"version":"","steam_id":0,"keywords":null,"game_id":0,"stv_port":0,"stv_name":"","players":null},{"server_id":50,"name":"Uncletopia | Warsaw | 2 | All Maps","name_short":"waw-2","host":"waw-1.pl.uncletopia.com","port":27025,"enabled":true,"region":"eu","cc":"pl","latitude":52.2297,"longitude":21.017532,"reserved":0,"last_update":"0001-01-01T00:00:00Z","name_a2s":"Uncletopia | Warsaw | 2 | All Maps","protocol":17,"map":"cp_mountainlab","folder":"tf","game":"Team Fortress","app_id":440,"player_count":0,"max_players":24,"Bots":0,"server_type":"Dedicated","server_os":"Linux","password":true,"vac":true,"version":"7742253","steam_id":85568392925397851,"keywords":["cp","nocrits","nodmgspread","uncletopia"],"game_id":440,"stv_port":27026,"stv_name":"Uncletopia | Warsaw | 2 | All Maps | STV","players":null},{"server_id":51,"name":"Uncletopia | Warsaw | 3 | All Maps","name_short":"waw-3","host":"waw-1.pl.uncletopia.com","port":27035,"enabled":true,"region":"eu","cc":"pl","latitude":52.2297,"longitude":21.017532,"reserved":0,"last_update":"0001-01-01T00:00:00Z","name_a2s":"Uncletopia | Warsaw | 3 | All Maps","protocol":17,"map":"koth_lakeside_final","folder":"tf","game":"Team Fortress","app_id":440,"player_count":0,"max_players":24,"Bots":0,"server_type":"Dedicated","server_os":"Linux","password":true,"vac":true,"version":"7742253","steam_id":85568392925397852,"keywords":["cp","nocrits","nodmgspread","uncletopia"],"game_id":440,"stv_port":27036,"stv_name":"Uncletopia | Warsaw | 3 | All Maps | STV","players":null},{"server_id":52,"name":"Uncletopia | Warsaw | 4 | All Maps","name_short":"waw-4","host":"waw-1.pl.uncletopia.com","port":27045,"enabled":true,"region":"eu","cc":"pl","latitude":52.2297,"longitude":21.017532,"reserved":0,"last_update":"0001-01-01T00:00:00Z","name_a2s":"Uncletopia | Warsaw | 4 | All Maps","protocol":17,"map":"koth_king","folder":"tf","game":"Team Fortress","app_id":440,"player_count":0,"max_players":24,"Bots":0,"server_type":"Dedicated","server_os":"Linux","password":true,"vac":true,"version":"7742253","steam_id":85568392925397853,"keywords":["cp","nocrits","nodmgspread","uncletopia"],"game_id":440,"stv_port":27046,"stv_name":"Uncletopia | Warsaw | 4 | All Maps | STV","players":null},{"server_id":53,"name":"Uncletopia | Warsaw | 5 | Stopwatch Beta","name_short":"waw-5","host":"waw-1.pl.uncletopia.com","port":27055,"enabled":true,"region":"eu","cc":"pl","latitude":52.2297,"longitude":21.017532,"reserved":0,"last_update":"0001-01-01T00:00:00Z","name_a2s":"Uncletopia | Warsaw | 5 | Stopwatch Beta","protocol":17,"map":"pl_swiftwater_final1","folder":"tf","game":"Team Fortress","app_id":440,"player_count":0,"max_players":24,"Bots":0,"server_type":"Dedicated","server_os":"Linux","password":true,"vac":true,"version":"7742253","steam_id":85568392925397854,"keywords":["nocrits","nodmgspread","payload","uncletopia"],"game_id":440,"stv_port":27056,"stv_name":"Uncletopia | Warsaw | 5 | Stopwatch Beta | STV","players":null},{"server_id":54,"name":"Uncletopia | Warsaw | 6 | Community","name_short":"waw-6","host":"waw-1.pl.uncletopia.com","port":27065,"enabled":true,"region":"eu","cc":"pl","latitude":52.2297,"longitude":21.017532,"reserved":0,"last_update":"0001-01-01T00:00:00Z","name_a2s":"Uncletopia | Warsaw | 6 | Community","protocol":17,"map":"koth_highpass","folder":"tf","game":"Team Fortress","app_id":440,"player_count":3,"max_players":24,"Bots":0,"server_type":"Dedicated","server_os":"Linux","password":true,"vac":true,"version":"7742253","steam_id":85568392925397856,"keywords":["cp","nocrits","nodmgspread","uncletopia"],"game_id":440,"stv_port":27066,"stv_name":"Uncletopia | Warsaw | 6 | Community | STV","players":[{"user_id":7,"name":"CzarnyRycerzMomon","steam_id":76561199028465810,"connected_time":1707000000000,"state":"active","ping":43},{"user_id":8,"name":"Wojowniczek.pl","steam_id":76561199228645329,"connected_time":1701000000000,"state":"active","ping":69},{"user_id":9,"name":"blaq","steam_id":76561199423431190,"connected_time":209000000000,"state":"active","ping":76}]}]}