{"status":true,"message":"","result":[{"server_id":9,"name":"Uncletopia | Atlanta | 1 | All Maps","name_short":"atl-1","host":"atl-1.us.uncletopia.com","port":27015,"enabled":true,"region":"us-east","cc":"us","latitude":33.753746,"longitude":-84.38633,"reserved":0,"last_update":"0001-01-01T00:00:00Z","name_a2s":"Uncletopia | Atlanta | 1 | All Maps","protocol":17,"map":"koth_cascade","folder":"tf","game":"Team Fortress","app_id":440,"player_count":20,"max_players":24,"Bots":0,"server_type":"Dedicated","server_os":"Linux","password":true,"vac":true,"version":"7932396","steam_id":85568392924469982,"keywords":["cp","nocrits","nodmgspread","uncletopia"],"game_id":440,"stv_port":27016,"stv_name":"Uncletopia | Atlanta | 1 | All Maps | STV","players":[{"user_id":462,"name":"A Rope, for big pits","steam_id":76561198068044782,"connected_time":295000000000,"state":"active","ping":81},{"user_id":400,"name":"GibbusGod","steam_id":76561199232436690,"connected_time":1373000000000,"state":"active","ping":98},{"user_id":448,"name":"Drinker of Water","steam_id":76561198284647525,"connected_time":503000000000,"state":"active","ping":83},{"user_id":431,"name":"FinnGator","steam_id":76561198241766488,"connected_time":965000000000,"state":"active","ping":95},{"user_id":476,"name":"Pight","steam_id":76561198823422389,"connected_time":17000000000,"state":"active","ping":384},{"user_id":474,"name":"Yachter","steam_id":76561198129749194,"connected_time":80000000000,"state":"active","ping":137},{"user_id":323,"name":"Denzel McFlurry","steam_id":76561199231296521,"connected_time":2516000000000,"state":"active","ping":97},{"user_id":416,"name":"bagsy","steam_id":76561198088778979,"connected_time":1201000000000,"state":"active","ping":148},{"user_id":475,"name":"Maximuffin2","steam_id":76561198169475792,"connected_time":67000000000,"state":"active","ping":86},{"user_id":464,"name":"Adora","steam_id":76561198315631796,"connected_time":281000000000,"state":"active","ping":94},{"user_id":427,"name":"gon","steam_id":76561198341171295,"connected_time":1052000000000,"state":"active","ping":108},{"user_id":433,"name":"GameSquid111","steam_id":76561198330135450,"connected_time":931000000000,"state":"active","ping":103},{"user_id":373,"name":"V. G. Sunderland","steam_id":76561198161839980,"connected_time":1715000000000,"state":"active","ping":87},{"user_id":471,"name":"Leric Craft","steam_id":76561198375730908,"connected_time":180000000000,"state":"active","ping":57},{"user_id":457,"name":"loboto gaming","steam_id":76561199088321574,"connected_time":408000000000,"state":"active","ping":119},{"user_id":332,"name":"FOrce of nature","steam_id":76561198390522839,"connected_time":2427000000000,"state":"active","ping":112},{"user_id":467,"name":"√áAFFIEND","steam_id":76561198062993241,"connected_time":265000000000,"state":"active","ping":91},{"user_id":377,"name":"iclark5","steam_id":76561199256588354,"connected_time":1688000000000,"state":"active","ping":116},{"user_id":460,"name":"Walla","steam_id":76561198103379757,"connected_time":367000000000,"state":"active","ping":95},{"user_id":229,"name":"Iron_Dave_Qc","steam_id":76561198159325213,"connected_time":3906000000000,"state":"active","ping":107}]},{"server_id":104,"name":"Uncletopia | Atlanta | 2 | All Maps","name_short":"atl-2","host":"atl-1.us.uncletopia.com","port":27025,"enabled":true,"region":"us-east","cc":"us","latitude":33.753746,"longitude":-84.38633,"reserved":0,"last_update":"0001-01-01T00:00:00Z","name_a2s":"Uncletopia | Atlanta | 2 | All Maps","protocol":17,"map":"cp_sunshine","folder":"tf","game":"Team Fortress","app_id":440,"player_count":0,"max_players":24,"Bots":0,"server_type":"Dedicated","server_os":"Linux","password":true,"vac":true,"version":"7932396","steam_id":85568392924469983,"keywords":["cp","nocrits","nodmgspread","uncletopia"],"game_id":440,"stv_port":27026,"stv_name":"Uncletopia | Atlanta | 2 | All Maps | STV","players":null},{"server_id":400,"name":"Uncletopia | Atlanta | 3 | Community","name_short":"atl-3","host":"atl-1.us.uncletopia.com","port":27035,"enabled":true,"region":"us-east","cc":"us","latitude":33.753746,"longitude":-84.38633,"reserved":0,"last_update":"0001-01-01T00:00:00Z","name_a2s":"Uncletopia | Atlanta | 3 | Community","protocol":17,"map":"workshop/koth_trenchfoot_b1a.ugc731436616","folder":"tf","game":"Team Fortress","app_id":440,"player_count":0,"max_players":24,"Bots":0,"server_type":"Dedicated","server_os":"Linux","password":true,"vac":true,"version":"7932396","steam_id":85568392924515187,"keywords":["cp","nocrits","nodmgspread","uncletopia"],"game_id":440,"stv_port":27036,"stv_name":"Uncletopia | Atlanta | 3 | Community | STV","players":null},{"server_id":401,"name":"Uncletopia | Atlanta | 4 | No Payload","name_short":"atl-4","host":"atl-1.us.uncletopia.com","port":27045,"enabled":true,"region":"us-east","cc":"us","latitude":33.753746,"longitude":-84.38633,"reserved":0,"last_update":"0001-01-01T00:00:00Z","name_a2s":"","protocol":0,"map":"","folder":"","game":"","app_id":0,"player_count":0,"max_players":0,"Bots":0,"server_type":"","server_os":"","password":false,"vac":false,"version":"","steam_id":0,"keywords":null,"game_id":0,"stv_port":0,"stv_name":"","players":null},{"server_id":2,"name":"Uncletopia | Chicago | 1 | All Maps","name_short":"chi-1","host":"chi-1.us.uncletopia.com","port":27015,"enabled":true,"region":"us-central","cc":"us","latitude":41.881832,"longitude":-87.62318,"reserved":0,"last_update":"0001-01-01T00:00:00Z","name_a2s":"Uncletopia | Chicago | 1 | All Maps","protocol":17,"map":"pl_borneo","folder":"tf","game":"Team Fortress","app_id":440,"player_count":24,"max_players":24,"Bots":0,"server_type":"Dedicated","server_os":"Linux","password":true,"vac":true,"version":"7932396","steam_id":85568392924469984,"keywords":["nocrits","nodmgspread","payload","uncletopia"],"game_id":440,"stv_port":27016,"stv_name":"Uncletopia | Chicago | 1 | All Maps | STV","players":[{"user_id":786,"name":"God","steam_id":76561198131089513,"connected_time":139000000000,"state":"active","ping":46},{"user_id":782,"name":"Skeleton Dad","steam_id":76561198021489595,"connected_time":292000000000,"state":"active","ping":80},{"user_id":740,"name":"Robo Boss","steam_id":76561199067098696,"connected_time":3994000000000,"state":"active","ping":86},{"user_id":771,"name":"win free ipod","steam_id":76561198057356807,"connected_time":779000000000,"state":"active","ping":51},{"user_id":760,"name":"Drooop","steam_id":76561198856700517,"connected_time":2438000000000,"state":"active","ping":70},{"user_id":781,"name":"loser","steam_id":76561198259380127,"connected_time":527000000000,"state":"active","ping":51},{"user_id":704,"name":"Celestial Bodies","steam_id":76561198212572955,"connected_time":7596000000000,"state":"active","ping":74},{"user_id":773,"name":"Lost","steam_id":76561198093713427,"connected_time":747000000000,"state":"active","ping":60},{"user_id":761,"name":"heademptyengineer.JIFF","steam_id":76561198045181760,"connected_time":2433000000000,"state":"active","ping":60},{"user_id":706,"name":"DinkleBerg","steam_id":76561198891626233,"connected_time":7113000000000,"state":"active","ping":64},{"user_id":769,"name":"Mehman","steam_id":76561199020244051,"connected_time":1087000000000,"state":"active","ping":97},{"user_id":736,"name":"Margo_Rae","steam_id":76561198035046430,"connected_time":4008000000000,"state":"active","ping":86},{"user_id":752,"name":"Doctor Emerald(real)","steam_id":76561199123003872,"connected_time":2699000000000,"state":"active","ping":99},{"user_id":723,"name":"Chin, Bruce Lee's Relative","steam_id":76561198240105522,"connected_time":5526000000000,"state":"active","ping":87},{"user_id":774,"name":"Skinny pete","steam_id":76561198801608576,"connected_time":734000000000,"state":"active","ping":76},{"user_id":784,"name":"Captain S. Forrest","steam_id":76561198062463029,"connected_time":166000000000,"state":"active","ping":68},{"user_id":717,"name":"The Noob Sire","steam_id":76561198119219754,"connected_time":6205000000000,"state":"active","ping":90},{"user_id":779,"name":"I shovel mayonnaise in mouth","steam_id":76561199123118241,"connected_time":631000000000,"state":"active","ping":110},{"user_id":776,"name":"FHC | Nyle","steam_id":76561198045652639,"connected_time":668000000000,"state":"active","ping":133},{"user_id":727,"name":"Wizard Raccoon","steam_id":76561198072562591,"connected_time":5218000000000,"state":"active","ping":82},{"user_id":728,"name":"L + Ratio","steam_id":76561198263786953,"connected_time":5218000000000,"state":"active","ping":77},{"user_id":780,"name":"WM1 PYRO","steam_id":76561198045893896,"connected_time":631000000000,"state":"active","ping":101},{"user_id":783,"name":"Toastie","steam_id":76561198246760934,"connected_time":239000000000,"state":"active","ping":58},{"user_id":785,"name":"Cleric","steam_id":76561198045887994,"connected_time":166000000000,"state":"active","ping":49}]},{"server_id":106,"name":"Uncletopia | Chicago | 2 | All Maps","name_short":"chi-2","host":"chi-1.us.uncletopia.com","port":27025,"enabled":true,"region":"us-central","cc":"us","latitude":41.881832,"longitude":-87.62318,"reserved":0,"last_update":"0001-01-01T00:00:00Z","name_a2s":"Uncletopia | Chicago | 2 | All Maps","protocol":17,"map":"pl_frontier_final","folder":"tf","game":"Team Fortress","app_id":440,"player_count":24,"max_players":24,"Bots":0,"server_type":"Dedicated","server_os":"Linux","password":true,"vac":true,"version":"7932396","steam_id":85568392924469985,"keywords":["nocrits","nodmgspread","payload","uncletopia"],"game_id":440,"stv_port":27026,"stv_name":"Uncletopia | Chicago | 2 | All Maps | STV","players":[{"user_id":771,"name":"cucumper","steam_id":76561198079504588,"connected_time":167000000000,"state":"active","ping":74},{"user_id":766,"name":"SpongedSocks","steam_id":76561198374009086,"connected_time":919000000000,"state":"active","ping":67},{"user_id":700,"name":"gps","steam_id":76561198067492304,"connected_time":5720000000000,"state":"active","ping":81},{"user_id":717,"name":"xX_HimboSwallower_Xx","steam_id":76561198016029965,"connected_time":4864000000000,"state":"active","ping":66},{"user_id":768,"name":"[ G R * T T Y ]","steam_id":76561198048986218,"connected_time":522000000000,"state":"active","ping":120},{"user_id":734,"name":"Glass Joe","steam_id":76561198317365741,"connected_time":4069000000000,"state":"active","ping":74},{"user_id":772,"name":"Bunnyboy","steam_id":76561198298416058,"connected_time":147000000000,"state":"active","ping":69},{"user_id":711,"name":"LegendaryMister151","steam_id":76561198064890524,"connected_time":5271000000000,"state":"active","ping":94},{"user_id":773,"name":"RaddahRaddah","steam_id":76561198194462829,"connected_time":144000000000,"state":"active","ping":62},{"user_id":761,"name":"wiiblob","steam_id":76561198109106242,"connected_time":1465000000000,"state":"active","ping":142},{"user_id":740,"name":"Rafl","steam_id":76561198055222756,"connected_time":3332000000000,"state":"active","ping":66},{"user_id":735,"name":"Protato","steam_id":76561198061182563,"connected_time":4009000000000,"state":"active","ping":69},{"user_id":741,"name":"Cyber Cylon","steam_id":76561198048972781,"connected_time":3284000000000,"state":"active","ping":66},{"user_id":774,"name":"lolstar64","steam_id":76561198048565155,"connected_time":28000000000,"state":"active","ping":73},{"user_id":646,"name":"Unholy","steam_id":76561198058312481,"connected_time":10194000000000,"state":"active","ping":73},{"user_id":709,"name":"Wallem","steam_id":76561198052361822,"connected_time":5408000000000,"state":"active","ping":78},{"user_id":763,"name":"Bali","steam_id":76561198038693845,"connected_time":1313000000000,"state":"active","ping":92},{"user_id":715,"name":"Mister Rattlebones","steam_id":76561198065560157,"connected_time":4924000000000,"state":"active","ping":46},{"user_id":708,"name":"Bolty","steam_id":76561198084199165,"connected_time":5594000000000,"state":"active","ping":78},{"user_id":622,"name":"bluebird","steam_id":76561198065219155,"connected_time":11286000000000,"state":"active","ping":47},{"user_id":764,"name":"Flaxks","steam_id":76561198410260447,"connected_time":954000000000,"state":"active","ping":97},{"user_id":762,"name":"Motor Mongol","steam_id":76561198067436825,"connected_time":1402000000000,"state":"active","ping":90},{"user_id":751,"name":"C4K3","steam_id":76561197996963285,"connected_time":2645000000000,"state":"active","ping":73},{"user_id":770,"name":"High-Key Cat","steam_id":76561198012929012,"connected_time":485000000000,"state":"active","ping":165}]},{"server_id":402,"name":"Uncletopia | Chicago | 3 | All Maps","name_short":"chi-3","host":"chi-1.us.uncletopia.com","port":27035,"enabled":true,"region":"us-central","cc":"us","latitude":41.881832,"longitude":-87.62318,"reserved":0,"last_update":"0001-01-01T00:00:00Z","name_a2s":"Uncletopia | Chicago | 3 | All Maps","protocol":17,"map":"pl_frontier_final","folder":"tf","game":"Team Fortress","app_id":440,"player_count":24,"max_players":24,"Bots":0,"server_type":"Dedicated","server_os":"Linux","password":true,"vac":true,"version":"7932396","steam_id":85568392924515191,"keywords":["nocrits","nodmgspread","payload","uncletopia"],"game_id":440,"stv_port":27036,"stv_name":"Uncletopia | Chicago | 3 | All Maps | STV","players":[{"user_id":327,"name":"JDM Street Cred","steam_id":76561198033035560,"connected_time":1411000000000,"state":"active","ping":60},{"user_id":251,"name":"DoubleX2000","steam_id":76561198164134387,"connected_time":7748000000000,"state":"active","ping":114},{"user_id":335,"name":"what","steam_id":76561198082336619,"connected_time":1301000000000,"state":"active","ping":73},{"user_id":326,"name":"Ringo x Seiran","steam_id":76561198357437908,"connected_time":1417000000000,"state":"active","ping":69},{"user_id":312,"name":"gaming gerald","steam_id":76561198011707083,"connected_time":3952000000000,"state":"active","ping":58},{"user_id":295,"name":"reis","steam_id":76561199232952016,"connected_time":4357000000000,"state":"active","ping":180},{"user_id":344,"name":"Cassius Money","steam_id":76561197979696414,"connected_time":562000000000,"state":"active","ping":54},{"user_id":320,"name":"eat Pant","steam_id":76561197974965536,"connected_time":2600000000000,"state":"active","ping":60},{"user_id":331,"name":"Jo","steam_id":76561198060447015,"connected_time":1380000000000,"state":"active","ping":77},{"user_id":240,"name":"Digitic","steam_id":76561198080295536,"connected_time":8363000000000,"state":"active","ping":77},{"user_id":346,"name":"troll","steam_id":76561198040890252,"connected_time":481000000000,"state":"active","ping":71},{"user_id":330,"name":"Homunculus Gambino","steam_id":76561198158433378,"connected_time":1387000000000,"state":"active","ping":65},{"user_id":332,"name":"Sup m8","steam_id":76561198081659121,"connected_time":1356000000000,"state":"active","ping":61},{"user_id":333,"name":"hill of the king","steam_id":76561198099491925,"connected_time":1343000000000,"state":"active","ping":75},{"user_id":304,"name":"stick","steam_id":76561198049489094,"connected_time":4179000000000,"state":"active","ping":58},{"user_id":341,"name":"You","steam_id":76561198154209806,"connected_time":858000000000,"state":"active","ping":60},{"user_id":334,"name":"Tick","steam_id":76561198184161214,"connected_time":1335000000000,"state":"active","ping":42},{"user_id":342,"name":"Temujin","steam_id":76561198030936583,"connected_time":771000000000,"state":"active","ping":60},{"user_id":289,"name":"HappyOtterMan","steam_id":76561199051276989,"connected_time":5342000000000,"state":"active","ping":71},{"user_id":286,"name":"vv","steam_id":76561198134813102,"connected_time":5465000000000,"state":"active","ping":54},{"user_id":345,"name":"dailyspesh","steam_id":76561197988072369,"connected_time":513000000000,"state":"active","ping":81},{"user_id":319,"name":"JACOB","steam_id":76561198211874895,"connected_time":2615000000000,"state":"active","ping":79},{"user_id":325,"name":"freyja","steam_id":76561198249206656,"connected_time":1696000000000,"state":"active","ping":74},{"user_id":278,"name":"18th century farmer","steam_id":76561199196014252,"connected_time":6554000000000,"state":"active","ping":115}]},{"server_id":403,"name":"Uncletopia | Chicago | 4 | All Maps","name_short":"chi-4","host":"chi-1.us.uncletopia.com","port":27045,"enabled":true,"region":"us-central","cc":"us","latitude":41.881832,"longitude":-87.62318,"reserved":0,"last_update":"0001-01-01T00:00:00Z","name_a2s":"Uncletopia | Chicago | 4 | All Maps","protocol":17,"map":"cp_dustbowl","folder":"tf","game":"Team Fortress","app_id":440,"player_count":24,"max_players":24,"Bots":0,"server_type":"Dedicated","server_os":"Linux","password":true,"vac":true,"version":"7932396","steam_id":85568392924515193,"keywords":["cp","nocrits","nodmgspread","uncletopia"],"game_id":440,"stv_port":27046,"stv_name":"Uncletopia | Chicago | 4 | All Maps | STV","players":[{"user_id":367,"name":"Kidjays","steam_id":76561198124941901,"connected_time":2356000000000,"state":"active","ping":99},{"user_id":356,"name":"Wiscipline","steam_id":76561198019206178,"connected_time":3338000000000,"state":"active","ping":77},{"user_id":393,"name":"lil homie gay ass","steam_id":76561198044804626,"connected_time":1000000000,"state":"spawning","ping":69},{"user_id":330,"name":"hej","steam_id":76561197996366940,"connected_time":4376000000000,"state":"active","ping":60},{"user_id":386,"name":"TeatsMcghee #TummyTroubles","steam_id":76561198036483480,"connected_time":1162000000000,"state":"active","ping":75},{"user_id":392,"name":"Enough..","steam_id":76561198043918262,"connected_time":430000000000,"state":"active","ping":78},{"user_id":375,"name":"duck, duck, LOVE","steam_id":76561198010706701,"connected_time":1503000000000,"state":"active","ping":71},{"user_id":376,"name":"gorf?","steam_id":76561198142286417,"connected_time":1502000000000,"state":"active","ping":59},{"user_id":365,"name":"pinglefingle","steam_id":76561198216580197,"connected_time":2465000000000,"state":"active","ping":78},{"user_id":344,"name":"Tenna","steam_id":76561198052020077,"connected_time":3558000000000,"state":"active","ping":88},{"user_id":391,"name":"cataclysm","steam_id":76561198061594160,"connected_time":958000000000,"state":"active","ping":58},{"user_id":388,"name":"Morgster","steam_id":76561198131697761,"connected_time":1120000000000,"state":"active","ping":71},{"user_id":383,"name":"Elm","steam_id":76561198127972568,"connected_time":1296000000000,"state":"active","ping":65},{"user_id":389,"name":"smoking on bhutanese shadow pac","steam_id":76561198095313463,"connected_time":1104000000000,"state":"active","ping":60},{"user_id":360,"name":"Dr. Dick","steam_id":76561198138011922,"connected_time":2920000000000,"state":"active","ping":81},{"user_id":306,"name":"Waddlehi","steam_id":76561198072553840,"connected_time":5809000000000,"state":"active","ping":57},{"user_id":362,"name":"Swash","steam_id":76561197969421355,"connected_time":2834000000000,"state":"active","ping":52},{"user_id":380,"name":"donk","steam_id":76561198097138000,"connected_time":1429000000000,"state":"active","ping":60},{"user_id":354,"name":"Breach","steam_id":76561198045060392,"connected_time":3369000000000,"state":"active","ping":45},{"user_id":382,"name":"sartre","steam_id":76561198885376777,"connected_time":1354000000000,"state":"active","ping":68},{"user_id":346,"name":"conner","steam_id":76561198052911241,"connected_time":3546000000000,"state":"active","ping":75},{"user_id":390,"name":"AlcoholicDad454","steam_id":76561198157414556,"connected_time":1049000000000,"state":"active","ping":82},{"user_id":329,"name":"MedRed‚Ñ¢ #IATAH","steam_id":76561198002962970,"connected_time":4497000000000,"state":"active","ping":90},{"user_id":366,"name":"Lia_Rein","steam_id":76561198151569597,"connected_time":2438000000000,"state":"active","ping":142}]},{"server_id":36,"name":"Uncletopia | Chicago | 5 | All Maps","name_short":"chi-5","host":"chi-2.us.uncletopia.com","port":27015,"enabled":true,"region":"us-central","cc":"us","latitude":41.881832,"longitude":-87.62318,"reserved":0,"last_update":"0001-01-01T00:00:00Z","name_a2s":"Uncletopia | Chicago | 5 | All Maps","protocol":17,"map":"cp_dustbowl","folder":"tf","game":"Team Fortress","app_id":440,"player_count":24,"max_players":24,"Bots":0,"server_type":"Dedicated","server_os":"Linux","password":true,"vac":true,"version":"7932396","steam_id":85568392924866362,"keywords":["cp","nocrits","nodmgspread","uncletopia"],"game_id":440,"stv_port":27016,"stv_name":"Uncletopia | Chicago | 5 | All Maps | STV","players":[{"user_id":373,"name":"com lag","steam_id":76561198019019392,"connected_time":2651000000000,"state":"active","ping":45},{"user_id":396,"name":"jim belushi's secret weapon","steam_id":76561198396326793,"connected_time":75000000000,"state":"active","ping":97},{"user_id":379,"name":"Milkmur","steam_id":76561198210043821,"connected_time":1411000000000,"state":"active","ping":67},{"user_id":282,"name":"Liebestr√§ume","steam_id":76561198038862034,"connected_time":9331000000000,"state":"active","ping":96},{"user_id":397,"name":"chilis baby back ribs","steam_id":76561198813516435,"connected_time":22000000000,"state":"spawning","ping":89},{"user_id":136,"name":"b3afy","steam_id":76561198084208649,"connected_time":20625000000000,"state":"active","ping":90},{"user_id":371,"name":"-","steam_id":76561198057717934,"connected_time":2666000000000,"state":"active","ping":60},{"user_id":341,"name":"the scrungly","steam_id":76561198275728291,"connected_time":4393000000000,"state":"active","ping":49},{"user_id":351,"name":"Sponge","steam_id":76561198099024378,"connected_time":3699000000000,"state":"active","ping":70},{"user_id":394,"name":"6t26j","steam_id":76561198278282836,"connected_time":389000000000,"state":"active","ping":46},{"user_id":372,"name":"Cherry Coke","steam_id":76561198178233006,"connected_time":2666000000000,"state":"active","ping":45},{"user_id":398,"name":"CAR BATTERY","steam_id":76561199122915452,"connected_time":17000000000,"state":"spawning","ping":107},{"user_id":330,"name":"eish","steam_id":76561198089463603,"connected_time":4484000000000,"state":"active","ping":135},{"user_id":384,"name":"LProduct","steam_id":76561199442139670,"connected_time":1310000000000,"state":"active","ping":199},{"user_id":337,"name":"Farm3rJh0nson","steam_id":76561199166153873,"connected_time":4449000000000,"state":"active","ping":82},{"user_id":349,"name":"steakfarmasian","steam_id":76561198212754036,"connected_time":3803000000000,"state":"active","ping":59},{"user_id":391,"name":"totoro","steam_id":76561198210420871,"connected_time":833000000000,"state":"active","ping":45},{"user_id":395,"name":"Samitch","steam_id":76561198038247982,"connected_time":184000000000,"state":"active","ping":61},{"user_id":353,"name":"I have no idea what I am doing?","steam_id":76561198093152207,"connected_time":3604000000000,"state":"active","ping":71},{"user_id":375,"name":"Java_Siege_","steam_id":76561199090000728,"connected_time":2642000000000,"state":"active","ping":79},{"user_id":386,"name":"Satchamo","steam_id":76561198012968239,"connected_time":1282000000000,"state":"active","ping":76},{"user_id":392,"name":"SIN K4RMA","steam_id":76561198869287223,"connected_time":784000000000,"state":"active","ping":85},{"user_id":388,"name":"MortusMelee","steam_id":76561198038434895,"connected_time":1249000000000,"state":"active","ping":103},{"user_id":382,"name":"Skendiesel","steam_id":76561198015497676,"connected_time":1393000000000,"state":"active","ping":56}]},{"server_id":37,"name":"Uncletopia | Chicago | 6 | All Maps","name_short":"chi-6","host":"chi-2.us.uncletopia.com","port":27025,"enabled":true,"region":"us-central","cc":"us","latitude":41.881832,"longitude":-87.62318,"reserved":0,"last_update":"0001-01-01T00:00:00Z","name_a2s":"Uncletopia | Chicago | 6 | All Maps","protocol":17,"map":"pl_upward","folder":"tf","game":"Team Fortress","app_id":440,"player_count":24,"max_players":24,"Bots":0,"server_type":"Dedicated","server_os":"Linux","password":true,"vac":true,"version":"7932396","steam_id":85568392924866363,"keywords":["nocrits","nodmgspread","payload","uncletopia"],"game_id":440,"stv_port":27026,"stv_name":"Uncletopia | Chicago | 6 | All Maps | STV","players":[{"user_id":471,"name":"sankara","steam_id":76561198013806060,"connected_time":2213000000000,"state":"active","ping":55},{"user_id":493,"name":"big boobs","steam_id":76561198151150175,"connected_time":369000000000,"state":"active","ping":57},{"user_id":442,"name":"Snoopy","steam_id":76561198273735974,"connected_time":5148000000000,"state":"active","ping":107},{"user_id":490,"name":"Sprinklingmydoughnut","steam_id":76561198168009092,"connected_time":443000000000,"state":"active","ping":98},{"user_id":473,"name":"meo ‚ô•","steam_id":76561197992719272,"connected_time":1802000000000,"state":"active","ping":49},{"user_id":489,"name":"wedoalittletrolling TF2EASY.COM","steam_id":76561198984807162,"connected_time":586000000000,"state":"active","ping":64},{"user_id":467,"name":"pregame looser","steam_id":76561198075216115,"connected_time":2464000000000,"state":"active","ping":147},{"user_id":484,"name":"Grandpa 1MinecraftEmpire","steam_id":76561198069046338,"connected_time":1083000000000,"state":"active","ping":97},{"user_id":472,"name":"IMM0RTAL","steam_id":76561198013747901,"connected_time":2023000000000,"state":"active","ping":69},{"user_id":449,"name":"John16Mark","steam_id":76561198119445407,"connected_time":4994000000000,"state":"active","ping":90},{"user_id":488,"name":"Raptortastic","steam_id":76561198105613110,"connected_time":697000000000,"state":"active","ping":80},{"user_id":482,"name":"Double Dip","steam_id":76561198067483536,"connected_time":1185000000000,"state":"active","ping":45},{"user_id":491,"name":"trappy (washed)","steam_id":76561198402801140,"connected_time":391000000000,"state":"active","ping":63},{"user_id":451,"name":"eveie0mlets","steam_id":76561198259172011,"connected_time":4949000000000,"state":"active","ping":84},{"user_id":452,"name":"Melody","steam_id":76561198407789232,"connected_time":4917000000000,"state":"active","ping":123},{"user_id":487,"name":"co)))))ne","steam_id":76561198053967778,"connected_time":759000000000,"state":"active","ping":61},{"user_id":386,"name":"daemon","steam_id":76561198001541433,"connected_time":9078000000000,"state":"active","ping":57},{"user_id":483,"name":"squash the beef","steam_id":76561198277163301,"connected_time":1177000000000,"state":"active","ping":67},{"user_id":496,"name":"Skeleton Hotel","steam_id":76561198041704727,"connected_time":273000000000,"state":"active","ping":55},{"user_id":494,"name":"Fiftystorm","steam_id":76561198296894704,"connected_time":358000000000,"state":"active","ping":59},{"user_id":469,"name":"soof","steam_id":76561198043762955,"connected_time":2460000000000,"state":"active","ping":68},{"user_id":495,"name":"ScoobyBlue","steam_id":76561198054656885,"connected_time":347000000000,"state":"active","ping":78},{"user_id":481,"name":"avant","steam_id":76561198104921055,"connected_time":1203000000000,"state":"active","ping":92},{"user_id":394,"name":"notdoxed","steam_id":76561197992591404,"connected_time":8183000000000,"state":"active","ping":57}]},{"server_id":38,"name":"Uncletopia | Chicago | 7 | Stopwatch Beta","name_short":"chi-7","host":"chi-2.us.uncletopia.com","port":27035,"enabled":true,"region":"us-central","cc":"us","latitude":41.881832,"longitude":-87.62318,"reserved":0,"last_update":"0001-01-01T00:00:00Z","name_a2s":"Uncletopia | Chicago | 7 | Stopwatch Beta","protocol":17,"map":"pl_borneo","folder":"tf","game":"Team Fortress","app_id":440,"player_count":0,"max_players":24,"Bots":0,"server_type":"Dedicated","server_os":"Linux","password":true,"vac":true,"version":"7932396","steam_id":85568392924866364,"keywords":["nocrits","nodmgspread","payload","uncletopia"],"game_id":440,"stv_port":27036,"stv_name":"Uncletopia | Chicago | 7 | Stopwatch Beta | STV","players":null},{"server_id":39,"name":"Uncletopia | Chicago | 8 | Community","name_short":"chi-8","host":"chi-2.us.uncletopia.com","port":27045,"enabled":true,"region":"us-central","cc":"us","latitude":41.881832,"longitude":-87.62318,"reserved":0,"last_update":"0001-01-01T00:00:00Z","name_a2s":"Uncletopia | Chicago | 8 | Community","protocol":17,"map":"workshop/cp_snowbase_b18.ugc2081770490","folder":"tf","game":"Team Fortress","app_id":440,"player_count":16,"max_players":24,"Bots":0,"server_type":"Dedicated","server_os":"Linux","password":true,"vac":true,"version":"7932396","steam_id":85568392924866365,"keywords":["cp","nocrits","nodmgspread","uncletopia"],"game_id":440,"stv_port":27046,"stv_name":"Uncletopia | Chicago | 8 | Community | STV","players":[{"user_id":519,"name":"The Sex Defender","steam_id":76561198964223143,"connected_time":957000000000,"state":"active","ping":71},{"user_id":514,"name":"Kalmaro","steam_id":76561198097425350,"connected_time":1956000000000,"state":"active","ping":58},{"user_id":524,"name":"Heathcliff","steam_id":76561198044288534,"connected_time":672000000000,"state":"active","ping":86},{"user_id":518,"name":"pudl","steam_id":76561198043726592,"connected_time":1180000000000,"state":"active","ping":69},{"user_id":479,"name":"NeonBean","steam_id":76561198088335827,"connected_time":3883000000000,"state":"active","ping":88},{"user_id":510,"name":"Vari[X]x","steam_id":76561197960474838,"connected_time":2188000000000,"state":"active","ping":72},{"user_id":482,"name":"GRONT","steam_id":76561198040464533,"connected_time":3765000000000,"state":"active","ping":72},{"user_id":485,"name":"dohnuts","steam_id":76561198025965230,"connected_time":3689000000000,"state":"active","ping":72},{"user_id":523,"name":"TheSecretNewbie","steam_id":76561198194671218,"connected_time":756000000000,"state":"active","ping":57},{"user_id":505,"name":"Aeris","steam_id":76561198287271028,"connected_time":2593000000000,"state":"active","ping":56},{"user_id":517,"name":"HaveADay","steam_id":76561198001086219,"connected_time":1882000000000,"state":"active","ping":70},{"user_id":511,"name":"yaldabaoth","steam_id":76561198084606869,"connected_time":2088000000000,"state":"active","ping":43},{"user_id":521,"name":"msay","steam_id":76561198170888029,"connected_time":953000000000,"state":"spawning","ping":207},{"user_id":504,"name":"root","steam_id":76561198001727518,"connected_time":2681000000000,"state":"active","ping":73},{"user_id":522,"name":"whimsical little creature","steam_id":76561198271710504,"connected_time":898000000000,"state":"active","ping":50},{"user_id":507,"name":"Aeonspassed","steam_id":76561198014016451,"connected_time":2427000000000,"state":"active","ping":49}]},{"server_id":8,"name":"Uncletopia | Dallas | 1 | All Maps","name_short":"dal-1","host":"dal-1.us.uncletopia.com","port":27015,"enabled":true,"region":"us-central","cc":"us","latitude":32.779167,"longitude":-96.80889,"reserved":0,"last_update":"0001-01-01T00:00:00Z","name_a2s":"Uncletopia | Dallas | 1 | All Maps","protocol":17,"map":"pl_pier","folder":"tf","game":"Team Fortress","app_id":440,"player_count":24,"max_players":24,"Bots":0,"server_type":"Dedicated","server_os":"Linux","password":true,"vac":true,"version":"7932396","steam_id":85568392924469986,"keywords":["nocrits","nodmgspread","payload","uncletopia"],"game_id":440,"stv_port":27016,"stv_name":"Uncletopia | Dallas | 1 | All Maps | STV","players":[{"user_id":340,"name":"Greg Boberton 2012","steam_id":76561198983566026,"connected_time":3833000000000,"state":"active","ping":76},{"user_id":365,"name":"Tritium","steam_id":76561198043305626,"connected_time":2070000000000,"state":"active","ping":93},{"user_id":381,"name":"good soup guy","steam_id":76561199210237835,"connected_time":713000000000,"state":"active","ping":90},{"user_id":375,"name":"Sahbi","steam_id":76561199196292242,"connected_time":917000000000,"state":"active","ping":62},{"user_id":353,"name":"Cutcleaner","steam_id":76561199000925667,"connected_time":2714000000000,"state":"active","ping":99},{"user_id":272,"name":"Pinetree w/ apples.","steam_id":76561198105411709,"connected_time":9846000000000,"state":"active","ping":107},{"user_id":322,"name":"Bogey","steam_id":76561198096227944,"connected_time":6192000000000,"state":"active","ping":45},{"user_id":357,"name":"David De Bergerac","steam_id":76561198010306294,"connected_time":2607000000000,"state":"active","ping":88},{"user_id":385,"name":"Jamie","steam_id":76561198917309036,"connected_time":417000000000,"state":"active","ping":84},{"user_id":380,"name":"Snorps","steam_id":76561198964516229,"connected_time":748000000000,"state":"active","ping":85},{"user_id":321,"name":"Bocchers From Bocchi The Rock","steam_id":76561198986388085,"connected_time":6202000000000,"state":"active","ping":105},{"user_id":389,"name":"Muk__Tuk","steam_id":76561199122524457,"connected_time":301000000000,"state":"active","ping":83},{"user_id":386,"name":"bladees saddest, realest verse","steam_id":76561198098099826,"connected_time":377000000000,"state":"active","ping":72},{"user_id":369,"name":"bred","steam_id":76561198408673781,"connected_time":1700000000000,"state":"active","ping":57},{"user_id":360,"name":"get with it","steam_id":76561198286627157,"connected_time":2548000000000,"state":"active","ping":80},{"user_id":372,"name":"Mox Nix","steam_id":76561198978778718,"connected_time":1128000000000,"state":"active","ping":139},{"user_id":374,"name":"OverPowered64","steam_id":76561198291027287,"connected_time":998000000000,"state":"active","ping":55},{"user_id":388,"name":"[BALLS] r30848","steam_id":76561199123984543,"connected_time":305000000000,"state":"active","ping":49},{"user_id":316,"name":"peebs","steam_id":76561198261319753,"connected_time":6306000000000,"state":"active","ping":55},{"user_id":377,"name":"jimmyfnaf172198yay","steam_id":76561198311446636,"connected_time":839000000000,"state":"active","ping":78},{"user_id":384,"name":"Murrdogg","steam_id":76561198210491188,"connected_time":433000000000,"state":"active","ping":85},{"user_id":379,"name":"Reague","steam_id":76561199092175631,"connected_time":783000000000,"state":"active","ping":69},{"user_id":382,"name":"Floating Peasant","steam_id":76561198000183671,"connected_time":615000000000,"state":"active","ping":57},{"user_id":348,"name":"Evangelion","steam_id":76561198059690074,"connected_time":3246000000000,"state":"active","ping":53}]},{"server_id":108,"name":"Uncletopia | Dallas | 2 | All Maps","name_short":"dal-2","host":"dal-1.us.uncletopia.com","port":27025,"enabled":true,"region":"us-central","cc":"us","latitude":32.779167,"longitude":-96.80889,"reserved":0,"last_update":"0001-01-01T00:00:00Z","name_a2s":"Uncletopia | Dallas | 2 | All Maps","protocol":17,"map":"plr_pipeline","folder":"tf","game":"Team Fortress","app_id":440,"player_count":23,"max_players":24,"Bots":0,"server_type":"Dedicated","server_os":"Linux","password":true,"vac":true,"version":"7932396","steam_id":85568392924469988,"keywords":["nocrits","nodmgspread","payload","uncletopia"],"game_id":440,"stv_port":27026,"stv_name":"Uncletopia | Dallas | 2 | All Maps | STV","players":[{"user_id":195,"name":"Redguardowen","steam_id":76561198176957862,"connected_time":2218000000000,"state":"active","ping":54},{"user_id":226,"name":"Liver stealer","steam_id":76561199029954287,"connected_time":209000000000,"state":"active","ping":151},{"user_id":199,"name":"aisu","steam_id":76561198043768507,"connected_time":1867000000000,"state":"active","ping":80},{"user_id":188,"name":"Agent Bowtie","steam_id":76561198175839279,"connected_time":3137000000000,"state":"active","ping":52},{"user_id":224,"name":"Fig Newton","steam_id":76561198064255155,"connected_time":328000000000,"state":"active","ping":59},{"user_id":216,"name":"carrotcake","steam_id":76561198030997761,"connected_time":992000000000,"state":"active","ping":45},{"user_id":225,"name":"Clusterfart","steam_id":76561198150242043,"connected_time":314000000000,"state":"active","ping":101},{"user_id":219,"name":"Truffles","steam_id":76561198095868800,"connected_time":643000000000,"state":"active","ping":61},{"user_id":205,"name":"Pie‚Ñ¢","steam_id":76561198158312625,"connected_time":1667000000000,"state":"active","ping":115},{"user_id":204,"name":"Deaddropping","steam_id":76561198043711366,"connected_time":1760000000000,"state":"active","ping":74},{"user_id":221,"name":"medic enthusiast","steam_id":76561198323031964,"connected_time":523000000000,"state":"active","ping":82},{"user_id":213,"name":"artichoke","steam_id":76561198980994364,"connected_time":1474000000000,"state":"active","ping":95},{"user_id":193,"name":"jandajanda","steam_id":76561198235722476,"connected_time":2410000000000,"state":"active","ping":65},{"user_id":185,"name":"[FOFS]billyburl","steam_id":76561198079535159,"connected_time":3308000000000,"state":"active","ping":77},{"user_id":217,"name":"MagicalBoyChan","steam_id":76561198024776873,"connected_time":950000000000,"state":"active","ping":157},{"user_id":227,"name":"OWEENIE","steam_id":76561198083135927,"connected_time":173000000000,"state":"active","ping":45},{"user_id":209,"name":"Jux","steam_id":76561198119502356,"connected_time":1612000000000,"state":"active","ping":120},{"user_id":197,"name":"MeMyBongusAndTheGreatOutdoors","steam_id":76561198097708978,"connected_time":2185000000000,"state":"active","ping":52},{"user_id":223,"name":"Greskrendtregk","steam_id":76561197969553142,"connected_time":377000000000,"state":"active","ping":102},{"user_id":228,"name":"WashingMachine","steam_id":76561198318572060,"connected_time":154000000000,"state":"active","ping":59},{"user_id":215,"name":"Rowdyshark101","steam_id":76561199019123695,"connected_time":1238000000000,"state":"active","ping":53},{"user_id":88,"name":"nori_420","steam_id":76561199117134203,"connected_time":11460000000000,"state":"active","ping":84},{"user_id":192,"name":"Bean Marrow","steam_id":76561198116650223,"connected_time":2659000000000,"state":"active","ping":68}]},{"server_id":5,"name":"Uncletopia | Frankfurt | 1 | All Maps","name_short":"frk-1","host":"frk-1.de.uncletopia.com","port":27015,"enabled":true,"region":"eu","cc":"de","latitude":50.110924,"longitude":8.682127,"reserved":0,"last_update":"0001-01-01T00:00:00Z","name_a2s":"Uncletopia | Frankfurt | 1 | All Maps","protocol":17,"map":"koth_highpass","folder":"tf","game":"Team Fortress","app_id":440,"player_count":0,"max_players":24,"Bots":0,"server_type":"Dedicated","server_os":"Linux","password":true,"vac":true,"version":"7932396","steam_id":85568392924469989,"keywords":["cp","nocrits","nodmgspread","uncletopia"],"game_id":440,"stv_port":27016,"stv_name":"Uncletopia | Frankfurt | 1 | All Maps | STV","players":null},{"server_id":110,"name":"Uncletopia | Frankfurt | 2 | All Maps","name_short":"frk-2","host":"frk-1.de.uncletopia.com","port":27025,"enabled":true,"region":"eu","cc":"de","latitude":50.110924,"longitude":8.682127,"reserved":0,"last_update":"0001-01-01T00:00:00Z","name_a2s":"Uncletopia | Frankfurt | 2 | All Maps","protocol":17,"map":"pl_pier","folder":"tf","game":"Team Fortress","app_id":440,"player_count":0,"max_players":24,"Bots":0,"server_type":"Dedicated","server_os":"Linux","password":true,"vac":true,"version":"7932396","steam_id":85568392924469990,"keywords":["nocrits","nodmgspread","payload","uncletopia"],"game_id":440,"stv_port":27026,"stv_name":"Uncletopia | Frankfurt | 2 | All Maps | STV","players":null},{"server_id":308,"name":"Uncletopia | Frankfurt | 3 | All Maps","name_short":"frk-3","host":"frk-1.de.uncletopia.com","port":27035,"enabled":true,"region":"eu","cc":"de","latitude":50.110924,"longitude":8.682127,"reserved":0,"last_update":"0001-01-01T00:00:00Z","name_a2s":"Uncletopia | Frankfurt | 3 | All Maps","protocol":17,"map":"koth_cascade","folder":"tf","game":"Team Fortress","app_id":440,"player_count":0,"max_players":24,"Bots":0,"server_type":"Dedicated","server_os":"Linux","password":true,"vac":true,"version":"7932396","steam_id":85568392924504274,"keywords":["cp","nocrits","nodmgspread","uncletopia"],"game_id":440,"stv_port":27036,"stv_name":"Uncletopia | Frankfurt | 3 | All Maps | STV","players":null},{"server_id":309,"name":"Uncletopia | Frankfurt | 4 | All Maps","name_short":"frk-4","host":"frk-1.de.uncletopia.com","port":27045,"enabled":true,"region":"eu","cc":"de","latitude":50.110924,"longitude":8.682127,"reserved":0,"last_update":"0001-01-01T00:00:00Z","name_a2s":"Uncletopia | Frankfurt | 4 | All Maps","protocol":17,"map":"pl_snowycoast","folder":"tf","game":"Team Fortress","app_id":440,"player_count":0,"max_players":24,"Bots":0,"server_type":"Dedicated","server_os":"Linux","password":true,"vac":true,"version":"7932396","steam_id":85568392924504275,"keywords":["nocrits","nodmgspread","payload","uncletopia"],"game_id":440,"stv_port":27046,"stv_name":"Uncletopia | Frankfurt | 4 | All Maps | STV","players":null},{"server_id":310,"name":"Uncletopia | Frankfurt | 5 | All Maps","name_short":"frk-5","host":"frk-1.de.uncletopia.com","port":27055,"enabled":true,"region":"eu","cc":"de","latitude":50.110924,"longitude":8.682127,"reserved":0,"last_update":"0001-01-01T00:00:00Z","name_a2s":"Uncletopia | Frankfurt | 5 | All Maps","protocol":17,"map":"koth_highpass","folder":"tf","game":"Team Fortress","app_id":440,"player_count":0,"max_players":24,"Bots":0,"server_type":"Dedicated","server_os":"Linux","password":true,"vac":true,"version":"7932396","steam_id":85568392924504277,"keywords":["cp","nocrits","nodmgspread","uncletopia"],"game_id":440,"stv_port":27056,"stv_name":"Uncletopia | Frankfurt | 5 | All Maps | STV","players":null},{"server_id":311,"name":"Uncletopia | Frankfurt | 6 | All Maps","name_short":"frk-6","host":"frk-1.de.uncletopia.com","port":27065,"enabled":true,"region":"eu","cc":"de","latitude":50.110924,"longitude":8.682127,"reserved":0,"last_update":"0001-01-01T00:00:00Z","name_a2s":"Uncletopia | Frankfurt | 6 | All Maps","protocol":17,"map":"koth_highpass","folder":"tf","game":"Team Fortress","app_id":440,"player_count":0,"max_players":24,"Bots":0,"server_type":"Dedicated","server_os":"Linux","password":true,"vac":true,"version":"7932396","steam_id":85568392924504278,"keywords":["cp","nocrits","nodmgspread","uncletopia"],"game_id":440,"stv_port":27066,"stv_name":"Uncletopia | Frankfurt | 6 | All Maps | STV","players":null},{"server_id":23,"name":"Uncletopia | Frankfurt | 7 | Stopwatch Beta","name_short":"frk-7","host":"frk-1.de.uncletopia.com","port":27075,"enabled":true,"region":"eu","cc":"de","latitude":50.110924,"longitude":8.682127,"reserved":0,"last_update":"0001-01-01T00:00:00Z","name_a2s":"Uncletopia | Frankfurt | 7 | Stopwatch Beta","protocol":17,"map":"pl_snowycoast","folder":"tf","game":"Team Fortress","app_id":440,"player_count":0,"max_players":24,"Bots":0,"server_type":"Dedicated","server_os":"Linux","password":true,"vac":true,"version":"7932396","steam_id":85568392924742827,"keywords":["nocrits","nodmgspread","payload","uncletopia"],"game_id":440,"stv_port":27076,"stv_name":"Uncletopia | Frankfurt | 7 | Stopwatch Beta | STV","players":null},{"server_id":24,"name":"Uncletopia | Frankfurt | 8 | Community","name_short":"frk-8","host":"frk-1.de.uncletopia.com","port":27085,"enabled":true,"region":"eu","cc":"de","latitude":50.110924,"longitude":8.682127,"reserved":0,"last_update":"0001-01-01T00:00:00Z","name_a2s":"Uncletopia | Frankfurt | 8 | Community","protocol":17,"map":"workshop/koth_ashville_final.ugc2130459942","folder":"tf","game":"Team Fortress","app_id":440,"player_count":0,"max_players":24,"Bots":0,"server_type":"Dedicated","server_os":"Linux","password":true,"vac":true,"version":"7932396","steam_id":85568392924742828,"keywords":["cp","nocrits","nodmgspread","uncletopia"],"game_id":440,"stv_port":27086,"stv_name":"Uncletopia | Frankfurt | 8 | Community | STV","players":null},{"server_id":202,"name":"Uncletopia | Hong Kong | 1 | All Maps","name_short":"hgk-1","host":"hgk-1.hk.uncletopia.com","port":27015,"enabled":true,"region":"asia","cc":"hk","latitude":22.302711,"longitude":114.177216,"reserved":0,"last_update":"0001-01-01T00:00:00Z","name_a2s":"Uncletopia | Hong Kong | 1 | All Maps","protocol":17,"map":"koth_cascade","folder":"tf","game":"Team Fortress","app_id":440,"player_count":0,"max_players":24,"Bots":0,"server_type":"Dedicated","server_os":"Linux","password":true,"vac":true,"version":"7932396","steam_id":85568392924494504,"keywords":["cp","nocrits","nodmgspread","uncletopia"],"game_id":440,"stv_port":27016,"stv_name":"Uncletopia | Hong Kong | 1 | All Maps | STV","players":null},{"server_id":1,"name":"Uncletopia | Los Angeles | 1 | All Maps","name_short":"lax-1","host":"lax-1.us.uncletopia.com","port":27015,"enabled":true,"region":"us-west","cc":"us","latitude":33.94279,"longitude":-118.41004,"reserved":0,"last_update":"0001-01-01T00:00:00Z","name_a2s":"Uncletopia | Los Angeles | 1 | All Maps","protocol":17,"map":"pl_pier","folder":"tf","game":"Team Fortress","app_id":440,"player_count":24,"max_players":24,"Bots":0,"server_type":"Dedicated","server_os":"Linux","password":true,"vac":true,"version":"7932396","steam_id":85568392924469991,"keywords":["nocrits","nodmgspread","payload","uncletopia"],"game_id":440,"stv_port":27016,"stv_name":"Uncletopia | Los Angeles | 1 | All Maps | STV","players":[{"user_id":205,"name":"donkeyballs2007","steam_id":76561199466298683,"connected_time":601000000000,"state":"active","ping":44},{"user_id":210,"name":"poompis","steam_id":76561198160850933,"connected_time":300000000000,"state":"active","ping":126},{"user_id":146,"name":"Pixeled","steam_id":76561198088917077,"connected_time":3183000000000,"state":"active","ping":116},{"user_id":214,"name":"Spooby","steam_id":76561198168114366,"connected_time":104000000000,"state":"active","ping":121},{"user_id":77,"name":"Moonlily","steam_id":76561198852670061,"connected_time":9303000000000,"state":"active","ping":96},{"user_id":117,"name":"Fishandfish","steam_id":76561198298483804,"connected_time":5345000000000,"state":"active","ping":74},{"user_id":213,"name":"MALWARE9000","steam_id":76561198065238093,"connected_time":192000000000,"state":"active","ping":101},{"user_id":194,"name":"pissacrash","steam_id":76561198110723576,"connected_time":950000000000,"state":"active","ping":35},{"user_id":192,"name":"Lucide","steam_id":76561197998530400,"connected_time":1385000000000,"state":"active","ping":68},{"user_id":147,"name":"Blue","steam_id":76561199093604072,"connected_time":3179000000000,"state":"active","ping":97},{"user_id":181,"name":"throat_man","steam_id":76561199321657653,"connected_time":1486000000000,"state":"active","ping":61},{"user_id":212,"name":"R5-D4","steam_id":76561198025196439,"connected_time":230000000000,"state":"active","ping":77},{"user_id":178,"name":"Jayden","steam_id":76561198121014332,"connected_time":1585000000000,"state":"active","ping":118},{"user_id":170,"name":"SanitysEdge","steam_id":76561198130732813,"connected_time":1849000000000,"state":"active","ping":48},{"user_id":199,"name":"doctor cock","steam_id":76561198121668647,"connected_time":809000000000,"state":"active","ping":116},{"user_id":183,"name":"thisisSteve","steam_id":76561198420882318,"connected_time":1481000000000,"state":"active","ping":61},{"user_id":154,"name":"kr1tsurf3r","steam_id":76561198076402476,"connected_time":2942000000000,"state":"active","ping":68},{"user_id":204,"name":"advent","steam_id":76561198136475311,"connected_time":694000000000,"state":"active","ping":94},{"user_id":206,"name":"dAiLyGrInD","steam_id":76561198163531915,"connected_time":513000000000,"state":"active","ping":92},{"user_id":196,"name":"Professor K","steam_id":76561198255775561,"connected_time":889000000000,"state":"active","ping":75},{"user_id":211,"name":"rimble","steam_id":76561198150137369,"connected_time":293000000000,"state":"active","ping":58},{"user_id":207,"name":"Insert_User_","steam_id":76561199229663997,"connected_time":495000000000,"state":"active","ping":82},{"user_id":189,"name":"Fostrel","steam_id":76561198152160601,"connected_time":1425000000000,"state":"active","ping":116},{"user_id":191,"name":"Nooblord","steam_id":76561199105123730,"connected_time":1389000000000,"state":"active","ping":88}]},{"server_id":112,"name":"Uncletopia | Los Angeles | 2 | All Maps","name_short":"lax-2","host":"lax-1.us.uncletopia.com","port":27025,"enabled":true,"region":"us-west","cc":"us","latitude":33.94279,"longitude":-118.41004,"reserved":0,"last_update":"0001-01-01T00:00:00Z","name_a2s":"Uncletopia | Los Angeles | 2 | All Maps","protocol":17,"map":"koth_highpass","folder":"tf","game":"Team Fortress","app_id":440,"player_count":21,"max_players":24,"Bots":0,"server_type":"Dedicated","server_os":"Linux","password":true,"vac":true,"version":"7932396","steam_id":85568392924469992,"keywords":["cp","nocrits","nodmgspread","uncletopia"],"game_id":440,"stv_port":27026,"stv_name":"Uncletopia | Los Angeles | 2 | All Maps | STV","players":[{"user_id":333,"name":"McDonald","steam_id":76561199028533497,"connected_time":1403000000000,"state":"active","ping":47},{"user_id":347,"name":"Some Big Mean Mother Hubbard","steam_id":76561198436672138,"connected_time":106000000000,"state":"active","ping":75},{"user_id":284,"name":"HeathGeath","steam_id":76561198127484580,"connected_time":3824000000000,"state":"active","ping":47},{"user_id":339,"name":"LordKirby","steam_id":76561198006938286,"connected_time":443000000000,"state":"active","ping":99},{"user_id":327,"name":"Blind Ghost","steam_id":76561198060980791,"connected_time":1469000000000,"state":"active","ping":124},{"user_id":338,"name":"Kip üêá","steam_id":76561198075476523,"connected_time":461000000000,"state":"active","ping":62},{"user_id":318,"name":"kingcab","steam_id":76561197998531589,"connected_time":1919000000000,"state":"active","ping":79},{"user_id":344,"name":"Konnor","steam_id":76561199136300254,"connected_time":268000000000,"state":"active","ping":42},{"user_id":340,"name":"Grognak","steam_id":76561198044710527,"connected_time":413000000000,"state":"active","ping":78},{"user_id":351,"name":"mr cool","steam_id":76561197967915784,"connected_time":3000000000,"state":"spawning","ping":57},{"user_id":342,"name":"Vladimir Chirgin","steam_id":76561198170035235,"connected_time":377000000000,"state":"active","ping":83},{"user_id":264,"name":"breakfast","steam_id":76561198043712978,"connected_time":5257000000000,"state":"active","ping":68},{"user_id":214,"name":"TORN RETINAS","steam_id":76561198033822457,"connected_time":9250000000000,"state":"active","ping":69},{"user_id":345,"name":"the beanboozler","steam_id":76561198442125983,"connected_time":130000000000,"state":"active","ping":52},{"user_id":325,"name":"Bonk Co.","steam_id":76561198009355408,"connected_time":1688000000000,"state":"active","ping":63},{"user_id":322,"name":"framp down","steam_id":76561198006316527,"connected_time":1878000000000,"state":"active","ping":59},{"user_id":343,"name":"engineer who fixes 2fort sink","steam_id":76561199064208913,"connected_time":294000000000,"state":"active","ping":76},{"user_id":349,"name":"rad killl raccoon","steam_id":76561198980975595,"connected_time":75000000000,"state":"active","ping":89},{"user_id":331,"name":"Sh3ba Spaniel","steam_id":76561198047412394,"connected_time":1433000000000,"state":"active","ping":109},{"user_id":350,"name":"‡∂û","steam_id":76561199187895660,"connected_time":52000000000,"state":"active","ping":44},{"user_id":281,"name":"[Champ] Marssygurl","steam_id":76561198014928241,"connected_time":4125000000000,"state":"active","ping":128}]},{"server_id":324,"name":"Uncletopia | Los Angeles | 3 | All Maps","name_short":"lax-3","host":"lax-1.us.uncletopia.com","port":27035,"enabled":true,"region":"us-west","cc":"us","latitude":33.94279,"longitude":-118.41004,"reserved":0,"last_update":"0001-01-01T00:00:00Z","name_a2s":"Uncletopia | Los Angeles | 3 | All Maps","protocol":17,"map":"pl_pier","folder":"tf","game":"Team Fortress","app_id":440,"player_count":24,"max_players":24,"Bots":0,"server_type":"Dedicated","server_os":"Linux","password":true,"vac":true,"version":"7932396","steam_id":85568392924510198,"keywords":["nocrits","nodmgspread","payload","uncletopia"],"game_id":440,"stv_port":27036,"stv_name":"Uncletopia | Los Angeles | 3 | All Maps | STV","players":[{"user_id":313,"name":"naturia","steam_id":76561198092317849,"connected_time":1068000000000,"state":"active","ping":49},{"user_id":318,"name":"Matte \u003e:)","steam_id":76561198070631073,"connected_time":641000000000,"state":"active","ping":57},{"user_id":260,"name":"the observer","steam_id":76561198966609490,"connected_time":4825000000000,"state":"active","ping":83},{"user_id":312,"name":"Loashes","steam_id":76561198119608299,"connected_time":1272000000000,"state":"active","ping":91},{"user_id":197,"name":"riSygneD","steam_id":76561198331618687,"connected_time":8488000000000,"state":"active","ping":42},{"user_id":307,"name":"Maxx","steam_id":76561199112037223,"connected_time":1675000000000,"state":"active","ping":90},{"user_id":319,"name":"Dylan Pulido","steam_id":76561198272681544,"connected_time":625000000000,"state":"active","ping":48},{"user_id":320,"name":"Ryan_is_cool","steam_id":76561198980363387,"connected_time":581000000000,"state":"active","ping":61},{"user_id":308,"name":"unfathomable heights of bliss","steam_id":76561198048925904,"connected_time":1651000000000,"state":"active","ping":60},{"user_id":317,"name":"hatsune miku","steam_id":76561199445009981,"connected_time":882000000000,"state":"active","ping":70},{"user_id":314,"name":"-_-","steam_id":76561198048754646,"connected_time":1050000000000,"state":"active","ping":43},{"user_id":303,"name":"Scrux","steam_id":76561198129763115,"connected_time":2065000000000,"state":"active","ping":54},{"user_id":321,"name":"gunch","steam_id":76561198109948247,"connected_time":567000000000,"state":"active","ping":93},{"user_id":258,"name":"Hindmost","steam_id":76561199081837220,"connected_time":5008000000000,"state":"active","ping":96},{"user_id":309,"name":"S√°bado Gigante","steam_id":76561197994685971,"connected_time":1583000000000,"state":"active","ping":52},{"user_id":322,"name":"it's peanut time","steam_id":76561198236028020,"connected_time":548000000000,"state":"active","ping":134},{"user_id":278,"name":"Stapler","steam_id":76561198099295077,"connected_time":4416000000000,"state":"active","ping":53},{"user_id":276,"name":"Ice cream sandwich","steam_id":76561198172748357,"connected_time":4535000000000,"state":"active","ping":63},{"user_id":316,"name":"raya","steam_id":76561198051504581,"connected_time":1033000000000,"state":"active","ping":74},{"user_id":310,"name":"...","steam_id":76561198121508845,"connected_time":1573000000000,"state":"active","ping":63},{"user_id":323,"name":"Grizzakk","steam_id":76561198115821923,"connected_time":531000000000,"state":"active","ping":85},{"user_id":274,"name":"mer5277","steam_id":76561198192171041,"connected_time":4595000000000,"state":"active","ping":148},{"user_id":255,"name":"Silvermace","steam_id":76561198090696843,"connected_time":5320000000000,"state":"active","ping":48},{"user_id":295,"name":"PageBoiSkull","steam_id":76561198237353578,"connected_time":3017000000000,"state":"active","ping":70}]},{"server_id":25,"name":"Uncletopia | Los Angeles | 4 | Stopwatch Beta","name_short":"lax-4","host":"lax-1.us.uncletopia.com","port":27045,"enabled":true,"region":"us-west","cc":"us","latitude":33.94279,"longitude":-118.41004,"reserved":0,"last_update":"0001-01-01T00:00:00Z","name_a2s":"Uncletopia | Los Angeles | 4 | Stopwatch Beta","protocol":17,"map":"cp_process_final","folder":"tf","game":"Team Fortress","app_id":440,"player_count":14,"max_players":24,"Bots":0,"server_type":"Dedicated","server_os":"Linux","password":true,"vac":true,"version":"7932396","steam_id":85568392924510199,"keywords":["cp","nocrits","nodmgspread","uncletopia"],"game_id":440,"stv_port":27046,"stv_name":"Uncletopia | Los Angeles | 4 | Stopwatch Beta | STV","players":[{"user_id":45,"name":"bcizzo","steam_id":76561197994399953,"connected_time":538000000000,"state":"active","ping":63},{"user_id":46,"name":"luigi is in debt","steam_id":76561198993139342,"connected_time":491000000000,"state":"active","ping":58},{"user_id":48,"name":"Mat-Shades","steam_id":76561198013998031,"connected_time":362000000000,"state":"active","ping":115},{"user_id":49,"name":"CrystalClear","steam_id":76561198210417120,"connected_time":143000000000,"state":"active","ping":58},{"user_id":50,"name":"the high fox","steam_id":76561198177124951,"connected_time":121000000000,"state":"active","ping":68},{"user_id":19,"name":"Oatmeal","steam_id":76561199378924674,"connected_time":3043000000000,"state":"active","ping":130},{"user_id":53,"name":"Nitrogen","steam_id":76561198109882761,"connected_time":26000000000,"state":"spawning","ping":46},{"user_id":22,"name":"NewGuy","steam_id":76561198968058652,"connected_time":2142000000000,"state":"active","ping":73},{"user_id":52,"name":"DaBossGamer","steam_id":76561198206588971,"connected_time":104000000000,"state":"active","ping":63},{"user_id":28,"name":"Agent Q","steam_id":76561198830829003,"connected_time":1182000000000,"state":"active","ping":73},{"user_id":31,"name":"Mr_Moose","steam_id":76561198152815154,"connected_time":1104000000000,"state":"active","ping":78},{"user_id":38,"name":"Allison Ghost ‚∏ª‚∏ª‚∏ª‚∏∫‚∏∫","steam_id":76561198053851548,"connected_time":914000000000,"state":"active","ping":71},{"user_id":42,"name":"Battle Engineer","steam_id":76561198145396989,"connected_time":810000000000,"state":"active","ping":42},{"user_id":40,"name":"Amongus Sex mod (REAL)","steam_id":76561199093824429,"connected_time":896000000000,"state":"active","ping":90}]},{"server_id":11,"name":"Uncletopia | London | 1 | All Maps","name_short":"lon-1","host":"lon-1.uk.uncletopia.com","port":27015,"enabled":true,"region":"eu","cc":"gb","latitude":51.509865,"longitude":-0.118092,"reserved":0,"last_update":"0001-01-01T00:00:00Z","name_a2s":"Uncletopia | London | 1 | All Maps","protocol":17,"map":"pl_frontier_final","folder":"tf","game":"Team Fortress","app_id":440,"player_count":1,"max_players":24,"Bots":0,"server_type":"Dedicated","server_os":"Linux","password":true,"vac":true,"version":"7932396","steam_id":85568392924367362,"keywords":["nocrits","nodmgspread","payload","uncletopia"],"game_id":440,"stv_port":27016,"stv_name":"Uncletopia | London | 1 | All Maps | STV","players":[{"user_id":1205,"name":"GayKlotzLuver22","steam_id":76561198144415138,"connected_time":24000000000,"state":"active","ping":72}]},{"server_id":114,"name":"Uncletopia | London | 2 | All Maps","name_short":"lon-2","host":"lon-1.uk.uncletopia.com","port":27025,"enabled":true,"region":"eu","cc":"gb","latitude":51.509865,"longitude":-0.118092,"reserved":0,"last_update":"0001-01-01T00:00:00Z","name_a2s":"Uncletopia | London | 2 | All Maps","protocol":17,"map":"cp_dustbowl","folder":"tf","game":"Team Fortress","app_id":440,"player_count":16,"max_players":24,"Bots":0,"server_type":"Dedicated","server_os":"Linux","password":true,"vac":true,"version":"7932396","steam_id":85568392924470941,"keywords":["cp","nocrits","nodmgspread","uncletopia"],"game_id":440,"stv_port":27026,"stv_name":"Uncletopia | London | 2 | All Maps | STV","players":[{"user_id":664,"name":"Marcus","steam_id":76561198205027963,"connected_time":162000000000,"state":"active","ping":60},{"user_id":623,"name":"paradigmatic shift","steam_id":76561197988802856,"connected_time":3524000000000,"state":"active","ping":59},{"user_id":666,"name":"Foreskin Washing Advisory Board","steam_id":76561198051685232,"connected_time":127000000000,"state":"active","ping":44},{"user_id":658,"name":"MIG","steam_id":76561198099245500,"connected_time":776000000000,"state":"active","ping":54},{"user_id":579,"name":"DataParty","steam_id":76561198037161826,"connected_time":7475000000000,"state":"active","ping":47},{"user_id":661,"name":"exRage","steam_id":76561198449953655,"connected_time":179000000000,"state":"active","ping":74},{"user_id":627,"name":"in the house like carpet","steam_id":76561199480942903,"connected_time":3321000000000,"state":"active","ping":74},{"user_id":667,"name":"goosu","steam_id":76561198116986693,"connected_time":76000000000,"state":"active","ping":93},{"user_id":639,"name":"Everness","steam_id":76561197994803883,"connected_time":2714000000000,"state":"active","ping":86},{"user_id":625,"name":"TheEventGuy","steam_id":76561197972797744,"connected_time":3509000000000,"state":"active","ping":67},{"user_id":616,"name":"Sheep","steam_id":76561198047895760,"connected_time":4331000000000,"state":"active","ping":57},{"user_id":662,"name":"jonbob","steam_id":76561197963506620,"connected_time":174000000000,"state":"active","ping":53},{"user_id":652,"name":"Dr. Lambda","steam_id":76561198952939545,"connected_time":1563000000000,"state":"active","ping":123},{"user_id":581,"name":"Glitch","steam_id":76561198081895538,"connected_time":7284000000000,"state":"active","ping":53},{"user_id":654,"name":"Mittep","steam_id":76561198082888891,"connected_time":1431000000000,"state":"active","ping":36},{"user_id":655,"name":"Chillyroom","steam_id":76561198861912968,"connected_time":1401000000000,"state":"active","ping":132}]},{"server_id":320,"name":"Uncletopia | London | 3 | All Maps","name_short":"lon-3","host":"lon-1.uk.uncletopia.com","port":27035,"enabled":true,"region":"eu","cc":"gb","latitude":51.509865,"longitude":-0.118092,"reserved":0,"last_update":"0001-01-01T00:00:00Z","name_a2s":"Uncletopia | London | 3 | All Maps","protocol":17,"map":"pl_barnblitz","folder":"tf","game":"Team Fortress","app_id":440,"player_count":4,"max_players":24,"Bots":0,"server_type":"Dedicated","server_os":"Linux","password":true,"vac":true,"version":"7932396","steam_id":85568392924510192,"keywords":["nocrits","nodmgspread","payload","uncletopia"],"game_id":440,"stv_port":27036,"stv_name":"Uncletopia | London | 3 | All Maps | STV","players":[{"user_id":1018,"name":"SirDapperBirb","steam_id":76561198978305181,"connected_time":2230000000000,"state":"active","ping":141},{"user_id":1016,"name":"Dr.Doc","steam_id":76561198981911429,"connected_time":2513000000000,"state":"active","ping":160},{"user_id":1024,"name":"odacovA","steam_id":76561199383345208,"connected_time":1054000000000,"state":"active","ping":144},{"user_id":1023,"name":"distra","steam_id":76561199474448245,"connected_time":1067000000000,"state":"active","ping":88}]},{"server_id":321,"name":"Uncletopia | London | 4 | All Maps","name_short":"lon-4","host":"lon-1.uk.uncletopia.com","port":27045,"enabled":true,"region":"eu","cc":"gb","latitude":51.509865,"longitude":-0.118092,"reserved":0,"last_update":"0001-01-01T00:00:00Z","name_a2s":"Uncletopia | London | 4 | All Maps","protocol":17,"map":"pl_barnblitz","folder":"tf","game":"Team Fortress","app_id":440,"player_count":0,"max_players":24,"Bots":0,"server_type":"Dedicated","server_os":"Linux","password":true,"vac":true,"version":"7932396","steam_id":85568392924510193,"keywords":["nocrits","nodmgspread","payload","uncletopia"],"game_id":440,"stv_port":27046,"stv_name":"Uncletopia | London | 4 | All Maps | STV","players":null},{"server_id":21,"name":"Uncletopia | London | 5 | All Maps","name_short":"lon-5","host":"lon-1.uk.uncletopia.com","port":27055,"enabled":true,"region":"eu","cc":"gb","latitude":51.509865,"longitude":-0.118092,"reserved":0,"last_update":"0001-01-01T00:00:00Z","name_a2s":"Uncletopia | London | 5 | All Maps","protocol":17,"map":"pl_badwater","folder":"tf","game":"Team Fortress","app_id":440,"player_count":0,"max_players":24,"Bots":0,"server_type":"Dedicated","server_os":"Linux","password":true,"vac":true,"version":"7932396","steam_id":85568392924742829,"keywords":["nocrits","nodmgspread","payload","uncletopia"],"game_id":440,"stv_port":27056,"stv_name":"Uncletopia | London | 5 | All Maps | STV","players":null},{"server_id":22,"name":"Uncletopia | London | 6 | All Maps","name_short":"lon-6","host":"lon-1.uk.uncletopia.com","port":27065,"enabled":true,"region":"eu","cc":"gb","latitude":51.509865,"longitude":-0.118092,"reserved":0,"last_update":"0001-01-01T00:00:00Z","name_a2s":"Uncletopia | London | 6 | All Maps","protocol":17,"map":"pl_upward","folder":"tf","game":"Team Fortress","app_id":440,"player_count":0,"max_players":24,"Bots":0,"server_type":"Dedicated","server_os":"Linux","password":true,"vac":true,"version":"7932396","steam_id":85568392924742830,"keywords":["nocrits","nodmgspread","payload","uncletopia"],"game_id":440,"stv_port":27066,"stv_name":"Uncletopia | London | 6 | All Maps | STV","players":null},{"server_id":40,"name":"Uncletopia | London | 7 | No Payload","name_short":"lon-7","host":"lon-1.uk.uncletopia.com","port":27075,"enabled":true,"region":"eu","cc":"gb","latitude":51.509865,"longitude":-0.118092,"reserved":0,"last_update":"0001-01-01T00:00:00Z","name_a2s":"Uncletopia | London | 7 | No Payload","protocol":17,"map":"koth_lazarus","folder":"tf","game":"Team Fortress","app_id":440,"player_count":0,"max_players":24,"Bots":0,"server_type":"Dedicated","server_os":"Linux","password":true,"vac":true,"version":"7932396","steam_id":85568392924964314,"keywords":["cp","nocrits","nodmgspread","uncletopia"],"game_id":440,"stv_port":27076,"stv_name":"Uncletopia | London | 7 | No Payload | STV","players":null},{"server_id":41,"name":"Uncletopia | London | 8 | Community","name_short":"lon-8","host":"lon-1.uk.uncletopia.com","port":27085,"enabled":true,"region":"eu","cc":"gb","latitude":51.509865,"longitude":-0.118092,"reserved":0,"last_update":"0001-01-01T00:00:00Z","name_a2s":"Uncletopia | London | 8 | Community","protocol":17,"map":"workshop/koth_trenchfoot_b1a.ugc731436616","folder":"tf","game":"Team Fortress","app_id":440,"player_count":0,"max_players":24,"Bots":0,"server_type":"Dedicated","server_os":"Linux","password":true,"vac":true,"version":"7932396","steam_id":85568392924964315,"keywords":["cp","nocrits","nodmgspread","uncletopia"],"game_id":440,"stv_port":27086,"stv_name":"Uncletopia | London | 8 | Community | STV","players":null},{"server_id":300,"name":"Uncletopia | Montr√©al | 1 | All Maps","name_short":"mtl-1","host":"mtl-1.ca.uncletopia.com","port":27015,"enabled":true,"region":"us-east","cc":"ca","latitude":45.50889,"longitude":-73.56167,"reserved":0,"last_update":"0001-01-01T00:00:00Z","name_a2s":"Uncletopia | Montr√©al | 1 | All Maps","protocol":17,"map":"koth_cascade","folder":"tf","game":"Team Fortress","app_id":440,"player_count":0,"max_players":24,"Bots":0,"server_type":"Dedicated","server_os":"Linux","password":true,"vac":true,"version":"7932396","steam_id":85568392924500087,"keywords":["cp","nocrits","nodmgspread","uncletopia"],"game_id":440,"stv_port":27016,"stv_name":"Uncletopia | Montr√©al | 1 | All Maps | STV","players":null},{"server_id":301,"name":"Uncletopia | Montr√©al | 2 | All Maps","name_short":"mtl-2","host":"mtl-1.ca.uncletopia.com","port":27025,"enabled":true,"region":"us-east","cc":"ca","latitude":45.50889,"longitude":-73.56167,"reserved":0,"last_update":"0001-01-01T00:00:00Z","name_a2s":"Uncletopia | Montr√©al | 2 | All Maps","protocol":17,"map":"koth_lakeside_final","folder":"tf","game":"Team Fortress","app_id":440,"player_count":0,"max_players":24,"Bots":0,"server_type":"Dedicated","server_os":"Linux","password":true,"vac":true,"version":"7932396","steam_id":85568392924500088,"keywords":["cp","nocrits","nodmgspread","uncletopia"],"game_id":440,"stv_port":27026,"stv_name":"Uncletopia | Montr√©al | 2 | All Maps | STV","players":null},{"server_id":302,"name":"Uncletopia | Montr√©al | 3 | All Maps","name_short":"mtl-3","host":"mtl-1.ca.uncletopia.com","port":27035,"enabled":true,"region":"us-east","cc":"ca","latitude":45.50889,"longitude":-73.56167,"reserved":0,"last_update":"0001-01-01T00:00:00Z","name_a2s":"Uncletopia | Montr√©al | 3 | All Maps","protocol":17,"map":"koth_cascade","folder":"tf","game":"Team Fortress","app_id":440,"player_count":0,"max_players":24,"Bots":0,"server_type":"Dedicated","server_os":"Linux","password":true,"vac":true,"version":"7932396","steam_id":85568392924500089,"keywords":["cp","nocrits","nodmgspread","uncletopia"],"game_id":440,"stv_port":27036,"stv_name":"Uncletopia | Montr√©al | 3 | All Maps | STV","players":null},{"server_id":303,"name":"Uncletopia | Montr√©al | 4 | No Payload","name_short":"mtl-4","host":"mtl-1.ca.uncletopia.com","port":27045,"enabled":true,"region":"us-east","cc":"ca","latitude":45.50889,"longitude":-73.56167,"reserved":0,"last_update":"0001-01-01T00:00:00Z","name_a2s":"Uncletopia | Montr√©al | 4 | No Payload","protocol":17,"map":"koth_king","folder":"tf","game":"Team Fortress","app_id":440,"player_count":0,"max_players":24,"Bots":0,"server_type":"Dedicated","server_os":"Linux","password":true,"vac":true,"version":"7932396","steam_id":85568392924500090,"keywords":["cp","nocrits","nodmgspread","uncletopia"],"game_id":440,"stv_port":27046,"stv_name":"Uncletopia | Montr√©al | 4 | No Payload | STV","players":null},{"server_id":13,"name":"Uncletopia | New York City | 1 | All Maps","name_short":"nyc-1","host":"nyc-1.us.uncletopia.com","port":27015,"enabled":true,"region":"us-east","cc":"us","latitude":40.73061,"longitude":-73.93524,"reserved":0,"last_update":"0001-01-01T00:00:00Z","name_a2s":"Uncletopia | New York City | 1 | All Maps","protocol":17,"map":"cp_dustbowl","folder":"tf","game":"Team Fortress","app_id":440,"player_count":24,"max_players":24,"Bots":0,"server_type":"Dedicated","server_os":"Linux","password":true,"vac":true,"version":"7932396","steam_id":85568392924469993,"keywords":["cp","nocrits","nodmgspread","uncletopia"],"game_id":440,"stv_port":27016,"stv_name":"Uncletopia | New York City | 1 | All Maps | STV","players":[{"user_id":449,"name":"MayheM","steam_id":76561198104506954,"connected_time":317000000000,"state":"active","ping":87},{"user_id":430,"name":"Only One Jhakobi","steam_id":76561197993641141,"connected_time":1957000000000,"state":"active","ping":76},{"user_id":448,"name":"MajorPancake","steam_id":76561198068713831,"connected_time":410000000000,"state":"active","ping":54},{"user_id":450,"name":"Dr. FlimFlam","steam_id":76561198049212986,"connected_time":297000000000,"state":"active","ping":105},{"user_id":451,"name":"Snoogs","steam_id":76561198444880931,"connected_time":258000000000,"state":"active","ping":68},{"user_id":452,"name":"A very nice man","steam_id":76561198165472253,"connected_time":239000000000,"state":"active","ping":67},{"user_id":453,"name":"theghazinator","steam_id":76561198188027695,"connected_time":235000000000,"state":"active","ping":60},{"user_id":444,"name":"SentiuntReus","steam_id":76561198208788677,"connected_time":1114000000000,"state":"active","ping":51},{"user_id":397,"name":"Wique","steam_id":76561198071217597,"connected_time":4931000000000,"state":"active","ping":68},{"user_id":454,"name":"Kaas","steam_id":76561198049640387,"connected_time":211000000000,"state":"active","ping":61},{"user_id":445,"name":"gamer girl looking for a bf","steam_id":76561198279901162,"connected_time":611000000000,"state":"active","ping":73},{"user_id":432,"name":"badasscoolboy57","steam_id":76561198795412055,"connected_time":1898000000000,"state":"active","ping":66},{"user_id":455,"name":"Sheev Palpatine","steam_id":76561198252332430,"connected_time":205000000000,"state":"active","ping":112},{"user_id":456,"name":"hoovy spy","steam_id":76561198999843667,"connected_time":201000000000,"state":"active","ping":78},{"user_id":457,"name":"Voyager","steam_id":76561199128786637,"connected_time":163000000000,"state":"active","ping":95},{"user_id":386,"name":"Periculosum PhD in Funny","steam_id":76561198123370914,"connected_time":6076000000000,"state":"active","ping":87},{"user_id":415,"name":"noided","steam_id":76561198353924837,"connected_time":3754000000000,"state":"active","ping":74},{"user_id":458,"name":"Lots0","steam_id":76561198043143145,"connected_time":112000000000,"state":"active","ping":108},{"user_id":439,"name":"winrarFanatic","steam_id":76561198026538317,"connected_time":1554000000000,"state":"active","ping":78},{"user_id":459,"name":"SireOfTheSun","steam_id":76561199049465503,"connected_time":108000000000,"state":"active","ping":46},{"user_id":460,"name":"|AG| Level","steam_id":76561198063633592,"connected_time":99000000000,"state":"active","ping":91},{"user_id":404,"name":"Bee_Pirate","steam_id":76561199000599111,"connected_time":4695000000000,"state":"active","ping":73},{"user_id":461,"name":"Uncle Majic the Hip Hop Magicia","steam_id":76561198107924303,"connected_time":54000000000,"state":"active","ping":36},{"user_id":367,"name":"Samrizo el Chorizo","steam_id":76561198009838162,"connected_time":7722000000000,"state":"active","ping":55}]},{"server_id":14,"name":"Uncletopia | New York City | 2 | All Maps","name_short":"nyc-2","host":"nyc-1.us.uncletopia.com","port":27025,"enabled":true,"region":"us-east","cc":"us","latitude":40.73061,"longitude":-73.93524,"reserved":0,"last_update":"0001-01-01T00:00:00Z","name_a2s":"Uncletopia | New York City | 2 | All Maps","protocol":17,"map":"pl_swiftwater_final1","folder":"tf","game":"Team Fortress","app_id":440,"player_count":24,"max_players":24,"Bots":0,"server_type":"Dedicated","server_os":"Linux","password":true,"vac":true,"version":"7932396","steam_id":85568392924469994,"keywords":["nocrits","nodmgspread","payload","uncletopia"],"game_id":440,"stv_port":27026,"stv_name":"Uncletopia | New York City | 2 | All Maps | STV","players":[{"user_id":361,"name":"Aristotle Voulton","steam_id":76561198100174923,"connected_time":1158000000000,"state":"active","ping":74},{"user_id":303,"name":"Bee","steam_id":76561198074681324,"connected_time":4250000000000,"state":"active","ping":45},{"user_id":283,"name":"Heropon","steam_id":76561198105224481,"connected_time":7304000000000,"state":"active","ping":60},{"user_id":360,"name":"The Grim Heaper","steam_id":76561197987759101,"connected_time":1164000000000,"state":"active","ping":126},{"user_id":278,"name":"Thurricane","steam_id":76561198410724666,"connected_time":7547000000000,"state":"active","ping":52},{"user_id":367,"name":"Santicules","steam_id":76561198209373536,"connected_time":812000000000,"state":"active","ping":46},{"user_id":306,"name":"IMPACT CPU","steam_id":76561198001344879,"connected_time":4237000000000,"state":"active","ping":60},{"user_id":358,"name":"Macro","steam_id":76561199442846226,"connected_time":1174000000000,"state":"active","ping":73},{"user_id":331,"name":"Nevil","steam_id":76561198067925462,"connected_time":3453000000000,"state":"active","ping":70},{"user_id":339,"name":"Lexabyte","steam_id":76561198065032237,"connected_time":2297000000000,"state":"active","ping":62},{"user_id":340,"name":"Smooth - Santana ft. Rob Thomas","steam_id":76561198145283389,"connected_time":2286000000000,"state":"active","ping":58},{"user_id":369,"name":"Sire Salty","steam_id":76561198079639072,"connected_time":521000000000,"state":"active","ping":55},{"user_id":342,"name":"No_Dictators","steam_id":76561199065777321,"connected_time":2269000000000,"state":"active","ping":89},{"user_id":354,"name":"Pixellate","steam_id":76561198085555090,"connected_time":1661000000000,"state":"active","ping":87},{"user_id":370,"name":"Singular Rooster","steam_id":76561197983872657,"connected_time":341000000000,"state":"active","ping":76},{"user_id":351,"name":"burt","steam_id":76561198137548311,"connected_time":1777000000000,"state":"active","ping":82},{"user_id":359,"name":"reymundo","steam_id":76561197989412830,"connected_time":1169000000000,"state":"active","ping":124},{"user_id":334,"name":"Matchstick","steam_id":76561198399856863,"connected_time":2363000000000,"state":"active","ping":377},{"user_id":345,"name":"Norman","steam_id":76561198154715990,"connected_time":2242000000000,"state":"active","ping":112},{"user_id":346,"name":"SirDigbyChickenCaesar","steam_id":76561197998612788,"connected_time":2233000000000,"state":"active","ping":66},{"user_id":355,"name":"nullptr","steam_id":76561198111790388,"connected_time":1557000000000,"state":"active","ping":123},{"user_id":371,"name":"Rudy","steam_id":76561198013456828,"connected_time":340000000000,"state":"active","ping":60},{"user_id":335,"name":"AverageGloop","steam_id":76561198243395378,"connected_time":2362000000000,"state":"active","ping":45}]},{"server_id":15,"name":"Uncletopia | New York City | 3 | Stopwatch Beta","name_short":"nyc-3","host":"nyc-1.us.uncletopia.com","port":27035,"enabled":true,"region":"us-east","cc":"us","latitude":40.73061,"longitude":-73.93524,"reserved":0,"last_update":"0001-01-01T00:00:00Z","name_a2s":"Uncletopia | New York City | 3 | Stopwatch Beta","protocol":17,"map":"workshop/koth_clearcut_b15.ugc2107050255","folder":"tf","game":"Team Fortress","app_id":440,"player_count":0,"max_players":24,"Bots":0,"server_type":"Dedicated","server_os":"Linux","password":true,"vac":true,"version":"7932396","steam_id":85568392924742820,"keywords":["cp","nocrits","nodmgspread","uncletopia"],"game_id":440,"stv_port":27036,"stv_name":"Uncletopia | New York City | 3 | Stopwatch Beta | STV","players":null},{"server_id":16,"name":"Uncletopia | New York City | 4 | Community","name_short":"nyc-4","host":"nyc-1.us.uncletopia.com","port":27045,"enabled":true,"region":"us-east","cc":"us","latitude":40.73061,"longitude":-73.93524,"reserved":0,"last_update":"0001-01-01T00:00:00Z","name_a2s":"Uncletopia | New York City | 4 | Community","protocol":17,"map":"workshop/koth_ashville_final.ugc2130459942","folder":"tf","game":"Team Fortress","app_id":440,"player_count":17,"max_players":24,"Bots":0,"server_type":"Dedicated","server_os":"Linux","password":true,"vac":true,"version":"7932396","steam_id":85568392924742821,"keywords":["cp","nocrits","nodmgspread","uncletopia"],"game_id":440,"stv_port":27046,"stv_name":"Uncletopia | New York City | 4 | Community | STV","players":[{"user_id":432,"name":"Medication Woman","steam_id":76561198348965524,"connected_time":1745000000000,"state":"active","ping":59},{"user_id":420,"name":"EmeraldYeti","steam_id":76561198318703857,"connected_time":2443000000000,"state":"active","ping":68},{"user_id":442,"name":"Rainboy","steam_id":76561199387631492,"connected_time":841000000000,"state":"active","ping":79},{"user_id":437,"name":"Jason","steam_id":76561198074589397,"connected_time":1526000000000,"state":"active","ping":44},{"user_id":417,"name":"IanFishooks","steam_id":76561199403427527,"connected_time":2511000000000,"state":"active","ping":59},{"user_id":397,"name":"helen keller","steam_id":76561197979870540,"connected_time":3771000000000,"state":"active","ping":60},{"user_id":418,"name":"Mathispell","steam_id":76561198066256066,"connected_time":2494000000000,"state":"active","ping":69},{"user_id":429,"name":"monkeycake","steam_id":76561198272061915,"connected_time":2139000000000,"state":"active","ping":60},{"user_id":443,"name":"totally nuts","steam_id":76561198072856511,"connected_time":836000000000,"state":"active","ping":56},{"user_id":423,"name":"Punkin","steam_id":76561198334301755,"connected_time":2384000000000,"state":"active","ping":52},{"user_id":402,"name":"the x in a mobile game ad","steam_id":76561198835517383,"connected_time":3320000000000,"state":"active","ping":65},{"user_id":398,"name":"(Past Tense)","steam_id":76561197996279335,"connected_time":3753000000000,"state":"active","ping":53},{"user_id":425,"name":"Etienne 115","steam_id":76561198351660265,"connected_time":2353000000000,"state":"active","ping":55},{"user_id":438,"name":"Horsecat","steam_id":76561198061653283,"connected_time":1332000000000,"state":"active","ping":145},{"user_id":386,"name":"irritable vowel syndrome","steam_id":76561198117033273,"connected_time":4257000000000,"state":"active","ping":135},{"user_id":428,"name":"Zephiel Castelianos","steam_id":76561198092435137,"connected_time":2306000000000,"state":"active","ping":72},{"user_id":447,"name":"Helloppl65","steam_id":76561198272420658,"connected_time":618000000000,"state":"active","ping":113}]},{"server_id":142,"name":"Uncletopia | S√£o Paulo | 1 | All Maps","name_short":"sao-1","host":"sao-1.br.uncletopia.com","port":27015,"enabled":true,"region":"sa","cc":"br","latitude":-23.533773,"longitude":-46.62529,"reserved":0,"last_update":"0001-01-01T00:00:00Z","name_a2s":"Uncletopia | S√£o Paulo | 1 | All Maps","protocol":17,"map":"koth_cascade","folder":"tf","game":"Team Fortress","app_id":440,"player_count":3,"max_players":24,"Bots":0,"server_type":"Dedicated","server_os":"Linux","password":true,"vac":true,"version":"7932396","steam_id":85568392924469996,"keywords":["cp","nocrits","nodmgspread","uncletopia"],"game_id":440,"stv_port":27016,"stv_name":"Uncletopia | S√£o Paulo | 1 | All Maps | STV","players":[{"user_id":77,"name":"abdiel.wario03","steam_id":76561199058243841,"connected_time":469000000000,"state":"active","ping":82},{"user_id":78,"name":"benja.c.b2009","steam_id":76561199054379422,"connected_time":453000000000,"state":"active","ping":87},{"user_id":79,"name":"kate ‚ùÄ","steam_id":76561198805567120,"connected_time":218000000000,"state":"active","ping":38}]},{"server_id":143,"name":"Uncletopia | S√£o Paulo | 2 | All Maps","name_short":"sao-2","host":"sao-2.br.uncletopia.com","port":27015,"enabled":true,"region":"sa","cc":"br","latitude":-23.533773,"longitude":-46.62529,"reserved":0,"last_update":"0001-01-01T00:00:00Z","name_a2s":"Uncletopia | S√£o Paulo | 2 | All Maps","protocol":17,"map":"pl_borneo","folder":"tf","game":"Team Fortress","app_id":440,"player_count":20,"max_players":24,"Bots":0,"server_type":"Dedicated","server_os":"Linux","password":true,"vac":true,"version":"7932396","steam_id":85568392924485349,"keywords":["nocrits","nodmgspread","payload","uncletopia"],"game_id":440,"stv_port":27016,"stv_name":"Uncletopia | S√£o Paulo | 2 | All Maps | STV","players":[{"user_id":153,"name":"limonudo22","steam_id":76561199401357220,"connected_time":93000000000,"state":"spawning","ping":41},{"user_id":150,"name":"Reina007","steam_id":76561199217428795,"connected_time":126000000000,"state":"active","ping":43},{"user_id":119,"name":"dkor","steam_id":76561198886101531,"connected_time":2593000000000,"state":"active","ping":104},{"user_id":95,"name":"Oversized Spoon Gaming","steam_id":76561198097996432,"connected_time":4289000000000,"state":"active","ping":39},{"user_id":151,"name":"WillieMakit","steam_id":76561197985391684,"connected_time":118000000000,"state":"active","ping":237},{"user_id":148,"name":"Daisy Le Nerd","steam_id":76561198149350087,"connected_time":272000000000,"state":"active","ping":44},{"user_id":93,"name":"Sandviche‚Ñ¢,O Sandu√≠che Sovi\ufffd","steam_id":76561198042404296,"connected_time":4550000000000,"state":"active","ping":76},{"user_id":145,"name":"hansow","steam_id":76561198013212163,"connected_time":732000000000,"state":"active","ping":73},{"user_id":135,"name":"guarda-chuva","steam_id":76561198078694330,"connected_time":1618000000000,"state":"active","ping":58},{"user_id":146,"name":"caco","steam_id":76561198030574505,"connected_time":720000000000,"state":"active","ping":112},{"user_id":109,"name":"Alice Heartshine","steam_id":76561198308562212,"connected_time":3429000000000,"state":"active","ping":118},{"user_id":110,"name":"Edge","steam_id":76561198850405241,"connected_time":3328000000000,"state":"active","ping":46},{"user_id":88,"name":"Fedetour","steam_id":76561199023325743,"connected_time":4900000000000,"state":"active","ping":94},{"user_id":149,"name":"Le Batata","steam_id":76561198059453711,"connected_time":199000000000,"state":"active","ping":46},{"user_id":154,"name":"negamogeko","steam_id":76561198834376257,"connected_time":54000000000,"state":"active","ping":169},{"user_id":101,"name":"mel√£o.dota gaaaaa","steam_id":76561198138018476,"connected_time":4021000000000,"state":"active","ping":45},{"user_id":155,"name":"Shabooyaroll-call","steam_id":76561198112306237,"connected_time":20000000000,"state":"active","ping":236},{"user_id":103,"name":"Blue9Fairy","steam_id":76561198039942928,"connected_time":3937000000000,"state":"active","ping":45},{"user_id":105,"name":"Gustavocoste","steam_id":76561198233692404,"connected_time":3779000000000,"state":"active","ping":44},{"user_id":134,"name":"Zaparol","steam_id":76561198971733797,"connected_time":1911000000000,"state":"active","ping":70}]},{"server_id":7,"name":"Uncletopia | Seattle | 1 | All Maps","name_short":"sea-1","host":"sea-1.us.uncletopia.com","port":27015,"enabled":true,"region":"us-west","cc":"us","latitude":47.608013,"longitude":-122.33517,"reserved":0,"last_update":"0001-01-01T00:00:00Z","name_a2s":"Uncletopia | Seattle | 1 | All Maps","protocol":17,"map":"pl_badwater","folder":"tf","game":"Team Fortress","app_id":440,"player_count":24,"max_players":24,"Bots":0,"server_type":"Dedicated","server_os":"Linux","password":true,"vac":true,"version":"7932396","steam_id":85568392924469997,"keywords":["nocrits","nodmgspread","payload","uncletopia"],"game_id":440,"stv_port":27016,"stv_name":"Uncletopia | Seattle | 1 | All Maps | STV","players":[{"user_id":254,"name":"InterplanetaryGentlemann","steam_id":76561198146559390,"connected_time":6726000000000,"state":"active","ping":45},{"user_id":252,"name":"Officer Earl","steam_id":76561199019675078,"connected_time":6745000000000,"state":"active","ping":98},{"user_id":372,"name":"LordMorphesus","steam_id":76561198026995104,"connected_time":882000000000,"state":"active","ping":52},{"user_id":363,"name":"Can of Oranges","steam_id":76561199121813529,"connected_time":1872000000000,"state":"active","ping":52},{"user_id":373,"name":"Moonkey","steam_id":76561199013741389,"connected_time":834000000000,"state":"active","ping":106},{"user_id":274,"name":"‚ô• Milo Stefferson ‚ô• (Soupca","steam_id":76561198056269538,"connected_time":5227000000000,"state":"active","ping":60},{"user_id":367,"name":"4 life","steam_id":76561198175961598,"connected_time":1462000000000,"state":"active","ping":90},{"user_id":291,"name":"Alphaarmy01","steam_id":76561198818913025,"connected_time":4363000000000,"state":"active","ping":119},{"user_id":366,"name":"Haydob13","steam_id":76561198110378191,"connected_time":1691000000000,"state":"active","ping":61},{"user_id":275,"name":"Zee‚úû","steam_id":76561198274550638,"connected_time":5125000000000,"state":"active","ping":105},{"user_id":292,"name":"sierra","steam_id":76561197969873415,"connected_time":4316000000000,"state":"active","ping":146},{"user_id":374,"name":"Nikki","steam_id":76561199485086969,"connected_time":806000000000,"state":"active","ping":59},{"user_id":364,"name":"trans ally danny  brown","steam_id":76561198239598834,"connected_time":1785000000000,"state":"active","ping":135},{"user_id":365,"name":"Bendidy","steam_id":76561198041964300,"connected_time":1733000000000,"state":"active","ping":76},{"user_id":359,"name":"i.love.ants.321","steam_id":76561198169755734,"connected_time":2059000000000,"state":"active","ping":74},{"user_id":375,"name":"Keyboardbreaker","steam_id":76561198372836132,"connected_time":679000000000,"state":"active","ping":84},{"user_id":369,"name":"ismellgood","steam_id":76561199005142939,"connected_time":1024000000000,"state":"active","ping":71},{"user_id":285,"name":"Yack Skag","steam_id":76561198068251493,"connected_time":4903000000000,"state":"active","ping":69},{"user_id":371,"name":"misterjozo","steam_id":76561198012300755,"connected_time":970000000000,"state":"active","ping":58},{"user_id":191,"name":"selvhat","steam_id":76561198114225509,"connected_time":12136000000000,"state":"active","ping":76},{"user_id":376,"name":"golia","steam_id":76561198000264266,"connected_time":665000000000,"state":"active","ping":78},{"user_id":334,"name":"Limp Pumpo Discography Fan Club","steam_id":76561198145748479,"connected_time":2653000000000,"state":"active","ping":59},{"user_id":377,"name":"Antwan","steam_id":76561198246200638,"connected_time":627000000000,"state":"active","ping":92},{"user_id":346,"name":"jimmy","steam_id":76561198411061839,"connected_time":2269000000000,"state":"active","ping":45}]},{"server_id":119,"name":"Uncletopia | Seattle | 2 | All Maps","name_short":"sea-2","host":"sea-1.us.uncletopia.com","port":27025,"enabled":true,"region":"us-west","cc":"us","latitude":47.608013,"longitude":-122.33517,"reserved":0,"last_update":"0001-01-01T00:00:00Z","name_a2s":"Uncletopia | Seattle | 2 | All Maps","protocol":17,"map":"cp_snakewater_final1","folder":"tf","game":"Team Fortress","app_id":440,"player_count":24,"max_players":24,"Bots":0,"server_type":"Dedicated","server_os":"Linux","password":true,"vac":true,"version":"7932396","steam_id":85568392924469998,"keywords":["cp","nocrits","nodmgspread","uncletopia"],"game_id":440,"stv_port":27026,"stv_name":"Uncletopia | Seattle | 2 | All Maps | STV","players":[{"user_id":716,"name":"HideOnTate","steam_id":76561198209880837,"connected_time":2872000000000,"state":"active","ping":45},{"user_id":753,"name":"Blitzy","steam_id":76561198149472890,"connected_time":1057000000000,"state":"active","ping":72},{"user_id":761,"name":"Otterstream8502","steam_id":76561198343767866,"connected_time":529000000000,"state":"active","ping":61},{"user_id":765,"name":"D.A.V.I.D","steam_id":76561199443570634,"connected_time":429000000000,"state":"active","ping":64},{"user_id":748,"name":"certified play-doh devourer","steam_id":76561199229848770,"connected_time":1195000000000,"state":"active","ping":49},{"user_id":705,"name":"sadlaxx","steam_id":76561198061354919,"connected_time":4092000000000,"state":"active","ping":96},{"user_id":766,"name":"VIRTUAL-AIDS","steam_id":76561198451067502,"connected_time":371000000000,"state":"active","ping":51},{"user_id":744,"name":"ejschild745","steam_id":76561199013388867,"connected_time":1609000000000,"state":"active","ping":72},{"user_id":760,"name":"._.","steam_id":76561198300316801,"connected_time":580000000000,"state":"active","ping":108},{"user_id":687,"name":"a cat plushie","steam_id":76561198080046542,"connected_time":5142000000000,"state":"active","ping":48},{"user_id":712,"name":"dweamy","steam_id":76561198119181880,"connected_time":3249000000000,"state":"active","ping":75},{"user_id":676,"name":"dab","steam_id":76561197997990613,"connected_time":5573000000000,"state":"active","ping":72},{"user_id":746,"name":"Sax","steam_id":76561198055425123,"connected_time":1390000000000,"state":"active","ping":60},{"user_id":754,"name":"SomeRandomBetaFish","steam_id":76561198827731399,"connected_time":1054000000000,"state":"active","ping":104},{"user_id":762,"name":"Lord Scrubling","steam_id":76561198263744445,"connected_time":490000000000,"state":"active","ping":93},{"user_id":625,"name":"a single goal","steam_id":76561198042913843,"connected_time":9113000000000,"state":"active","ping":52},{"user_id":763,"name":"Skabbety","steam_id":76561198168044257,"connected_time":466000000000,"state":"active","ping":45},{"user_id":713,"name":"greens beans","steam_id":76561198153611491,"connected_time":3213000000000,"state":"active","ping":44},{"user_id":747,"name":"SonRayne","steam_id":76561198297307212,"connected_time":1384000000000,"state":"active","ping":118},{"user_id":714,"name":"Ockulus","steam_id":76561199069638460,"connected_time":2995000000000,"state":"active","ping":85},{"user_id":767,"name":"mac_cheese","steam_id":76561198071334162,"connected_time":360000000000,"state":"active","ping":46},{"user_id":764,"name":"canadian birds","steam_id":76561198059466588,"connected_time":466000000000,"state":"active","ping":112},{"user_id":709,"name":"beam man","steam_id":76561198060567341,"connected_time":3959000000000,"state":"active","ping":125},{"user_id":752,"name":"Pah-Wraith Gul Dukat","steam_id":76561198033918106,"connected_time":1093000000000,"state":"active","ping":75}]},{"server_id":406,"name":"Uncletopia | Seattle | 3 | Stopwatch Beta","name_short":"sea-3","host":"sea-1.us.uncletopia.com","port":27035,"enabled":true,"region":"us-west","cc":"us","latitude":47.608013,"longitude":-122.33517,"reserved":0,"last_update":"0001-01-01T00:00:00Z","name_a2s":"Uncletopia | Seattle | 3 | Stopwatch Beta","protocol":17,"map":"workshop/koth_bagel_rc6.ugc2514036946","folder":"tf","game":"Team Fortress","app_id":440,"player_count":0,"max_players":24,"Bots":0,"server_type":"Dedicated","server_os":"Linux","password":true,"vac":true,"version":"7932396","steam_id":85568392924515217,"keywords":["cp","nocrits","nodmgspread","uncletopia"],"game_id":440,"stv_port":27036,"stv_name":"Uncletopia | Seattle | 3 | Stopwatch Beta | STV","players":null},{"server_id":17,"name":"Uncletopia | San Francisco | 1 | All Maps","name_short":"sfo-1","host":"sfo-1.us.uncletopia.com","port":27015,"enabled":true,"region":"us-west","cc":"us","latitude":37.77397,"longitude":-122.4313,"reserved":0,"last_update":"0001-01-01T00:00:00Z","name_a2s":"Uncletopia | San Francisco | 1 | All Maps","protocol":17,"map":"pl_upward","folder":"tf","game":"Team Fortress","app_id":440,"player_count":24,"max_players":24,"Bots":0,"server_type":"Dedicated","server_os":"Linux","password":true,"vac":true,"version":"7932396","steam_id":85568392924469999,"keywords":["nocrits","nodmgspread","payload","uncletopia"],"game_id":440,"stv_port":27016,"stv_name":"Uncletopia | San Francisco | 1 | All Maps | STV","players":[{"user_id":129,"name":"tf2pyro","steam_id":76561198388184353,"connected_time":2918000000000,"state":"active","ping":85},{"user_id":181,"name":"CJammy","steam_id":76561199074691047,"connected_time":266000000000,"state":"active","ping":90},{"user_id":163,"name":"bobbymcbobington","steam_id":76561199089411172,"connected_time":1588000000000,"state":"active","ping":159},{"user_id":171,"name":"Mr Twitchy","steam_id":76561197995985499,"connected_time":1164000000000,"state":"active","ping":65},{"user_id":156,"name":"Envoy","steam_id":76561198170253694,"connected_time":1926000000000,"state":"active","ping":80},{"user_id":169,"name":"Livin' Like Larry","steam_id":76561198313360974,"connected_time":1174000000000,"state":"active","ping":31},{"user_id":160,"name":"FUNNY JOKE(pls laugh)","steam_id":76561199070877046,"connected_time":1745000000000,"state":"active","ping":57},{"user_id":157,"name":"Uncle Dad","steam_id":76561198058073652,"connected_time":1903000000000,"state":"active","ping":89},{"user_id":182,"name":"Imitation Caucasian","steam_id":76561198320536166,"connected_time":101000000000,"state":"active","ping":72},{"user_id":141,"name":"Buswolley","steam_id":76561197995205571,"connected_time":2202000000000,"state":"active","ping":41},{"user_id":183,"name":"The-Bog-Wizard","steam_id":76561198119425644,"connected_time":82000000000,"state":"active","ping":105},{"user_id":184,"name":"Sky","steam_id":76561198097549374,"connected_time":76000000000,"state":"active","ping":85},{"user_id":145,"name":"whigmalwhim","steam_id":76561198338741303,"connected_time":2125000000000,"state":"active","ping":145},{"user_id":185,"name":"Bedside table, on the kangaroo","steam_id":76561198044277932,"connected_time":67000000000,"state":"active","ping":90},{"user_id":147,"name":"fierbolt","steam_id":76561198081948338,"connected_time":2119000000000,"state":"active","ping":55},{"user_id":148,"name":"EL-1-XR","steam_id":76561198123214359,"connected_time":2116000000000,"state":"active","ping":49},{"user_id":150,"name":"Aureum Custos","steam_id":76561198062627582,"connected_time":2017000000000,"state":"active","ping":72},{"user_id":151,"name":"baguette","steam_id":76561199097689778,"connected_time":2016000000000,"state":"active","ping":95},{"user_id":175,"name":"UwUTechTwash","steam_id":76561198178088831,"connected_time":934000000000,"state":"active","ping":88},{"user_id":153,"name":"nburns","steam_id":76561199227334296,"connected_time":1991000000000,"state":"active","ping":84},{"user_id":179,"name":"Herdez Hot Salsa","steam_id":76561197991740906,"connected_time":418000000000,"state":"active","ping":130},{"user_id":186,"name":"BON6 R1P5","steam_id":76561199187170139,"connected_time":45000000000,"state":"active","ping":107},{"user_id":187,"name":"Maid Knight","steam_id":76561198214370515,"connected_time":39000000000,"state":"active","ping":109},{"user_id":180,"name":"gmagnum","steam_id":76561199034260371,"connected_time":316000000000,"state":"active","ping":57}]},{"server_id":18,"name":"Uncletopia | San Francisco | 2 | All Maps","name_short":"sfo-2","host":"sfo-1.us.uncletopia.com","port":27025,"enabled":true,"region":"us-west","cc":"us","latitude":37.77397,"longitude":-122.4313,"reserved":0,"last_update":"0001-01-01T00:00:00Z","name_a2s":"Uncletopia | San Francisco | 2 | All Maps","protocol":17,"map":"pl_badwater","folder":"tf","game":"Team Fortress","app_id":440,"player_count":22,"max_players":24,"Bots":0,"server_type":"Dedicated","server_os":"Linux","password":true,"vac":true,"version":"7932396","steam_id":85568392924470000,"keywords":["nocrits","nodmgspread","payload","uncletopia"],"game_id":440,"stv_port":27026,"stv_name":"Uncletopia | San Francisco | 2 | All Maps | STV","players":[{"user_id":173,"name":"uhoh","steam_id":76561198136967934,"connected_time":2293000000000,"state":"active","ping":64},{"user_id":142,"name":"slightly faster heavy","steam_id":76561199077027954,"connected_time":3973000000000,"state":"active","ping":66},{"user_id":192,"name":"monk mode protocol","steam_id":76561199100342013,"connected_time":753000000000,"state":"active","ping":49},{"user_id":182,"name":"Norriss","steam_id":76561198920296293,"connected_time":1565000000000,"state":"active","ping":59},{"user_id":110,"name":"AT‚ú™MIC","steam_id":76561198100385184,"connected_time":4722000000000,"state":"active","ping":57},{"user_id":191,"name":"the fool","steam_id":76561198133933158,"connected_time":825000000000,"state":"active","ping":55},{"user_id":183,"name":"TheLlamaKang","steam_id":76561198125828837,"connected_time":1557000000000,"state":"active","ping":121},{"user_id":171,"name":"Curtisssalem","steam_id":76561199033918651,"connected_time":2492000000000,"state":"active","ping":118},{"user_id":193,"name":"bandit","steam_id":76561198126546221,"connected_time":456000000000,"state":"active","ping":49},{"user_id":168,"name":"Feel the bern","steam_id":76561198078824519,"connected_time":2682000000000,"state":"active","ping":55},{"user_id":162,"name":"Mr. DeLarge","steam_id":76561198336820066,"connected_time":3049000000000,"state":"active","ping":80},{"user_id":188,"name":"BrightOrangeMango","steam_id":76561198023144607,"connected_time":1078000000000,"state":"active","ping":66},{"user_id":194,"name":"hace","steam_id":76561198240217520,"connected_time":448000000000,"state":"active","ping":82},{"user_id":189,"name":"Ajax","steam_id":76561198071310833,"connected_time":991000000000,"state":"active","ping":77},{"user_id":43,"name":"Ansuz();","steam_id":76561198260732135,"connected_time":6535000000000,"state":"active","ping":77},{"user_id":195,"name":"lasky","steam_id":76561198017030029,"connected_time":135000000000,"state":"active","ping":57},{"user_id":185,"name":"Fatal Top Deficiency","steam_id":76561198141738612,"connected_time":1467000000000,"state":"active","ping":119},{"user_id":153,"name":"lili","steam_id":76561199391478575,"connected_time":3462000000000,"state":"active","ping":83},{"user_id":138,"name":"Contender","steam_id":76561198074607715,"connected_time":4010000000000,"state":"active","ping":125},{"user_id":49,"name":"Idiot","steam_id":76561198973316284,"connected_time":6395000000000,"state":"active","ping":110},{"user_id":166,"name":"Sea raider","steam_id":76561198123982355,"connected_time":2732000000000,"state":"active","ping":89},{"user_id":58,"name":"BurningKev","steam_id":76561198057688837,"connected_time":6091000000000,"state":"active","ping":67}]},{"server_id":19,"name":"Uncletopia | San Francisco | 3 | Stopwatch Beta","name_short":"sfo-3","host":"sfo-1.us.uncletopia.com","port":27035,"enabled":true,"region":"us-west","cc":"us","latitude":37.77397,"longitude":-122.4313,"reserved":0,"last_update":"0001-01-01T00:00:00Z","name_a2s":"Uncletopia | San Francisco | 3 | Stopwatch Beta","protocol":17,"map":"workshop/pl_vigil_rc9.ugc1266210012","folder":"tf","game":"Team Fortress","app_id":440,"player_count":0,"max_players":24,"Bots":0,"server_type":"Dedicated","server_os":"Linux","password":true,"vac":true,"version":"7932396","steam_id":85568392924742824,"keywords":["nocrits","nodmgspread","payload","uncletopia"],"game_id":440,"stv_port":27036,"stv_name":"Uncletopia | San Francisco | 3 | Stopwatch Beta | STV","players":null},{"server_id":20,"name":"Uncletopia | San Francisco | 4 | Community","name_short":"sfo-4","host":"sfo-1.us.uncletopia.com","port":27045,"enabled":true,"region":"us-west","cc":"us","latitude":37.77397,"longitude":-122.4313,"reserved":0,"last_update":"0001-01-01T00:00:00Z","name_a2s":"Uncletopia | San Francisco | 4 | Community","protocol":17,"map":"workshop/cp_croissant_final.ugc458840209","folder":"tf","game":"Team Fortress","app_id":440,"player_count":0,"max_players":24,"Bots":0,"server_type":"Dedicated","server_os":"Linux","password":true,"vac":true,"version":"7932396","steam_id":85568392924742826,"keywords":["cp","nocrits","nodmgspread","uncletopia"],"game_id":440,"stv_port":27046,"stv_name":"Uncletopia | San Francisco | 4 | Community | STV","players":null},{"server_id":141,"name":"Uncletopia | Sydney | 1 | All Maps","name_short":"syd-1","host":"syd-1.au.uncletopia.com","port":27015,"enabled":true,"region":"au","cc":"au","latitude":-33.865143,"longitude":151.2099,"reserved":0,"last_update":"0001-01-01T00:00:00Z","name_a2s":"Uncletopia | Sydney | 1 | All Maps","protocol":17,"map":"koth_highpass","folder":"tf","game":"Team Fortress","app_id":440,"player_count":0,"max_players":24,"Bots":0,"server_type":"Dedicated","server_os":"Linux","password":true,"vac":true,"version":"7932396","steam_id":85568392924470001,"keywords":["cp","nocrits","nodmgspread","uncletopia"],"game_id":440,"stv_port":27016,"stv_name":"Uncletopia | Sydney | 1 | All Maps | STV","players":null},{"server_id":123,"name":"Uncletopia | Sydney | 2 | All Maps","name_short":"syd-2","host":"syd-1.au.uncletopia.com","port":27025,"enabled":true,"region":"au","cc":"au","latitude":-33.865143,"longitude":151.2099,"reserved":0,"last_update":"0001-01-01T00:00:00Z","name_a2s":"Uncletopia | Sydney | 2 | All Maps","protocol":17,"map":"pl_upward","folder":"tf","game":"Team Fortress","app_id":440,"player_count":24,"max_players":24,"Bots":0,"server_type":"Dedicated","server_os":"Linux","password":true,"vac":true,"version":"7932396","steam_id":85568392924470002,"keywords":["nocrits","nodmgspread","payload","uncletopia"],"game_id":440,"stv_port":27026,"stv_name":"Uncletopia | Sydney | 2 | All Maps | STV","players":[{"user_id":234,"name":"Hawk","steam_id":76561198135164277,"connected_time":1435000000000,"state":"active","ping":47},{"user_id":260,"name":"Psalm 118:10-17","steam_id":76561198305904806,"connected_time":147000000000,"state":"active","ping":58},{"user_id":254,"name":"Bamooxa","steam_id":76561198067160709,"connected_time":437000000000,"state":"active","ping":76},{"user_id":238,"name":"kisses you","steam_id":76561198288970258,"connected_time":1098000000000,"state":"active","ping":54},{"user_id":239,"name":"Sinister80s","steam_id":76561198343540472,"connected_time":1056000000000,"state":"active","ping":78},{"user_id":244,"name":"Zieria","steam_id":76561199261811388,"connected_time":830000000000,"state":"active","ping":38},{"user_id":142,"name":"SUSHIMAN","steam_id":76561199089989428,"connected_time":7799000000000,"state":"active","ping":91},{"user_id":217,"name":"cocaine bear","steam_id":76561198129112901,"connected_time":2975000000000,"state":"active","ping":60},{"user_id":258,"name":"Skilights are cringe","steam_id":76561199004828588,"connected_time":323000000000,"state":"active","ping":64},{"user_id":242,"name":"splurboingus wazoogort","steam_id":76561198063481761,"connected_time":1005000000000,"state":"active","ping":45},{"user_id":246,"name":"Kiwoo","steam_id":76561198097429186,"connected_time":756000000000,"state":"active","ping":79},{"user_id":259,"name":"richard richard","steam_id":76561199019062088,"connected_time":267000000000,"state":"active","ping":55},{"user_id":153,"name":"jim :)","steam_id":76561198127508905,"connected_time":6932000000000,"state":"active","ping":36},{"user_id":248,"name":"Jeff From Marketing","steam_id":76561198053361958,"connected_time":653000000000,"state":"active","ping":71},{"user_id":251,"name":"MS PowerPoint","steam_id":76561198369523192,"connected_time":518000000000,"state":"active","ping":169},{"user_id":193,"name":"Storms","steam_id":76561199058704739,"connected_time":4385000000000,"state":"active","ping":86},{"user_id":130,"name":"Empol√©","steam_id":76561198363939040,"connected_time":8684000000000,"state":"active","ping":75},{"user_id":252,"name":"Hona","steam_id":76561198221809496,"connected_time":503000000000,"state":"active","ping":57},{"user_id":233,"name":"mwahlib","steam_id":76561198044007267,"connected_time":1562000000000,"state":"active","ping":44},{"user_id":225,"name":"mada","steam_id":76561199436707447,"connected_time":2085000000000,"state":"active","ping":59},{"user_id":71,"name":"Marzell","steam_id":76561198151276153,"connected_time":12161000000000,"state":"active","ping":89},{"user_id":257,"name":"wom","steam_id":76561199375834537,"connected_time":403000000000,"state":"active","ping":132},{"user_id":229,"name":"lemur","steam_id":76561198278239170,"connected_time":1824000000000,"state":"active","ping":85},{"user_id":213,"name":"b4sedhk","steam_id":76561198831069486,"connected_time":3181000000000,"state":"active","ping":60}]},{"server_id":395,"name":"Uncletopia | Sydney | 3 | All Maps","name_short":"syd-3","host":"syd-1.au.uncletopia.com","port":27035,"enabled":true,"region":"au","cc":"au","latitude":-33.865143,"longitude":151.2099,"reserved":0,"last_update":"0001-01-01T00:00:00Z","name_a2s":"Uncletopia | Sydney | 3 | All Maps","protocol":17,"map":"cp_snakewater_final1","folder":"tf","game":"Team Fortress","app_id":440,"player_count":0,"max_players":24,"Bots":0,"server_type":"Dedicated","server_os":"Linux","password":true,"vac":true,"version":"7932396","steam_id":85568392925194467,"keywords":["cp","nocrits","nodmgspread","uncletopia"],"game_id":440,"stv_port":27036,"stv_name":"Uncletopia | Sydney | 3 | All Maps | STV","players":null},{"server_id":396,"name":"Uncletopia | Sydney | 4 | All Maps","name_short":"syd-4","host":"syd-1.au.uncletopia.com","port":27045,"enabled":true,"region":"au","cc":"au","latitude":-33.865143,"longitude":151.2099,"reserved":0,"last_update":"0001-01-01T00:00:00Z","name_a2s":"Uncletopia | Sydney | 4 | All Maps","protocol":17,"map":"cp_sunshine","folder":"tf","game":"Team Fortress","app_id":440,"player_count":0,"max_players":24,"Bots":0,"server_type":"Dedicated","server_os":"Linux","password":true,"vac":true,"version":"7932396","steam_id":85568392925397958,"keywords":["cp","nocrits","nodmgspread","uncletopia"],"game_id":440,"stv_port":27046,"stv_name":"Uncletopia | Sydney | 4 | All Maps | STV","players":null},{"server_id":58,"name":"Uncletopia | Sydney | 5 | Stopwatch Beta","name_short":"syd-5","host":"syd-1.au.uncletopia.com","port":27055,"enabled":true,"region":"au","cc":"au","latitude":-33.865143,"longitude":151.2099,"reserved":0,"last_update":"0001-01-01T00:00:00Z","name_a2s":"Uncletopia | Sydney | 5 | Stopwatch Beta","protocol":17,"map":"pl_borneo","folder":"tf","game":"Team Fortress","app_id":440,"player_count":0,"max_players":24,"Bots":0,"server_type":"Dedicated","server_os":"Linux","password":true,"vac":true,"version":"7932396","steam_id":85568392925397959,"keywords":["nocrits","nodmgspread","payload","uncletopia"],"game_id":440,"stv_port":27056,"stv_name":"Uncletopia | Sydney | 5 | Stopwatch Beta | STV","players":null},{"server_id":59,"name":"Uncletopia | Sydney | 6 | Community","name_short":"syd-6","host":"syd-1.au.uncletopia.com","port":27065,"enabled":true,"region":"au","cc":"au","latitude":-33.865143,"longitude":151.2099,"reserved":0,"last_update":"0001-01-01T00:00:00Z","name_a2s":"Uncletopia | Sydney | 6 | Community","protocol":17,"map":"workshop/cp_snowbase_b18.ugc2081770490","folder":"tf","game":"Team Fortress","app_id":440,"player_count":0,"max_players":24,"Bots":0,"server_type":"Dedicated","server_os":"Linux","password":true,"vac":true,"version":"7932396","steam_id":85568392925397960,"keywords":["cp","nocrits","nodmgspread","uncletopia"],"game_id":440,"stv_port":27066,"stv_name":"Uncletopia | Sydney | 6 | Community | STV","players":null},{"server_id":49,"name":"Uncletopia | Warsaw | 1 | All Maps","name_short":"waw-1","host":"waw-1.pl.uncletopia.com","port":27015,"enabled":true,"region":"eu","cc":"pl","latitude":52.2297,"longitude":21.017532,"reserved":0,"last_update":"0001-01-01T00:00:00Z","name_a2s":"","protocol":0,"map":"","folder":"","game":"","app_id":0,"player_count":0,"max_players":0,"Bots":0,"server_type":"","server_os":"","password":false,"vac":false,"version":"","steam_id":0,"keywords":null,"game_id":0,"stv_port":0,"stv_name":"","players":null},{"server_id":50,"name":"Uncletopia | Warsaw | 2 | All Maps","name_short":"waw-2","host":"waw-1.pl.uncletopia.com","port":27025,"enabled":true,"region":"eu","cc":"pl","latitude":52.2297,"longitude":21.017532,"reserved":0,"last_update":"0001-01-01T00:00:00Z","name_a2s":"Uncletopia | Warsaw | 2 | All Maps","protocol":17,"map":"koth_highpass","folder":"tf","game":"Team Fortress","app_id":440,"player_count":0,"max_players":24,"Bots":0,"server_type":"Dedicated","server_os":"Linux","password":true,"vac":true,"version":"7932396","steam_id":85568392925397851,"keywords":["cp","nocrits","nodmgspread","uncletopia"],"game_id":440,"stv_port":27026,"stv_name":"Uncletopia | Warsaw | 2 | All Maps | STV","players":null},{"server_id":51,"name":"Uncletopia | Warsaw | 3 | All Maps","name_short":"waw-3","host":"waw-1.pl.uncletopia.com","port":27035,"enabled":true,"region":"eu","cc":"pl","latitude":52.2297,"longitude":21.017532,"reserved":0,"last_update":"0001-01-01T00:00:00Z","name_a2s":"Uncletopia | Warsaw | 3 | All Maps","protocol":17,"map":"pl_pier","folder":"tf","game":"Team Fortress","app_id":440,"player_count":0,"max_players":24,"Bots":0,"server_type":"Dedicated","server_os":"Linux","password":true,"vac":true,"version":"7932396","steam_id":85568392925397852,"keywords":["nocrits","nodmgspread","payload","uncletopia"],"game_id":440,"stv_port":27036,"stv_name":"Uncletopia | Warsaw | 3 | All Maps | STV","players":null},{"server_id":52,"name":"Uncletopia | Warsaw | 4 | All Maps","name_short":"waw-4","host":"waw-1.pl.uncletopia.com","port":27045,"enabled":true,"region":"eu","cc":"pl","latitude":52.2297,"longitude":21.017532,"reserved":0,"last_update":"0001-01-01T00:00:00Z","name_a2s":"Uncletopia | Warsaw | 4 | All Maps","protocol":17,"map":"pl_frontier_final","folder":"tf","game":"Team Fortress","app_id":440,"player_count":0,"max_players":24,"Bots":0,"server_type":"Dedicated","server_os":"Linux","password":true,"vac":true,"version":"7932396","steam_id":85568392925397853,"keywords":["nocrits","nodmgspread","payload","uncletopia"],"game_id":440,"stv_port":27046,"stv_name":"Uncletopia | Warsaw | 4 | All Maps | STV","players":null},{"server_id":53,"name":"Uncletopia | Warsaw | 5 | Stopwatch Beta","name_short":"waw-5","host":"waw-1.pl.uncletopia.com","port":27055,"enabled":true,"region":"eu","cc":"pl","latitude":52.2297,"longitude":21.017532,"reserved":0,"last_update":"0001-01-01T00:00:00Z","name_a2s":"Uncletopia | Warsaw | 5 | Stopwatch Beta","protocol":17,"map":"pl_upward","folder":"tf","game":"Team Fortress","app_id":440,"player_count":0,"max_players":24,"Bots":0,"server_type":"Dedicated","server_os":"Linux","password":true,"vac":true,"version":"7932396","steam_id":85568392925397854,"keywords":["nocrits","nodmgspread","payload","uncletopia"],"game_id":440,"stv_port":27056,"stv_name":"Uncletopia | Warsaw | 5 | Stopwatch Beta | STV","players":null},{"server_id":54,"name":"Uncletopia | Warsaw | 6 | Community","name_short":"waw-6","host":"waw-1.pl.uncletopia.com","port":27065,"enabled":true,"region":"eu","cc":"pl","latitude":52.2297,"longitude":21.017532,"reserved":0,"last_update":"0001-01-01T00:00:00Z","name_a2s":"Uncletopia | Warsaw | 6 | Community","protocol":17,"map":"workshop/cp_bruhstbowl_b6.ugc2878604990","folder":"tf","game":"Team Fortress","app_id":440,"player_count":0,"max_players":24,"Bots":0,"server_type":"Dedicated","server_os":"Linux","password":true,"vac":true,"version":"7932396","steam_id":85568392925397856,"keywords":["cp","nocrits","nodmgspread","uncletopia"],"game_id":440,"stv_port":27066,"stv_name":"Uncletopia | Warsaw | 6 | Community | STV","players":null}]}