{"status":true,"message":"","result":[{"server_id":9,"name":"Uncletopia | Atlanta | 1 | All Maps","name_short":"atl-1","host":"atl-1.us.uncletopia.com","port":27015,"enabled":true,"region":"us-east","cc":"us","latitude":33.753746,"longitude":-84.38633,"reserved":0,"last_update":"0001-01-01T00:00:00Z","name_a2s":"Uncletopia | Atlanta | 1 | All Maps","protocol":17,"map":"pl_barnblitz","folder":"tf","game":"Team Fortress","app_id":440,"player_count":24,"max_players":24,"Bots":0,"server_type":"Dedicated","server_os":"Linux","password":true,"vac":true,"version":"7742253","steam_id":85568392924469982,"keywords":["nocrits","nodmgspread","payload","uncletopia"],"game_id":440,"stv_port":27016,"stv_name":"Uncletopia | Atlanta | 1 | All Maps | STV","players":[{"user_id":226,"name":"bdrakey1","steam_id":76561199217865228,"connected_time":1566000000000,"state":"active","ping":159},{"user_id":239,"name":"SpiderString","steam_id":76561198092409181,"connected_time":853000000000,"state":"active","ping":93},{"user_id":168,"name":"dzcreeper","steam_id":76561198072250723,"connected_time":7666000000000,"state":"active","ping":125},{"user_id":212,"name":"IZISOO","steam_id":76561198970380577,"connected_time":2935000000000,"state":"active","ping":81},{"user_id":185,"name":"War","steam_id":76561198837141652,"connected_time":6885000000000,"state":"active","ping":115},{"user_id":209,"name":"Vanguard","steam_id":76561198044844135,"connected_time":3269000000000,"state":"active","ping":76},{"user_id":229,"name":"skaj","steam_id":76561198082278586,"connected_time":1483000000000,"state":"active","ping":74},{"user_id":218,"name":"The Builder","steam_id":76561198093432863,"connected_time":1925000000000,"state":"active","ping":62},{"user_id":233,"name":"Jimmy","steam_id":76561197970838363,"connected_time":1437000000000,"state":"active","ping":64},{"user_id":219,"name":"Dill","steam_id":76561197985091914,"connected_time":1872000000000,"state":"active","ping":68},{"user_id":236,"name":"glug slug","steam_id":76561197988690273,"connected_time":984000000000,"state":"active","ping":66},{"user_id":240,"name":"Vestiqe","steam_id":76561198208922027,"connected_time":346000000000,"state":"active","ping":35},{"user_id":214,"name":"tavorraX0","steam_id":76561198042465206,"connected_time":2637000000000,"state":"active","ping":119},{"user_id":227,"name":"Dreamzapp","steam_id":76561199084936632,"connected_time":1526000000000,"state":"active","ping":119},{"user_id":220,"name":"Burgandy","steam_id":76561199162509578,"connected_time":1849000000000,"state":"active","ping":102},{"user_id":238,"name":"pinglefingle","steam_id":76561198216580197,"connected_time":946000000000,"state":"active","ping":85},{"user_id":175,"name":"daemon","steam_id":76561198001541433,"connected_time":7606000000000,"state":"active","ping":75},{"user_id":180,"name":"--_Cook_--","steam_id":76561198080855748,"connected_time":7507000000000,"state":"active","ping":60},{"user_id":217,"name":"NovaSc6ut","steam_id":76561198277163301,"connected_time":2005000000000,"state":"active","ping":89},{"user_id":234,"name":"DrChillin","steam_id":76561198043824865,"connected_time":1268000000000,"state":"active","ping":75},{"user_id":228,"name":"Ducking Mad","steam_id":76561198023126167,"connected_time":1500000000000,"state":"active","ping":75},{"user_id":86,"name":"tell me about it","steam_id":76561198277799227,"connected_time":16862000000000,"state":"active","ping":66},{"user_id":184,"name":"Jesus Of Suburbia","steam_id":76561198941700660,"connected_time":7026000000000,"state":"active","ping":60},{"user_id":207,"name":"DNA_Fox","steam_id":76561198101501757,"connected_time":3856000000000,"state":"active","ping":85}]},{"server_id":400,"name":"Uncletopia | Atlanta | 3 | Stopwatch Beta","name_short":"atl-3","host":"atl-1.us.uncletopia.com","port":27035,"enabled":true,"region":"us-east","cc":"us","latitude":33.753746,"longitude":-84.38633,"reserved":0,"last_update":"0001-01-01T00:00:00Z","name_a2s":"Uncletopia | Atlanta | 3 | Stopwatch Beta","protocol":17,"map":"workshop/pl_badwater_pro_v12.ugc2142942074","folder":"tf","game":"Team Fortress","app_id":440,"player_count":0,"max_players":24,"Bots":0,"server_type":"Dedicated","server_os":"Linux","password":true,"vac":true,"version":"7742253","steam_id":85568392924515187,"keywords":["nocrits","nodmgspread","payload","uncletopia"],"game_id":440,"stv_port":27036,"stv_name":"Uncletopia | Atlanta | 3 | Stopwatch Beta | STV","players":null},{"server_id":401,"name":"Uncletopia | Atlanta | 4 | No Payload","name_short":"atl-4","host":"atl-1.us.uncletopia.com","port":27045,"enabled":true,"region":"us-east","cc":"us","latitude":33.753746,"longitude":-84.38633,"reserved":0,"last_update":"0001-01-01T00:00:00Z","name_a2s":"Uncletopia | Atlanta | 4 | No Payload","protocol":17,"map":"koth_brazil","folder":"tf","game":"Team Fortress","app_id":440,"player_count":0,"max_players":24,"Bots":0,"server_type":"Dedicated","server_os":"Linux","password":true,"vac":true,"version":"7723704","steam_id":85568392924515188,"keywords":["cp","nocrits","nodmgspread","uncletopia"],"game_id":440,"stv_port":27046,"stv_name":"Uncletopia | Atlanta | 4 | No Payload | STV","players":null},{"server_id":2,"name":"Uncletopia | Chicago | 1 | All Maps","name_short":"chi-1","host":"chi-1.us.uncletopia.com","port":27015,"enabled":true,"region":"us-central","cc":"us","latitude":41.881832,"longitude":-87.62318,"reserved":0,"last_update":"0001-01-01T00:00:00Z","name_a2s":"Uncletopia | Chicago | 1 | All Maps","protocol":17,"map":"pl_snowycoast","folder":"tf","game":"Team Fortress","app_id":440,"player_count":24,"max_players":24,"Bots":0,"server_type":"Dedicated","server_os":"Linux","password":true,"vac":true,"version":"7742253","steam_id":85568392924469984,"keywords":["nocrits","nodmgspread","payload","uncletopia"],"game_id":440,"stv_port":27016,"stv_name":"Uncletopia | Chicago | 1 | All Maps | STV","players":[{"user_id":267,"name":"the infected","steam_id":76561198146092689,"connected_time":1509000000000,"state":"active","ping":78},{"user_id":281,"name":"kizu","steam_id":76561198012414439,"connected_time":54000000000,"state":"active","ping":77},{"user_id":242,"name":"Congcrab","steam_id":76561198078687685,"connected_time":4599000000000,"state":"active","ping":95},{"user_id":207,"name":"Piss Sniper","steam_id":76561198317602350,"connected_time":6995000000000,"state":"active","ping":70},{"user_id":266,"name":"Kritzburgh","steam_id":76561198149466938,"connected_time":1579000000000,"state":"active","ping":73},{"user_id":206,"name":"Santicules","steam_id":76561198209373536,"connected_time":7541000000000,"state":"active","ping":59},{"user_id":249,"name":"Iru","steam_id":76561198077602040,"connected_time":3548000000000,"state":"active","ping":143},{"user_id":252,"name":"üé∂","steam_id":76561198018213050,"connected_time":3232000000000,"state":"active","ping":48},{"user_id":268,"name":"Kenny Omega","steam_id":76561197999963686,"connected_time":1508000000000,"state":"active","ping":60},{"user_id":250,"name":"neeko go fishing","steam_id":76561198108938632,"connected_time":3459000000000,"state":"active","ping":46},{"user_id":163,"name":"The Caretaker","steam_id":76561198125241411,"connected_time":11494000000000,"state":"active","ping":111},{"user_id":265,"name":"BustedRake","steam_id":76561198130489976,"connected_time":1935000000000,"state":"active","ping":66},{"user_id":253,"name":"Glass Joe","steam_id":76561198317365741,"connected_time":3209000000000,"state":"active","ping":65},{"user_id":276,"name":"-Enter Name Here-","steam_id":76561198040358938,"connected_time":322000000000,"state":"active","ping":83},{"user_id":272,"name":"say what?!","steam_id":76561198214370515,"connected_time":846000000000,"state":"active","ping":121},{"user_id":269,"name":"Skadewsh","steam_id":76561198102772209,"connected_time":1479000000000,"state":"active","ping":54},{"user_id":277,"name":"Bromley","steam_id":76561197992298657,"connected_time":304000000000,"state":"active","ping":76},{"user_id":231,"name":"Souper Scott","steam_id":76561198045518926,"connected_time":5677000000000,"state":"active","ping":54},{"user_id":244,"name":"{ST} Oxythemoron","steam_id":76561198060089965,"connected_time":4244000000000,"state":"active","ping":82},{"user_id":270,"name":"burger king warrior","steam_id":76561198016826789,"connected_time":1386000000000,"state":"active","ping":46},{"user_id":279,"name":"itsudatte","steam_id":76561198048992536,"connected_time":281000000000,"state":"active","ping":75},{"user_id":280,"name":"Marc G","steam_id":76561198062650363,"connected_time":85000000000,"state":"active","ping":61},{"user_id":183,"name":"Astori√¶!","steam_id":76561199090168858,"connected_time":9911000000000,"state":"active","ping":61},{"user_id":255,"name":"Psychosis","steam_id":76561198078659070,"connected_time":3097000000000,"state":"active","ping":76}]},{"server_id":106,"name":"Uncletopia | Chicago | 2 | All Maps","name_short":"chi-2","host":"chi-1.us.uncletopia.com","port":27025,"enabled":true,"region":"us-central","cc":"us","latitude":41.881832,"longitude":-87.62318,"reserved":0,"last_update":"0001-01-01T00:00:00Z","name_a2s":"Uncletopia | Chicago | 2 | All Maps","protocol":17,"map":"cp_dustbowl","folder":"tf","game":"Team Fortress","app_id":440,"player_count":24,"max_players":24,"Bots":0,"server_type":"Dedicated","server_os":"Linux","password":true,"vac":true,"version":"7742253","steam_id":85568392924469985,"keywords":["cp","nocrits","nodmgspread","uncletopia"],"game_id":440,"stv_port":27026,"stv_name":"Uncletopia | Chicago | 2 | All Maps | STV","players":[{"user_id":287,"name":"toastman","steam_id":76561198207073088,"connected_time":2303000000000,"state":"active","ping":62},{"user_id":293,"name":"mega giga payload hater!","steam_id":76561198039727616,"connected_time":595000000000,"state":"active","ping":65},{"user_id":294,"name":"Titan Tezwa","steam_id":76561198030320618,"connected_time":577000000000,"state":"active","ping":63},{"user_id":262,"name":"sonic1394","steam_id":76561198054636788,"connected_time":3766000000000,"state":"active","ping":64},{"user_id":248,"name":"rach9411","steam_id":76561198256535721,"connected_time":5055000000000,"state":"active","ping":136},{"user_id":223,"name":"Antonio Molonio","steam_id":76561198038929334,"connected_time":6254000000000,"state":"active","ping":57},{"user_id":222,"name":"Fantastic","steam_id":76561198079088978,"connected_time":6300000000000,"state":"active","ping":43},{"user_id":282,"name":"Jackie (They/Them)","steam_id":76561199096964288,"connected_time":2464000000000,"state":"active","ping":35},{"user_id":278,"name":"walito12","steam_id":76561198244902626,"connected_time":3057000000000,"state":"active","ping":108},{"user_id":283,"name":"Eggs","steam_id":76561198414356455,"connected_time":2423000000000,"state":"active","ping":74},{"user_id":277,"name":"Genius Meme","steam_id":76561198162911254,"connected_time":3297000000000,"state":"active","ping":107},{"user_id":274,"name":"Sharmat","steam_id":76561198103492042,"connected_time":3635000000000,"state":"active","ping":60},{"user_id":292,"name":"Oscidor","steam_id":76561198362839738,"connected_time":791000000000,"state":"active","ping":61},{"user_id":275,"name":"Ozi Tea","steam_id":76561199278187678,"connected_time":3618000000000,"state":"active","ping":106},{"user_id":295,"name":"womthedom","steam_id":76561198088768287,"connected_time":508000000000,"state":"active","ping":61},{"user_id":270,"name":"KRELLAH","steam_id":76561198287045069,"connected_time":3678000000000,"state":"active","ping":52},{"user_id":268,"name":"Elias","steam_id":76561198106431732,"connected_time":3708000000000,"state":"active","ping":134},{"user_id":296,"name":"Huge","steam_id":76561199030987614,"connected_time":401000000000,"state":"active","ping":91},{"user_id":284,"name":"Mr Sir Logan","steam_id":76561198088803891,"connected_time":2406000000000,"state":"active","ping":103},{"user_id":285,"name":"dash23‚Ñ¢","steam_id":76561198314951185,"connected_time":2397000000000,"state":"active","ping":104},{"user_id":291,"name":"cyclops","steam_id":76561197970370198,"connected_time":988000000000,"state":"active","ping":73},{"user_id":289,"name":"habibi","steam_id":76561199163170998,"connected_time":1193000000000,"state":"active","ping":69},{"user_id":220,"name":"Yeshie the Dragon Layer","steam_id":76561198080214214,"connected_time":7364000000000,"state":"active","ping":42},{"user_id":279,"name":"Ngsterson","steam_id":76561198162108154,"connected_time":3034000000000,"state":"active","ping":91}]},{"server_id":402,"name":"Uncletopia | Chicago | 3 | All Maps","name_short":"chi-3","host":"chi-1.us.uncletopia.com","port":27035,"enabled":true,"region":"us-central","cc":"us","latitude":41.881832,"longitude":-87.62318,"reserved":0,"last_update":"0001-01-01T00:00:00Z","name_a2s":"Uncletopia | Chicago | 3 | All Maps","protocol":17,"map":"pl_swiftwater_final1","folder":"tf","game":"Team Fortress","app_id":440,"player_count":24,"max_players":24,"Bots":0,"server_type":"Dedicated","server_os":"Linux","password":true,"vac":true,"version":"7742253","steam_id":85568392924515191,"keywords":["nocrits","nodmgspread","payload","uncletopia"],"game_id":440,"stv_port":27036,"stv_name":"Uncletopia | Chicago | 3 | All Maps | STV","players":[{"user_id":210,"name":"PapaEthanF","steam_id":76561198012070434,"connected_time":8693000000000,"state":"active","ping":51},{"user_id":291,"name":"Nexus","steam_id":76561198156374282,"connected_time":705000000000,"state":"active","ping":66},{"user_id":290,"name":"aaron","steam_id":76561198308883028,"connected_time":740000000000,"state":"active","ping":101},{"user_id":244,"name":"Tamedbumble","steam_id":76561198068104608,"connected_time":4568000000000,"state":"active","ping":56},{"user_id":308,"name":"El Elotero","steam_id":76561198876225077,"connected_time":147000000000,"state":"active","ping":102},{"user_id":208,"name":"JoetheCrow","steam_id":76561198148385513,"connected_time":8829000000000,"state":"active","ping":62},{"user_id":285,"name":"Brendan","steam_id":76561198041079914,"connected_time":2007000000000,"state":"active","ping":71},{"user_id":289,"name":"chicken","steam_id":76561198148106437,"connected_time":762000000000,"state":"active","ping":95},{"user_id":253,"name":"jincle bels","steam_id":76561198041017977,"connected_time":3987000000000,"state":"active","ping":72},{"user_id":302,"name":"psy","steam_id":76561198013195018,"connected_time":337000000000,"state":"active","ping":82},{"user_id":298,"name":"Santa-nel","steam_id":76561198151360048,"connected_time":521000000000,"state":"active","ping":92},{"user_id":294,"name":"DrNubber","steam_id":76561199117434435,"connected_time":657000000000,"state":"active","ping":100},{"user_id":281,"name":"a table","steam_id":76561198158461279,"connected_time":2461000000000,"state":"active","ping":62},{"user_id":284,"name":"coffee bagel","steam_id":76561198141198352,"connected_time":2067000000000,"state":"active","ping":45},{"user_id":296,"name":"bnot","steam_id":76561199065470503,"connected_time":559000000000,"state":"active","ping":79},{"user_id":259,"name":"Faraday","steam_id":76561198089928357,"connected_time":3882000000000,"state":"active","ping":63},{"user_id":223,"name":"gtec229","steam_id":76561198026589960,"connected_time":7310000000000,"state":"active","ping":46},{"user_id":269,"name":"Celeste","steam_id":76561198106135252,"connected_time":3638000000000,"state":"active","ping":67},{"user_id":297,"name":"SlippinJimmy","steam_id":76561198991869705,"connected_time":538000000000,"state":"active","ping":86},{"user_id":301,"name":"GOATBOYWINTER","steam_id":76561199384918606,"connected_time":368000000000,"state":"active","ping":60},{"user_id":266,"name":"IIP","steam_id":76561198286102406,"connected_time":3762000000000,"state":"active","ping":67},{"user_id":304,"name":"Achoo","steam_id":76561198009091066,"connected_time":286000000000,"state":"active","ping":91},{"user_id":305,"name":"sweaterfan","steam_id":76561199389567214,"connected_time":281000000000,"state":"active","ping":62},{"user_id":314,"name":"elmzerolt","steam_id":76561198827730994,"connected_time":8000000000,"state":"spawning","ping":124}]},{"server_id":403,"name":"Uncletopia | Chicago | 4 | All Maps","name_short":"chi-4","host":"chi-1.us.uncletopia.com","port":27045,"enabled":true,"region":"us-central","cc":"us","latitude":41.881832,"longitude":-87.62318,"reserved":0,"last_update":"0001-01-01T00:00:00Z","name_a2s":"Uncletopia | Chicago | 4 | All Maps","protocol":17,"map":"pl_borneo","folder":"tf","game":"Team Fortress","app_id":440,"player_count":0,"max_players":24,"Bots":0,"server_type":"Dedicated","server_os":"Linux","password":true,"vac":true,"version":"7742253","steam_id":85568392924515193,"keywords":["nocrits","nodmgspread","payload","uncletopia"],"game_id":440,"stv_port":27046,"stv_name":"Uncletopia | Chicago | 4 | All Maps | STV","players":null},{"server_id":36,"name":"Uncletopia | Chicago | 5 | All Maps","name_short":"chi-5","host":"chi-2.us.uncletopia.com","port":27015,"enabled":true,"region":"us-central","cc":"us","latitude":41.881832,"longitude":-87.62318,"reserved":0,"last_update":"0001-01-01T00:00:00Z","name_a2s":"Uncletopia | Chicago | 5 | All Maps","protocol":17,"map":"koth_lakeside_final","folder":"tf","game":"Team Fortress","app_id":440,"player_count":0,"max_players":24,"Bots":0,"server_type":"Dedicated","server_os":"Linux","password":true,"vac":true,"version":"7742253","steam_id":85568392924866362,"keywords":["cp","nocrits","nodmgspread","uncletopia"],"game_id":440,"stv_port":27016,"stv_name":"Uncletopia | Chicago | 5 | All Maps | STV","players":null},{"server_id":37,"name":"Uncletopia | Chicago | 6 | All Maps","name_short":"chi-6","host":"chi-2.us.uncletopia.com","port":27025,"enabled":true,"region":"us-central","cc":"us","latitude":41.881832,"longitude":-87.62318,"reserved":0,"last_update":"0001-01-01T00:00:00Z","name_a2s":"Uncletopia | Chicago | 6 | All Maps","protocol":17,"map":"koth_lakeside_final","folder":"tf","game":"Team Fortress","app_id":440,"player_count":23,"max_players":24,"Bots":0,"server_type":"Dedicated","server_os":"Linux","password":true,"vac":true,"version":"7742253","steam_id":85568392924866363,"keywords":["cp","nocrits","nodmgspread","uncletopia"],"game_id":440,"stv_port":27026,"stv_name":"Uncletopia | Chicago | 6 | All Maps | STV","players":[{"user_id":210,"name":"WEE HEE HEE IM THE PUSSY GOBLIN","steam_id":76561198046951853,"connected_time":75000000000,"state":"active","ping":106},{"user_id":213,"name":"Arrythmia","steam_id":76561198093748123,"connected_time":3000000000,"state":"spawning","ping":88},{"user_id":206,"name":"grape juice -rng","steam_id":76561198093829623,"connected_time":450000000000,"state":"active","ping":75},{"user_id":189,"name":"Qdude","steam_id":76561198045444111,"connected_time":1134000000000,"state":"active","ping":91},{"user_id":158,"name":"catface","steam_id":76561198096347625,"connected_time":3010000000000,"state":"active","ping":75},{"user_id":167,"name":"Michiru Kagemori","steam_id":76561198257241799,"connected_time":2732000000000,"state":"active","ping":60},{"user_id":190,"name":"Shiromi Iori","steam_id":76561198424055931,"connected_time":1120000000000,"state":"active","ping":102},{"user_id":208,"name":"Gubbington","steam_id":76561198959381302,"connected_time":204000000000,"state":"active","ping":41},{"user_id":197,"name":"Magitrex","steam_id":76561199088811754,"connected_time":1028000000000,"state":"active","ping":76},{"user_id":177,"name":"E1M1","steam_id":76561198165542681,"connected_time":1742000000000,"state":"active","ping":49},{"user_id":164,"name":"the 99","steam_id":76561198139802458,"connected_time":2873000000000,"state":"active","ping":70},{"user_id":193,"name":"Yusei Fudo","steam_id":76561198160352275,"connected_time":1103000000000,"state":"active","ping":90},{"user_id":160,"name":"lepel","steam_id":76561198021224745,"connected_time":2973000000000,"state":"active","ping":53},{"user_id":196,"name":"killer fish from san diego","steam_id":76561198143228356,"connected_time":1071000000000,"state":"active","ping":100},{"user_id":198,"name":"DGxShAdOwZz","steam_id":76561198065065400,"connected_time":988000000000,"state":"active","ping":151},{"user_id":209,"name":"robert","steam_id":76561198001196512,"connected_time":184000000000,"state":"active","ping":57},{"user_id":211,"name":"‡πáYou got Killed by --\u003e","steam_id":76561198039763676,"connected_time":65000000000,"state":"active","ping":60},{"user_id":212,"name":"SuaveFrenchman","steam_id":76561198043762683,"connected_time":19000000000,"state":"active","ping":96},{"user_id":201,"name":"NoShen","steam_id":76561198147434663,"connected_time":907000000000,"state":"active","ping":74},{"user_id":148,"name":"CheeseCake488","steam_id":76561199407617942,"connected_time":4820000000000,"state":"active","ping":125},{"user_id":129,"name":"Ap1hw","steam_id":76561199122883466,"connected_time":7109000000000,"state":"active","ping":72},{"user_id":180,"name":"Murk Wahlberg","steam_id":76561198131467867,"connected_time":1638000000000,"state":"active","ping":80},{"user_id":202,"name":"SSBM Pelican","steam_id":76561198040697907,"connected_time":853000000000,"state":"active","ping":75}]},{"server_id":38,"name":"Uncletopia | Chicago | 7 | Stopwatch Beta","name_short":"chi-7","host":"chi-2.us.uncletopia.com","port":27035,"enabled":true,"region":"us-central","cc":"us","latitude":41.881832,"longitude":-87.62318,"reserved":0,"last_update":"0001-01-01T00:00:00Z","name_a2s":"Uncletopia | Chicago | 7 | Stopwatch Beta","protocol":17,"map":"cp_altitude","folder":"tf","game":"Team Fortress","app_id":440,"player_count":3,"max_players":24,"Bots":0,"server_type":"Dedicated","server_os":"Linux","password":true,"vac":true,"version":"7742253","steam_id":85568392924866364,"keywords":["cp","nocrits","nodmgspread","uncletopia"],"game_id":440,"stv_port":27036,"stv_name":"Uncletopia | Chicago | 7 | Stopwatch Beta | STV","players":[{"user_id":12,"name":"lquidtoastt","steam_id":76561199096349404,"connected_time":1013000000000,"state":"active","ping":42},{"user_id":8,"name":"toxic_raptor","steam_id":76561199387886048,"connected_time":5931000000000,"state":"active","ping":89},{"user_id":11,"name":"CrackedSanity","steam_id":76561198279841251,"connected_time":1773000000000,"state":"active","ping":89}]},{"server_id":39,"name":"Uncletopia | Chicago | 8 | Community","name_short":"chi-8","host":"chi-2.us.uncletopia.com","port":27045,"enabled":true,"region":"us-central","cc":"us","latitude":41.881832,"longitude":-87.62318,"reserved":0,"last_update":"0001-01-01T00:00:00Z","name_a2s":"Uncletopia | Chicago | 8 | Community","protocol":17,"map":"workshop/koth_synthetic_rc6a.ugc1549817316","folder":"tf","game":"Team Fortress","app_id":440,"player_count":0,"max_players":24,"Bots":0,"server_type":"Dedicated","server_os":"Linux","password":true,"vac":true,"version":"7742253","steam_id":85568392924866365,"keywords":["cp","nocrits","nodmgspread","uncletopia"],"game_id":440,"stv_port":27046,"stv_name":"Uncletopia | Chicago | 8 | Community | STV","players":null},{"server_id":8,"name":"Uncletopia | Dallas | 1 | All Maps","name_short":"dal-1","host":"dal-1.us.uncletopia.com","port":27015,"enabled":true,"region":"us-central","cc":"us","latitude":32.779167,"longitude":-96.80889,"reserved":0,"last_update":"0001-01-01T00:00:00Z","name_a2s":"Uncletopia | Dallas | 1 | All Maps","protocol":17,"map":"pl_snowycoast","folder":"tf","game":"Team Fortress","app_id":440,"player_count":0,"max_players":24,"Bots":0,"server_type":"Dedicated","server_os":"Linux","password":true,"vac":true,"version":"7742253","steam_id":85568392924469986,"keywords":["nocrits","nodmgspread","payload","uncletopia"],"game_id":440,"stv_port":27016,"stv_name":"Uncletopia | Dallas | 1 | All Maps | STV","players":null},{"server_id":108,"name":"Uncletopia | Dallas | 2 | All Maps","name_short":"dal-2","host":"dal-1.us.uncletopia.com","port":27025,"enabled":true,"region":"us-central","cc":"us","latitude":32.779167,"longitude":-96.80889,"reserved":0,"last_update":"0001-01-01T00:00:00Z","name_a2s":"Uncletopia | Dallas | 2 | All Maps","protocol":17,"map":"cp_steel","folder":"tf","game":"Team Fortress","app_id":440,"player_count":6,"max_players":24,"Bots":0,"server_type":"Dedicated","server_os":"Linux","password":true,"vac":true,"version":"7742253","steam_id":85568392924469988,"keywords":["cp","nocrits","nodmgspread","uncletopia"],"game_id":440,"stv_port":27026,"stv_name":"Uncletopia | Dallas | 2 | All Maps | STV","players":[{"user_id":199,"name":"Ryan","steam_id":76561198046600383,"connected_time":5353000000000,"state":"active","ping":74},{"user_id":240,"name":"jordanddean2016","steam_id":76561198323772677,"connected_time":1583000000000,"state":"active","ping":94},{"user_id":149,"name":"tj3002rocks","steam_id":76561199017921546,"connected_time":8253000000000,"state":"active","ping":55},{"user_id":198,"name":"Ann Ziegler (No Sound)","steam_id":76561198052249401,"connected_time":5450000000000,"state":"active","ping":62},{"user_id":233,"name":"kovacskrobert","steam_id":76561199401400369,"connected_time":1976000000000,"state":"active","ping":180},{"user_id":203,"name":"Modern Day Wizard","steam_id":76561198354689252,"connected_time":5064000000000,"state":"active","ping":56}]},{"server_id":5,"name":"Uncletopia | Frankfurt | 1 | All Maps","name_short":"frk-1","host":"frk-1.de.uncletopia.com","port":27015,"enabled":true,"region":"eu","cc":"de","latitude":50.110924,"longitude":8.682127,"reserved":0,"last_update":"0001-01-01T00:00:00Z","name_a2s":"Uncletopia | Frankfurt | 1 | All Maps","protocol":17,"map":"pl_upward","folder":"tf","game":"Team Fortress","app_id":440,"player_count":0,"max_players":24,"Bots":0,"server_type":"Dedicated","server_os":"Linux","password":true,"vac":true,"version":"7742253","steam_id":85568392924469989,"keywords":["nocrits","nodmgspread","payload","uncletopia"],"game_id":440,"stv_port":27016,"stv_name":"Uncletopia | Frankfurt | 1 | All Maps | STV","players":null},{"server_id":110,"name":"Uncletopia | Frankfurt | 2 | All Maps","name_short":"frk-2","host":"frk-1.de.uncletopia.com","port":27025,"enabled":true,"region":"eu","cc":"de","latitude":50.110924,"longitude":8.682127,"reserved":0,"last_update":"0001-01-01T00:00:00Z","name_a2s":"Uncletopia | Frankfurt | 2 | All Maps","protocol":17,"map":"pl_upward","folder":"tf","game":"Team Fortress","app_id":440,"player_count":0,"max_players":24,"Bots":0,"server_type":"Dedicated","server_os":"Linux","password":true,"vac":true,"version":"7742253","steam_id":85568392924469990,"keywords":["nocrits","nodmgspread","payload","uncletopia"],"game_id":440,"stv_port":27026,"stv_name":"Uncletopia | Frankfurt | 2 | All Maps | STV","players":null},{"server_id":308,"name":"Uncletopia | Frankfurt | 3 | All Maps","name_short":"frk-3","host":"frk-1.de.uncletopia.com","port":27035,"enabled":true,"region":"eu","cc":"de","latitude":50.110924,"longitude":8.682127,"reserved":0,"last_update":"0001-01-01T00:00:00Z","name_a2s":"Uncletopia | Frankfurt | 3 | All Maps","protocol":17,"map":"koth_viaduct","folder":"tf","game":"Team Fortress","app_id":440,"player_count":0,"max_players":24,"Bots":0,"server_type":"Dedicated","server_os":"Linux","password":true,"vac":true,"version":"7742253","steam_id":85568392924504274,"keywords":["cp","nocrits","nodmgspread","uncletopia"],"game_id":440,"stv_port":27036,"stv_name":"Uncletopia | Frankfurt | 3 | All Maps | STV","players":null},{"server_id":309,"name":"Uncletopia | Frankfurt | 4 | All Maps","name_short":"frk-4","host":"frk-1.de.uncletopia.com","port":27045,"enabled":true,"region":"eu","cc":"de","latitude":50.110924,"longitude":8.682127,"reserved":0,"last_update":"0001-01-01T00:00:00Z","name_a2s":"Uncletopia | Frankfurt | 4 | All Maps","protocol":17,"map":"pl_frontier_final","folder":"tf","game":"Team Fortress","app_id":440,"player_count":0,"max_players":24,"Bots":0,"server_type":"Dedicated","server_os":"Linux","password":true,"vac":true,"version":"7742253","steam_id":85568392924504275,"keywords":["nocrits","nodmgspread","payload","uncletopia"],"game_id":440,"stv_port":27046,"stv_name":"Uncletopia | Frankfurt | 4 | All Maps | STV","players":null},{"server_id":310,"name":"Uncletopia | Frankfurt | 5 | All Maps","name_short":"frk-5","host":"frk-1.de.uncletopia.com","port":27055,"enabled":true,"region":"eu","cc":"de","latitude":50.110924,"longitude":8.682127,"reserved":0,"last_update":"0001-01-01T00:00:00Z","name_a2s":"Uncletopia | Frankfurt | 5 | All Maps","protocol":17,"map":"cp_sunshine","folder":"tf","game":"Team Fortress","app_id":440,"player_count":0,"max_players":24,"Bots":0,"server_type":"Dedicated","server_os":"Linux","password":true,"vac":true,"version":"7742253","steam_id":85568392924504277,"keywords":["cp","nocrits","nodmgspread","uncletopia"],"game_id":440,"stv_port":27056,"stv_name":"Uncletopia | Frankfurt | 5 | All Maps | STV","players":null},{"server_id":311,"name":"Uncletopia | Frankfurt | 6 | All Maps","name_short":"frk-6","host":"frk-1.de.uncletopia.com","port":27065,"enabled":true,"region":"eu","cc":"de","latitude":50.110924,"longitude":8.682127,"reserved":0,"last_update":"0001-01-01T00:00:00Z","name_a2s":"Uncletopia | Frankfurt | 6 | All Maps","protocol":17,"map":"pl_frontier_final","folder":"tf","game":"Team Fortress","app_id":440,"player_count":0,"max_players":24,"Bots":0,"server_type":"Dedicated","server_os":"Linux","password":true,"vac":true,"version":"7742253","steam_id":85568392924504278,"keywords":["nocrits","nodmgspread","payload","uncletopia"],"game_id":440,"stv_port":27066,"stv_name":"Uncletopia | Frankfurt | 6 | All Maps | STV","players":null},{"server_id":23,"name":"Uncletopia | Frankfurt | 7 | Stopwatch Beta","name_short":"frk-7","host":"frk-1.de.uncletopia.com","port":27075,"enabled":true,"region":"eu","cc":"de","latitude":50.110924,"longitude":8.682127,"reserved":0,"last_update":"0001-01-01T00:00:00Z","name_a2s":"Uncletopia | Frankfurt | 7 | Stopwatch Beta","protocol":17,"map":"koth_lakeside_final","folder":"tf","game":"Team Fortress","app_id":440,"player_count":0,"max_players":24,"Bots":0,"server_type":"Dedicated","server_os":"Linux","password":true,"vac":true,"version":"7742253","steam_id":85568392924742827,"keywords":["cp","nocrits","nodmgspread","uncletopia"],"game_id":440,"stv_port":27076,"stv_name":"Uncletopia | Frankfurt | 7 | Stopwatch Beta | STV","players":null},{"server_id":24,"name":"Uncletopia | Frankfurt | 8 | Community","name_short":"frk-8","host":"frk-1.de.uncletopia.com","port":27085,"enabled":true,"region":"eu","cc":"de","latitude":50.110924,"longitude":8.682127,"reserved":0,"last_update":"0001-01-01T00:00:00Z","name_a2s":"Uncletopia | Frankfurt | 8 | Community","protocol":17,"map":"pl_pier","folder":"tf","game":"Team Fortress","app_id":440,"player_count":0,"max_players":24,"Bots":0,"server_type":"Dedicated","server_os":"Linux","password":true,"vac":true,"version":"7742253","steam_id":85568392924742828,"keywords":["nocrits","nodmgspread","payload","uncletopia"],"game_id":440,"stv_port":27086,"stv_name":"Uncletopia | Frankfurt | 8 | Community | STV","players":null},{"server_id":202,"name":"Uncletopia | Hong Kong | 1 | All Maps","name_short":"hgk-1","host":"hgk-1.hk.uncletopia.com","port":27015,"enabled":true,"region":"asia","cc":"hk","latitude":22.302711,"longitude":114.177216,"reserved":0,"last_update":"0001-01-01T00:00:00Z","name_a2s":"Uncletopia | Hong Kong | 1 | All Maps","protocol":17,"map":"cp_dustbowl","folder":"tf","game":"Team Fortress","app_id":440,"player_count":24,"max_players":24,"Bots":0,"server_type":"Dedicated","server_os":"Linux","password":true,"vac":true,"version":"7742253","steam_id":85568392924494504,"keywords":["cp","nocrits","nodmgspread","uncletopia"],"game_id":440,"stv_port":27016,"stv_name":"Uncletopia | Hong Kong | 1 | All Maps | STV","players":[{"user_id":155,"name":"+","steam_id":76561198121311286,"connected_time":1495000000000,"state":"active","ping":82},{"user_id":166,"name":"bookman","steam_id":76561198989168133,"connected_time":497000000000,"state":"active","ping":87},{"user_id":139,"name":"The Piss Man","steam_id":76561198136685157,"connected_time":3358000000000,"state":"active","ping":57},{"user_id":141,"name":"Medi","steam_id":76561198447470800,"connected_time":3354000000000,"state":"active","ping":69},{"user_id":117,"name":"ogey","steam_id":76561198074339034,"connected_time":5882000000000,"state":"active","ping":75},{"user_id":162,"name":"Corhix","steam_id":76561198968706355,"connected_time":504000000000,"state":"active","ping":48},{"user_id":171,"name":"piyoko no english","steam_id":76561198088403016,"connected_time":37000000000,"state":"active","ping":96},{"user_id":43,"name":"lilla laxum","steam_id":76561198230213828,"connected_time":12794000000000,"state":"active","ping":67},{"user_id":154,"name":"uptriste","steam_id":76561198158666692,"connected_time":1687000000000,"state":"active","ping":41},{"user_id":96,"name":"Shades on Goggles","steam_id":76561198406067629,"connected_time":8364000000000,"state":"active","ping":60},{"user_id":148,"name":"joe.vincent.1987","steam_id":76561198200174375,"connected_time":1992000000000,"state":"active","ping":76},{"user_id":120,"name":"Kiyomi","steam_id":76561198240627872,"connected_time":4687000000000,"state":"active","ping":57},{"user_id":145,"name":"Skullman (can't speak in casual","steam_id":76561199143660601,"connected_time":3191000000000,"state":"active","ping":67},{"user_id":156,"name":"Telekhine","steam_id":76561198387120618,"connected_time":1390000000000,"state":"active","ping":59},{"user_id":170,"name":"Â§âÊÖã„ÅÆÁ•û","steam_id":76561199017344476,"connected_time":129000000000,"state":"active","ping":172},{"user_id":161,"name":"Windmill","steam_id":76561199230997986,"connected_time":543000000000,"state":"active","ping":74},{"user_id":164,"name":"C√° Th√°ng 4","steam_id":76561198047162026,"connected_time":503000000000,"state":"active","ping":68},{"user_id":73,"name":"Noyour","steam_id":76561198323259830,"connected_time":10402000000000,"state":"active","ping":119},{"user_id":123,"name":"Male Detected!","steam_id":76561199082459598,"connected_time":4357000000000,"state":"active","ping":72},{"user_id":109,"name":"(no sound) oppai protons","steam_id":76561198008307645,"connected_time":6180000000000,"state":"active","ping":78},{"user_id":78,"name":"ogey (real)","steam_id":76561198061628689,"connected_time":10380000000000,"state":"active","ping":57},{"user_id":165,"name":"Wakka Wakka!","steam_id":76561198339657566,"connected_time":499000000000,"state":"active","ping":77},{"user_id":152,"name":"mikkusu","steam_id":76561198306574432,"connected_time":1981000000000,"state":"active","ping":88},{"user_id":94,"name":"LOLGAL","steam_id":76561198347418251,"connected_time":8378000000000,"state":"active","ping":72}]},{"server_id":1,"name":"Uncletopia | Los Angeles | 1 | All Maps","name_short":"lax-1","host":"lax-1.us.uncletopia.com","port":27015,"enabled":true,"region":"us-west","cc":"us","latitude":33.94279,"longitude":-118.41004,"reserved":0,"last_update":"0001-01-01T00:00:00Z","name_a2s":"Uncletopia | Los Angeles | 1 | All Maps","protocol":17,"map":"cp_sunshine","folder":"tf","game":"Team Fortress","app_id":440,"player_count":0,"max_players":24,"Bots":0,"server_type":"Dedicated","server_os":"Linux","password":true,"vac":true,"version":"7742253","steam_id":85568392924469991,"keywords":["cp","nocrits","nodmgspread","uncletopia"],"game_id":440,"stv_port":27016,"stv_name":"Uncletopia | Los Angeles | 1 | All Maps | STV","players":null},{"server_id":112,"name":"Uncletopia | Los Angeles | 2 | All Maps","name_short":"lax-2","host":"lax-1.us.uncletopia.com","port":27025,"enabled":true,"region":"us-west","cc":"us","latitude":33.94279,"longitude":-118.41004,"reserved":0,"last_update":"0001-01-01T00:00:00Z","name_a2s":"Uncletopia | Los Angeles | 2 | All Maps","protocol":17,"map":"pl_badwater","folder":"tf","game":"Team Fortress","app_id":440,"player_count":24,"max_players":24,"Bots":0,"server_type":"Dedicated","server_os":"Linux","password":true,"vac":true,"version":"7742253","steam_id":85568392924469992,"keywords":["nocrits","nodmgspread","payload","uncletopia"],"game_id":440,"stv_port":27026,"stv_name":"Uncletopia | Los Angeles | 2 | All Maps | STV","players":[{"user_id":273,"name":"My Singing Monsters","steam_id":76561198093846193,"connected_time":2485000000000,"state":"active","ping":77},{"user_id":252,"name":"Pluto","steam_id":76561198012630802,"connected_time":3860000000000,"state":"active","ping":55},{"user_id":274,"name":"Amogous Supreme","steam_id":76561198025476774,"connected_time":2460000000000,"state":"active","ping":60},{"user_id":290,"name":"The Horselords and Animal Gods","steam_id":76561197975094050,"connected_time":1807000000000,"state":"active","ping":38},{"user_id":276,"name":"Psych03","steam_id":76561198061753667,"connected_time":2330000000000,"state":"active","ping":46},{"user_id":239,"name":"Sunkenthree51","steam_id":76561198300781307,"connected_time":4708000000000,"state":"active","ping":96},{"user_id":272,"name":"benson","steam_id":76561198105075752,"connected_time":2753000000000,"state":"active","ping":84},{"user_id":297,"name":"SenTreats","steam_id":76561198085835841,"connected_time":1157000000000,"state":"active","ping":59},{"user_id":253,"name":"THE NUT","steam_id":76561198067813626,"connected_time":3834000000000,"state":"active","ping":68},{"user_id":308,"name":"‚òÅChaoscist","steam_id":76561198133707355,"connected_time":119000000000,"state":"active","ping":45},{"user_id":298,"name":"guy","steam_id":76561198196443262,"connected_time":1146000000000,"state":"active","ping":74},{"user_id":311,"name":"Frank","steam_id":76561198126681511,"connected_time":50000000000,"state":"active","ping":72},{"user_id":251,"name":"mitya.t","steam_id":76561197975079473,"connected_time":4016000000000,"state":"active","ping":70},{"user_id":312,"name":"oZan","steam_id":76561199215115652,"connected_time":26000000000,"state":"spawning","ping":332},{"user_id":291,"name":"Sir Galahad","steam_id":76561198195999859,"connected_time":1789000000000,"state":"active","ping":72},{"user_id":303,"name":"asian","steam_id":76561198082561695,"connected_time":787000000000,"state":"active","ping":117},{"user_id":293,"name":"wilson7*","steam_id":76561198109989416,"connected_time":1666000000000,"state":"active","ping":58},{"user_id":179,"name":"DeathSushi","steam_id":76561199156131540,"connected_time":10413000000000,"state":"active","ping":94},{"user_id":299,"name":"Tritium","steam_id":76561198043305626,"connected_time":1127000000000,"state":"active","ping":67},{"user_id":292,"name":"ChoccyMiltank","steam_id":76561198981474284,"connected_time":1773000000000,"state":"active","ping":47},{"user_id":300,"name":"limehope","steam_id":76561198318126190,"connected_time":1112000000000,"state":"active","ping":164},{"user_id":282,"name":"posse","steam_id":76561198294281809,"connected_time":2263000000000,"state":"active","ping":53},{"user_id":301,"name":"‚õßAlkahestry","steam_id":76561198109641497,"connected_time":1101000000000,"state":"active","ping":45},{"user_id":306,"name":"Taco","steam_id":76561198024471874,"connected_time":591000000000,"state":"active","ping":121}]},{"server_id":324,"name":"Uncletopia | Los Angeles | 3 | All Maps","name_short":"lax-3","host":"lax-1.us.uncletopia.com","port":27035,"enabled":true,"region":"us-west","cc":"us","latitude":33.94279,"longitude":-118.41004,"reserved":0,"last_update":"0001-01-01T00:00:00Z","name_a2s":"Uncletopia | Los Angeles | 3 | All Maps","protocol":17,"map":"cp_sunshine","folder":"tf","game":"Team Fortress","app_id":440,"player_count":0,"max_players":24,"Bots":0,"server_type":"Dedicated","server_os":"Linux","password":true,"vac":true,"version":"7742253","steam_id":85568392924510198,"keywords":["cp","nocrits","nodmgspread","uncletopia"],"game_id":440,"stv_port":27036,"stv_name":"Uncletopia | Los Angeles | 3 | All Maps | STV","players":null},{"server_id":25,"name":"Uncletopia | Los Angeles | 4 | Stopwatch Beta","name_short":"lax-4","host":"lax-1.us.uncletopia.com","port":27045,"enabled":true,"region":"us-west","cc":"us","latitude":33.94279,"longitude":-118.41004,"reserved":0,"last_update":"0001-01-01T00:00:00Z","name_a2s":"Uncletopia | Los Angeles | 4 | Stopwatch Beta","protocol":17,"map":"cp_process_final","folder":"tf","game":"Team Fortress","app_id":440,"player_count":0,"max_players":24,"Bots":0,"server_type":"Dedicated","server_os":"Linux","password":true,"vac":true,"version":"7742253","steam_id":85568392924510199,"keywords":["cp","nocrits","nodmgspread","uncletopia"],"game_id":440,"stv_port":27046,"stv_name":"Uncletopia | Los Angeles | 4 | Stopwatch Beta | STV","players":null},{"server_id":11,"name":"Uncletopia | London | 1 | All Maps","name_short":"lon-1","host":"lon-1.uk.uncletopia.com","port":27015,"enabled":true,"region":"eu","cc":"gb","latitude":51.509865,"longitude":-0.118092,"reserved":0,"last_update":"0001-01-01T00:00:00Z","name_a2s":"Uncletopia | London | 1 | All Maps","protocol":17,"map":"pl_barnblitz","folder":"tf","game":"Team Fortress","app_id":440,"player_count":14,"max_players":24,"Bots":0,"server_type":"Dedicated","server_os":"Linux","password":true,"vac":true,"version":"7742253","steam_id":85568392924367362,"keywords":["nocrits","nodmgspread","payload","uncletopia"],"game_id":440,"stv_port":27016,"stv_name":"Uncletopia | London | 1 | All Maps | STV","players":[{"user_id":3,"name":"SilverCrhome","steam_id":76561199436125685,"connected_time":3604000000000,"state":"active","ping":305},{"user_id":14,"name":"r0la","steam_id":76561198128315340,"connected_time":1179000000000,"state":"active","ping":79},{"user_id":9,"name":"weed fairy","steam_id":76561197998843096,"connected_time":1697000000000,"state":"active","ping":75},{"user_id":23,"name":"Smuggley","steam_id":76561198078130271,"connected_time":551000000000,"state":"active","ping":166},{"user_id":11,"name":"yeldad","steam_id":76561198447264153,"connected_time":1604000000000,"state":"active","ping":114},{"user_id":12,"name":"Perci","steam_id":76561198097789669,"connected_time":1591000000000,"state":"active","ping":70},{"user_id":13,"name":"Grand Wizard","steam_id":76561199414716848,"connected_time":1442000000000,"state":"active","ping":87},{"user_id":16,"name":"Andreus","steam_id":76561199403926001,"connected_time":1116000000000,"state":"active","ping":76},{"user_id":24,"name":"Atomic homo","steam_id":76561198058944826,"connected_time":395000000000,"state":"active","ping":46},{"user_id":21,"name":"Spy TF2","steam_id":76561198832870190,"connected_time":870000000000,"state":"active","ping":54},{"user_id":25,"name":"germanhamburgers96","steam_id":76561198044189114,"connected_time":348000000000,"state":"active","ping":65},{"user_id":26,"name":"Virgil","steam_id":76561198248786778,"connected_time":241000000000,"state":"active","ping":117},{"user_id":27,"name":"Irbynx","steam_id":76561197980421195,"connected_time":177000000000,"state":"active","ping":79},{"user_id":28,"name":"Xayir","steam_id":76561198079566786,"connected_time":131000000000,"state":"active","ping":74}]},{"server_id":114,"name":"Uncletopia | London | 2 | All Maps","name_short":"lon-2","host":"lon-1.uk.uncletopia.com","port":27025,"enabled":true,"region":"eu","cc":"gb","latitude":51.509865,"longitude":-0.118092,"reserved":0,"last_update":"0001-01-01T00:00:00Z","name_a2s":"Uncletopia | London | 2 | All Maps","protocol":17,"map":"cp_altitude","folder":"tf","game":"Team Fortress","app_id":440,"player_count":0,"max_players":24,"Bots":0,"server_type":"Dedicated","server_os":"Linux","password":true,"vac":true,"version":"7742253","steam_id":85568392924470941,"keywords":["cp","nocrits","nodmgspread","uncletopia"],"game_id":440,"stv_port":27026,"stv_name":"Uncletopia | London | 2 | All Maps | STV","players":null},{"server_id":320,"name":"Uncletopia | London | 3 | All Maps","name_short":"lon-3","host":"lon-1.uk.uncletopia.com","port":27035,"enabled":true,"region":"eu","cc":"gb","latitude":51.509865,"longitude":-0.118092,"reserved":0,"last_update":"0001-01-01T00:00:00Z","name_a2s":"Uncletopia | London | 3 | All Maps","protocol":17,"map":"cp_mountainlab","folder":"tf","game":"Team Fortress","app_id":440,"player_count":0,"max_players":24,"Bots":0,"server_type":"Dedicated","server_os":"Linux","password":true,"vac":true,"version":"7742253","steam_id":85568392924510192,"keywords":["cp","nocrits","nodmgspread","uncletopia"],"game_id":440,"stv_port":27036,"stv_name":"Uncletopia | London | 3 | All Maps | STV","players":null},{"server_id":321,"name":"Uncletopia | London | 4 | All Maps","name_short":"lon-4","host":"lon-1.uk.uncletopia.com","port":27045,"enabled":true,"region":"eu","cc":"gb","latitude":51.509865,"longitude":-0.118092,"reserved":0,"last_update":"0001-01-01T00:00:00Z","name_a2s":"Uncletopia | London | 4 | All Maps","protocol":17,"map":"pl_borneo","folder":"tf","game":"Team Fortress","app_id":440,"player_count":0,"max_players":24,"Bots":0,"server_type":"Dedicated","server_os":"Linux","password":true,"vac":true,"version":"7742253","steam_id":85568392924510193,"keywords":["nocrits","nodmgspread","payload","uncletopia"],"game_id":440,"stv_port":27046,"stv_name":"Uncletopia | London | 4 | All Maps | STV","players":null},{"server_id":21,"name":"Uncletopia | London | 5 | All Maps","name_short":"lon-5","host":"lon-1.uk.uncletopia.com","port":27055,"enabled":true,"region":"eu","cc":"gb","latitude":51.509865,"longitude":-0.118092,"reserved":0,"last_update":"0001-01-01T00:00:00Z","name_a2s":"Uncletopia | London | 5 | All Maps","protocol":17,"map":"cp_process_final","folder":"tf","game":"Team Fortress","app_id":440,"player_count":0,"max_players":24,"Bots":0,"server_type":"Dedicated","server_os":"Linux","password":true,"vac":true,"version":"7742253","steam_id":85568392924742829,"keywords":["cp","nocrits","nodmgspread","uncletopia"],"game_id":440,"stv_port":27056,"stv_name":"Uncletopia | London | 5 | All Maps | STV","players":null},{"server_id":22,"name":"Uncletopia | London | 6 | All Maps","name_short":"lon-6","host":"lon-1.uk.uncletopia.com","port":27065,"enabled":true,"region":"eu","cc":"gb","latitude":51.509865,"longitude":-0.118092,"reserved":0,"last_update":"0001-01-01T00:00:00Z","name_a2s":"Uncletopia | London | 6 | All Maps","protocol":17,"map":"pl_badwater","folder":"tf","game":"Team Fortress","app_id":440,"player_count":0,"max_players":24,"Bots":0,"server_type":"Dedicated","server_os":"Linux","password":true,"vac":true,"version":"7742253","steam_id":85568392924742830,"keywords":["nocrits","nodmgspread","payload","uncletopia"],"game_id":440,"stv_port":27066,"stv_name":"Uncletopia | London | 6 | All Maps | STV","players":null},{"server_id":40,"name":"Uncletopia | London | 7 | No Payload","name_short":"lon-7","host":"lon-1.uk.uncletopia.com","port":27075,"enabled":true,"region":"eu","cc":"gb","latitude":51.509865,"longitude":-0.118092,"reserved":0,"last_update":"0001-01-01T00:00:00Z","name_a2s":"Uncletopia | London | 7 | No Payload","protocol":17,"map":"pl_borneo","folder":"tf","game":"Team Fortress","app_id":440,"player_count":0,"max_players":24,"Bots":0,"server_type":"Dedicated","server_os":"Linux","password":true,"vac":true,"version":"7742253","steam_id":85568392924964314,"keywords":["nocrits","nodmgspread","payload","uncletopia"],"game_id":440,"stv_port":27076,"stv_name":"Uncletopia | London | 7 | No Payload | STV","players":null},{"server_id":41,"name":"Uncletopia | London | 8 | Community","name_short":"lon-8","host":"lon-1.uk.uncletopia.com","port":27085,"enabled":true,"region":"eu","cc":"gb","latitude":51.509865,"longitude":-0.118092,"reserved":0,"last_update":"0001-01-01T00:00:00Z","name_a2s":"Uncletopia | London | 8 | Community","protocol":17,"map":"cp_process_final","folder":"tf","game":"Team Fortress","app_id":440,"player_count":0,"max_players":24,"Bots":0,"server_type":"Dedicated","server_os":"Linux","password":true,"vac":true,"version":"7742253","steam_id":85568392924964315,"keywords":["cp","nocrits","nodmgspread","uncletopia"],"game_id":440,"stv_port":27086,"stv_name":"Uncletopia | London | 8 | Community | STV","players":null},{"server_id":300,"name":"Uncletopia | Montr√©al | 1 | All Maps","name_short":"mtl-1","host":"mtl-1.ca.uncletopia.com","port":27015,"enabled":true,"region":"us-east","cc":"ca","latitude":45.50889,"longitude":-73.56167,"reserved":0,"last_update":"0001-01-01T00:00:00Z","name_a2s":"Uncletopia | Montr√©al | 1 | All Maps","protocol":17,"map":"koth_viaduct","folder":"tf","game":"Team Fortress","app_id":440,"player_count":0,"max_players":24,"Bots":0,"server_type":"Dedicated","server_os":"Linux","password":true,"vac":true,"version":"7742253","steam_id":85568392924500087,"keywords":["cp","nocrits","nodmgspread","uncletopia"],"game_id":440,"stv_port":27016,"stv_name":"Uncletopia | Montr√©al | 1 | All Maps | STV","players":null},{"server_id":301,"name":"Uncletopia | Montr√©al | 2 | All Maps","name_short":"mtl-2","host":"mtl-1.ca.uncletopia.com","port":27025,"enabled":true,"region":"us-east","cc":"ca","latitude":45.50889,"longitude":-73.56167,"reserved":0,"last_update":"0001-01-01T00:00:00Z","name_a2s":"Uncletopia | Montr√©al | 2 | All Maps","protocol":17,"map":"koth_lakeside_final","folder":"tf","game":"Team Fortress","app_id":440,"player_count":0,"max_players":24,"Bots":0,"server_type":"Dedicated","server_os":"Linux","password":true,"vac":true,"version":"7742253","steam_id":85568392924500088,"keywords":["cp","nocrits","nodmgspread","uncletopia"],"game_id":440,"stv_port":27026,"stv_name":"Uncletopia | Montr√©al | 2 | All Maps | STV","players":null},{"server_id":302,"name":"Uncletopia | Montr√©al | 3 | All Maps","name_short":"mtl-3","host":"mtl-1.ca.uncletopia.com","port":27035,"enabled":true,"region":"us-east","cc":"ca","latitude":45.50889,"longitude":-73.56167,"reserved":0,"last_update":"0001-01-01T00:00:00Z","name_a2s":"Uncletopia | Montr√©al | 3 | All Maps","protocol":17,"map":"pl_badwater","folder":"tf","game":"Team Fortress","app_id":440,"player_count":0,"max_players":24,"Bots":0,"server_type":"Dedicated","server_os":"Linux","password":true,"vac":true,"version":"7742253","steam_id":85568392924500089,"keywords":["nocrits","nodmgspread","payload","uncletopia"],"game_id":440,"stv_port":27036,"stv_name":"Uncletopia | Montr√©al | 3 | All Maps | STV","players":null},{"server_id":303,"name":"Uncletopia | Montr√©al | 4 | No Payload","name_short":"mtl-4","host":"mtl-1.ca.uncletopia.com","port":27045,"enabled":true,"region":"us-east","cc":"ca","latitude":45.50889,"longitude":-73.56167,"reserved":0,"last_update":"0001-01-01T00:00:00Z","name_a2s":"Uncletopia | Montr√©al | 4 | No Payload","protocol":17,"map":"koth_highpass","folder":"tf","game":"Team Fortress","app_id":440,"player_count":0,"max_players":24,"Bots":0,"server_type":"Dedicated","server_os":"Linux","password":true,"vac":true,"version":"7742253","steam_id":85568392924500090,"keywords":["cp","nocrits","nodmgspread","uncletopia"],"game_id":440,"stv_port":27046,"stv_name":"Uncletopia | Montr√©al | 4 | No Payload | STV","players":null},{"server_id":13,"name":"Uncletopia | New York City | 1 | All Maps","name_short":"nyc-1","host":"nyc-1.us.uncletopia.com","port":27015,"enabled":true,"region":"us-east","cc":"us","latitude":40.73061,"longitude":-73.93524,"reserved":0,"last_update":"0001-01-01T00:00:00Z","name_a2s":"Uncletopia | New York City | 1 | All Maps","protocol":17,"map":"koth_cascade","folder":"tf","game":"Team Fortress","app_id":440,"player_count":0,"max_players":24,"Bots":0,"server_type":"Dedicated","server_os":"Linux","password":true,"vac":true,"version":"7742253","steam_id":85568392924469993,"keywords":["cp","nocrits","nodmgspread","uncletopia"],"game_id":440,"stv_port":27016,"stv_name":"Uncletopia | New York City | 1 | All Maps | STV","players":null},{"server_id":14,"name":"Uncletopia | New York City | 2 | All Maps","name_short":"nyc-2","host":"nyc-1.us.uncletopia.com","port":27025,"enabled":true,"region":"us-east","cc":"us","latitude":40.73061,"longitude":-73.93524,"reserved":0,"last_update":"0001-01-01T00:00:00Z","name_a2s":"Uncletopia | New York City | 2 | All Maps","protocol":17,"map":"pl_badwater","folder":"tf","game":"Team Fortress","app_id":440,"player_count":12,"max_players":24,"Bots":0,"server_type":"Dedicated","server_os":"Linux","password":true,"vac":true,"version":"7742253","steam_id":85568392924469994,"keywords":["nocrits","nodmgspread","payload","uncletopia"],"game_id":440,"stv_port":27026,"stv_name":"Uncletopia | New York City | 2 | All Maps | STV","players":[{"user_id":283,"name":"Apple...","steam_id":76561198072746515,"connected_time":14000000000,"state":"active","ping":60},{"user_id":281,"name":"Panthera","steam_id":76561198095641424,"connected_time":106000000000,"state":"active","ping":102},{"user_id":274,"name":"kingofsoup4168","steam_id":76561198968162492,"connected_time":803000000000,"state":"active","ping":60},{"user_id":282,"name":"k…ôÀàlamitƒì","steam_id":76561198344367704,"connected_time":94000000000,"state":"active","ping":197},{"user_id":226,"name":"33","steam_id":76561198894676484,"connected_time":4812000000000,"state":"active","ping":112},{"user_id":263,"name":"LynBoByn","steam_id":76561198052911142,"connected_time":1115000000000,"state":"active","ping":43},{"user_id":264,"name":"Female Gamer","steam_id":76561199366482682,"connected_time":1091000000000,"state":"active","ping":107},{"user_id":275,"name":"tntmanbook","steam_id":76561199199630272,"connected_time":792000000000,"state":"active","ping":45},{"user_id":277,"name":"CoryBaxterWH","steam_id":76561198060041823,"connected_time":630000000000,"state":"active","ping":56},{"user_id":268,"name":"Bulaula","steam_id":76561199017228524,"connected_time":1016000000000,"state":"active","ping":112},{"user_id":276,"name":"cirkuu","steam_id":76561198053465042,"connected_time":757000000000,"state":"active","ping":77},{"user_id":270,"name":"DAN DONGUS","steam_id":76561198374045865,"connected_time":942000000000,"state":"active","ping":61}]},{"server_id":15,"name":"Uncletopia | New York City | 3 | Stopwatch Beta","name_short":"nyc-3","host":"nyc-1.us.uncletopia.com","port":27035,"enabled":true,"region":"us-east","cc":"us","latitude":40.73061,"longitude":-73.93524,"reserved":0,"last_update":"0001-01-01T00:00:00Z","name_a2s":"Uncletopia | New York City | 3 | Stopwatch Beta","protocol":17,"map":"workshop/pl_vigil_rc9.ugc1266210012","folder":"tf","game":"Team Fortress","app_id":440,"player_count":0,"max_players":24,"Bots":0,"server_type":"Dedicated","server_os":"Linux","password":true,"vac":true,"version":"7742253","steam_id":85568392924742820,"keywords":["nocrits","nodmgspread","payload","uncletopia"],"game_id":440,"stv_port":27036,"stv_name":"Uncletopia | New York City | 3 | Stopwatch Beta | STV","players":null},{"server_id":16,"name":"Uncletopia | New York City | 4 | Community","name_short":"nyc-4","host":"nyc-1.us.uncletopia.com","port":27045,"enabled":true,"region":"us-east","cc":"us","latitude":40.73061,"longitude":-73.93524,"reserved":0,"last_update":"0001-01-01T00:00:00Z","name_a2s":"Uncletopia | New York City | 4 | Community","protocol":17,"map":"workshop/koth_synthetic_rc6a.ugc1549817316","folder":"tf","game":"Team Fortress","app_id":440,"player_count":0,"max_players":24,"Bots":0,"server_type":"Dedicated","server_os":"Linux","password":true,"vac":true,"version":"7742253","steam_id":85568392924742821,"keywords":["cp","nocrits","nodmgspread","uncletopia"],"game_id":440,"stv_port":27046,"stv_name":"Uncletopia | New York City | 4 | Community | STV","players":null},{"server_id":142,"name":"Uncletopia | S√£o Paulo | 1 | All Maps","name_short":"sao-1","host":"sao-1.br.uncletopia.com","port":27015,"enabled":true,"region":"sa","cc":"br","latitude":-23.533773,"longitude":-46.62529,"reserved":0,"last_update":"0001-01-01T00:00:00Z","name_a2s":"Uncletopia | S√£o Paulo | 1 | All Maps","protocol":17,"map":"cp_process_final","folder":"tf","game":"Team Fortress","app_id":440,"player_count":0,"max_players":24,"Bots":0,"server_type":"Dedicated","server_os":"Linux","password":true,"vac":true,"version":"7742253","steam_id":85568392924469996,"keywords":["cp","nocrits","nodmgspread","uncletopia"],"game_id":440,"stv_port":27016,"stv_name":"Uncletopia | S√£o Paulo | 1 | All Maps | STV","players":null},{"server_id":143,"name":"Uncletopia | S√£o Paulo | 2 | All Maps","name_short":"sao-2","host":"sao-2.br.uncletopia.com","port":27015,"enabled":true,"region":"sa","cc":"br","latitude":-23.533773,"longitude":-46.62529,"reserved":0,"last_update":"0001-01-01T00:00:00Z","name_a2s":"Uncletopia | S√£o Paulo | 2 | All Maps","protocol":17,"map":"cp_process_final","folder":"tf","game":"Team Fortress","app_id":440,"player_count":0,"max_players":24,"Bots":0,"server_type":"Dedicated","server_os":"Linux","password":true,"vac":true,"version":"7742253","steam_id":85568392924485349,"keywords":["cp","nocrits","nodmgspread","uncletopia"],"game_id":440,"stv_port":27016,"stv_name":"Uncletopia | S√£o Paulo | 2 | All Maps | STV","players":null},{"server_id":7,"name":"Uncletopia | Seattle | 1 | All Maps","name_short":"sea-1","host":"sea-1.us.uncletopia.com","port":27015,"enabled":true,"region":"us-west","cc":"us","latitude":47.608013,"longitude":-122.33517,"reserved":0,"last_update":"0001-01-01T00:00:00Z","name_a2s":"Uncletopia | Seattle | 1 | All Maps","protocol":17,"map":"pl_frontier_final","folder":"tf","game":"Team Fortress","app_id":440,"player_count":24,"max_players":24,"Bots":0,"server_type":"Dedicated","server_os":"Linux","password":true,"vac":true,"version":"7742253","steam_id":85568392924469997,"keywords":["nocrits","nodmgspread","payload","uncletopia"],"game_id":440,"stv_port":27016,"stv_name":"Uncletopia | Seattle | 1 | All Maps | STV","players":[{"user_id":260,"name":"gorlab","steam_id":76561198025089694,"connected_time":2902000000000,"state":"active","ping":60},{"user_id":283,"name":"Saggle","steam_id":76561198056075147,"connected_time":626000000000,"state":"active","ping":181},{"user_id":246,"name":"CoherentCarpet („Éé‡≤†Áõä‡≤†)\ufffd\ufffd","steam_id":76561198045625360,"connected_time":4980000000000,"state":"active","ping":77},{"user_id":252,"name":"P=9Florist","steam_id":76561198009121060,"connected_time":4153000000000,"state":"active","ping":49},{"user_id":213,"name":"Violet K.","steam_id":76561198062963842,"connected_time":8344000000000,"state":"active","ping":67},{"user_id":277,"name":"_DrunkenGibberish_","steam_id":76561199123070071,"connected_time":1422000000000,"state":"active","ping":114},{"user_id":284,"name":"GUITAR GAMING!!!","steam_id":76561198199604767,"connected_time":448000000000,"state":"active","ping":56},{"user_id":272,"name":"Tom","steam_id":76561198070630154,"connected_time":2372000000000,"state":"active","ping":75},{"user_id":243,"name":"Arsonist Goose","steam_id":76561198147441830,"connected_time":5071000000000,"state":"active","ping":73},{"user_id":237,"name":"Ayayahuasca","steam_id":76561199002906056,"connected_time":5522000000000,"state":"active","ping":53},{"user_id":278,"name":"Madrox Who?","steam_id":76561197988859134,"connected_time":1366000000000,"state":"active","ping":125},{"user_id":224,"name":"rat gets the cheese","steam_id":76561198031234032,"connected_time":7283000000000,"state":"active","ping":101},{"user_id":193,"name":"Level 99 Mudcrab","steam_id":76561198077452771,"connected_time":10133000000000,"state":"active","ping":60},{"user_id":273,"name":"soup","steam_id":76561198043209046,"connected_time":2330000000000,"state":"active","ping":80},{"user_id":281,"name":"rorytherednosedreindeer","steam_id":76561198065825165,"connected_time":951000000000,"state":"active","ping":82},{"user_id":286,"name":"fragadelphia","steam_id":76561198066116363,"connected_time":237000000000,"state":"active","ping":53},{"user_id":268,"name":"resh","steam_id":76561198239598834,"connected_time":2382000000000,"state":"active","ping":131},{"user_id":285,"name":"drive","steam_id":76561198041818185,"connected_time":372000000000,"state":"active","ping":96},{"user_id":271,"name":"ed","steam_id":76561198080475712,"connected_time":2378000000000,"state":"active","ping":72},{"user_id":244,"name":"Soap Man","steam_id":76561198000490235,"connected_time":5047000000000,"state":"active","ping":66},{"user_id":259,"name":"Google","steam_id":76561198857237473,"connected_time":2996000000000,"state":"active","ping":55},{"user_id":270,"name":"Sweets","steam_id":76561198998446307,"connected_time":2381000000000,"state":"active","ping":120},{"user_id":211,"name":"alaska thunderfuck","steam_id":76561198017030029,"connected_time":8487000000000,"state":"active","ping":74},{"user_id":275,"name":"p9?HIGHjorts","steam_id":76561199041179985,"connected_time":2093000000000,"state":"active","ping":68}]},{"server_id":119,"name":"Uncletopia | Seattle | 2 | All Maps","name_short":"sea-2","host":"sea-1.us.uncletopia.com","port":27025,"enabled":true,"region":"us-west","cc":"us","latitude":47.608013,"longitude":-122.33517,"reserved":0,"last_update":"0001-01-01T00:00:00Z","name_a2s":"Uncletopia | Seattle | 2 | All Maps","protocol":17,"map":"pl_badwater","folder":"tf","game":"Team Fortress","app_id":440,"player_count":17,"max_players":24,"Bots":0,"server_type":"Dedicated","server_os":"Linux","password":true,"vac":true,"version":"7742253","steam_id":85568392924469998,"keywords":["nocrits","nodmgspread","payload","uncletopia"],"game_id":440,"stv_port":27026,"stv_name":"Uncletopia | Seattle | 2 | All Maps | STV","players":[{"user_id":295,"name":"Kromeousible","steam_id":76561198087317232,"connected_time":566000000000,"state":"active","ping":94},{"user_id":179,"name":"Nolan","steam_id":76561198169648081,"connected_time":6580000000000,"state":"active","ping":86},{"user_id":291,"name":"Jay","steam_id":76561198148464582,"connected_time":1968000000000,"state":"active","ping":81},{"user_id":302,"name":"{907}DarkestFury","steam_id":76561198103662458,"connected_time":242000000000,"state":"active","ping":69},{"user_id":297,"name":"fart","steam_id":76561198339247153,"connected_time":489000000000,"state":"active","ping":80},{"user_id":275,"name":"bad spy player","steam_id":76561198873699671,"connected_time":2755000000000,"state":"active","ping":47},{"user_id":298,"name":"HO MY GOD HELP ME","steam_id":76561198119150842,"connected_time":483000000000,"state":"active","ping":56},{"user_id":300,"name":"The Big Stew","steam_id":76561198164279539,"connected_time":304000000000,"state":"active","ping":38},{"user_id":306,"name":"LOL","steam_id":76561198081568692,"connected_time":12000000000,"state":"spawning","ping":92},{"user_id":305,"name":"KaeinN27","steam_id":76561199433598069,"connected_time":76000000000,"state":"active","ping":270},{"user_id":303,"name":"Cloruro","steam_id":76561198145999116,"connected_time":220000000000,"state":"active","ping":94},{"user_id":304,"name":"Pokedroid745","steam_id":76561199223677348,"connected_time":200000000000,"state":"active","ping":100},{"user_id":277,"name":"I_Want_A_Soft_Taco","steam_id":76561198225561352,"connected_time":2727000000000,"state":"active","ping":86},{"user_id":266,"name":"Furious George","steam_id":76561198405111646,"connected_time":3343000000000,"state":"active","ping":58},{"user_id":289,"name":"U LEE","steam_id":76561198008715362,"connected_time":2069000000000,"state":"active","ping":91},{"user_id":280,"name":"MR. MODE","steam_id":76561198046775352,"connected_time":2652000000000,"state":"active","ping":62},{"user_id":294,"name":"tiggy","steam_id":76561198197643703,"connected_time":617000000000,"state":"active","ping":50}]},{"server_id":406,"name":"Uncletopia | Seattle | 3 | Stopwatch Beta","name_short":"sea-3","host":"sea-1.us.uncletopia.com","port":27035,"enabled":true,"region":"us-west","cc":"us","latitude":47.608013,"longitude":-122.33517,"reserved":0,"last_update":"0001-01-01T00:00:00Z","name_a2s":"Uncletopia | Seattle | 3 | Stopwatch Beta","protocol":17,"map":"pl_upward","folder":"tf","game":"Team Fortress","app_id":440,"player_count":1,"max_players":24,"Bots":0,"server_type":"Dedicated","server_os":"Linux","password":true,"vac":false,"version":"7742253","steam_id":0,"keywords":["nocrits","nodmgspread","payload","uncletopia"],"game_id":440,"stv_port":27036,"stv_name":"Uncletopia | Seattle | 3 | Stopwatch Beta | STV","players":[{"user_id":3,"name":"Mr.Thirteen","steam_id":76561198047468836,"connected_time":23000000000,"state":"active","ping":57}]},{"server_id":17,"name":"Uncletopia | San Francisco | 1 | All Maps","name_short":"sfo-1","host":"sfo-1.us.uncletopia.com","port":27015,"enabled":true,"region":"us-west","cc":"us","latitude":37.77397,"longitude":-122.4313,"reserved":0,"last_update":"0001-01-01T00:00:00Z","name_a2s":"Uncletopia | San Francisco | 1 | All Maps","protocol":17,"map":"pl_borneo","folder":"tf","game":"Team Fortress","app_id":440,"player_count":24,"max_players":24,"Bots":0,"server_type":"Dedicated","server_os":"Linux","password":true,"vac":true,"version":"7742253","steam_id":85568392924469999,"keywords":["nocrits","nodmgspread","payload","uncletopia"],"game_id":440,"stv_port":27016,"stv_name":"Uncletopia | San Francisco | 1 | All Maps | STV","players":[{"user_id":254,"name":"ExplosiveGamer21","steam_id":76561198132370955,"connected_time":2863000000000,"state":"active","ping":85},{"user_id":263,"name":"xenosthelegend","steam_id":76561198212217429,"connected_time":2506000000000,"state":"active","ping":110},{"user_id":265,"name":"Rich Money McNickelson","steam_id":76561198352427247,"connected_time":2070000000000,"state":"active","ping":62},{"user_id":255,"name":"twitch.tv/Yoshi21 | TF2Pugs.com","steam_id":76561198002516729,"connected_time":2859000000000,"state":"active","ping":125},{"user_id":229,"name":"Soviet Potato","steam_id":76561198068546113,"connected_time":5905000000000,"state":"active","ping":45},{"user_id":270,"name":"High Cotton","steam_id":76561197998894854,"connected_time":827000000000,"state":"active","ping":112},{"user_id":137,"name":"Dali","steam_id":76561198077593486,"connected_time":11038000000000,"state":"active","ping":79},{"user_id":245,"name":"Skreeb","steam_id":76561198086133143,"connected_time":3695000000000,"state":"active","ping":104},{"user_id":269,"name":"Akira","steam_id":76561198294601519,"connected_time":842000000000,"state":"active","ping":66},{"user_id":253,"name":"fart","steam_id":76561199160246785,"connected_time":2870000000000,"state":"active","ping":94},{"user_id":257,"name":"nickell88","steam_id":76561198061661797,"connected_time":2846000000000,"state":"active","ping":136},{"user_id":186,"name":"dewey","steam_id":76561198132791511,"connected_time":6980000000000,"state":"active","ping":64},{"user_id":247,"name":"YellowMonkey","steam_id":76561198859337534,"connected_time":3688000000000,"state":"active","ping":54},{"user_id":59,"name":"ena - d","steam_id":76561198072329335,"connected_time":18049000000000,"state":"active","ping":112},{"user_id":264,"name":"Mom","steam_id":76561198207936000,"connected_time":2491000000000,"state":"active","ping":57},{"user_id":243,"name":"Anthid","steam_id":76561198074493797,"connected_time":3986000000000,"state":"active","ping":74},{"user_id":268,"name":"13ricity","steam_id":76561198394291206,"connected_time":913000000000,"state":"active","ping":122},{"user_id":250,"name":"AnOversizedBagel","steam_id":76561198220592943,"connected_time":3172000000000,"state":"active","ping":185},{"user_id":266,"name":"Algae","steam_id":76561198133069312,"connected_time":2032000000000,"state":"active","ping":117},{"user_id":260,"name":"PinkAndPathetic","steam_id":76561198047109016,"connected_time":2672000000000,"state":"active","ping":116},{"user_id":272,"name":"NubKat","steam_id":76561199132262158,"connected_time":811000000000,"state":"active","ping":106},{"user_id":276,"name":"Zell Da Sheepy","steam_id":76561198978753666,"connected_time":95000000000,"state":"active","ping":70},{"user_id":275,"name":"coffvee","steam_id":76561198232708132,"connected_time":337000000000,"state":"active","ping":52},{"user_id":244,"name":"welcome to PLAY of the week","steam_id":76561198045964573,"connected_time":3957000000000,"state":"active","ping":60}]},{"server_id":18,"name":"Uncletopia | San Francisco | 2 | All Maps","name_short":"sfo-2","host":"sfo-1.us.uncletopia.com","port":27025,"enabled":true,"region":"us-west","cc":"us","latitude":37.77397,"longitude":-122.4313,"reserved":0,"last_update":"0001-01-01T00:00:00Z","name_a2s":"Uncletopia | San Francisco | 2 | All Maps","protocol":17,"map":"cp_process_final","folder":"tf","game":"Team Fortress","app_id":440,"player_count":0,"max_players":24,"Bots":0,"server_type":"Dedicated","server_os":"Linux","password":true,"vac":true,"version":"7742253","steam_id":85568392924470000,"keywords":["cp","nocrits","nodmgspread","uncletopia"],"game_id":440,"stv_port":27026,"stv_name":"Uncletopia | San Francisco | 2 | All Maps | STV","players":null},{"server_id":19,"name":"Uncletopia | San Francisco | 3 | Stopwatch Beta","name_short":"sfo-3","host":"sfo-1.us.uncletopia.com","port":27035,"enabled":true,"region":"us-west","cc":"us","latitude":37.77397,"longitude":-122.4313,"reserved":0,"last_update":"0001-01-01T00:00:00Z","name_a2s":"Uncletopia | San Francisco | 3 | Stopwatch Beta","protocol":17,"map":"workshop/koth_ashville_final.ugc2130459942","folder":"tf","game":"Team Fortress","app_id":440,"player_count":0,"max_players":24,"Bots":0,"server_type":"Dedicated","server_os":"Linux","password":true,"vac":true,"version":"7742253","steam_id":85568392924742824,"keywords":["cp","nocrits","nodmgspread","uncletopia"],"game_id":440,"stv_port":27036,"stv_name":"Uncletopia | San Francisco | 3 | Stopwatch Beta | STV","players":null},{"server_id":20,"name":"Uncletopia | San Francisco | 4 | Community","name_short":"sfo-4","host":"sfo-1.us.uncletopia.com","port":27045,"enabled":true,"region":"us-west","cc":"us","latitude":37.77397,"longitude":-122.4313,"reserved":0,"last_update":"0001-01-01T00:00:00Z","name_a2s":"Uncletopia | San Francisco | 4 | Community","protocol":17,"map":"workshop/koth_ashville_final.ugc2130459942","folder":"tf","game":"Team Fortress","app_id":440,"player_count":2,"max_players":24,"Bots":0,"server_type":"Dedicated","server_os":"Linux","password":true,"vac":true,"version":"7742253","steam_id":85568392924742826,"keywords":["cp","nocrits","nodmgspread","uncletopia"],"game_id":440,"stv_port":27046,"stv_name":"Uncletopia | San Francisco | 4 | Community | STV","players":[{"user_id":133,"name":"Û†Ä°Û†Ä°","steam_id":76561198878940647,"connected_time":103000000000,"state":"active","ping":59},{"user_id":128,"name":"KING GLIZZARD","steam_id":76561198831617384,"connected_time":5942000000000,"state":"active","ping":97}]},{"server_id":141,"name":"Uncletopia | Sydney | 1 | All Maps","name_short":"syd-1","host":"syd-1.au.uncletopia.com","port":27015,"enabled":true,"region":"au","cc":"au","latitude":-33.865143,"longitude":151.2099,"reserved":0,"last_update":"0001-01-01T00:00:00Z","name_a2s":"Uncletopia | Sydney | 1 | All Maps","protocol":17,"map":"cp_process_final","folder":"tf","game":"Team Fortress","app_id":440,"player_count":16,"max_players":24,"Bots":0,"server_type":"Dedicated","server_os":"Linux","password":true,"vac":true,"version":"7742253","steam_id":85568392924470001,"keywords":["cp","nocrits","nodmgspread","uncletopia"],"game_id":440,"stv_port":27016,"stv_name":"Uncletopia | Sydney | 1 | All Maps | STV","players":[{"user_id":177,"name":"Paradon YT","steam_id":76561198060176705,"connected_time":336000000000,"state":"active","ping":105},{"user_id":156,"name":":)","steam_id":76561198025225448,"connected_time":1526000000000,"state":"active","ping":75},{"user_id":157,"name":"plaything","steam_id":76561198132937542,"connected_time":1525000000000,"state":"active","ping":60},{"user_id":161,"name":"(‚óï‚Äø‚óï‚úø)","steam_id":76561197972786509,"connected_time":1450000000000,"state":"active","ping":76},{"user_id":160,"name":"APVC","steam_id":76561199090168813,"connected_time":1500000000000,"state":"active","ping":49},{"user_id":178,"name":"duskdancer ‚ô•","steam_id":76561198351034537,"connected_time":213000000000,"state":"active","ping":60},{"user_id":179,"name":"rastaFROG730","steam_id":76561198058812647,"connected_time":198000000000,"state":"active","ping":48},{"user_id":176,"name":"Cat","steam_id":76561199262196710,"connected_time":449000000000,"state":"active","ping":44},{"user_id":180,"name":"var","steam_id":76561198164892406,"connected_time":184000000000,"state":"active","ping":60},{"user_id":181,"name":"suitdummy22","steam_id":76561198042198744,"connected_time":174000000000,"state":"active","ping":44},{"user_id":182,"name":"wood","steam_id":76561198185026821,"connected_time":131000000000,"state":"active","ping":54},{"user_id":183,"name":"hells angel","steam_id":76561198310550094,"connected_time":123000000000,"state":"active","ping":59},{"user_id":184,"name":"billy loomis","steam_id":76561198032687714,"connected_time":108000000000,"state":"active","ping":91},{"user_id":185,"name":"carrot monster","steam_id":76561199056025092,"connected_time":52000000000,"state":"active","ping":43},{"user_id":186,"name":"void","steam_id":76561198241303512,"connected_time":23000000000,"state":"active","ping":55},{"user_id":187,"name":"Pikachu14080","steam_id":76561198913290041,"connected_time":22000000000,"state":"active","ping":158}]},{"server_id":123,"name":"Uncletopia | Sydney | 2 | All Maps","name_short":"syd-2","host":"syd-1.au.uncletopia.com","port":27025,"enabled":true,"region":"au","cc":"au","latitude":-33.865143,"longitude":151.2099,"reserved":0,"last_update":"0001-01-01T00:00:00Z","name_a2s":"Uncletopia | Sydney | 2 | All Maps","protocol":17,"map":"pl_barnblitz","folder":"tf","game":"Team Fortress","app_id":440,"player_count":24,"max_players":24,"Bots":0,"server_type":"Dedicated","server_os":"Linux","password":true,"vac":true,"version":"7742253","steam_id":85568392924470002,"keywords":["nocrits","nodmgspread","payload","uncletopia"],"game_id":440,"stv_port":27026,"stv_name":"Uncletopia | Sydney | 2 | All Maps | STV","players":[{"user_id":261,"name":"lofty","steam_id":76561198380588357,"connected_time":1785000000000,"state":"active","ping":67},{"user_id":215,"name":"Top Ramen","steam_id":76561198028969833,"connected_time":3693000000000,"state":"active","ping":45},{"user_id":242,"name":"qionglu","steam_id":76561198421797441,"connected_time":2399000000000,"state":"active","ping":52},{"user_id":272,"name":"jcoll444","steam_id":76561198143025380,"connected_time":1289000000000,"state":"active","ping":60},{"user_id":280,"name":"Gasoline","steam_id":76561198879023728,"connected_time":538000000000,"state":"active","ping":76},{"user_id":287,"name":"CouldBeKarlos","steam_id":76561198956180767,"connected_time":280000000000,"state":"active","ping":46},{"user_id":211,"name":"IamDinosaur","steam_id":76561198081540507,"connected_time":3790000000000,"state":"active","ping":70},{"user_id":244,"name":"Goomba","steam_id":76561198858261053,"connected_time":2305000000000,"state":"active","ping":64},{"user_id":288,"name":"Morgenstern","steam_id":76561198253080474,"connected_time":279000000000,"state":"active","ping":60},{"user_id":289,"name":"Degenerate With Standards!!!","steam_id":76561199174449723,"connected_time":279000000000,"state":"active","ping":156},{"user_id":264,"name":"Umbral nooks","steam_id":76561198817472080,"connected_time":1719000000000,"state":"active","ping":67},{"user_id":221,"name":"skill issue","steam_id":76561198077815671,"connected_time":3275000000000,"state":"active","ping":43},{"user_id":212,"name":"SpazzticDwarf","steam_id":76561198861737121,"connected_time":3778000000000,"state":"active","ping":67},{"user_id":267,"name":"Abraham Lincoln","steam_id":76561198095292515,"connected_time":1560000000000,"state":"active","ping":52},{"user_id":284,"name":"Marleynator","steam_id":76561198042517985,"connected_time":415000000000,"state":"active","ping":77},{"user_id":253,"name":"Spicy Baguette","steam_id":76561198238030210,"connected_time":2158000000000,"state":"active","ping":53},{"user_id":286,"name":"nintendo 64","steam_id":76561198267552367,"connected_time":297000000000,"state":"active","ping":74},{"user_id":214,"name":"Armapillow","steam_id":76561198060386357,"connected_time":3747000000000,"state":"active","ping":67},{"user_id":255,"name":"Diavolo Diablo","steam_id":76561198166295333,"connected_time":2090000000000,"state":"active","ping":164},{"user_id":270,"name":"Oatmeal","steam_id":76561198251199428,"connected_time":1453000000000,"state":"active","ping":72},{"user_id":283,"name":"Wake'n'Bake'n'Make'n'Bacon","steam_id":76561198061960926,"connected_time":514000000000,"state":"active","ping":95},{"user_id":274,"name":"Atlas","steam_id":76561198069332870,"connected_time":1263000000000,"state":"active","ping":52},{"user_id":263,"name":"Floppy","steam_id":76561198296769665,"connected_time":1740000000000,"state":"active","ping":60},{"user_id":276,"name":"mrgonzales123","steam_id":76561199052767588,"connected_time":770000000000,"state":"active","ping":79}]},{"server_id":395,"name":"Uncletopia | Sydney | 3 | All Maps","name_short":"syd-3","host":"syd-1.au.uncletopia.com","port":27035,"enabled":true,"region":"au","cc":"au","latitude":-33.865143,"longitude":151.2099,"reserved":0,"last_update":"0001-01-01T00:00:00Z","name_a2s":"Uncletopia | Sydney | 3 | All Maps","protocol":17,"map":"cp_altitude","folder":"tf","game":"Team Fortress","app_id":440,"player_count":0,"max_players":24,"Bots":0,"server_type":"Dedicated","server_os":"Linux","password":true,"vac":true,"version":"7742253","steam_id":85568392925194467,"keywords":["cp","nocrits","nodmgspread","uncletopia"],"game_id":440,"stv_port":27036,"stv_name":"Uncletopia | Sydney | 3 | All Maps | STV","players":null},{"server_id":396,"name":"Uncletopia | Sydney | 4 | All Maps","name_short":"syd-4","host":"syd-1.au.uncletopia.com","port":27045,"enabled":true,"region":"au","cc":"au","latitude":-33.865143,"longitude":151.2099,"reserved":0,"last_update":"0001-01-01T00:00:00Z","name_a2s":"Uncletopia | Sydney | 4 | All Maps","protocol":17,"map":"cp_mountainlab","folder":"tf","game":"Team Fortress","app_id":440,"player_count":0,"max_players":24,"Bots":0,"server_type":"Dedicated","server_os":"Linux","password":true,"vac":true,"version":"7742253","steam_id":85568392925397958,"keywords":["cp","nocrits","nodmgspread","uncletopia"],"game_id":440,"stv_port":27046,"stv_name":"Uncletopia | Sydney | 4 | All Maps | STV","players":null},{"server_id":58,"name":"Uncletopia | Sydney | 5 | Stopwatch Beta","name_short":"syd-5","host":"syd-1.au.uncletopia.com","port":27055,"enabled":true,"region":"au","cc":"au","latitude":-33.865143,"longitude":151.2099,"reserved":0,"last_update":"0001-01-01T00:00:00Z","name_a2s":"Uncletopia | Sydney | 5 | Stopwatch Beta","protocol":17,"map":"cp_snakewater_final1","folder":"tf","game":"Team Fortress","app_id":440,"player_count":0,"max_players":24,"Bots":0,"server_type":"Dedicated","server_os":"Linux","password":true,"vac":true,"version":"7742253","steam_id":85568392925397959,"keywords":["cp","nocrits","nodmgspread","uncletopia"],"game_id":440,"stv_port":27056,"stv_name":"Uncletopia | Sydney | 5 | Stopwatch Beta | STV","players":null},{"server_id":59,"name":"Uncletopia | Sydney | 6 | Community","name_short":"syd-6","host":"syd-1.au.uncletopia.com","port":27065,"enabled":true,"region":"au","cc":"au","latitude":-33.865143,"longitude":151.2099,"reserved":0,"last_update":"0001-01-01T00:00:00Z","name_a2s":"Uncletopia | Sydney | 6 | Community","protocol":17,"map":"workshop/koth_slaughter_rc1.ugc1712845210","folder":"tf","game":"Team Fortress","app_id":440,"player_count":0,"max_players":24,"Bots":0,"server_type":"Dedicated","server_os":"Linux","password":true,"vac":true,"version":"7742253","steam_id":85568392925397960,"keywords":["cp","nocrits","nodmgspread","uncletopia"],"game_id":440,"stv_port":27066,"stv_name":"Uncletopia | Sydney | 6 | Community | STV","players":null},{"server_id":49,"name":"Uncletopia | Warsaw | 1 | All Maps","name_short":"waw-1","host":"waw-1.pl.uncletopia.com","port":27015,"enabled":true,"region":"eu","cc":"pl","latitude":52.2297,"longitude":21.017532,"reserved":0,"last_update":"0001-01-01T00:00:00Z","name_a2s":"Uncletopia | Warsaw | 1 | All Maps","protocol":17,"map":"koth_lakeside_final","folder":"tf","game":"Team Fortress","app_id":440,"player_count":0,"max_players":24,"Bots":0,"server_type":"Dedicated","server_os":"Linux","password":true,"vac":true,"version":"7723704","steam_id":85568392925397850,"keywords":["cp","nocrits","nodmgspread","uncletopia"],"game_id":440,"stv_port":27016,"stv_name":"Uncletopia | Warsaw | 1 | All Maps | STV","players":null},{"server_id":50,"name":"Uncletopia | Warsaw | 2 | All Maps","name_short":"waw-2","host":"waw-1.pl.uncletopia.com","port":27025,"enabled":true,"region":"eu","cc":"pl","latitude":52.2297,"longitude":21.017532,"reserved":0,"last_update":"0001-01-01T00:00:00Z","name_a2s":"Uncletopia | Warsaw | 2 | All Maps","protocol":17,"map":"pl_frontier_final","folder":"tf","game":"Team Fortress","app_id":440,"player_count":0,"max_players":24,"Bots":0,"server_type":"Dedicated","server_os":"Linux","password":true,"vac":true,"version":"7742253","steam_id":85568392925397851,"keywords":["nocrits","nodmgspread","payload","uncletopia"],"game_id":440,"stv_port":27026,"stv_name":"Uncletopia | Warsaw | 2 | All Maps | STV","players":null},{"server_id":51,"name":"Uncletopia | Warsaw | 3 | All Maps","name_short":"waw-3","host":"waw-1.pl.uncletopia.com","port":27035,"enabled":true,"region":"eu","cc":"pl","latitude":52.2297,"longitude":21.017532,"reserved":0,"last_update":"0001-01-01T00:00:00Z","name_a2s":"Uncletopia | Warsaw | 3 | All Maps","protocol":17,"map":"pl_frontier_final","folder":"tf","game":"Team Fortress","app_id":440,"player_count":0,"max_players":24,"Bots":0,"server_type":"Dedicated","server_os":"Linux","password":true,"vac":true,"version":"7742253","steam_id":85568392925397852,"keywords":["nocrits","nodmgspread","payload","uncletopia"],"game_id":440,"stv_port":27036,"stv_name":"Uncletopia | Warsaw | 3 | All Maps | STV","players":null},{"server_id":52,"name":"Uncletopia | Warsaw | 4 | All Maps","name_short":"waw-4","host":"waw-1.pl.uncletopia.com","port":27045,"enabled":true,"region":"eu","cc":"pl","latitude":52.2297,"longitude":21.017532,"reserved":0,"last_update":"0001-01-01T00:00:00Z","name_a2s":"Uncletopia | Warsaw | 4 | All Maps","protocol":17,"map":"pl_swiftwater_final1","folder":"tf","game":"Team Fortress","app_id":440,"player_count":0,"max_players":24,"Bots":0,"server_type":"Dedicated","server_os":"Linux","password":true,"vac":true,"version":"7742253","steam_id":85568392925397853,"keywords":["nocrits","nodmgspread","payload","uncletopia"],"game_id":440,"stv_port":27046,"stv_name":"Uncletopia | Warsaw | 4 | All Maps | STV","players":null},{"server_id":53,"name":"Uncletopia | Warsaw | 5 | Stopwatch Beta","name_short":"waw-5","host":"waw-1.pl.uncletopia.com","port":27055,"enabled":true,"region":"eu","cc":"pl","latitude":52.2297,"longitude":21.017532,"reserved":0,"last_update":"0001-01-01T00:00:00Z","name_a2s":"Uncletopia | Warsaw | 5 | Stopwatch Beta","protocol":17,"map":"pl_pier","folder":"tf","game":"Team Fortress","app_id":440,"player_count":0,"max_players":24,"Bots":0,"server_type":"Dedicated","server_os":"Linux","password":true,"vac":true,"version":"7742253","steam_id":85568392925397854,"keywords":["nocrits","nodmgspread","payload","uncletopia"],"game_id":440,"stv_port":27056,"stv_name":"Uncletopia | Warsaw | 5 | Stopwatch Beta | STV","players":null},{"server_id":54,"name":"Uncletopia | Warsaw | 6 | Community","name_short":"waw-6","host":"waw-1.pl.uncletopia.com","port":27065,"enabled":true,"region":"eu","cc":"pl","latitude":52.2297,"longitude":21.017532,"reserved":0,"last_update":"0001-01-01T00:00:00Z","name_a2s":"Uncletopia | Warsaw | 6 | Community","protocol":17,"map":"cp_sunshine","folder":"tf","game":"Team Fortress","app_id":440,"player_count":0,"max_players":24,"Bots":0,"server_type":"Dedicated","server_os":"Linux","password":true,"vac":true,"version":"7742253","steam_id":85568392925397856,"keywords":["cp","nocrits","nodmgspread","uncletopia"],"game_id":440,"stv_port":27066,"stv_name":"Uncletopia | Warsaw | 6 | Community | STV","players":null}]}