{"status":true,"message":"","result":[{"server_id":9,"name":"Uncletopia | Atlanta | 1 | All Maps","name_short":"atl-1","host":"atl-1.us.uncletopia.com","port":27015,"enabled":true,"region":"us-east","cc":"us","latitude":33.753746,"longitude":-84.38633,"reserved":0,"last_update":"0001-01-01T00:00:00Z","name_a2s":"Uncletopia | Atlanta | 1 | All Maps","protocol":17,"map":"cp_snakewater_final1","folder":"tf","game":"Team Fortress","app_id":440,"player_count":0,"max_players":24,"Bots":0,"server_type":"Dedicated","server_os":"Linux","password":false,"vac":true,"version":"7961495","steam_id":85568392924469982,"keywords":["cp","nocrits","nodmgspread","uncletopia"],"game_id":440,"stv_port":27016,"stv_name":"Uncletopia | Atlanta | 1 | All Maps | STV","players":null},{"server_id":104,"name":"Uncletopia | Atlanta | 2 | All Maps","name_short":"atl-2","host":"atl-1.us.uncletopia.com","port":27025,"enabled":true,"region":"us-east","cc":"us","latitude":33.753746,"longitude":-84.38633,"reserved":0,"last_update":"0001-01-01T00:00:00Z","name_a2s":"Uncletopia | Atlanta | 2 | All Maps","protocol":17,"map":"cp_mountainlab","folder":"tf","game":"Team Fortress","app_id":440,"player_count":0,"max_players":24,"Bots":0,"server_type":"Dedicated","server_os":"Linux","password":false,"vac":true,"version":"7961495","steam_id":85568392924469983,"keywords":["cp","nocrits","nodmgspread","uncletopia"],"game_id":440,"stv_port":27026,"stv_name":"Uncletopia | Atlanta | 2 | All Maps | STV","players":null},{"server_id":400,"name":"Uncletopia | Atlanta | 3 | All Maps","name_short":"atl-3","host":"atl-1.us.uncletopia.com","port":27035,"enabled":true,"region":"us-east","cc":"us","latitude":33.753746,"longitude":-84.38633,"reserved":0,"last_update":"0001-01-01T00:00:00Z","name_a2s":"Uncletopia | Atlanta | 3 | All Maps","protocol":17,"map":"cp_process_final","folder":"tf","game":"Team Fortress","app_id":440,"player_count":0,"max_players":24,"Bots":0,"server_type":"Dedicated","server_os":"Linux","password":false,"vac":true,"version":"7961495","steam_id":85568392924515187,"keywords":["cp","nocrits","nodmgspread","uncletopia"],"game_id":440,"stv_port":27036,"stv_name":"Uncletopia | Atlanta | 3 | All Maps | STV","players":null},{"server_id":401,"name":"Uncletopia | Atlanta | 4 | Community","name_short":"atl-4","host":"atl-1.us.uncletopia.com","port":27045,"enabled":true,"region":"us-east","cc":"us","latitude":33.753746,"longitude":-84.38633,"reserved":0,"last_update":"0001-01-01T00:00:00Z","name_a2s":"Uncletopia | Atlanta | 4 | Community","protocol":17,"map":"koth_lakeside_final","folder":"tf","game":"Team Fortress","app_id":440,"player_count":0,"max_players":24,"Bots":0,"server_type":"Dedicated","server_os":"Linux","password":false,"vac":true,"version":"7961495","steam_id":85568392924515188,"keywords":["cp","nocrits","nodmgspread","uncletopia"],"game_id":440,"stv_port":27046,"stv_name":"Uncletopia | Atlanta | 4 | Community | STV","players":null},{"server_id":2,"name":"Uncletopia | Chicago | 1 | All Maps","name_short":"chi-1","host":"chi-1.us.uncletopia.com","port":27015,"enabled":true,"region":"us-central","cc":"us","latitude":41.881832,"longitude":-87.62318,"reserved":0,"last_update":"0001-01-01T00:00:00Z","name_a2s":"Uncletopia | Chicago | 1 | All Maps","protocol":17,"map":"pl_upward","folder":"tf","game":"Team Fortress","app_id":440,"player_count":24,"max_players":24,"Bots":0,"server_type":"Dedicated","server_os":"Linux","password":true,"vac":true,"version":"7961495","steam_id":85568392924469984,"keywords":["nocrits","nodmgspread","payload","uncletopia"],"game_id":440,"stv_port":27016,"stv_name":"Uncletopia | Chicago | 1 | All Maps | STV","players":[{"user_id":87,"name":"MintyPawz","steam_id":76561198111430103,"connected_time":408000000000,"state":"active","ping":92},{"user_id":93,"name":"Sirmrmagoo","steam_id":76561198993190424,"connected_time":215000000000,"state":"active","ping":105},{"user_id":88,"name":"Geobeetle","steam_id":76561198207400124,"connected_time":389000000000,"state":"active","ping":85},{"user_id":72,"name":"Idk","steam_id":76561198971629959,"connected_time":1491000000000,"state":"active","ping":134},{"user_id":89,"name":"BNT","steam_id":76561198044064831,"connected_time":347000000000,"state":"active","ping":62},{"user_id":25,"name":"Bee_Pirate","steam_id":76561199000599111,"connected_time":4023000000000,"state":"active","ping":57},{"user_id":73,"name":"ËÉ∏Èíà","steam_id":76561198797398533,"connected_time":1214000000000,"state":"active","ping":55},{"user_id":54,"name":"PKBEAST_7","steam_id":76561198177136537,"connected_time":2686000000000,"state":"active","ping":89},{"user_id":94,"name":"IanFishooks","steam_id":76561199403427527,"connected_time":152000000000,"state":"active","ping":74},{"user_id":75,"name":"East","steam_id":76561197973050453,"connected_time":1160000000000,"state":"active","ping":81},{"user_id":76,"name":"[TSG] Turner's Chocolate Milk","steam_id":76561198058963288,"connected_time":1159000000000,"state":"active","ping":66},{"user_id":83,"name":"Undertime Slopper","steam_id":76561198396789061,"connected_time":926000000000,"state":"active","ping":69},{"user_id":63,"name":"Big Yoshi","steam_id":76561199160576376,"connected_time":2248000000000,"state":"active","ping":119},{"user_id":90,"name":"loot","steam_id":76561198069954956,"connected_time":345000000000,"state":"active","ping":63},{"user_id":61,"name":"Maverick","steam_id":76561198322829814,"connected_time":2418000000000,"state":"active","ping":82},{"user_id":47,"name":"Fiendish Frog","steam_id":76561198029478821,"connected_time":3046000000000,"state":"active","ping":74},{"user_id":65,"name":"JohnPlumber88","steam_id":76561198170203473,"connected_time":1909000000000,"state":"active","ping":69},{"user_id":58,"name":"Zamich","steam_id":76561198170659337,"connected_time":2545000000000,"state":"active","ping":67},{"user_id":70,"name":"e doctor","steam_id":76561198081851446,"connected_time":1567000000000,"state":"active","ping":52},{"user_id":78,"name":"Acro","steam_id":76561198092451804,"connected_time":1102000000000,"state":"active","ping":71},{"user_id":79,"name":"lavaelephant8","steam_id":76561199484935970,"connected_time":1072000000000,"state":"active","ping":101},{"user_id":92,"name":"Ripheart","steam_id":76561198089661561,"connected_time":335000000000,"state":"active","ping":45},{"user_id":49,"name":"Generic Gibus Sniper","steam_id":76561199186496740,"connected_time":3041000000000,"state":"active","ping":84},{"user_id":82,"name":"BigNugs","steam_id":76561198056402610,"connected_time":985000000000,"state":"active","ping":71}]},{"server_id":106,"name":"Uncletopia | Chicago | 2 | All Maps","name_short":"chi-2","host":"chi-1.us.uncletopia.com","port":27025,"enabled":true,"region":"us-central","cc":"us","latitude":41.881832,"longitude":-87.62318,"reserved":0,"last_update":"0001-01-01T00:00:00Z","name_a2s":"Uncletopia | Chicago | 2 | All Maps","protocol":17,"map":"pl_frontier_final","folder":"tf","game":"Team Fortress","app_id":440,"player_count":24,"max_players":24,"Bots":0,"server_type":"Dedicated","server_os":"Linux","password":true,"vac":true,"version":"7961495","steam_id":85568392924469985,"keywords":["nocrits","nodmgspread","payload","uncletopia"],"game_id":440,"stv_port":27026,"stv_name":"Uncletopia | Chicago | 2 | All Maps | STV","players":[{"user_id":247,"name":"Drachma","steam_id":76561198007310514,"connected_time":2653000000000,"state":"active","ping":54},{"user_id":207,"name":"kermitcreeper(ZAZA)","steam_id":76561199222829972,"connected_time":6089000000000,"state":"active","ping":53},{"user_id":276,"name":"Man too drunk to die","steam_id":76561198951183714,"connected_time":262000000000,"state":"active","ping":172},{"user_id":254,"name":"Technomancer","steam_id":76561198137758683,"connected_time":1967000000000,"state":"active","ping":88},{"user_id":242,"name":"Acehay14","steam_id":76561198052373291,"connected_time":3238000000000,"state":"active","ping":60},{"user_id":248,"name":"*CRASH*","steam_id":76561197975856463,"connected_time":2054000000000,"state":"active","ping":99},{"user_id":230,"name":"ADHD Perseveration","steam_id":76561198069735882,"connected_time":4445000000000,"state":"active","ping":72},{"user_id":273,"name":"Aimless S. (Caberace \u003e:3ing)","steam_id":76561198058382041,"connected_time":564000000000,"state":"active","ping":85},{"user_id":265,"name":"Cuttle's Fish","steam_id":76561198280483257,"connected_time":1315000000000,"state":"active","ping":58},{"user_id":210,"name":"The Holy Watermelon","steam_id":76561198092528592,"connected_time":5949000000000,"state":"active","ping":126},{"user_id":278,"name":"2 Laserdisc Copies of Toy Story","steam_id":76561198088859649,"connected_time":2000000000,"state":"spawning","ping":54},{"user_id":266,"name":"CeLeb144","steam_id":76561199089907740,"connected_time":1052000000000,"state":"active","ping":76},{"user_id":267,"name":"Love","steam_id":76561199173445015,"connected_time":740000000000,"state":"active","ping":57},{"user_id":238,"name":"0100101101100001011100100110110","steam_id":76561198034028769,"connected_time":3459000000000,"state":"active","ping":64},{"user_id":195,"name":"hi","steam_id":76561198809577048,"connected_time":7254000000000,"state":"active","ping":100},{"user_id":215,"name":"SirGrey1999","steam_id":76561198957120302,"connected_time":5811000000000,"state":"active","ping":66},{"user_id":234,"name":"FamilyMan.Tech()","steam_id":76561198023126781,"connected_time":3661000000000,"state":"active","ping":75},{"user_id":249,"name":"AMU","steam_id":76561198092346231,"connected_time":2052000000000,"state":"active","ping":67},{"user_id":261,"name":"chaffy","steam_id":76561198021754567,"connected_time":1796000000000,"state":"active","ping":55},{"user_id":274,"name":"CyberZayne","steam_id":76561198002351356,"connected_time":506000000000,"state":"active","ping":80},{"user_id":260,"name":"Sergeant Snowflake","steam_id":76561198041474489,"connected_time":1839000000000,"state":"active","ping":56},{"user_id":269,"name":"yum.","steam_id":76561198343145607,"connected_time":596000000000,"state":"active","ping":61},{"user_id":271,"name":"Bon Gripper","steam_id":76561198090074621,"connected_time":577000000000,"state":"active","ping":40},{"user_id":275,"name":"peppion spaghet","steam_id":76561199220539460,"connected_time":506000000000,"state":"active","ping":69}]},{"server_id":402,"name":"Uncletopia | Chicago | 3 | All Maps","name_short":"chi-3","host":"chi-1.us.uncletopia.com","port":27035,"enabled":true,"region":"us-central","cc":"us","latitude":41.881832,"longitude":-87.62318,"reserved":0,"last_update":"0001-01-01T00:00:00Z","name_a2s":"Uncletopia | Chicago | 3 | All Maps","protocol":17,"map":"pl_swiftwater_final1","folder":"tf","game":"Team Fortress","app_id":440,"player_count":4,"max_players":24,"Bots":0,"server_type":"Dedicated","server_os":"Linux","password":true,"vac":true,"version":"7961495","steam_id":85568392924515191,"keywords":["nocrits","nodmgspread","payload","uncletopia"],"game_id":440,"stv_port":27036,"stv_name":"Uncletopia | Chicago | 3 | All Maps | STV","players":[{"user_id":7,"name":"bucket","steam_id":76561199190895691,"connected_time":706000000000,"state":"active","ping":186},{"user_id":8,"name":"SessuruEli","steam_id":76561199180097975,"connected_time":513000000000,"state":"active","ping":91},{"user_id":9,"name":"raspy","steam_id":76561198027298961,"connected_time":391000000000,"state":"active","ping":45},{"user_id":10,"name":"BiggsyBoy","steam_id":76561198119656147,"connected_time":285000000000,"state":"active","ping":58}]},{"server_id":403,"name":"Uncletopia | Chicago | 4 | All Maps","name_short":"chi-4","host":"chi-1.us.uncletopia.com","port":27045,"enabled":true,"region":"us-central","cc":"us","latitude":41.881832,"longitude":-87.62318,"reserved":0,"last_update":"0001-01-01T00:00:00Z","name_a2s":"Uncletopia | Chicago | 4 | All Maps","protocol":17,"map":"koth_cascade","folder":"tf","game":"Team Fortress","app_id":440,"player_count":24,"max_players":24,"Bots":0,"server_type":"Dedicated","server_os":"Linux","password":true,"vac":true,"version":"7961495","steam_id":85568392924515193,"keywords":["cp","nocrits","nodmgspread","uncletopia"],"game_id":440,"stv_port":27046,"stv_name":"Uncletopia | Chicago | 4 | All Maps | STV","players":[{"user_id":159,"name":"FlamingManiac","steam_id":76561198361996837,"connected_time":1357000000000,"state":"active","ping":79},{"user_id":174,"name":"comfy and cozy","steam_id":76561198860068961,"connected_time":1036000000000,"state":"active","ping":62},{"user_id":160,"name":"Aeonspassed","steam_id":76561198014016451,"connected_time":1356000000000,"state":"active","ping":59},{"user_id":203,"name":"Inked‚ô°","steam_id":76561198044040456,"connected_time":510000000000,"state":"active","ping":71},{"user_id":207,"name":"glitch","steam_id":76561197979495589,"connected_time":150000000000,"state":"active","ping":71},{"user_id":179,"name":"Petrivus","steam_id":76561198202152453,"connected_time":901000000000,"state":"active","ping":103},{"user_id":201,"name":"Jericho von Generico","steam_id":76561198206139559,"connected_time":529000000000,"state":"active","ping":77},{"user_id":205,"name":"keffers","steam_id":76561198202338796,"connected_time":374000000000,"state":"active","ping":72},{"user_id":206,"name":"gnome chompski (real)","steam_id":76561198150327877,"connected_time":338000000000,"state":"active","ping":59},{"user_id":164,"name":"Shady Businessman","steam_id":76561198143855968,"connected_time":1261000000000,"state":"active","ping":91},{"user_id":210,"name":"Gary Budussy","steam_id":76561197969793969,"connected_time":66000000000,"state":"active","ping":81},{"user_id":200,"name":"JSlayz","steam_id":76561198853768655,"connected_time":544000000000,"state":"active","ping":46},{"user_id":165,"name":"Always Here for You","steam_id":76561198219252313,"connected_time":1261000000000,"state":"active","ping":58},{"user_id":208,"name":"gale","steam_id":76561198250068972,"connected_time":130000000000,"state":"active","ping":99},{"user_id":202,"name":"berserker_tf2 yt","steam_id":76561198303464488,"connected_time":525000000000,"state":"active","ping":61},{"user_id":131,"name":"pea ttv/peabeanz","steam_id":76561198119551968,"connected_time":3973000000000,"state":"active","ping":71},{"user_id":133,"name":"Gibs Degrossi","steam_id":76561198066152609,"connected_time":3667000000000,"state":"active","ping":53},{"user_id":158,"name":"ameritech","steam_id":76561198064769089,"connected_time":1368000000000,"state":"active","ping":57},{"user_id":209,"name":"Hadvar","steam_id":76561198081681234,"connected_time":106000000000,"state":"active","ping":57},{"user_id":172,"name":"Prsm","steam_id":76561198053344995,"connected_time":1182000000000,"state":"active","ping":57},{"user_id":153,"name":"HaphazardHazel","steam_id":76561198316812693,"connected_time":2054000000000,"state":"active","ping":90},{"user_id":120,"name":"test gamer please ignore","steam_id":76561198007464245,"connected_time":4614000000000,"state":"active","ping":76},{"user_id":155,"name":"Grilled Jizo","steam_id":76561199250875340,"connected_time":1966000000000,"state":"active","ping":75},{"user_id":171,"name":"fluffytail309","steam_id":76561199491688974,"connected_time":1203000000000,"state":"active","ping":57}]},{"server_id":36,"name":"Uncletopia | Chicago | 5 | All Maps","name_short":"chi-5","host":"chi-2.us.uncletopia.com","port":27015,"enabled":true,"region":"us-central","cc":"us","latitude":41.881832,"longitude":-87.62318,"reserved":0,"last_update":"0001-01-01T00:00:00Z","name_a2s":"Uncletopia | Chicago | 5 | All Maps","protocol":17,"map":"cp_mountainlab","folder":"tf","game":"Team Fortress","app_id":440,"player_count":0,"max_players":24,"Bots":0,"server_type":"Dedicated","server_os":"Linux","password":true,"vac":true,"version":"7961495","steam_id":85568392924866362,"keywords":["cp","nocrits","nodmgspread","uncletopia"],"game_id":440,"stv_port":27016,"stv_name":"Uncletopia | Chicago | 5 | All Maps | STV","players":null},{"server_id":37,"name":"Uncletopia | Chicago | 6 | All Maps","name_short":"chi-6","host":"chi-2.us.uncletopia.com","port":27025,"enabled":true,"region":"us-central","cc":"us","latitude":41.881832,"longitude":-87.62318,"reserved":0,"last_update":"0001-01-01T00:00:00Z","name_a2s":"Uncletopia | Chicago | 6 | All Maps","protocol":17,"map":"pl_borneo","folder":"tf","game":"Team Fortress","app_id":440,"player_count":0,"max_players":24,"Bots":0,"server_type":"Dedicated","server_os":"Linux","password":true,"vac":true,"version":"7961495","steam_id":85568392924866363,"keywords":["nocrits","nodmgspread","payload","uncletopia"],"game_id":440,"stv_port":27026,"stv_name":"Uncletopia | Chicago | 6 | All Maps | STV","players":null},{"server_id":38,"name":"Uncletopia | Chicago | 7 | Stopwatch Beta","name_short":"chi-7","host":"chi-2.us.uncletopia.com","port":27035,"enabled":true,"region":"us-central","cc":"us","latitude":41.881832,"longitude":-87.62318,"reserved":0,"last_update":"0001-01-01T00:00:00Z","name_a2s":"Uncletopia | Chicago | 7 | Stopwatch Beta","protocol":17,"map":"pl_badwater","folder":"tf","game":"Team Fortress","app_id":440,"player_count":0,"max_players":24,"Bots":0,"server_type":"Dedicated","server_os":"Linux","password":true,"vac":true,"version":"7961495","steam_id":85568392924866364,"keywords":["nocrits","nodmgspread","payload","uncletopia"],"game_id":440,"stv_port":27036,"stv_name":"Uncletopia | Chicago | 7 | Stopwatch Beta | STV","players":null},{"server_id":39,"name":"Uncletopia | Chicago | 8 | Community","name_short":"chi-8","host":"chi-2.us.uncletopia.com","port":27045,"enabled":true,"region":"us-central","cc":"us","latitude":41.881832,"longitude":-87.62318,"reserved":0,"last_update":"0001-01-01T00:00:00Z","name_a2s":"Uncletopia | Chicago | 8 | Community","protocol":17,"map":"koth_cascade","folder":"tf","game":"Team Fortress","app_id":440,"player_count":0,"max_players":24,"Bots":0,"server_type":"Dedicated","server_os":"Linux","password":true,"vac":true,"version":"7961495","steam_id":85568392924866365,"keywords":["cp","nocrits","nodmgspread","uncletopia"],"game_id":440,"stv_port":27046,"stv_name":"Uncletopia | Chicago | 8 | Community | STV","players":null},{"server_id":8,"name":"Uncletopia | Dallas | 1 | All Maps","name_short":"dal-1","host":"dal-1.us.uncletopia.com","port":27015,"enabled":true,"region":"us-central","cc":"us","latitude":32.779167,"longitude":-96.80889,"reserved":0,"last_update":"0001-01-01T00:00:00Z","name_a2s":"Uncletopia | Dallas | 1 | All Maps","protocol":17,"map":"pl_upward","folder":"tf","game":"Team Fortress","app_id":440,"player_count":0,"max_players":24,"Bots":0,"server_type":"Dedicated","server_os":"Linux","password":true,"vac":true,"version":"7961495","steam_id":85568392924469986,"keywords":["nocrits","nodmgspread","payload","uncletopia"],"game_id":440,"stv_port":27016,"stv_name":"Uncletopia | Dallas | 1 | All Maps | STV","players":null},{"server_id":108,"name":"Uncletopia | Dallas | 2 | All Maps","name_short":"dal-2","host":"dal-1.us.uncletopia.com","port":27025,"enabled":true,"region":"us-central","cc":"us","latitude":32.779167,"longitude":-96.80889,"reserved":0,"last_update":"0001-01-01T00:00:00Z","name_a2s":"Uncletopia | Dallas | 2 | All Maps","protocol":17,"map":"koth_highpass","folder":"tf","game":"Team Fortress","app_id":440,"player_count":0,"max_players":24,"Bots":0,"server_type":"Dedicated","server_os":"Linux","password":true,"vac":true,"version":"7961495","steam_id":85568392924469988,"keywords":["cp","nocrits","nodmgspread","uncletopia"],"game_id":440,"stv_port":27026,"stv_name":"Uncletopia | Dallas | 2 | All Maps | STV","players":null},{"server_id":404,"name":"Uncletopia | Dallas | 3 | All Maps","name_short":"dal-3","host":"dal-1.us.uncletopia.com","port":27035,"enabled":true,"region":"us-central","cc":"us","latitude":32.779167,"longitude":-96.80889,"reserved":0,"last_update":"0001-01-01T00:00:00Z","name_a2s":"Uncletopia | Dallas | 3 | All Maps","protocol":17,"map":"cp_sunshine","folder":"tf","game":"Team Fortress","app_id":440,"player_count":0,"max_players":24,"Bots":0,"server_type":"Dedicated","server_os":"Linux","password":true,"vac":true,"version":"7961495","steam_id":85568392924515219,"keywords":["cp","nocrits","nodmgspread","uncletopia"],"game_id":440,"stv_port":27036,"stv_name":"Uncletopia | Dallas | 3 | All Maps | STV","players":null},{"server_id":405,"name":"Uncletopia | Dallas | 4 | Community","name_short":"dal-4","host":"dal-1.us.uncletopia.com","port":27045,"enabled":true,"region":"us-central","cc":"us","latitude":32.779167,"longitude":-96.80889,"reserved":0,"last_update":"0001-01-01T00:00:00Z","name_a2s":"Uncletopia | Dallas | 4 | Community","protocol":17,"map":"workshop/pl_highwood_b13.ugc1769496557","folder":"tf","game":"Team Fortress","app_id":440,"player_count":0,"max_players":24,"Bots":0,"server_type":"Dedicated","server_os":"Linux","password":true,"vac":true,"version":"7961495","steam_id":85568392924515220,"keywords":["nocrits","nodmgspread","payload","uncletopia"],"game_id":440,"stv_port":27046,"stv_name":"Uncletopia | Dallas | 4 | Community | STV","players":null},{"server_id":5,"name":"Uncletopia | Frankfurt | 1 | All Maps","name_short":"frk-1","host":"frk-1.de.uncletopia.com","port":27015,"enabled":true,"region":"eu","cc":"de","latitude":50.110924,"longitude":8.682127,"reserved":0,"last_update":"0001-01-01T00:00:00Z","name_a2s":"Uncletopia | Frankfurt | 1 | All Maps","protocol":17,"map":"pl_barnblitz","folder":"tf","game":"Team Fortress","app_id":440,"player_count":23,"max_players":24,"Bots":0,"server_type":"Dedicated","server_os":"Linux","password":true,"vac":true,"version":"7961495","steam_id":85568392924469989,"keywords":["nocrits","nodmgspread","payload","uncletopia"],"game_id":440,"stv_port":27016,"stv_name":"Uncletopia | Frankfurt | 1 | All Maps | STV","players":[{"user_id":309,"name":":pleading_face:","steam_id":76561198311044984,"connected_time":1582000000000,"state":"active","ping":68},{"user_id":315,"name":"EagleDeath","steam_id":76561198282441198,"connected_time":1234000000000,"state":"active","ping":69},{"user_id":331,"name":"goga","steam_id":76561198280507478,"connected_time":335000000000,"state":"active","ping":57},{"user_id":276,"name":"Optimist 50","steam_id":76561198039631442,"connected_time":3552000000000,"state":"active","ping":90},{"user_id":308,"name":"cpfitz","steam_id":76561198123461515,"connected_time":1624000000000,"state":"active","ping":81},{"user_id":323,"name":"LivEssense","steam_id":76561198052476979,"connected_time":767000000000,"state":"active","ping":105},{"user_id":335,"name":"FranticLamp","steam_id":76561198339698995,"connected_time":13000000000,"state":"active","ping":70},{"user_id":325,"name":"Jinx","steam_id":76561197976310154,"connected_time":449000000000,"state":"active","ping":86},{"user_id":256,"name":"kat","steam_id":76561198879664338,"connected_time":5364000000000,"state":"active","ping":60},{"user_id":316,"name":"emti","steam_id":76561198836233001,"connected_time":1216000000000,"state":"active","ping":71},{"user_id":324,"name":"TheLawYGO","steam_id":76561198024347260,"connected_time":708000000000,"state":"active","ping":147},{"user_id":328,"name":"YuraGreek","steam_id":76561198050182252,"connected_time":340000000000,"state":"active","ping":105},{"user_id":329,"name":"Kamanie","steam_id":76561198135448255,"connected_time":338000000000,"state":"active","ping":60},{"user_id":251,"name":"‚ôÇ Animan ‚ôÇ Studios ‚ôÇ","steam_id":76561198308302932,"connected_time":5521000000000,"state":"active","ping":98},{"user_id":317,"name":"HelwiiHill","steam_id":76561198066730552,"connected_time":1202000000000,"state":"active","ping":78},{"user_id":307,"name":"katten","steam_id":76561198163615254,"connected_time":1832000000000,"state":"active","ping":59},{"user_id":318,"name":"Jughead","steam_id":76561198000355410,"connected_time":1184000000000,"state":"active","ping":59},{"user_id":312,"name":"shy","steam_id":76561198127721841,"connected_time":1254000000000,"state":"active","ping":60},{"user_id":322,"name":"MoistMomMauler","steam_id":76561198069359049,"connected_time":833000000000,"state":"active","ping":84},{"user_id":330,"name":"Ozzie","steam_id":76561197992915315,"connected_time":336000000000,"state":"active","ping":75},{"user_id":313,"name":"bl√•haj","steam_id":76561198094268619,"connected_time":1252000000000,"state":"active","ping":59},{"user_id":305,"name":"Grym","steam_id":76561198119397460,"connected_time":1981000000000,"state":"active","ping":69},{"user_id":332,"name":"Mr.O #deletesniper","steam_id":76561198039567498,"connected_time":321000000000,"state":"active","ping":92}]},{"server_id":110,"name":"Uncletopia | Frankfurt | 2 | All Maps","name_short":"frk-2","host":"frk-1.de.uncletopia.com","port":27025,"enabled":true,"region":"eu","cc":"de","latitude":50.110924,"longitude":8.682127,"reserved":0,"last_update":"0001-01-01T00:00:00Z","name_a2s":"Uncletopia | Frankfurt | 2 | All Maps","protocol":17,"map":"pl_barnblitz","folder":"tf","game":"Team Fortress","app_id":440,"player_count":24,"max_players":24,"Bots":0,"server_type":"Dedicated","server_os":"Linux","password":true,"vac":true,"version":"7961495","steam_id":85568392924469990,"keywords":["nocrits","nodmgspread","payload","uncletopia"],"game_id":440,"stv_port":27026,"stv_name":"Uncletopia | Frankfurt | 2 | All Maps | STV","players":[{"user_id":546,"name":"I_Forgot_My_Name","steam_id":76561198173424578,"connected_time":904000000000,"state":"active","ping":69},{"user_id":554,"name":"AWP Bodyshot :) ‚ù§","steam_id":76561198029928533,"connected_time":416000000000,"state":"active","ping":45},{"user_id":555,"name":"EinManuel","steam_id":76561198354983840,"connected_time":411000000000,"state":"active","ping":56},{"user_id":564,"name":"Diggity","steam_id":76561198297157085,"connected_time":222000000000,"state":"active","ping":56},{"user_id":556,"name":"Accident","steam_id":76561198115160396,"connected_time":404000000000,"state":"active","ping":71},{"user_id":552,"name":"Keijo","steam_id":76561198010255870,"connected_time":700000000000,"state":"active","ping":89},{"user_id":511,"name":"Bounty_","steam_id":76561199060704870,"connected_time":3997000000000,"state":"active","ping":85},{"user_id":541,"name":"Trevis","steam_id":76561198114516101,"connected_time":1262000000000,"state":"active","ping":69},{"user_id":562,"name":"KNARRER","steam_id":76561199130777953,"connected_time":282000000000,"state":"active","ping":56},{"user_id":557,"name":"Zaka","steam_id":76561198148434957,"connected_time":403000000000,"state":"active","ping":95},{"user_id":553,"name":"Ziemniaczki","steam_id":76561198061866742,"connected_time":424000000000,"state":"active","ping":69},{"user_id":563,"name":"BPw","steam_id":76561198823397478,"connected_time":268000000000,"state":"active","ping":89},{"user_id":565,"name":"Cat Ara","steam_id":76561198081014607,"connected_time":115000000000,"state":"active","ping":85},{"user_id":515,"name":"Toxic_Cicity","steam_id":76561198165753440,"connected_time":3632000000000,"state":"active","ping":104},{"user_id":567,"name":"Szeregowy LowiRyb","steam_id":76561198855967762,"connected_time":20000000000,"state":"active","ping":129},{"user_id":559,"name":"Fizz","steam_id":76561197994814990,"connected_time":380000000000,"state":"active","ping":73},{"user_id":535,"name":"S√§yu","steam_id":76561199275368237,"connected_time":1875000000000,"state":"active","ping":77},{"user_id":547,"name":"KajaStorm","steam_id":76561199215842872,"connected_time":900000000000,"state":"active","ping":140},{"user_id":543,"name":"fernandobmwm355555","steam_id":76561198086609447,"connected_time":1253000000000,"state":"active","ping":60},{"user_id":492,"name":"hasansaeedifar","steam_id":76561198974563618,"connected_time":5163000000000,"state":"active","ping":166},{"user_id":548,"name":"Testicular torsion","steam_id":76561198119547399,"connected_time":898000000000,"state":"active","ping":48},{"user_id":519,"name":"mixxxa_french","steam_id":76561198085098243,"connected_time":3545000000000,"state":"active","ping":114},{"user_id":544,"name":"Lilliputt","steam_id":76561198090146457,"connected_time":1245000000000,"state":"active","ping":56},{"user_id":560,"name":"ichi üå∏","steam_id":76561198049253962,"connected_time":379000000000,"state":"active","ping":60}]},{"server_id":308,"name":"Uncletopia | Frankfurt | 3 | All Maps","name_short":"frk-3","host":"frk-1.de.uncletopia.com","port":27035,"enabled":true,"region":"eu","cc":"de","latitude":50.110924,"longitude":8.682127,"reserved":0,"last_update":"0001-01-01T00:00:00Z","name_a2s":"Uncletopia | Frankfurt | 3 | All Maps","protocol":17,"map":"pl_borneo","folder":"tf","game":"Team Fortress","app_id":440,"player_count":24,"max_players":24,"Bots":0,"server_type":"Dedicated","server_os":"Linux","password":true,"vac":true,"version":"7961495","steam_id":85568392924504274,"keywords":["nocrits","nodmgspread","payload","uncletopia"],"game_id":440,"stv_port":27036,"stv_name":"Uncletopia | Frankfurt | 3 | All Maps | STV","players":[{"user_id":168,"name":"m909","steam_id":76561198279621400,"connected_time":300000000000,"state":"active","ping":83},{"user_id":175,"name":"mark","steam_id":76561198309246388,"connected_time":134000000000,"state":"active","ping":45},{"user_id":118,"name":"soupalognionycrouton","steam_id":76561199021878433,"connected_time":3372000000000,"state":"active","ping":85},{"user_id":170,"name":"Strix","steam_id":76561198015322735,"connected_time":198000000000,"state":"active","ping":73},{"user_id":107,"name":"Zizman","steam_id":76561198446562910,"connected_time":4360000000000,"state":"active","ping":140},{"user_id":161,"name":"Basil","steam_id":76561198046832312,"connected_time":1027000000000,"state":"active","ping":83},{"user_id":135,"name":"BELADIT","steam_id":76561198011911501,"connected_time":2551000000000,"state":"active","ping":72},{"user_id":132,"name":"Soulman25 (FIN)","steam_id":76561198103611974,"connected_time":2572000000000,"state":"active","ping":99},{"user_id":78,"name":"FNF","steam_id":76561199151422826,"connected_time":6473000000000,"state":"active","ping":113},{"user_id":171,"name":"Not Merasmus","steam_id":76561198070137469,"connected_time":188000000000,"state":"active","ping":90},{"user_id":166,"name":"Castellan","steam_id":76561197994861142,"connected_time":393000000000,"state":"active","ping":58},{"user_id":138,"name":"First_Legion","steam_id":76561198056848127,"connected_time":2458000000000,"state":"active","ping":111},{"user_id":148,"name":"Mangal_","steam_id":76561198076089589,"connected_time":2312000000000,"state":"active","ping":92},{"user_id":159,"name":"Brave","steam_id":76561198081721841,"connected_time":1245000000000,"state":"active","ping":101},{"user_id":155,"name":"CEO of Racism","steam_id":76561198042317958,"connected_time":1638000000000,"state":"active","ping":55},{"user_id":153,"name":"huutti","steam_id":76561198138304806,"connected_time":2130000000000,"state":"active","ping":85},{"user_id":113,"name":"PlebCord","steam_id":76561198120685803,"connected_time":3654000000000,"state":"active","ping":80},{"user_id":158,"name":"Mr. Mundy","steam_id":76561198132008918,"connected_time":1385000000000,"state":"active","ping":74},{"user_id":172,"name":"etc","steam_id":76561197998394797,"connected_time":184000000000,"state":"active","ping":49},{"user_id":173,"name":"Havelyn","steam_id":76561198036159862,"connected_time":183000000000,"state":"active","ping":141},{"user_id":174,"name":"Mika","steam_id":76561199183780280,"connected_time":171000000000,"state":"active","ping":80},{"user_id":176,"name":"collin","steam_id":76561198067030681,"connected_time":114000000000,"state":"active","ping":63},{"user_id":165,"name":"FUKAYU","steam_id":76561198380484033,"connected_time":539000000000,"state":"active","ping":55},{"user_id":150,"name":"Owlet","steam_id":76561198065613974,"connected_time":2295000000000,"state":"active","ping":74}]},{"server_id":309,"name":"Uncletopia | Frankfurt | 4 | All Maps","name_short":"frk-4","host":"frk-1.de.uncletopia.com","port":27045,"enabled":true,"region":"eu","cc":"de","latitude":50.110924,"longitude":8.682127,"reserved":0,"last_update":"0001-01-01T00:00:00Z","name_a2s":"Uncletopia | Frankfurt | 4 | All Maps","protocol":17,"map":"pl_badwater","folder":"tf","game":"Team Fortress","app_id":440,"player_count":24,"max_players":24,"Bots":0,"server_type":"Dedicated","server_os":"Linux","password":true,"vac":true,"version":"7961495","steam_id":85568392924504275,"keywords":["nocrits","nodmgspread","payload","uncletopia"],"game_id":440,"stv_port":27046,"stv_name":"Uncletopia | Frankfurt | 4 | All Maps | STV","players":[{"user_id":449,"name":"Lartsa","steam_id":76561198275690230,"connected_time":3805000000000,"state":"active","ping":105},{"user_id":439,"name":"nevim","steam_id":76561199120843402,"connected_time":4139000000000,"state":"active","ping":56},{"user_id":487,"name":"MemeLord","steam_id":76561198135115524,"connected_time":696000000000,"state":"active","ping":62},{"user_id":464,"name":"GoatLord1","steam_id":76561198157964544,"connected_time":1838000000000,"state":"active","ping":63},{"user_id":486,"name":"Is actually pikachu","steam_id":76561198097350291,"connected_time":783000000000,"state":"active","ping":71},{"user_id":472,"name":"The Big Bean","steam_id":76561198267696666,"connected_time":1382000000000,"state":"active","ping":45},{"user_id":258,"name":"After8","steam_id":76561198090750865,"connected_time":13120000000000,"state":"active","ping":63},{"user_id":489,"name":"Flyzz","steam_id":76561198286328599,"connected_time":125000000000,"state":"active","ping":69},{"user_id":428,"name":"overpriced pitogyro","steam_id":76561199103991437,"connected_time":5156000000000,"state":"active","ping":92},{"user_id":450,"name":"Finkaksu","steam_id":76561198201389163,"connected_time":3659000000000,"state":"active","ping":69},{"user_id":490,"name":"elmstJP ‚Ç™ F4.exe","steam_id":76561197997909480,"connected_time":81000000000,"state":"active","ping":75},{"user_id":451,"name":"Manaatti","steam_id":76561198326261151,"connected_time":3651000000000,"state":"active","ping":83},{"user_id":317,"name":"Vratis","steam_id":76561198062957725,"connected_time":9568000000000,"state":"active","ping":67},{"user_id":362,"name":"sareena","steam_id":76561198810194062,"connected_time":7209000000000,"state":"active","ping":75},{"user_id":471,"name":"Lucky_Pierre","steam_id":76561197965662752,"connected_time":1427000000000,"state":"active","ping":59},{"user_id":475,"name":"Mr.Schnittlauch","steam_id":76561198295868113,"connected_time":1344000000000,"state":"active","ping":58},{"user_id":469,"name":"Zeitung-GER","steam_id":76561198049095266,"connected_time":1452000000000,"state":"active","ping":60},{"user_id":491,"name":"Nipa5000","steam_id":76561199027332005,"connected_time":64000000000,"state":"active","ping":82},{"user_id":492,"name":"Revenge of the Jews in 3D","steam_id":76561199381623663,"connected_time":59000000000,"state":"active","ping":97},{"user_id":390,"name":"Sneaky boi","steam_id":76561199195985387,"connected_time":6576000000000,"state":"active","ping":68},{"user_id":482,"name":"The Manager of Sex","steam_id":76561198385989487,"connected_time":1111000000000,"state":"active","ping":110},{"user_id":478,"name":"Sebiromanes (Spookm√°ster)","steam_id":76561198112800408,"connected_time":1302000000000,"state":"active","ping":127},{"user_id":466,"name":"Masa","steam_id":76561198343396172,"connected_time":1780000000000,"state":"active","ping":93},{"user_id":493,"name":"Josh","steam_id":76561198274546904,"connected_time":49000000000,"state":"active","ping":145}]},{"server_id":310,"name":"Uncletopia | Frankfurt | 5 | All Maps","name_short":"frk-5","host":"frk-1.de.uncletopia.com","port":27055,"enabled":true,"region":"eu","cc":"de","latitude":50.110924,"longitude":8.682127,"reserved":0,"last_update":"0001-01-01T00:00:00Z","name_a2s":"Uncletopia | Frankfurt | 5 | All Maps","protocol":17,"map":"pl_upward","folder":"tf","game":"Team Fortress","app_id":440,"player_count":24,"max_players":24,"Bots":0,"server_type":"Dedicated","server_os":"Linux","password":true,"vac":true,"version":"7961495","steam_id":85568392924504277,"keywords":["nocrits","nodmgspread","payload","uncletopia"],"game_id":440,"stv_port":27056,"stv_name":"Uncletopia | Frankfurt | 5 | All Maps | STV","players":[{"user_id":190,"name":"Dakeyras","steam_id":76561198057069564,"connected_time":585000000000,"state":"active","ping":103},{"user_id":188,"name":"Covetousix","steam_id":76561198293936824,"connected_time":1221000000000,"state":"active","ping":74},{"user_id":193,"name":"slug","steam_id":76561198065902089,"connected_time":433000000000,"state":"active","ping":62},{"user_id":173,"name":"Ziemniaczki z koperkiem","steam_id":76561198829123464,"connected_time":2702000000000,"state":"active","ping":70},{"user_id":181,"name":"I.AM.THE.BOOP.WHICH.IS.APROACHI","steam_id":76561198049342507,"connected_time":2022000000000,"state":"active","ping":84},{"user_id":96,"name":"Arnas445","steam_id":76561198148377210,"connected_time":7100000000000,"state":"active","ping":75},{"user_id":175,"name":"TheEventGuy","steam_id":76561197972797744,"connected_time":2513000000000,"state":"active","ping":62},{"user_id":180,"name":"H2n9","steam_id":76561198055811259,"connected_time":2050000000000,"state":"active","ping":67},{"user_id":119,"name":"yush","steam_id":76561198121688934,"connected_time":5550000000000,"state":"active","ping":70},{"user_id":191,"name":"Vectillion","steam_id":76561198074292454,"connected_time":507000000000,"state":"active","ping":92},{"user_id":196,"name":"Archive","steam_id":76561198071255385,"connected_time":301000000000,"state":"active","ping":98},{"user_id":195,"name":"Watermelon","steam_id":76561198078349914,"connected_time":417000000000,"state":"active","ping":65},{"user_id":177,"name":"Dandroid7","steam_id":76561198947673092,"connected_time":2239000000000,"state":"active","ping":57},{"user_id":200,"name":"i have no ass but i must shit","steam_id":76561198326382938,"connected_time":96000000000,"state":"active","ping":62},{"user_id":187,"name":"Urfangonultasadana","steam_id":76561199389286151,"connected_time":1679000000000,"state":"active","ping":98},{"user_id":182,"name":"chair 2.0","steam_id":76561199233470150,"connected_time":2021000000000,"state":"active","ping":60},{"user_id":147,"name":"behind you","steam_id":76561198263233108,"connected_time":4705000000000,"state":"active","ping":98},{"user_id":183,"name":"dylu","steam_id":76561199127788008,"connected_time":1995000000000,"state":"active","ping":69},{"user_id":189,"name":"Flared","steam_id":76561198018673136,"connected_time":1107000000000,"state":"active","ping":72},{"user_id":204,"name":"LemonLeCitron","steam_id":76561198215545267,"connected_time":12000000000,"state":"spawning","ping":82},{"user_id":185,"name":"d u k k i","steam_id":76561198071807437,"connected_time":1943000000000,"state":"active","ping":81},{"user_id":192,"name":"turtle","steam_id":76561198049049329,"connected_time":488000000000,"state":"active","ping":114},{"user_id":203,"name":"Krabs","steam_id":76561198161679477,"connected_time":45000000000,"state":"active","ping":60},{"user_id":199,"name":"Cheese","steam_id":76561198146419076,"connected_time":237000000000,"state":"active","ping":67}]},{"server_id":311,"name":"Uncletopia | Frankfurt | 6 | All Maps","name_short":"frk-6","host":"frk-1.de.uncletopia.com","port":27065,"enabled":true,"region":"eu","cc":"de","latitude":50.110924,"longitude":8.682127,"reserved":0,"last_update":"0001-01-01T00:00:00Z","name_a2s":"Uncletopia | Frankfurt | 6 | All Maps","protocol":17,"map":"pl_swiftwater_final1","folder":"tf","game":"Team Fortress","app_id":440,"player_count":23,"max_players":24,"Bots":0,"server_type":"Dedicated","server_os":"Linux","password":true,"vac":true,"version":"7961495","steam_id":85568392924504278,"keywords":["nocrits","nodmgspread","payload","uncletopia"],"game_id":440,"stv_port":27066,"stv_name":"Uncletopia | Frankfurt | 6 | All Maps | STV","players":[{"user_id":344,"name":"goblinninja110","steam_id":76561198269159354,"connected_time":2789000000000,"state":"active","ping":78},{"user_id":309,"name":"–î–∂–µ–∫–µ—Ç","steam_id":76561198327897125,"connected_time":5605000000000,"state":"active","ping":89},{"user_id":354,"name":"Barbatruc","steam_id":76561198119019916,"connected_time":1098000000000,"state":"active","ping":72},{"user_id":364,"name":"ZerCroix","steam_id":76561198199523226,"connected_time":873000000000,"state":"active","ping":55},{"user_id":353,"name":"bob.","steam_id":76561198209307295,"connected_time":1136000000000,"state":"active","ping":78},{"user_id":355,"name":"concussion gaming","steam_id":76561198425494530,"connected_time":1072000000000,"state":"active","ping":115},{"user_id":297,"name":"Xeno","steam_id":76561198975556646,"connected_time":6006000000000,"state":"active","ping":46},{"user_id":367,"name":"Erection Man","steam_id":76561198021714542,"connected_time":656000000000,"state":"active","ping":60},{"user_id":357,"name":"[SQ UA] MartianDill","steam_id":76561198405382822,"connected_time":1057000000000,"state":"active","ping":78},{"user_id":358,"name":"Burger ging","steam_id":76561198285999186,"connected_time":1045000000000,"state":"active","ping":94},{"user_id":377,"name":"Kocham Wode z Filtra","steam_id":76561198016042113,"connected_time":325000000000,"state":"active","ping":87},{"user_id":359,"name":"Nobody","steam_id":76561198151116796,"connected_time":1023000000000,"state":"active","ping":86},{"user_id":361,"name":"Berdly","steam_id":76561199029872533,"connected_time":967000000000,"state":"active","ping":63},{"user_id":326,"name":"aisu","steam_id":76561198043768507,"connected_time":3276000000000,"state":"active","ping":177},{"user_id":362,"name":"Pan Pan","steam_id":76561199074670515,"connected_time":938000000000,"state":"active","ping":92},{"user_id":375,"name":"Miss Bari (epik gamer)","steam_id":76561198365286092,"connected_time":359000000000,"state":"active","ping":59},{"user_id":376,"name":"Fran","steam_id":76561199070516960,"connected_time":339000000000,"state":"active","ping":64},{"user_id":365,"name":"Uncle Moomin","steam_id":76561198011628656,"connected_time":865000000000,"state":"active","ping":82},{"user_id":366,"name":"‚úôSt0rmC4st3r‚úô","steam_id":76561198079841728,"connected_time":836000000000,"state":"active","ping":82},{"user_id":369,"name":"ZodiacThundaga","steam_id":76561199025117814,"connected_time":607000000000,"state":"active","ping":156},{"user_id":374,"name":"Nanope","steam_id":76561198040056071,"connected_time":468000000000,"state":"active","ping":68},{"user_id":371,"name":"RatJam","steam_id":76561199030279432,"connected_time":596000000000,"state":"active","ping":69},{"user_id":372,"name":"gnarly business","steam_id":76561198832688767,"connected_time":547000000000,"state":"active","ping":55}]},{"server_id":23,"name":"Uncletopia | Frankfurt | 7 | Stopwatch Beta","name_short":"frk-7","host":"frk-1.de.uncletopia.com","port":27075,"enabled":true,"region":"eu","cc":"de","latitude":50.110924,"longitude":8.682127,"reserved":0,"last_update":"0001-01-01T00:00:00Z","name_a2s":"Uncletopia | Frankfurt | 7 | Stopwatch Beta","protocol":17,"map":"cp_process_final","folder":"tf","game":"Team Fortress","app_id":440,"player_count":2,"max_players":24,"Bots":0,"server_type":"Dedicated","server_os":"Linux","password":true,"vac":true,"version":"7961495","steam_id":85568392924742827,"keywords":["cp","nocrits","nodmgspread","uncletopia"],"game_id":440,"stv_port":27076,"stv_name":"Uncletopia | Frankfurt | 7 | Stopwatch Beta | STV","players":[{"user_id":10,"name":"ashi","steam_id":76561198424646794,"connected_time":1075000000000,"state":"active","ping":105},{"user_id":7,"name":"Mabert","steam_id":76561198436058407,"connected_time":1231000000000,"state":"active","ping":64}]},{"server_id":24,"name":"Uncletopia | Frankfurt | 8 | Community","name_short":"frk-8","host":"frk-1.de.uncletopia.com","port":27085,"enabled":true,"region":"eu","cc":"de","latitude":50.110924,"longitude":8.682127,"reserved":0,"last_update":"0001-01-01T00:00:00Z","name_a2s":"Uncletopia | Frankfurt | 8 | Community","protocol":17,"map":"workshop/koth_kemptown_rc1.ugc767410655","folder":"tf","game":"Team Fortress","app_id":440,"player_count":0,"max_players":24,"Bots":0,"server_type":"Dedicated","server_os":"Linux","password":true,"vac":true,"version":"7961495","steam_id":85568392924742828,"keywords":["cp","nocrits","nodmgspread","uncletopia"],"game_id":440,"stv_port":27086,"stv_name":"Uncletopia | Frankfurt | 8 | Community | STV","players":null},{"server_id":202,"name":"Uncletopia | Hong Kong | 1 | All Maps","name_short":"hgk-1","host":"hgk-1.hk.uncletopia.com","port":27015,"enabled":true,"region":"asia","cc":"hk","latitude":22.302711,"longitude":114.177216,"reserved":0,"last_update":"0001-01-01T00:00:00Z","name_a2s":"Uncletopia | Hong Kong | 1 | All Maps","protocol":17,"map":"ctf_doublecross","folder":"tf","game":"Team Fortress","app_id":440,"player_count":9,"max_players":24,"Bots":0,"server_type":"Dedicated","server_os":"Linux","password":true,"vac":true,"version":"7961495","steam_id":85568392924494504,"keywords":["ctf","nocrits","nodmgspread","uncletopia"],"game_id":440,"stv_port":27016,"stv_name":"Uncletopia | Hong Kong | 1 | All Maps | STV","players":[{"user_id":480,"name":"NOPE","steam_id":76561199244543572,"connected_time":2613000000000,"state":"active","ping":63},{"user_id":484,"name":"coolguy71","steam_id":76561198367056944,"connected_time":2383000000000,"state":"active","ping":90},{"user_id":448,"name":"Kurtie","steam_id":76561198144737876,"connected_time":6708000000000,"state":"active","ping":62},{"user_id":506,"name":"ÊØç„ÅÆËÇâÂõ£Â≠ê@hao123.com","steam_id":76561198069561896,"connected_time":45000000000,"state":"active","ping":44},{"user_id":493,"name":"infra","steam_id":76561198924576271,"connected_time":1693000000000,"state":"active","ping":88},{"user_id":479,"name":"Water Buffalo","steam_id":76561198200672038,"connected_time":2907000000000,"state":"active","ping":92},{"user_id":502,"name":"Pineapple_Main‚Ñ¢ / trade.tf","steam_id":76561199221463323,"connected_time":634000000000,"state":"active","ping":67},{"user_id":501,"name":"Pizza","steam_id":76561199052382462,"connected_time":712000000000,"state":"active","ping":98},{"user_id":475,"name":"Duck Gaming","steam_id":76561199233387593,"connected_time":3145000000000,"state":"active","ping":78}]},{"server_id":1,"name":"Uncletopia | Los Angeles | 1 | All Maps","name_short":"lax-1","host":"lax-1.us.uncletopia.com","port":27015,"enabled":true,"region":"us-west","cc":"us","latitude":33.94279,"longitude":-118.41004,"reserved":0,"last_update":"0001-01-01T00:00:00Z","name_a2s":"Uncletopia | Los Angeles | 1 | All Maps","protocol":17,"map":"pl_pier","folder":"tf","game":"Team Fortress","app_id":440,"player_count":24,"max_players":24,"Bots":0,"server_type":"Dedicated","server_os":"Linux","password":true,"vac":true,"version":"7961495","steam_id":85568392924469991,"keywords":["nocrits","nodmgspread","payload","uncletopia"],"game_id":440,"stv_port":27016,"stv_name":"Uncletopia | Los Angeles | 1 | All Maps | STV","players":[{"user_id":140,"name":"dillpickle","steam_id":76561198156957191,"connected_time":4646000000000,"state":"active","ping":108},{"user_id":160,"name":"jacix3 [silly doggie :3]","steam_id":76561198205004165,"connected_time":3069000000000,"state":"active","ping":89},{"user_id":190,"name":"awesomebrololo","steam_id":76561198374283489,"connected_time":810000000000,"state":"active","ping":108},{"user_id":174,"name":"Manx","steam_id":76561197977134062,"connected_time":2236000000000,"state":"active","ping":78},{"user_id":193,"name":"Rabblerouser","steam_id":76561198127930963,"connected_time":163000000000,"state":"active","ping":127},{"user_id":194,"name":"rapscallion :C","steam_id":76561198188722751,"connected_time":79000000000,"state":"active","ping":52},{"user_id":183,"name":"Cinnamon","steam_id":76561198801251513,"connected_time":1577000000000,"state":"active","ping":67},{"user_id":143,"name":"Buswolley","steam_id":76561197995205571,"connected_time":4558000000000,"state":"active","ping":61},{"user_id":163,"name":"Bree-chan","steam_id":76561198025193389,"connected_time":3019000000000,"state":"active","ping":120},{"user_id":189,"name":"damn pirates","steam_id":76561198131567365,"connected_time":852000000000,"state":"active","ping":53},{"user_id":191,"name":"Vincent Van Bro","steam_id":76561197966919802,"connected_time":218000000000,"state":"active","ping":84},{"user_id":176,"name":"Jeffrey","steam_id":76561199003107869,"connected_time":1970000000000,"state":"active","ping":57},{"user_id":184,"name":"zinnk","steam_id":76561198092081825,"connected_time":1574000000000,"state":"active","ping":59},{"user_id":64,"name":"Jimmy","steam_id":76561198857959855,"connected_time":12052000000000,"state":"active","ping":41},{"user_id":172,"name":"Paprika","steam_id":76561198412628892,"connected_time":2536000000000,"state":"active","ping":106},{"user_id":195,"name":"Rappitor","steam_id":76561198105613110,"connected_time":74000000000,"state":"active","ping":114},{"user_id":196,"name":"supa mario irl","steam_id":76561198313364985,"connected_time":60000000000,"state":"active","ping":120},{"user_id":185,"name":"ShadowDragon0125","steam_id":76561198343849022,"connected_time":1572000000000,"state":"active","ping":88},{"user_id":158,"name":"BlazedBunny","steam_id":76561198243610560,"connected_time":3381000000000,"state":"active","ping":104},{"user_id":197,"name":"Keamy","steam_id":76561199471434875,"connected_time":58000000000,"state":"active","ping":66},{"user_id":192,"name":"Truffle","steam_id":76561198074327454,"connected_time":218000000000,"state":"active","ping":61},{"user_id":151,"name":"Cool Paunch","steam_id":76561198356308348,"connected_time":4245000000000,"state":"active","ping":61},{"user_id":198,"name":"blub","steam_id":76561199047552626,"connected_time":38000000000,"state":"active","ping":103},{"user_id":47,"name":"ozbulu","steam_id":76561198067176829,"connected_time":13678000000000,"state":"active","ping":60}]},{"server_id":112,"name":"Uncletopia | Los Angeles | 2 | All Maps","name_short":"lax-2","host":"lax-1.us.uncletopia.com","port":27025,"enabled":true,"region":"us-west","cc":"us","latitude":33.94279,"longitude":-118.41004,"reserved":0,"last_update":"0001-01-01T00:00:00Z","name_a2s":"Uncletopia | Los Angeles | 2 | All Maps","protocol":17,"map":"pl_borneo","folder":"tf","game":"Team Fortress","app_id":440,"player_count":0,"max_players":24,"Bots":0,"server_type":"Dedicated","server_os":"Linux","password":true,"vac":true,"version":"7961495","steam_id":85568392924469992,"keywords":["nocrits","nodmgspread","payload","uncletopia"],"game_id":440,"stv_port":27026,"stv_name":"Uncletopia | Los Angeles | 2 | All Maps | STV","players":null},{"server_id":324,"name":"Uncletopia | Los Angeles | 3 | All Maps","name_short":"lax-3","host":"lax-1.us.uncletopia.com","port":27035,"enabled":true,"region":"us-west","cc":"us","latitude":33.94279,"longitude":-118.41004,"reserved":0,"last_update":"0001-01-01T00:00:00Z","name_a2s":"Uncletopia | Los Angeles | 3 | All Maps","protocol":17,"map":"cp_process_final","folder":"tf","game":"Team Fortress","app_id":440,"player_count":0,"max_players":24,"Bots":0,"server_type":"Dedicated","server_os":"Linux","password":true,"vac":true,"version":"7961495","steam_id":85568392924510198,"keywords":["cp","nocrits","nodmgspread","uncletopia"],"game_id":440,"stv_port":27036,"stv_name":"Uncletopia | Los Angeles | 3 | All Maps | STV","players":null},{"server_id":25,"name":"Uncletopia | Los Angeles | 4 | Stopwatch Beta","name_short":"lax-4","host":"lax-1.us.uncletopia.com","port":27045,"enabled":true,"region":"us-west","cc":"us","latitude":33.94279,"longitude":-118.41004,"reserved":0,"last_update":"0001-01-01T00:00:00Z","name_a2s":"Uncletopia | Los Angeles | 4 | Stopwatch Beta","protocol":17,"map":"pl_upward","folder":"tf","game":"Team Fortress","app_id":440,"player_count":0,"max_players":24,"Bots":0,"server_type":"Dedicated","server_os":"Linux","password":true,"vac":true,"version":"7961495","steam_id":85568392924510199,"keywords":["nocrits","nodmgspread","payload","uncletopia"],"game_id":440,"stv_port":27046,"stv_name":"Uncletopia | Los Angeles | 4 | Stopwatch Beta | STV","players":null},{"server_id":11,"name":"Uncletopia | London | 1 | All Maps","name_short":"lon-1","host":"lon-1.uk.uncletopia.com","port":27015,"enabled":true,"region":"eu","cc":"gb","latitude":51.509865,"longitude":-0.118092,"reserved":0,"last_update":"0001-01-01T00:00:00Z","name_a2s":"Uncletopia | London | 1 | All Maps","protocol":17,"map":"cp_dustbowl","folder":"tf","game":"Team Fortress","app_id":440,"player_count":24,"max_players":24,"Bots":0,"server_type":"Dedicated","server_os":"Linux","password":true,"vac":true,"version":"7961495","steam_id":85568392924367362,"keywords":["cp","nocrits","nodmgspread","uncletopia"],"game_id":440,"stv_port":27016,"stv_name":"Uncletopia | London | 1 | All Maps | STV","players":[{"user_id":402,"name":"T–Ωunde–≥Cu–ø—Ç","steam_id":76561198135091800,"connected_time":259000000000,"state":"active","ping":61},{"user_id":366,"name":"Peakey The Bard","steam_id":76561198196607831,"connected_time":2908000000000,"state":"active","ping":53},{"user_id":378,"name":"Stan √Ålvarez (Satan)","steam_id":76561198045538223,"connected_time":1997000000000,"state":"active","ping":47},{"user_id":383,"name":"Blar","steam_id":76561198042438229,"connected_time":1180000000000,"state":"active","ping":54},{"user_id":389,"name":"WonderOfU","steam_id":76561199172036471,"connected_time":679000000000,"state":"active","ping":57},{"user_id":384,"name":"john fortress","steam_id":76561198013237629,"connected_time":1135000000000,"state":"active","ping":97},{"user_id":351,"name":"SocialistBacon","steam_id":76561198055872267,"connected_time":4218000000000,"state":"active","ping":100},{"user_id":404,"name":"krayy (she/her)","steam_id":76561198035037830,"connected_time":229000000000,"state":"active","ping":47},{"user_id":375,"name":"beda","steam_id":76561198277943630,"connected_time":2285000000000,"state":"active","ping":75},{"user_id":353,"name":"MargoulGetron","steam_id":76561198020551698,"connected_time":4209000000000,"state":"active","ping":58},{"user_id":369,"name":"‚òÅ Lou1smeister ‚òÅ","steam_id":76561198004032968,"connected_time":2769000000000,"state":"active","ping":63},{"user_id":405,"name":"wouris","steam_id":76561198876188003,"connected_time":188000000000,"state":"active","ping":60},{"user_id":393,"name":"Mister_fLeXsS","steam_id":76561198075613556,"connected_time":525000000000,"state":"active","ping":115},{"user_id":376,"name":"static","steam_id":76561198836825741,"connected_time":2285000000000,"state":"active","ping":62},{"user_id":401,"name":"schocky_panzer","steam_id":76561197965924454,"connected_time":389000000000,"state":"active","ping":60},{"user_id":403,"name":"Dr snuggles","steam_id":76561198151918102,"connected_time":256000000000,"state":"active","ping":89},{"user_id":385,"name":"wormson","steam_id":76561198836754631,"connected_time":883000000000,"state":"active","ping":64},{"user_id":396,"name":"TheGreenDeity","steam_id":76561199160671312,"connected_time":465000000000,"state":"active","ping":60},{"user_id":397,"name":"Atomiccorn","steam_id":76561198298316720,"connected_time":461000000000,"state":"active","ping":65},{"user_id":398,"name":"JayD.VO","steam_id":76561198206148097,"connected_time":447000000000,"state":"active","ping":46},{"user_id":370,"name":"Solus","steam_id":76561199486493777,"connected_time":2430000000000,"state":"active","ping":59},{"user_id":118,"name":"halow","steam_id":76561198061505163,"connected_time":22866000000000,"state":"active","ping":122},{"user_id":399,"name":"stoneflower","steam_id":76561198046250873,"connected_time":444000000000,"state":"active","ping":88},{"user_id":372,"name":"Woman (Real)","steam_id":76561199151823932,"connected_time":2366000000000,"state":"active","ping":87}]},{"server_id":114,"name":"Uncletopia | London | 2 | All Maps","name_short":"lon-2","host":"lon-1.uk.uncletopia.com","port":27025,"enabled":true,"region":"eu","cc":"gb","latitude":51.509865,"longitude":-0.118092,"reserved":0,"last_update":"0001-01-01T00:00:00Z","name_a2s":"Uncletopia | London | 2 | All Maps","protocol":17,"map":"koth_viaduct","folder":"tf","game":"Team Fortress","app_id":440,"player_count":21,"max_players":24,"Bots":0,"server_type":"Dedicated","server_os":"Linux","password":true,"vac":true,"version":"7961495","steam_id":85568392924470941,"keywords":["cp","nocrits","nodmgspread","uncletopia"],"game_id":440,"stv_port":27026,"stv_name":"Uncletopia | London | 2 | All Maps | STV","players":[{"user_id":251,"name":"Kadrox","steam_id":76561199228653314,"connected_time":594000000000,"state":"active","ping":161},{"user_id":250,"name":"yeldad","steam_id":76561198447264153,"connected_time":631000000000,"state":"active","ping":119},{"user_id":265,"name":"Worm","steam_id":76561198296497176,"connected_time":131000000000,"state":"active","ping":45},{"user_id":238,"name":"Smoking problem","steam_id":76561198361351449,"connected_time":1516000000000,"state":"active","ping":63},{"user_id":248,"name":"someone","steam_id":76561199471582243,"connected_time":664000000000,"state":"active","ping":90},{"user_id":249,"name":"mel","steam_id":76561198215559840,"connected_time":662000000000,"state":"active","ping":135},{"user_id":239,"name":"mek0123456789","steam_id":76561199345757010,"connected_time":1466000000000,"state":"active","ping":68},{"user_id":240,"name":"Twiggu","steam_id":76561198070853128,"connected_time":1407000000000,"state":"active","ping":83},{"user_id":258,"name":"Princess Peach","steam_id":76561198260272240,"connected_time":353000000000,"state":"active","ping":49},{"user_id":241,"name":"Epexegeticus","steam_id":76561198164545360,"connected_time":1340000000000,"state":"active","ping":70},{"user_id":224,"name":"GabGame","steam_id":76561198105631808,"connected_time":2633000000000,"state":"active","ping":69},{"user_id":260,"name":"Sorky","steam_id":76561198007502339,"connected_time":264000000000,"state":"active","ping":73},{"user_id":268,"name":"tilgep","steam_id":76561198125585734,"connected_time":15000000000,"state":"spawning","ping":86},{"user_id":256,"name":"Kapitan Polska","steam_id":76561197968069413,"connected_time":508000000000,"state":"active","ping":86},{"user_id":263,"name":"AlexioFanny","steam_id":76561198840918851,"connected_time":201000000000,"state":"active","ping":64},{"user_id":264,"name":"crosshair 0","steam_id":76561198002451113,"connected_time":187000000000,"state":"active","ping":98},{"user_id":266,"name":"csed","steam_id":76561198263260743,"connected_time":63000000000,"state":"active","ping":114},{"user_id":193,"name":"Ullr","steam_id":76561198140547483,"connected_time":4059000000000,"state":"active","ping":42},{"user_id":214,"name":"Aven","steam_id":76561198974343597,"connected_time":3223000000000,"state":"active","ping":85},{"user_id":267,"name":"=)","steam_id":76561198086154211,"connected_time":44000000000,"state":"active","ping":146},{"user_id":218,"name":"Wario","steam_id":76561198356089255,"connected_time":3033000000000,"state":"active","ping":68}]},{"server_id":320,"name":"Uncletopia | London | 3 | All Maps","name_short":"lon-3","host":"lon-1.uk.uncletopia.com","port":27035,"enabled":true,"region":"eu","cc":"gb","latitude":51.509865,"longitude":-0.118092,"reserved":0,"last_update":"0001-01-01T00:00:00Z","name_a2s":"Uncletopia | London | 3 | All Maps","protocol":17,"map":"pl_badwater","folder":"tf","game":"Team Fortress","app_id":440,"player_count":22,"max_players":24,"Bots":0,"server_type":"Dedicated","server_os":"Linux","password":true,"vac":true,"version":"7961495","steam_id":85568392924510192,"keywords":["nocrits","nodmgspread","payload","uncletopia"],"game_id":440,"stv_port":27036,"stv_name":"Uncletopia | London | 3 | All Maps | STV","players":[{"user_id":23,"name":"ran is running","steam_id":76561199443185667,"connected_time":3812000000000,"state":"active","ping":128},{"user_id":30,"name":"RealManiHACK","steam_id":76561198408081068,"connected_time":1504000000000,"state":"active","ping":74},{"user_id":57,"name":"Eith__","steam_id":76561198164775785,"connected_time":733000000000,"state":"active","ping":61},{"user_id":64,"name":"H-DOOM FAN","steam_id":76561198927046161,"connected_time":155000000000,"state":"active","ping":62},{"user_id":29,"name":"Barneeyy","steam_id":76561198252413532,"connected_time":1567000000000,"state":"active","ping":59},{"user_id":32,"name":"Tammrock","steam_id":76561198029322294,"connected_time":1488000000000,"state":"active","ping":60},{"user_id":33,"name":"Onion Drugs","steam_id":76561198441194331,"connected_time":1486000000000,"state":"active","ping":108},{"user_id":34,"name":"RistleyPristley","steam_id":76561198129583229,"connected_time":1409000000000,"state":"active","ping":85},{"user_id":48,"name":"Littleyoshifan","steam_id":76561198445491045,"connected_time":1046000000000,"state":"active","ping":44},{"user_id":36,"name":"Baked Beans Gaming","steam_id":76561199177778966,"connected_time":1332000000000,"state":"active","ping":48},{"user_id":45,"name":"joni","steam_id":76561198048957139,"connected_time":1078000000000,"state":"active","ping":51},{"user_id":49,"name":"INDIEFRAME","steam_id":76561199086092220,"connected_time":1044000000000,"state":"active","ping":65},{"user_id":39,"name":"Lola bunny","steam_id":76561198214149431,"connected_time":1195000000000,"state":"active","ping":45},{"user_id":65,"name":"Nekard","steam_id":76561199055501351,"connected_time":64000000000,"state":"active","ping":69},{"user_id":42,"name":"FZStick","steam_id":76561198086617223,"connected_time":1183000000000,"state":"active","ping":50},{"user_id":60,"name":"Vel0city","steam_id":76561198049687798,"connected_time":553000000000,"state":"active","ping":55},{"user_id":47,"name":"Tampon Lollipop","steam_id":76561198042593027,"connected_time":1059000000000,"state":"active","ping":99},{"user_id":63,"name":"balanced diet","steam_id":76561198240320806,"connected_time":198000000000,"state":"active","ping":75},{"user_id":53,"name":"Mimpy","steam_id":76561198040422830,"connected_time":821000000000,"state":"active","ping":47},{"user_id":59,"name":"Kill is good","steam_id":76561197981154287,"connected_time":625000000000,"state":"active","ping":68},{"user_id":55,"name":"0","steam_id":76561197989948420,"connected_time":817000000000,"state":"active","ping":52},{"user_id":56,"name":"logan.dykins09","steam_id":76561199143456682,"connected_time":768000000000,"state":"active","ping":53}]},{"server_id":321,"name":"Uncletopia | London | 4 | All Maps","name_short":"lon-4","host":"lon-1.uk.uncletopia.com","port":27045,"enabled":true,"region":"eu","cc":"gb","latitude":51.509865,"longitude":-0.118092,"reserved":0,"last_update":"0001-01-01T00:00:00Z","name_a2s":"Uncletopia | London | 4 | All Maps","protocol":17,"map":"pl_borneo","folder":"tf","game":"Team Fortress","app_id":440,"player_count":25,"max_players":24,"Bots":0,"server_type":"Dedicated","server_os":"Linux","password":true,"vac":true,"version":"7961495","steam_id":85568392924510193,"keywords":["nocrits","nodmgspread","payload","uncletopia"],"game_id":440,"stv_port":27046,"stv_name":"Uncletopia | London | 4 | All Maps | STV","players":[{"user_id":395,"name":"pidgeonlord","steam_id":76561198297290160,"connected_time":2134000000000,"state":"active","ping":75},{"user_id":391,"name":"vladthelad","steam_id":76561199295290233,"connected_time":2255000000000,"state":"active","ping":41},{"user_id":423,"name":"TerminatorBg","steam_id":76561199025396620,"connected_time":1309000000000,"state":"active","ping":85},{"user_id":383,"name":"Remyie","steam_id":76561198131031404,"connected_time":2782000000000,"state":"active","ping":94},{"user_id":426,"name":"Bobo","steam_id":76561198052308399,"connected_time":829000000000,"state":"active","ping":70},{"user_id":404,"name":"Ross from F.R.I.E.N.D.S.","steam_id":76561198008511665,"connected_time":1748000000000,"state":"active","ping":52},{"user_id":427,"name":"Chambersite","steam_id":76561198197022399,"connected_time":751000000000,"state":"active","ping":75},{"user_id":424,"name":"Ivitheking","steam_id":76561199039001932,"connected_time":1291000000000,"state":"active","ping":60},{"user_id":428,"name":"Guwop","steam_id":76561197970425737,"connected_time":307000000000,"state":"active","ping":142},{"user_id":408,"name":"FamilyMan","steam_id":76561198064115286,"connected_time":1706000000000,"state":"active","ping":71},{"user_id":430,"name":"Cotton Eye Joe","steam_id":76561198080594207,"connected_time":270000000000,"state":"active","ping":54},{"user_id":397,"name":"GIN-TAMA","steam_id":76561198093458326,"connected_time":2057000000000,"state":"active","ping":64},{"user_id":406,"name":"Joe","steam_id":76561198061717026,"connected_time":1728000000000,"state":"active","ping":45},{"user_id":401,"name":"Surry Fex","steam_id":76561198090586031,"connected_time":1965000000000,"state":"active","ping":90},{"user_id":418,"name":"French Obama","steam_id":76561198043928185,"connected_time":1504000000000,"state":"active","ping":40},{"user_id":403,"name":"Homicidal Tendencies","steam_id":76561198828681043,"connected_time":1847000000000,"state":"active","ping":50},{"user_id":429,"name":"Sylvanas","steam_id":76561198154904165,"connected_time":292000000000,"state":"active","ping":114},{"user_id":421,"name":"kornetov.vitalya","steam_id":76561199286034833,"connected_time":1404000000000,"state":"active","ping":102},{"user_id":411,"name":"drooling plushy","steam_id":76561199041264644,"connected_time":1622000000000,"state":"active","ping":68},{"user_id":412,"name":"Walle","steam_id":76561197995148937,"connected_time":1611000000000,"state":"active","ping":75},{"user_id":413,"name":"‚ù§G a n K","steam_id":76561199125995565,"connected_time":1574000000000,"state":"active","ping":60},{"user_id":425,"name":"Curls","steam_id":76561198079039937,"connected_time":891000000000,"state":"active","ping":58},{"user_id":422,"name":"Pepe","steam_id":76561199029488326,"connected_time":1382000000000,"state":"active","ping":87},{"user_id":432,"name":"Lwyz016","steam_id":76561199164626058,"connected_time":163000000000,"state":"active","ping":94},{"user_id":436,"name":"sussysmilegaming","steam_id":76561199381466617,"connected_time":67000000000,"state":"active","ping":110}]},{"server_id":21,"name":"Uncletopia | London | 5 | All Maps","name_short":"lon-5","host":"lon-1.uk.uncletopia.com","port":27055,"enabled":true,"region":"eu","cc":"gb","latitude":51.509865,"longitude":-0.118092,"reserved":0,"last_update":"0001-01-01T00:00:00Z","name_a2s":"Uncletopia | London | 5 | All Maps","protocol":17,"map":"koth_highpass","folder":"tf","game":"Team Fortress","app_id":440,"player_count":3,"max_players":24,"Bots":0,"server_type":"Dedicated","server_os":"Linux","password":true,"vac":true,"version":"7961495","steam_id":85568392924742829,"keywords":["cp","nocrits","nodmgspread","uncletopia"],"game_id":440,"stv_port":27056,"stv_name":"Uncletopia | London | 5 | All Maps | STV","players":[{"user_id":15,"name":"josemanuel","steam_id":76561198356171214,"connected_time":789000000000,"state":"active","ping":264},{"user_id":14,"name":"Hayds Gaming","steam_id":76561199461851882,"connected_time":878000000000,"state":"active","ping":54},{"user_id":17,"name":"MrNikeythor","steam_id":76561198210907841,"connected_time":473000000000,"state":"active","ping":234}]},{"server_id":22,"name":"Uncletopia | London | 6 | All Maps","name_short":"lon-6","host":"lon-1.uk.uncletopia.com","port":27065,"enabled":true,"region":"eu","cc":"gb","latitude":51.509865,"longitude":-0.118092,"reserved":0,"last_update":"0001-01-01T00:00:00Z","name_a2s":"Uncletopia | London | 6 | All Maps","protocol":17,"map":"pl_upward","folder":"tf","game":"Team Fortress","app_id":440,"player_count":24,"max_players":24,"Bots":0,"server_type":"Dedicated","server_os":"Linux","password":true,"vac":true,"version":"7961495","steam_id":85568392924742830,"keywords":["nocrits","nodmgspread","payload","uncletopia"],"game_id":440,"stv_port":27066,"stv_name":"Uncletopia | London | 6 | All Maps | STV","players":[{"user_id":342,"name":"MagusCubed","steam_id":76561198083973944,"connected_time":551000000000,"state":"active","ping":46},{"user_id":330,"name":"MovingIsOverRated","steam_id":76561198385633292,"connected_time":1409000000000,"state":"active","ping":152},{"user_id":341,"name":"ABC555ABC666ABC555","steam_id":76561197995676953,"connected_time":583000000000,"state":"active","ping":59},{"user_id":243,"name":"Podge","steam_id":76561199077425079,"connected_time":6255000000000,"state":"active","ping":55},{"user_id":339,"name":"BD[PL]","steam_id":76561198115995871,"connected_time":798000000000,"state":"active","ping":81},{"user_id":284,"name":"IndigoJones","steam_id":76561198050284262,"connected_time":4245000000000,"state":"active","ping":52},{"user_id":340,"name":"[T]aKer","steam_id":76561198001778013,"connected_time":795000000000,"state":"active","ping":48},{"user_id":313,"name":"SHEEP","steam_id":76561198043813073,"connected_time":3238000000000,"state":"active","ping":122},{"user_id":329,"name":"Pantroglodytestherapy","steam_id":76561198236015392,"connected_time":1686000000000,"state":"active","ping":120},{"user_id":351,"name":"Bottle O' Scrumpy","steam_id":76561199244250562,"connected_time":86000000000,"state":"active","ping":86},{"user_id":319,"name":"Œ© Original Œ©","steam_id":76561198048038191,"connected_time":2540000000000,"state":"active","ping":68},{"user_id":315,"name":"Call me Rain Man","steam_id":76561198025284624,"connected_time":3115000000000,"state":"active","ping":128},{"user_id":347,"name":"Dolph","steam_id":76561199195783247,"connected_time":425000000000,"state":"active","ping":110},{"user_id":60,"name":"ToonFood","steam_id":76561198038594124,"connected_time":19663000000000,"state":"active","ping":54},{"user_id":324,"name":"Son Goku","steam_id":76561199383437138,"connected_time":2406000000000,"state":"active","ping":119},{"user_id":299,"name":"akakez","steam_id":76561198095432821,"connected_time":3627000000000,"state":"active","ping":112},{"user_id":344,"name":"HerrMyrddin","steam_id":76561198045778215,"connected_time":537000000000,"state":"active","ping":70},{"user_id":352,"name":"i can't feel fun anymore","steam_id":76561198085928853,"connected_time":47000000000,"state":"active","ping":94},{"user_id":346,"name":"DigyB","steam_id":76561198014442345,"connected_time":479000000000,"state":"active","ping":58},{"user_id":220,"name":"Lieutenant Porky","steam_id":76561198076939947,"connected_time":8150000000000,"state":"active","ping":58},{"user_id":337,"name":"Ch4bby","steam_id":76561198058792875,"connected_time":864000000000,"state":"active","ping":59},{"user_id":322,"name":"GeneralBathtub","steam_id":76561198291678581,"connected_time":2512000000000,"state":"active","ping":68},{"user_id":353,"name":"shadow wizard money gang","steam_id":76561199062586342,"connected_time":7000000000,"state":"spawning","ping":45},{"user_id":309,"name":"Cocaine Cowboy","steam_id":76561198372742045,"connected_time":3412000000000,"state":"active","ping":67}]},{"server_id":40,"name":"Uncletopia | London | 7 | No Payload","name_short":"lon-7","host":"lon-1.uk.uncletopia.com","port":27075,"enabled":true,"region":"eu","cc":"gb","latitude":51.509865,"longitude":-0.118092,"reserved":0,"last_update":"0001-01-01T00:00:00Z","name_a2s":"Uncletopia | London | 7 | No Payload","protocol":17,"map":"koth_brazil","folder":"tf","game":"Team Fortress","app_id":440,"player_count":0,"max_players":24,"Bots":0,"server_type":"Dedicated","server_os":"Linux","password":true,"vac":true,"version":"7961495","steam_id":85568392924964314,"keywords":["cp","nocrits","nodmgspread","uncletopia"],"game_id":440,"stv_port":27076,"stv_name":"Uncletopia | London | 7 | No Payload | STV","players":null},{"server_id":41,"name":"Uncletopia | London | 8 | Community","name_short":"lon-8","host":"lon-1.uk.uncletopia.com","port":27085,"enabled":true,"region":"eu","cc":"gb","latitude":51.509865,"longitude":-0.118092,"reserved":0,"last_update":"0001-01-01T00:00:00Z","name_a2s":"Uncletopia | London | 8 | Community","protocol":17,"map":"workshop/cp_glacier_rc6.ugc2905735376","folder":"tf","game":"Team Fortress","app_id":440,"player_count":0,"max_players":24,"Bots":0,"server_type":"Dedicated","server_os":"Linux","password":true,"vac":true,"version":"7961495","steam_id":85568392924964315,"keywords":["cp","nocrits","nodmgspread","uncletopia"],"game_id":440,"stv_port":27086,"stv_name":"Uncletopia | London | 8 | Community | STV","players":null},{"server_id":300,"name":"Uncletopia | Montr√©al | 1 | All Maps","name_short":"mtl-1","host":"mtl-1.ca.uncletopia.com","port":27015,"enabled":true,"region":"us-east","cc":"ca","latitude":45.50889,"longitude":-73.56167,"reserved":0,"last_update":"0001-01-01T00:00:00Z","name_a2s":"","protocol":0,"map":"","folder":"","game":"","app_id":0,"player_count":0,"max_players":0,"Bots":0,"server_type":"","server_os":"","password":false,"vac":false,"version":"","steam_id":0,"keywords":null,"game_id":0,"stv_port":0,"stv_name":"","players":null},{"server_id":301,"name":"Uncletopia | Montr√©al | 2 | All Maps","name_short":"mtl-2","host":"mtl-1.ca.uncletopia.com","port":27025,"enabled":true,"region":"us-east","cc":"ca","latitude":45.50889,"longitude":-73.56167,"reserved":0,"last_update":"0001-01-01T00:00:00Z","name_a2s":"","protocol":0,"map":"","folder":"","game":"","app_id":0,"player_count":0,"max_players":0,"Bots":0,"server_type":"","server_os":"","password":false,"vac":false,"version":"","steam_id":0,"keywords":null,"game_id":0,"stv_port":0,"stv_name":"","players":null},{"server_id":302,"name":"Uncletopia | Montr√©al | 3 | All Maps","name_short":"mtl-3","host":"mtl-1.ca.uncletopia.com","port":27035,"enabled":true,"region":"us-east","cc":"ca","latitude":45.50889,"longitude":-73.56167,"reserved":0,"last_update":"0001-01-01T00:00:00Z","name_a2s":"","protocol":0,"map":"","folder":"","game":"","app_id":0,"player_count":0,"max_players":0,"Bots":0,"server_type":"","server_os":"","password":false,"vac":false,"version":"","steam_id":0,"keywords":null,"game_id":0,"stv_port":0,"stv_name":"","players":null},{"server_id":303,"name":"Uncletopia | Montr√©al | 4 | No Payload","name_short":"mtl-4","host":"mtl-1.ca.uncletopia.com","port":27045,"enabled":true,"region":"us-east","cc":"ca","latitude":45.50889,"longitude":-73.56167,"reserved":0,"last_update":"0001-01-01T00:00:00Z","name_a2s":"","protocol":0,"map":"","folder":"","game":"","app_id":0,"player_count":0,"max_players":0,"Bots":0,"server_type":"","server_os":"","password":false,"vac":false,"version":"","steam_id":0,"keywords":null,"game_id":0,"stv_port":0,"stv_name":"","players":null},{"server_id":13,"name":"Uncletopia | New York City | 1 | All Maps","name_short":"nyc-1","host":"nyc-1.us.uncletopia.com","port":27015,"enabled":true,"region":"us-east","cc":"us","latitude":40.73061,"longitude":-73.93524,"reserved":0,"last_update":"0001-01-01T00:00:00Z","name_a2s":"Uncletopia | New York City | 1 | All Maps","protocol":17,"map":"koth_harvest_final","folder":"tf","game":"Team Fortress","app_id":440,"player_count":24,"max_players":24,"Bots":0,"server_type":"Dedicated","server_os":"Linux","password":true,"vac":true,"version":"7961495","steam_id":85568392924469993,"keywords":["cp","nocrits","nodmgspread","uncletopia"],"game_id":440,"stv_port":27016,"stv_name":"Uncletopia | New York City | 1 | All Maps | STV","players":[{"user_id":78,"name":"PackingPeanutt :]","steam_id":76561199053229413,"connected_time":6088000000000,"state":"active","ping":86},{"user_id":112,"name":"El Bondin","steam_id":76561198820792434,"connected_time":3291000000000,"state":"active","ping":96},{"user_id":152,"name":"Sire Salty","steam_id":76561198079639072,"connected_time":193000000000,"state":"active","ping":53},{"user_id":127,"name":"TATARA","steam_id":76561199098759517,"connected_time":1850000000000,"state":"active","ping":99},{"user_id":146,"name":"Daddy Topps","steam_id":76561198203594332,"connected_time":945000000000,"state":"active","ping":105},{"user_id":138,"name":"flamingdorit0s","steam_id":76561198869206247,"connected_time":1740000000000,"state":"active","ping":146},{"user_id":147,"name":"meinsword","steam_id":76561198272653535,"connected_time":751000000000,"state":"active","ping":53},{"user_id":133,"name":"john01k","steam_id":76561198059731548,"connected_time":1806000000000,"state":"active","ping":88},{"user_id":124,"name":"Snugboo","steam_id":76561198147970327,"connected_time":2524000000000,"state":"active","ping":45},{"user_id":126,"name":"Aaron","steam_id":76561198091157802,"connected_time":2190000000000,"state":"active","ping":53},{"user_id":153,"name":"cowboy","steam_id":76561199079124758,"connected_time":140000000000,"state":"active","ping":85},{"user_id":87,"name":"Hope","steam_id":76561199182558088,"connected_time":5322000000000,"state":"active","ping":89},{"user_id":131,"name":"frig","steam_id":76561198436177465,"connected_time":1834000000000,"state":"active","ping":45},{"user_id":154,"name":"Major Depression","steam_id":76561198018103878,"connected_time":97000000000,"state":"active","ping":57},{"user_id":120,"name":"1-800-GHOST-DANCE","steam_id":76561198835430429,"connected_time":2838000000000,"state":"active","ping":68},{"user_id":134,"name":"Cervid√©","steam_id":76561198098579497,"connected_time":1803000000000,"state":"active","ping":71},{"user_id":144,"name":"Hyperbolicj","steam_id":76561198037350954,"connected_time":1109000000000,"state":"active","ping":69},{"user_id":136,"name":"Lee-Ch","steam_id":76561198164980622,"connected_time":1787000000000,"state":"active","ping":75},{"user_id":128,"name":"Yummy Kabobz","steam_id":76561198067661705,"connected_time":1847000000000,"state":"active","ping":53},{"user_id":107,"name":"not a good idea","steam_id":76561198032259680,"connected_time":3725000000000,"state":"active","ping":64},{"user_id":148,"name":"yin","steam_id":76561198450003554,"connected_time":362000000000,"state":"active","ping":61},{"user_id":117,"name":"BigMan","steam_id":76561198277150955,"connected_time":2903000000000,"state":"active","ping":104},{"user_id":145,"name":"Spud \u003c3","steam_id":76561198208657333,"connected_time":1095000000000,"state":"active","ping":64},{"user_id":150,"name":"Obama","steam_id":76561198194065283,"connected_time":349000000000,"state":"active","ping":106}]},{"server_id":14,"name":"Uncletopia | New York City | 2 | All Maps","name_short":"nyc-2","host":"nyc-1.us.uncletopia.com","port":27025,"enabled":true,"region":"us-east","cc":"us","latitude":40.73061,"longitude":-73.93524,"reserved":0,"last_update":"0001-01-01T00:00:00Z","name_a2s":"Uncletopia | New York City | 2 | All Maps","protocol":17,"map":"pl_upward","folder":"tf","game":"Team Fortress","app_id":440,"player_count":24,"max_players":24,"Bots":0,"server_type":"Dedicated","server_os":"Linux","password":true,"vac":true,"version":"7961495","steam_id":85568392924469994,"keywords":["nocrits","nodmgspread","payload","uncletopia"],"game_id":440,"stv_port":27026,"stv_name":"Uncletopia | New York City | 2 | All Maps | STV","players":[{"user_id":194,"name":"Voodo133","steam_id":76561198042670351,"connected_time":2455000000000,"state":"active","ping":79},{"user_id":216,"name":"Popop","steam_id":76561198004793795,"connected_time":1288000000000,"state":"active","ping":113},{"user_id":210,"name":"‚ú†CrustyCake‚ú†","steam_id":76561198155062405,"connected_time":1927000000000,"state":"active","ping":102},{"user_id":187,"name":"novu","steam_id":76561198886997024,"connected_time":3955000000000,"state":"active","ping":74},{"user_id":191,"name":"WhippedHook","steam_id":76561198069581138,"connected_time":3240000000000,"state":"active","ping":94},{"user_id":201,"name":"BiggFoot","steam_id":76561197998605599,"connected_time":2248000000000,"state":"active","ping":99},{"user_id":200,"name":"femtofarad‚Ñ¢","steam_id":76561198308583053,"connected_time":2326000000000,"state":"active","ping":67},{"user_id":213,"name":"Meth Goblin","steam_id":76561198086355221,"connected_time":1647000000000,"state":"active","ping":95},{"user_id":205,"name":"mytoyo2k2","steam_id":76561199486326945,"connected_time":2172000000000,"state":"active","ping":74},{"user_id":222,"name":"Xebbey","steam_id":76561198880415976,"connected_time":723000000000,"state":"active","ping":67},{"user_id":219,"name":"SS. sheep","steam_id":76561198172943006,"connected_time":1200000000000,"state":"active","ping":61},{"user_id":202,"name":"MasterAmongRust","steam_id":76561198010160233,"connected_time":2198000000000,"state":"active","ping":93},{"user_id":198,"name":"StraySheep","steam_id":76561198256003811,"connected_time":2434000000000,"state":"active","ping":55},{"user_id":155,"name":"dr peppah chug!","steam_id":76561198068835693,"connected_time":6306000000000,"state":"active","ping":80},{"user_id":179,"name":"Yukon Cornelius","steam_id":76561198261512781,"connected_time":4405000000000,"state":"active","ping":66},{"user_id":220,"name":"King Sans","steam_id":76561198294198517,"connected_time":1200000000000,"state":"active","ping":45},{"user_id":207,"name":"Psychosis","steam_id":76561198078659070,"connected_time":2076000000000,"state":"active","ping":67},{"user_id":199,"name":"Gravity","steam_id":76561198066875223,"connected_time":2407000000000,"state":"active","ping":100},{"user_id":221,"name":"A_Plush","steam_id":76561198147582451,"connected_time":1022000000000,"state":"active","ping":52},{"user_id":163,"name":"Dr.BiohunterPHD","steam_id":76561198047023365,"connected_time":5717000000000,"state":"active","ping":120},{"user_id":218,"name":"Red","steam_id":76561198001939529,"connected_time":1261000000000,"state":"active","ping":96},{"user_id":94,"name":"coffee bagel","steam_id":76561198141198352,"connected_time":11279000000000,"state":"active","ping":61},{"user_id":214,"name":"Grendar","steam_id":76561198823384034,"connected_time":1647000000000,"state":"active","ping":73},{"user_id":193,"name":"GaiBerd","steam_id":76561198177100634,"connected_time":2959000000000,"state":"active","ping":47}]},{"server_id":15,"name":"Uncletopia | New York City | 3 | Stopwatch Beta","name_short":"nyc-3","host":"nyc-1.us.uncletopia.com","port":27035,"enabled":true,"region":"us-east","cc":"us","latitude":40.73061,"longitude":-73.93524,"reserved":0,"last_update":"0001-01-01T00:00:00Z","name_a2s":"Uncletopia | New York City | 3 | Stopwatch Beta","protocol":17,"map":"workshop/koth_ramjam_rc1.ugc459778887","folder":"tf","game":"Team Fortress","app_id":440,"player_count":0,"max_players":24,"Bots":0,"server_type":"Dedicated","server_os":"Linux","password":true,"vac":true,"version":"7961495","steam_id":85568392924742820,"keywords":["cp","nocrits","nodmgspread","uncletopia"],"game_id":440,"stv_port":27036,"stv_name":"Uncletopia | New York City | 3 | Stopwatch Beta | STV","players":null},{"server_id":16,"name":"Uncletopia | New York City | 4 | Community","name_short":"nyc-4","host":"nyc-1.us.uncletopia.com","port":27045,"enabled":true,"region":"us-east","cc":"us","latitude":40.73061,"longitude":-73.93524,"reserved":0,"last_update":"0001-01-01T00:00:00Z","name_a2s":"Uncletopia | New York City | 4 | Community","protocol":17,"map":"workshop/pl_barnblitz_pro7.ugc582280235","folder":"tf","game":"Team Fortress","app_id":440,"player_count":24,"max_players":24,"Bots":0,"server_type":"Dedicated","server_os":"Linux","password":true,"vac":true,"version":"7961495","steam_id":85568392924742821,"keywords":["nocrits","nodmgspread","payload","uncletopia"],"game_id":440,"stv_port":27046,"stv_name":"Uncletopia | New York City | 4 | Community | STV","players":[{"user_id":146,"name":"gonna take you to brazil","steam_id":76561198437736421,"connected_time":943000000000,"state":"active","ping":43},{"user_id":148,"name":"Aperture Science Intern","steam_id":76561198040553272,"connected_time":892000000000,"state":"active","ping":52},{"user_id":103,"name":"CreeperCatBengal","steam_id":76561198213193221,"connected_time":3189000000000,"state":"active","ping":68},{"user_id":144,"name":"Cyanwarrior","steam_id":76561199160532701,"connected_time":988000000000,"state":"active","ping":68},{"user_id":81,"name":"SawyerSaur","steam_id":76561198872835142,"connected_time":3829000000000,"state":"active","ping":84},{"user_id":90,"name":"Poop Deck Joe","steam_id":76561198271397568,"connected_time":3611000000000,"state":"active","ping":104},{"user_id":120,"name":"sloppies on my joe","steam_id":76561198870649125,"connected_time":2078000000000,"state":"active","ping":148},{"user_id":131,"name":"TJGSASQUATCH","steam_id":76561198077806921,"connected_time":1659000000000,"state":"active","ping":65},{"user_id":132,"name":"Flaccid Snake (little boss)","steam_id":76561198211454440,"connected_time":1624000000000,"state":"active","ping":68},{"user_id":141,"name":"xochiquetzal","steam_id":76561199064278937,"connected_time":1380000000000,"state":"active","ping":69},{"user_id":121,"name":"FUNKY TOWN SLAYER","steam_id":76561198119489292,"connected_time":2056000000000,"state":"active","ping":73},{"user_id":91,"name":"TenmuGaming","steam_id":76561198059359525,"connected_time":3582000000000,"state":"active","ping":87},{"user_id":149,"name":"MondoDong","steam_id":76561197991400109,"connected_time":889000000000,"state":"active","ping":54},{"user_id":133,"name":"WaWaSkittleTits","steam_id":76561198411234398,"connected_time":1621000000000,"state":"active","ping":129},{"user_id":153,"name":"ryce","steam_id":76561198114572309,"connected_time":413000000000,"state":"active","ping":71},{"user_id":135,"name":"Pan Piotr","steam_id":76561198140016126,"connected_time":1552000000000,"state":"active","ping":138},{"user_id":137,"name":"Scuff1e","steam_id":76561198272995728,"connected_time":1541000000000,"state":"active","ping":89},{"user_id":145,"name":"Chilly Wintrz","steam_id":76561198137410740,"connected_time":983000000000,"state":"active","ping":93},{"user_id":155,"name":"Wan Shi Tong","steam_id":76561198076441225,"connected_time":324000000000,"state":"active","ping":49},{"user_id":154,"name":"cheeser","steam_id":76561198281772700,"connected_time":403000000000,"state":"active","ping":45},{"user_id":158,"name":"adami","steam_id":76561198800334731,"connected_time":69000000000,"state":"active","ping":50},{"user_id":98,"name":"In-N-Out Double Double","steam_id":76561198104086771,"connected_time":3336000000000,"state":"active","ping":110},{"user_id":97,"name":"zzz","steam_id":76561198143727547,"connected_time":3374000000000,"state":"active","ping":91},{"user_id":152,"name":"D.Porter","steam_id":76561198396340174,"connected_time":858000000000,"state":"active","ping":61}]},{"server_id":142,"name":"Uncletopia | S√£o Paulo | 1 | All Maps","name_short":"sao-1","host":"sao-1.br.uncletopia.com","port":27015,"enabled":true,"region":"sa","cc":"br","latitude":-23.533773,"longitude":-46.62529,"reserved":0,"last_update":"0001-01-01T00:00:00Z","name_a2s":"Uncletopia | S√£o Paulo | 1 | All Maps","protocol":17,"map":"koth_viaduct","folder":"tf","game":"Team Fortress","app_id":440,"player_count":0,"max_players":24,"Bots":0,"server_type":"Dedicated","server_os":"Linux","password":true,"vac":true,"version":"7961495","steam_id":85568392924469996,"keywords":["cp","nocrits","nodmgspread","uncletopia"],"game_id":440,"stv_port":27016,"stv_name":"Uncletopia | S√£o Paulo | 1 | All Maps | STV","players":null},{"server_id":143,"name":"Uncletopia | S√£o Paulo | 2 | Community","name_short":"sao-2","host":"sao-2.br.uncletopia.com","port":27015,"enabled":true,"region":"sa","cc":"br","latitude":-23.533773,"longitude":-46.62529,"reserved":0,"last_update":"0001-01-01T00:00:00Z","name_a2s":"Uncletopia | S√£o Paulo | 2 | Community","protocol":17,"map":"workshop/cp_caldera_rc2.ugc2834196889","folder":"tf","game":"Team Fortress","app_id":440,"player_count":0,"max_players":24,"Bots":0,"server_type":"Dedicated","server_os":"Linux","password":true,"vac":true,"version":"7961495","steam_id":85568392924485349,"keywords":["cp","nocrits","nodmgspread","uncletopia"],"game_id":440,"stv_port":27016,"stv_name":"Uncletopia | S√£o Paulo | 2 | Community | STV","players":null},{"server_id":7,"name":"Uncletopia | Seattle | 1 | All Maps","name_short":"sea-1","host":"sea-1.us.uncletopia.com","port":27015,"enabled":true,"region":"us-west","cc":"us","latitude":47.608013,"longitude":-122.33517,"reserved":0,"last_update":"0001-01-01T00:00:00Z","name_a2s":"Uncletopia | Seattle | 1 | All Maps","protocol":17,"map":"koth_lakeside_final","folder":"tf","game":"Team Fortress","app_id":440,"player_count":0,"max_players":24,"Bots":0,"server_type":"Dedicated","server_os":"Linux","password":true,"vac":true,"version":"7961495","steam_id":85568392924469997,"keywords":["cp","nocrits","nodmgspread","uncletopia"],"game_id":440,"stv_port":27016,"stv_name":"Uncletopia | Seattle | 1 | All Maps | STV","players":null},{"server_id":119,"name":"Uncletopia | Seattle | 2 | All Maps","name_short":"sea-2","host":"sea-1.us.uncletopia.com","port":27025,"enabled":true,"region":"us-west","cc":"us","latitude":47.608013,"longitude":-122.33517,"reserved":0,"last_update":"0001-01-01T00:00:00Z","name_a2s":"Uncletopia | Seattle | 2 | All Maps","protocol":17,"map":"cp_process_final","folder":"tf","game":"Team Fortress","app_id":440,"player_count":0,"max_players":24,"Bots":0,"server_type":"Dedicated","server_os":"Linux","password":true,"vac":true,"version":"7961495","steam_id":85568392924469998,"keywords":["cp","nocrits","nodmgspread","uncletopia"],"game_id":440,"stv_port":27026,"stv_name":"Uncletopia | Seattle | 2 | All Maps | STV","players":null},{"server_id":406,"name":"Uncletopia | Seattle | 3 | Stopwatch Beta","name_short":"sea-3","host":"sea-1.us.uncletopia.com","port":27035,"enabled":true,"region":"us-west","cc":"us","latitude":47.608013,"longitude":-122.33517,"reserved":0,"last_update":"0001-01-01T00:00:00Z","name_a2s":"Uncletopia | Seattle | 3 | Stopwatch Beta","protocol":17,"map":"koth_lakeside_final","folder":"tf","game":"Team Fortress","app_id":440,"player_count":0,"max_players":24,"Bots":0,"server_type":"Dedicated","server_os":"Linux","password":true,"vac":true,"version":"7961495","steam_id":85568392924515217,"keywords":["cp","nocrits","nodmgspread","uncletopia"],"game_id":440,"stv_port":27036,"stv_name":"Uncletopia | Seattle | 3 | Stopwatch Beta | STV","players":null},{"server_id":17,"name":"Uncletopia | San Francisco | 1 | All Maps","name_short":"sfo-1","host":"sfo-1.us.uncletopia.com","port":27015,"enabled":true,"region":"us-west","cc":"us","latitude":37.77397,"longitude":-122.4313,"reserved":0,"last_update":"0001-01-01T00:00:00Z","name_a2s":"Uncletopia | San Francisco | 1 | All Maps","protocol":17,"map":"pl_upward","folder":"tf","game":"Team Fortress","app_id":440,"player_count":1,"max_players":24,"Bots":0,"server_type":"Dedicated","server_os":"Linux","password":true,"vac":true,"version":"7961495","steam_id":85568392924469999,"keywords":["nocrits","nodmgspread","payload","uncletopia"],"game_id":440,"stv_port":27016,"stv_name":"Uncletopia | San Francisco | 1 | All Maps | STV","players":[{"user_id":7,"name":"\u003c3 puppyboykisses \u003c3","steam_id":76561197997343746,"connected_time":48000000000,"state":"active","ping":47}]},{"server_id":18,"name":"Uncletopia | San Francisco | 2 | All Maps","name_short":"sfo-2","host":"sfo-1.us.uncletopia.com","port":27025,"enabled":true,"region":"us-west","cc":"us","latitude":37.77397,"longitude":-122.4313,"reserved":0,"last_update":"0001-01-01T00:00:00Z","name_a2s":"Uncletopia | San Francisco | 2 | All Maps","protocol":17,"map":"koth_cascade","folder":"tf","game":"Team Fortress","app_id":440,"player_count":0,"max_players":24,"Bots":0,"server_type":"Dedicated","server_os":"Linux","password":true,"vac":true,"version":"7961495","steam_id":85568392924470000,"keywords":["cp","nocrits","nodmgspread","uncletopia"],"game_id":440,"stv_port":27026,"stv_name":"Uncletopia | San Francisco | 2 | All Maps | STV","players":null},{"server_id":19,"name":"Uncletopia | San Francisco | 3 | Stopwatch Beta","name_short":"sfo-3","host":"sfo-1.us.uncletopia.com","port":27035,"enabled":true,"region":"us-west","cc":"us","latitude":37.77397,"longitude":-122.4313,"reserved":0,"last_update":"0001-01-01T00:00:00Z","name_a2s":"Uncletopia | San Francisco | 3 | Stopwatch Beta","protocol":17,"map":"pl_borneo","folder":"tf","game":"Team Fortress","app_id":440,"player_count":0,"max_players":24,"Bots":0,"server_type":"Dedicated","server_os":"Linux","password":true,"vac":true,"version":"7961495","steam_id":85568392924742824,"keywords":["nocrits","nodmgspread","payload","uncletopia"],"game_id":440,"stv_port":27036,"stv_name":"Uncletopia | San Francisco | 3 | Stopwatch Beta | STV","players":null},{"server_id":20,"name":"Uncletopia | San Francisco | 4 | Community","name_short":"sfo-4","host":"sfo-1.us.uncletopia.com","port":27045,"enabled":true,"region":"us-west","cc":"us","latitude":37.77397,"longitude":-122.4313,"reserved":0,"last_update":"0001-01-01T00:00:00Z","name_a2s":"Uncletopia | San Francisco | 4 | Community","protocol":17,"map":"koth_viaduct","folder":"tf","game":"Team Fortress","app_id":440,"player_count":0,"max_players":24,"Bots":0,"server_type":"Dedicated","server_os":"Linux","password":true,"vac":true,"version":"7961495","steam_id":85568392924742826,"keywords":["cp","nocrits","nodmgspread","uncletopia"],"game_id":440,"stv_port":27046,"stv_name":"Uncletopia | San Francisco | 4 | Community | STV","players":null},{"server_id":141,"name":"Uncletopia | Sydney | 1 | All Maps","name_short":"syd-1","host":"syd-1.au.uncletopia.com","port":27015,"enabled":true,"region":"au","cc":"au","latitude":-33.865143,"longitude":151.2099,"reserved":0,"last_update":"0001-01-01T00:00:00Z","name_a2s":"Uncletopia | Sydney | 1 | All Maps","protocol":17,"map":"koth_lakeside_final","folder":"tf","game":"Team Fortress","app_id":440,"player_count":0,"max_players":24,"Bots":0,"server_type":"Dedicated","server_os":"Linux","password":true,"vac":true,"version":"7961495","steam_id":85568392924470001,"keywords":["cp","nocrits","nodmgspread","uncletopia"],"game_id":440,"stv_port":27016,"stv_name":"Uncletopia | Sydney | 1 | All Maps | STV","players":null},{"server_id":123,"name":"Uncletopia | Sydney | 2 | All Maps","name_short":"syd-2","host":"syd-1.au.uncletopia.com","port":27025,"enabled":true,"region":"au","cc":"au","latitude":-33.865143,"longitude":151.2099,"reserved":0,"last_update":"0001-01-01T00:00:00Z","name_a2s":"Uncletopia | Sydney | 2 | All Maps","protocol":17,"map":"koth_lakeside_final","folder":"tf","game":"Team Fortress","app_id":440,"player_count":0,"max_players":24,"Bots":0,"server_type":"Dedicated","server_os":"Linux","password":true,"vac":true,"version":"7961495","steam_id":85568392924470002,"keywords":["cp","nocrits","nodmgspread","uncletopia"],"game_id":440,"stv_port":27026,"stv_name":"Uncletopia | Sydney | 2 | All Maps | STV","players":null},{"server_id":395,"name":"Uncletopia | Sydney | 3 | All Maps","name_short":"syd-3","host":"syd-1.au.uncletopia.com","port":27035,"enabled":true,"region":"au","cc":"au","latitude":-33.865143,"longitude":151.2099,"reserved":0,"last_update":"0001-01-01T00:00:00Z","name_a2s":"Uncletopia | Sydney | 3 | All Maps","protocol":17,"map":"cp_sunshine","folder":"tf","game":"Team Fortress","app_id":440,"player_count":0,"max_players":24,"Bots":0,"server_type":"Dedicated","server_os":"Linux","password":true,"vac":true,"version":"7961495","steam_id":85568392925194467,"keywords":["cp","nocrits","nodmgspread","uncletopia"],"game_id":440,"stv_port":27036,"stv_name":"Uncletopia | Sydney | 3 | All Maps | STV","players":null},{"server_id":396,"name":"Uncletopia | Sydney | 4 | All Maps","name_short":"syd-4","host":"syd-1.au.uncletopia.com","port":27045,"enabled":true,"region":"au","cc":"au","latitude":-33.865143,"longitude":151.2099,"reserved":0,"last_update":"0001-01-01T00:00:00Z","name_a2s":"Uncletopia | Sydney | 4 | All Maps","protocol":17,"map":"cp_mountainlab","folder":"tf","game":"Team Fortress","app_id":440,"player_count":0,"max_players":24,"Bots":0,"server_type":"Dedicated","server_os":"Linux","password":true,"vac":true,"version":"7961495","steam_id":85568392925397958,"keywords":["cp","nocrits","nodmgspread","uncletopia"],"game_id":440,"stv_port":27046,"stv_name":"Uncletopia | Sydney | 4 | All Maps | STV","players":null},{"server_id":58,"name":"Uncletopia | Sydney | 5 | Stopwatch Beta","name_short":"syd-5","host":"syd-1.au.uncletopia.com","port":27055,"enabled":true,"region":"au","cc":"au","latitude":-33.865143,"longitude":151.2099,"reserved":0,"last_update":"0001-01-01T00:00:00Z","name_a2s":"Uncletopia | Sydney | 5 | Stopwatch Beta","protocol":17,"map":"koth_viaduct","folder":"tf","game":"Team Fortress","app_id":440,"player_count":0,"max_players":24,"Bots":0,"server_type":"Dedicated","server_os":"Linux","password":true,"vac":true,"version":"7961495","steam_id":85568392925397959,"keywords":["cp","nocrits","nodmgspread","uncletopia"],"game_id":440,"stv_port":27056,"stv_name":"Uncletopia | Sydney | 5 | Stopwatch Beta | STV","players":null},{"server_id":59,"name":"Uncletopia | Sydney | 6 | Community","name_short":"syd-6","host":"syd-1.au.uncletopia.com","port":27065,"enabled":true,"region":"au","cc":"au","latitude":-33.865143,"longitude":151.2099,"reserved":0,"last_update":"0001-01-01T00:00:00Z","name_a2s":"Uncletopia | Sydney | 6 | Community","protocol":17,"map":"koth_cascade","folder":"tf","game":"Team Fortress","app_id":440,"player_count":0,"max_players":24,"Bots":0,"server_type":"Dedicated","server_os":"Linux","password":true,"vac":true,"version":"7961495","steam_id":85568392925397960,"keywords":["cp","nocrits","nodmgspread","uncletopia"],"game_id":440,"stv_port":27066,"stv_name":"Uncletopia | Sydney | 6 | Community | STV","players":null},{"server_id":49,"name":"Uncletopia | Warsaw | 1 | All Maps","name_short":"waw-1","host":"waw-1.pl.uncletopia.com","port":27015,"enabled":true,"region":"eu","cc":"pl","latitude":52.2297,"longitude":21.017532,"reserved":0,"last_update":"0001-01-01T00:00:00Z","name_a2s":"Uncletopia | Warsaw | 1 | All Maps","protocol":17,"map":"pl_swiftwater_final1","folder":"tf","game":"Team Fortress","app_id":440,"player_count":2,"max_players":24,"Bots":0,"server_type":"Dedicated","server_os":"Linux","password":true,"vac":true,"version":"7961495","steam_id":85568392925397850,"keywords":["nocrits","nodmgspread","payload","uncletopia"],"game_id":440,"stv_port":27016,"stv_name":"Uncletopia | Warsaw | 1 | All Maps | STV","players":[{"user_id":3,"name":"stefanbejenari","steam_id":76561199466718294,"connected_time":799000000000,"state":"active","ping":81},{"user_id":4,"name":"Godjan","steam_id":76561198077554447,"connected_time":528000000000,"state":"active","ping":136}]},{"server_id":50,"name":"Uncletopia | Warsaw | 2 | All Maps","name_short":"waw-2","host":"waw-1.pl.uncletopia.com","port":27025,"enabled":true,"region":"eu","cc":"pl","latitude":52.2297,"longitude":21.017532,"reserved":0,"last_update":"0001-01-01T00:00:00Z","name_a2s":"Uncletopia | Warsaw | 2 | All Maps","protocol":17,"map":"cp_dustbowl","folder":"tf","game":"Team Fortress","app_id":440,"player_count":1,"max_players":24,"Bots":0,"server_type":"Dedicated","server_os":"Linux","password":true,"vac":true,"version":"7961495","steam_id":85568392925397851,"keywords":["cp","nocrits","nodmgspread","uncletopia"],"game_id":440,"stv_port":27026,"stv_name":"Uncletopia | Warsaw | 2 | All Maps | STV","players":[{"user_id":4,"name":"Placuszek3367","steam_id":76561199134128498,"connected_time":22000000000,"state":"active","ping":49}]},{"server_id":51,"name":"Uncletopia | Warsaw | 3 | All Maps","name_short":"waw-3","host":"waw-1.pl.uncletopia.com","port":27035,"enabled":true,"region":"eu","cc":"pl","latitude":52.2297,"longitude":21.017532,"reserved":0,"last_update":"0001-01-01T00:00:00Z","name_a2s":"Uncletopia | Warsaw | 3 | All Maps","protocol":17,"map":"koth_highpass","folder":"tf","game":"Team Fortress","app_id":440,"player_count":1,"max_players":24,"Bots":0,"server_type":"Dedicated","server_os":"Linux","password":true,"vac":true,"version":"7961495","steam_id":85568392925397852,"keywords":["cp","nocrits","nodmgspread","uncletopia"],"game_id":440,"stv_port":27036,"stv_name":"Uncletopia | Warsaw | 3 | All Maps | STV","players":[{"user_id":11,"name":"the bee shield","steam_id":76561198315405589,"connected_time":123000000000,"state":"active","ping":38}]},{"server_id":52,"name":"Uncletopia | Warsaw | 4 | All Maps","name_short":"waw-4","host":"waw-1.pl.uncletopia.com","port":27045,"enabled":true,"region":"eu","cc":"pl","latitude":52.2297,"longitude":21.017532,"reserved":0,"last_update":"0001-01-01T00:00:00Z","name_a2s":"Uncletopia | Warsaw | 4 | All Maps","protocol":17,"map":"koth_lakeside_final","folder":"tf","game":"Team Fortress","app_id":440,"player_count":2,"max_players":24,"Bots":0,"server_type":"Dedicated","server_os":"Linux","password":true,"vac":true,"version":"7961495","steam_id":85568392925397853,"keywords":["cp","nocrits","nodmgspread","uncletopia"],"game_id":440,"stv_port":27046,"stv_name":"Uncletopia | Warsaw | 4 | All Maps | STV","players":[{"user_id":36,"name":"smulvey09","steam_id":76561199432870647,"connected_time":79000000000,"state":"active","ping":95},{"user_id":37,"name":"i.am.the.r3al.j0e.biden","steam_id":76561199447535128,"connected_time":63000000000,"state":"active","ping":81}]},{"server_id":53,"name":"Uncletopia | Warsaw | 5 | Stopwatch Beta","name_short":"waw-5","host":"waw-1.pl.uncletopia.com","port":27055,"enabled":true,"region":"eu","cc":"pl","latitude":52.2297,"longitude":21.017532,"reserved":0,"last_update":"0001-01-01T00:00:00Z","name_a2s":"Uncletopia | Warsaw | 5 | Stopwatch Beta","protocol":17,"map":"workshop/koth_ashville_final.ugc2130459942","folder":"tf","game":"Team Fortress","app_id":440,"player_count":0,"max_players":24,"Bots":0,"server_type":"Dedicated","server_os":"Linux","password":true,"vac":true,"version":"7961495","steam_id":85568392925397854,"keywords":["cp","nocrits","nodmgspread","uncletopia"],"game_id":440,"stv_port":27056,"stv_name":"Uncletopia | Warsaw | 5 | Stopwatch Beta | STV","players":null},{"server_id":54,"name":"Uncletopia | Warsaw | 6 | Community","name_short":"waw-6","host":"waw-1.pl.uncletopia.com","port":27065,"enabled":true,"region":"eu","cc":"pl","latitude":52.2297,"longitude":21.017532,"reserved":0,"last_update":"0001-01-01T00:00:00Z","name_a2s":"Uncletopia | Warsaw | 6 | Community","protocol":17,"map":"workshop/koth_slaughter_rc1.ugc1712845210","folder":"tf","game":"Team Fortress","app_id":440,"player_count":0,"max_players":24,"Bots":0,"server_type":"Dedicated","server_os":"Linux","password":true,"vac":true,"version":"7961495","steam_id":85568392925397856,"keywords":["cp","nocrits","nodmgspread","uncletopia"],"game_id":440,"stv_port":27066,"stv_name":"Uncletopia | Warsaw | 6 | Community | STV","players":null}]}