{"status":true,"message":"","result":[{"server_id":9,"name":"Uncletopia | Atlanta | 1 | All Maps","name_short":"atl-1","host":"atl-1.us.uncletopia.com","port":27015,"enabled":true,"region":"us-east","cc":"us","latitude":33.753746,"longitude":-84.38633,"reserved":0,"last_update":"0001-01-01T00:00:00Z","name_a2s":"Uncletopia | Atlanta | 1 | All Maps","protocol":17,"map":"pl_frontier_final","folder":"tf","game":"Team Fortress","app_id":440,"player_count":24,"max_players":24,"Bots":0,"server_type":"Dedicated","server_os":"Linux","password":true,"vac":true,"version":"7961495","steam_id":85568392924469982,"keywords":["nocrits","nodmgspread","payload","uncletopia"],"game_id":440,"stv_port":27016,"stv_name":"Uncletopia | Atlanta | 1 | All Maps | STV","players":[{"user_id":73,"name":"metalfan666","steam_id":76561198386344068,"connected_time":8498000000000,"state":"active","ping":74},{"user_id":153,"name":"freyja","steam_id":76561198249206656,"connected_time":2893000000000,"state":"active","ping":87},{"user_id":58,"name":"Xavibite","steam_id":76561198209380493,"connected_time":9544000000000,"state":"active","ping":63},{"user_id":176,"name":"lurid","steam_id":76561199134999203,"connected_time":274000000000,"state":"active","ping":60},{"user_id":162,"name":"Electroid","steam_id":76561199092263960,"connected_time":1814000000000,"state":"active","ping":49},{"user_id":164,"name":"get scrongled, idiot","steam_id":76561198115874625,"connected_time":1687000000000,"state":"active","ping":65},{"user_id":152,"name":"Radium","steam_id":76561198195881339,"connected_time":3066000000000,"state":"active","ping":57},{"user_id":114,"name":"Mug","steam_id":76561199282207802,"connected_time":5093000000000,"state":"active","ping":74},{"user_id":140,"name":"Broadsword #LGM","steam_id":76561198011160411,"connected_time":3867000000000,"state":"active","ping":60},{"user_id":149,"name":"Intro Bonito","steam_id":76561198119478838,"connected_time":3406000000000,"state":"active","ping":59},{"user_id":147,"name":"Heathcliff","steam_id":76561198044288534,"connected_time":3448000000000,"state":"active","ping":80},{"user_id":151,"name":"substance","steam_id":76561198050103868,"connected_time":3182000000000,"state":"active","ping":160},{"user_id":165,"name":"b4nny_stepson","steam_id":76561198069954956,"connected_time":1491000000000,"state":"active","ping":45},{"user_id":156,"name":"lynt","steam_id":76561198988333976,"connected_time":2875000000000,"state":"active","ping":44},{"user_id":158,"name":"Lily (she/her)","steam_id":76561198355495948,"connected_time":2029000000000,"state":"active","ping":64},{"user_id":142,"name":"ATL1 | on my hunting trip","steam_id":76561198315341646,"connected_time":3619000000000,"state":"active","ping":81},{"user_id":166,"name":"Hans","steam_id":76561199153433318,"connected_time":1389000000000,"state":"active","ping":64},{"user_id":173,"name":"DeezNoodlez","steam_id":76561198246700372,"connected_time":778000000000,"state":"active","ping":58},{"user_id":161,"name":"Vee (very cool)","steam_id":76561198330432889,"connected_time":2016000000000,"state":"active","ping":65},{"user_id":167,"name":"marguerite","steam_id":76561198170873495,"connected_time":1298000000000,"state":"active","ping":55},{"user_id":170,"name":"hey thanks my friend","steam_id":76561199195104977,"connected_time":1103000000000,"state":"active","ping":73},{"user_id":174,"name":"Doctor Bear ʕ •ᴥ•ʔ","steam_id":76561197968103161,"connected_time":749000000000,"state":"active","ping":80},{"user_id":82,"name":"stink","steam_id":76561198099318923,"connected_time":7213000000000,"state":"active","ping":77},{"user_id":175,"name":"espr","steam_id":76561198406252824,"connected_time":440000000000,"state":"active","ping":119}]},{"server_id":104,"name":"Uncletopia | Atlanta | 2 | All Maps","name_short":"atl-2","host":"atl-1.us.uncletopia.com","port":27025,"enabled":true,"region":"us-east","cc":"us","latitude":33.753746,"longitude":-84.38633,"reserved":0,"last_update":"0001-01-01T00:00:00Z","name_a2s":"Uncletopia | Atlanta | 2 | All Maps","protocol":17,"map":"koth_lakeside_final","folder":"tf","game":"Team Fortress","app_id":440,"player_count":20,"max_players":24,"Bots":0,"server_type":"Dedicated","server_os":"Linux","password":true,"vac":true,"version":"7961495","steam_id":85568392924469983,"keywords":["cp","nocrits","nodmgspread","uncletopia"],"game_id":440,"stv_port":27026,"stv_name":"Uncletopia | Atlanta | 2 | All Maps | STV","players":[{"user_id":120,"name":"epiczlolz","steam_id":76561198208369443,"connected_time":2214000000000,"state":"active","ping":44},{"user_id":111,"name":"Vroooooooooooooooom","steam_id":76561198139913628,"connected_time":3042000000000,"state":"active","ping":72},{"user_id":101,"name":"reaper","steam_id":76561198834485747,"connected_time":3528000000000,"state":"active","ping":75},{"user_id":143,"name":"TMKPresents","steam_id":76561198118999995,"connected_time":267000000000,"state":"active","ping":45},{"user_id":141,"name":"slafflow","steam_id":76561199381012350,"connected_time":428000000000,"state":"active","ping":91},{"user_id":125,"name":"kelvindavid121","steam_id":76561199010489413,"connected_time":1805000000000,"state":"active","ping":106},{"user_id":142,"name":"lil' Wayne","steam_id":76561198050136796,"connected_time":393000000000,"state":"active","ping":89},{"user_id":144,"name":"goofyt mommwmmenty","steam_id":76561199401467297,"connected_time":245000000000,"state":"active","ping":602},{"user_id":145,"name":"el pan con pate","steam_id":76561199082491709,"connected_time":139000000000,"state":"active","ping":160},{"user_id":139,"name":"Pablogonzalez2009","steam_id":76561198967318127,"connected_time":558000000000,"state":"active","ping":70},{"user_id":136,"name":"Smoky Haus","steam_id":76561199040586542,"connected_time":851000000000,"state":"active","ping":83},{"user_id":146,"name":"Scottygofast","steam_id":76561199140785887,"connected_time":83000000000,"state":"active","ping":91},{"user_id":147,"name":"Mecha","steam_id":76561198323389762,"connected_time":75000000000,"state":"active","ping":60},{"user_id":148,"name":"The Potato Romancer","steam_id":76561198204197648,"connected_time":23000000000,"state":"active","ping":95},{"user_id":149,"name":"Pannington","steam_id":76561198138707710,"connected_time":21000000000,"state":"active","ping":88},{"user_id":134,"name":"Dr. Virus","steam_id":76561198045723452,"connected_time":1126000000000,"state":"active","ping":56},{"user_id":77,"name":"mr.videogame","steam_id":76561198119558096,"connected_time":5601000000000,"state":"active","ping":59},{"user_id":150,"name":"Godfinger","steam_id":76561198426346549,"connected_time":7000000000,"state":"spawning","ping":110},{"user_id":118,"name":"RCGC bro","steam_id":76561198976328384,"connected_time":2706000000000,"state":"active","ping":61},{"user_id":116,"name":"Im_Dimwit","steam_id":76561198158451090,"connected_time":2823000000000,"state":"active","ping":46}]},{"server_id":400,"name":"Uncletopia | Atlanta | 3 | Stopwatch","name_short":"atl-3","host":"atl-1.us.uncletopia.com","port":27035,"enabled":true,"region":"us-east","cc":"us","latitude":33.753746,"longitude":-84.38633,"reserved":0,"last_update":"0001-01-01T00:00:00Z","name_a2s":"Uncletopia | Atlanta | 3 | Stopwatch","protocol":17,"map":"cp_gullywash_final1","folder":"tf","game":"Team Fortress","app_id":440,"player_count":0,"max_players":24,"Bots":0,"server_type":"Dedicated","server_os":"Linux","password":true,"vac":true,"version":"7961495","steam_id":85568392924515187,"keywords":["cp","nocrits","nodmgspread","uncletopia"],"game_id":440,"stv_port":27036,"stv_name":"Uncletopia | Atlanta | 3 | Stopwatch | STV","players":null},{"server_id":401,"name":"Uncletopia | Atlanta | 4 | Community","name_short":"atl-4","host":"atl-1.us.uncletopia.com","port":27045,"enabled":true,"region":"us-east","cc":"us","latitude":33.753746,"longitude":-84.38633,"reserved":0,"last_update":"0001-01-01T00:00:00Z","name_a2s":"Uncletopia | Atlanta | 4 | Community","protocol":17,"map":"workshop/cp_snowbase_b21.ugc2081770490","folder":"tf","game":"Team Fortress","app_id":440,"player_count":0,"max_players":24,"Bots":0,"server_type":"Dedicated","server_os":"Linux","password":true,"vac":true,"version":"7961495","steam_id":85568392924515188,"keywords":["cp","nocrits","nodmgspread","uncletopia"],"game_id":440,"stv_port":27046,"stv_name":"Uncletopia | Atlanta | 4 | Community | STV","players":null},{"server_id":2,"name":"Uncletopia | Chicago | 1 | All Maps","name_short":"chi-1","host":"chi-1.us.uncletopia.com","port":27015,"enabled":true,"region":"us-central","cc":"us","latitude":41.881832,"longitude":-87.62318,"reserved":0,"last_update":"0001-01-01T00:00:00Z","name_a2s":"Uncletopia | Chicago | 1 | All Maps","protocol":17,"map":"cp_granary","folder":"tf","game":"Team Fortress","app_id":440,"player_count":24,"max_players":24,"Bots":0,"server_type":"Dedicated","server_os":"Linux","password":true,"vac":true,"version":"7961495","steam_id":85568392924469984,"keywords":["cp","nocrits","nodmgspread","uncletopia"],"game_id":440,"stv_port":27016,"stv_name":"Uncletopia | Chicago | 1 | All Maps | STV","players":[{"user_id":329,"name":"Swiftmend","steam_id":76561197995595692,"connected_time":754000000000,"state":"active","ping":68},{"user_id":215,"name":"bro looked down in the trop","steam_id":76561198142756572,"connected_time":3648000000000,"state":"active","ping":59},{"user_id":339,"name":"ark","steam_id":76561198041066271,"connected_time":614000000000,"state":"active","ping":89},{"user_id":226,"name":"Gremsheker","steam_id":76561198068025153,"connected_time":3148000000000,"state":"active","ping":65},{"user_id":309,"name":"Dr.StrangeGlove","steam_id":76561198286114229,"connected_time":1141000000000,"state":"active","ping":60},{"user_id":180,"name":"jerma985.ttv","steam_id":76561198020322241,"connected_time":6535000000000,"state":"active","ping":72},{"user_id":351,"name":"vacachimuela","steam_id":76561198297332421,"connected_time":32000000000,"state":"active","ping":111},{"user_id":346,"name":"Ninjoth","steam_id":76561198038611753,"connected_time":374000000000,"state":"active","ping":76},{"user_id":184,"name":"normal rockwell","steam_id":76561197967761806,"connected_time":6362000000000,"state":"active","ping":157},{"user_id":318,"name":"gamerfan539","steam_id":76561198803527852,"connected_time":968000000000,"state":"active","ping":64},{"user_id":319,"name":"ṽ⧉ Lojack Porscheman","steam_id":76561198000173889,"connected_time":944000000000,"state":"active","ping":70},{"user_id":218,"name":"kingXVX","steam_id":76561198396302636,"connected_time":3527000000000,"state":"active","ping":109},{"user_id":157,"name":"Pixler544","steam_id":76561198240575132,"connected_time":8972000000000,"state":"active","ping":73},{"user_id":333,"name":"Uncle Majic the Hip Hop Magicia","steam_id":76561198107924303,"connected_time":668000000000,"state":"active","ping":67},{"user_id":347,"name":"gen","steam_id":76561199118569153,"connected_time":288000000000,"state":"active","ping":247},{"user_id":337,"name":"Mr. Pink","steam_id":76561198065858172,"connected_time":621000000000,"state":"active","ping":62},{"user_id":315,"name":"splashman","steam_id":76561198106267323,"connected_time":1005000000000,"state":"active","ping":63},{"user_id":245,"name":"Boxpipe","steam_id":76561197964501915,"connected_time":2264000000000,"state":"active","ping":60},{"user_id":349,"name":"jordanfer111","steam_id":76561198044993097,"connected_time":62000000000,"state":"active","ping":207},{"user_id":353,"name":"(_!_) Guinea Pirate .j2","steam_id":76561197993863967,"connected_time":12000000000,"state":"spawning","ping":87},{"user_id":340,"name":"frank","steam_id":76561198137777483,"connected_time":599000000000,"state":"active","ping":64},{"user_id":222,"name":"Fiebs","steam_id":76561198073881842,"connected_time":3418000000000,"state":"active","ping":86},{"user_id":336,"name":"poopyjoe69weedlover420","steam_id":76561199149966252,"connected_time":641000000000,"state":"active","ping":97},{"user_id":302,"name":"Gargathor the Entity Catcher","steam_id":76561198189429665,"connected_time":1288000000000,"state":"active","ping":75}]},{"server_id":106,"name":"Uncletopia | Chicago | 2 | All Maps","name_short":"chi-2","host":"chi-1.us.uncletopia.com","port":27025,"enabled":true,"region":"us-central","cc":"us","latitude":41.881832,"longitude":-87.62318,"reserved":0,"last_update":"0001-01-01T00:00:00Z","name_a2s":"Uncletopia | Chicago | 2 | All Maps","protocol":17,"map":"pl_badwater","folder":"tf","game":"Team Fortress","app_id":440,"player_count":24,"max_players":24,"Bots":0,"server_type":"Dedicated","server_os":"Linux","password":true,"vac":true,"version":"7961495","steam_id":85568392924469985,"keywords":["nocrits","nodmgspread","payload","uncletopia"],"game_id":440,"stv_port":27026,"stv_name":"Uncletopia | Chicago | 2 | All Maps | STV","players":[{"user_id":107,"name":"Crazy Cane","steam_id":76561198993941174,"connected_time":2442000000000,"state":"active","ping":69},{"user_id":140,"name":"Lennu","steam_id":76561198060730154,"connected_time":331000000000,"state":"active","ping":73},{"user_id":131,"name":"jstn","steam_id":76561198845283665,"connected_time":826000000000,"state":"active","ping":65},{"user_id":108,"name":"Sylvain","steam_id":76561198113385271,"connected_time":2392000000000,"state":"active","ping":71},{"user_id":120,"name":"while(1)","steam_id":76561198000876529,"connected_time":1683000000000,"state":"active","ping":57},{"user_id":75,"name":"Lamb Over Rice - $7","steam_id":76561198002685045,"connected_time":4609000000000,"state":"active","ping":78},{"user_id":132,"name":"biggerB","steam_id":76561199075318360,"connected_time":778000000000,"state":"active","ping":109},{"user_id":110,"name":"Overduecat","steam_id":76561198092452824,"connected_time":2241000000000,"state":"active","ping":69},{"user_id":114,"name":"Gotta Move That Gear Up","steam_id":76561197993467034,"connected_time":1782000000000,"state":"active","ping":53},{"user_id":71,"name":"ahem?","steam_id":76561198420227358,"connected_time":5171000000000,"state":"active","ping":78},{"user_id":141,"name":"CheekiBreeki","steam_id":76561198008596138,"connected_time":142000000000,"state":"active","ping":89},{"user_id":137,"name":"snorg","steam_id":76561199103766971,"connected_time":696000000000,"state":"active","ping":65},{"user_id":134,"name":"dantheman","steam_id":76561199486390813,"connected_time":762000000000,"state":"active","ping":87},{"user_id":117,"name":"GamingJuice42","steam_id":76561198110469437,"connected_time":1744000000000,"state":"active","ping":61},{"user_id":135,"name":"Comrade","steam_id":76561199056721863,"connected_time":747000000000,"state":"active","ping":82},{"user_id":91,"name":"Smashy","steam_id":76561198030704307,"connected_time":3671000000000,"state":"active","ping":79},{"user_id":130,"name":"Scarecrow","steam_id":76561198045870511,"connected_time":883000000000,"state":"active","ping":56},{"user_id":128,"name":"GUTS","steam_id":76561199400618729,"connected_time":979000000000,"state":"active","ping":158},{"user_id":95,"name":"Raizen","steam_id":76561199092445367,"connected_time":3347000000000,"state":"active","ping":48},{"user_id":138,"name":"XRen10","steam_id":76561199226365046,"connected_time":465000000000,"state":"active","ping":136},{"user_id":92,"name":"You","steam_id":76561198890201364,"connected_time":3601000000000,"state":"active","ping":96},{"user_id":105,"name":"Jeremiah Finch","steam_id":76561198046899113,"connected_time":2516000000000,"state":"active","ping":72},{"user_id":83,"name":"Macko","steam_id":76561198452005461,"connected_time":3988000000000,"state":"active","ping":81},{"user_id":112,"name":"IanTheAwsm","steam_id":76561198093031738,"connected_time":2156000000000,"state":"active","ping":55}]},{"server_id":402,"name":"Uncletopia | Chicago | 3 | All Maps","name_short":"chi-3","host":"chi-1.us.uncletopia.com","port":27035,"enabled":true,"region":"us-central","cc":"us","latitude":41.881832,"longitude":-87.62318,"reserved":0,"last_update":"0001-01-01T00:00:00Z","name_a2s":"Uncletopia | Chicago | 3 | All Maps","protocol":17,"map":"pl_barnblitz","folder":"tf","game":"Team Fortress","app_id":440,"player_count":0,"max_players":24,"Bots":0,"server_type":"Dedicated","server_os":"Linux","password":true,"vac":true,"version":"7961495","steam_id":85568392924515191,"keywords":["nocrits","nodmgspread","payload","uncletopia"],"game_id":440,"stv_port":27036,"stv_name":"Uncletopia | Chicago | 3 | All Maps | STV","players":null},{"server_id":403,"name":"Uncletopia | Chicago | 4 | All Maps","name_short":"chi-4","host":"chi-1.us.uncletopia.com","port":27045,"enabled":true,"region":"us-central","cc":"us","latitude":41.881832,"longitude":-87.62318,"reserved":0,"last_update":"0001-01-01T00:00:00Z","name_a2s":"Uncletopia | Chicago | 4 | All Maps","protocol":17,"map":"cp_sunshine","folder":"tf","game":"Team Fortress","app_id":440,"player_count":24,"max_players":24,"Bots":0,"server_type":"Dedicated","server_os":"Linux","password":true,"vac":true,"version":"7961495","steam_id":85568392924515193,"keywords":["cp","nocrits","nodmgspread","uncletopia"],"game_id":440,"stv_port":27046,"stv_name":"Uncletopia | Chicago | 4 | All Maps | STV","players":[{"user_id":138,"name":"MillerWhite","steam_id":76561198076060357,"connected_time":1908000000000,"state":"active","ping":74},{"user_id":33,"name":"Jimbo Jones","steam_id":76561198031493107,"connected_time":9684000000000,"state":"active","ping":88},{"user_id":135,"name":"We Make It Look Easy™","steam_id":76561198024442760,"connected_time":1940000000000,"state":"active","ping":64},{"user_id":151,"name":"Iced Mustard","steam_id":76561198025407368,"connected_time":485000000000,"state":"active","ping":92},{"user_id":152,"name":"lizard wizard","steam_id":76561198882758067,"connected_time":458000000000,"state":"active","ping":81},{"user_id":139,"name":"Chadmander","steam_id":76561197974136337,"connected_time":1894000000000,"state":"active","ping":36},{"user_id":129,"name":"the juicer","steam_id":76561198307845869,"connected_time":2511000000000,"state":"active","ping":67},{"user_id":59,"name":"Clean Lines","steam_id":76561197960691518,"connected_time":7860000000000,"state":"active","ping":54},{"user_id":153,"name":"Aztea","steam_id":76561198982089893,"connected_time":264000000000,"state":"active","ping":90},{"user_id":125,"name":"Pinky","steam_id":76561199019483777,"connected_time":2686000000000,"state":"active","ping":77},{"user_id":140,"name":".jpg","steam_id":76561198137237377,"connected_time":1888000000000,"state":"active","ping":64},{"user_id":136,"name":"chen","steam_id":76561198064872330,"connected_time":1933000000000,"state":"active","ping":72},{"user_id":147,"name":"frenemy","steam_id":76561198011363677,"connected_time":1114000000000,"state":"active","ping":58},{"user_id":154,"name":"azufelt","steam_id":76561199259331226,"connected_time":54000000000,"state":"active","ping":60},{"user_id":148,"name":"Zoof Zoof","steam_id":76561199190397373,"connected_time":1105000000000,"state":"active","ping":124},{"user_id":137,"name":"Lv3 Kobold Shadow Sorcerer","steam_id":76561198042068995,"connected_time":1921000000000,"state":"active","ping":84},{"user_id":105,"name":"dork","steam_id":76561198086615208,"connected_time":3945000000000,"state":"active","ping":62},{"user_id":142,"name":"Forsén","steam_id":76561199131971501,"connected_time":1865000000000,"state":"active","ping":165},{"user_id":149,"name":"GuyGoom","steam_id":76561198254522178,"connected_time":1081000000000,"state":"active","ping":59},{"user_id":128,"name":"D UCK","steam_id":76561198075844142,"connected_time":2649000000000,"state":"active","ping":54},{"user_id":150,"name":"the engineers biggest opp","steam_id":76561198801207748,"connected_time":909000000000,"state":"active","ping":68},{"user_id":145,"name":"ThatGamingKiwi","steam_id":76561199170522237,"connected_time":1576000000000,"state":"active","ping":77},{"user_id":111,"name":"Fred Durst's #1 Fan","steam_id":76561198282395338,"connected_time":3778000000000,"state":"active","ping":81},{"user_id":134,"name":"Plinko","steam_id":76561197968530638,"connected_time":2117000000000,"state":"active","ping":60}]},{"server_id":36,"name":"Uncletopia | Chicago | 5 | All Maps","name_short":"chi-5","host":"chi-2.us.uncletopia.com","port":27015,"enabled":true,"region":"us-central","cc":"us","latitude":41.881832,"longitude":-87.62318,"reserved":0,"last_update":"0001-01-01T00:00:00Z","name_a2s":"Uncletopia | Chicago | 5 | All Maps","protocol":17,"map":"pl_upward","folder":"tf","game":"Team Fortress","app_id":440,"player_count":24,"max_players":24,"Bots":0,"server_type":"Dedicated","server_os":"Linux","password":true,"vac":true,"version":"7961495","steam_id":85568392924866362,"keywords":["nocrits","nodmgspread","payload","uncletopia"],"game_id":440,"stv_port":27016,"stv_name":"Uncletopia | Chicago | 5 | All Maps | STV","players":[{"user_id":49,"name":"Skab E²r","steam_id":76561199126112357,"connected_time":13000000000,"state":"spawning","ping":64},{"user_id":47,"name":"Deoxis110","steam_id":76561198997269000,"connected_time":45000000000,"state":"active","ping":191},{"user_id":45,"name":"Retro","steam_id":76561198414744723,"connected_time":188000000000,"state":"active","ping":60},{"user_id":20,"name":"daemon","steam_id":76561198001541433,"connected_time":926000000000,"state":"active","ping":53},{"user_id":21,"name":"Fitts1099","steam_id":76561198044986906,"connected_time":920000000000,"state":"active","ping":48},{"user_id":28,"name":"ChillyJones","steam_id":76561198017658702,"connected_time":602000000000,"state":"active","ping":83},{"user_id":11,"name":"genavi","steam_id":76561198442960243,"connected_time":1939000000000,"state":"active","ping":67},{"user_id":22,"name":"Pi Guy","steam_id":76561199071784224,"connected_time":878000000000,"state":"active","ping":68},{"user_id":43,"name":"Mazdamundi!","steam_id":76561198044691081,"connected_time":310000000000,"state":"active","ping":64},{"user_id":29,"name":"gothpapa","steam_id":76561198452122510,"connected_time":544000000000,"state":"active","ping":60},{"user_id":18,"name":"Fresh Lychee","steam_id":76561198045399559,"connected_time":1040000000000,"state":"active","ping":57},{"user_id":24,"name":"artemisjackson2","steam_id":76561199094686268,"connected_time":792000000000,"state":"active","ping":73},{"user_id":25,"name":"Kitt(eh)  ∑:3","steam_id":76561198110858518,"connected_time":749000000000,"state":"active","ping":60},{"user_id":26,"name":"quatelhelix","steam_id":76561198066708113,"connected_time":743000000000,"state":"active","ping":58},{"user_id":30,"name":"Fin Silver (Ag)","steam_id":76561198083696472,"connected_time":542000000000,"state":"active","ping":50},{"user_id":31,"name":"Ramen","steam_id":76561198152762458,"connected_time":533000000000,"state":"active","ping":105},{"user_id":32,"name":"BOTH | BERSERKER","steam_id":76561198303464488,"connected_time":523000000000,"state":"active","ping":61},{"user_id":46,"name":"living in mushroom park","steam_id":76561198097588802,"connected_time":187000000000,"state":"active","ping":60},{"user_id":34,"name":"Quansen","steam_id":76561198151594550,"connected_time":480000000000,"state":"active","ping":59},{"user_id":39,"name":"Zomwashroomz","steam_id":76561198131316167,"connected_time":413000000000,"state":"active","ping":90},{"user_id":44,"name":"Bungus","steam_id":76561197984426574,"connected_time":226000000000,"state":"active","ping":82},{"user_id":38,"name":"Excalibrine","steam_id":76561198129312118,"connected_time":417000000000,"state":"active","ping":91},{"user_id":40,"name":"The Creepy9","steam_id":76561198039104966,"connected_time":412000000000,"state":"active","ping":85},{"user_id":48,"name":"DRACO$","steam_id":76561198389198223,"connected_time":29000000000,"state":"active","ping":88}]},{"server_id":37,"name":"Uncletopia | Chicago | 6 | All Maps","name_short":"chi-6","host":"chi-2.us.uncletopia.com","port":27025,"enabled":true,"region":"us-central","cc":"us","latitude":41.881832,"longitude":-87.62318,"reserved":0,"last_update":"0001-01-01T00:00:00Z","name_a2s":"Uncletopia | Chicago | 6 | All Maps","protocol":17,"map":"pl_borneo","folder":"tf","game":"Team Fortress","app_id":440,"player_count":0,"max_players":24,"Bots":0,"server_type":"Dedicated","server_os":"Linux","password":true,"vac":true,"version":"7961495","steam_id":85568392924866363,"keywords":["nocrits","nodmgspread","payload","uncletopia"],"game_id":440,"stv_port":27026,"stv_name":"Uncletopia | Chicago | 6 | All Maps | STV","players":null},{"server_id":38,"name":"Uncletopia | Chicago | 7 | Stopwatch","name_short":"chi-7","host":"chi-2.us.uncletopia.com","port":27035,"enabled":true,"region":"us-central","cc":"us","latitude":41.881832,"longitude":-87.62318,"reserved":0,"last_update":"0001-01-01T00:00:00Z","name_a2s":"Uncletopia | Chicago | 7 | Stopwatch","protocol":17,"map":"cp_granary","folder":"tf","game":"Team Fortress","app_id":440,"player_count":0,"max_players":24,"Bots":0,"server_type":"Dedicated","server_os":"Linux","password":true,"vac":true,"version":"7961495","steam_id":85568392924866364,"keywords":["cp","nocrits","nodmgspread","uncletopia"],"game_id":440,"stv_port":27036,"stv_name":"Uncletopia | Chicago | 7 | Stopwatch | STV","players":null},{"server_id":39,"name":"Uncletopia | Chicago | 8 | Community","name_short":"chi-8","host":"chi-2.us.uncletopia.com","port":27045,"enabled":true,"region":"us-central","cc":"us","latitude":41.881832,"longitude":-87.62318,"reserved":0,"last_update":"0001-01-01T00:00:00Z","name_a2s":"Uncletopia | Chicago | 8 | Community","protocol":17,"map":"workshop/cp_caldera_rc3.ugc2834196889","folder":"tf","game":"Team Fortress","app_id":440,"player_count":0,"max_players":24,"Bots":0,"server_type":"Dedicated","server_os":"Linux","password":true,"vac":true,"version":"7961495","steam_id":85568392924866365,"keywords":["cp","nocrits","nodmgspread","uncletopia"],"game_id":440,"stv_port":27046,"stv_name":"Uncletopia | Chicago | 8 | Community | STV","players":null},{"server_id":8,"name":"Uncletopia | Dallas | 1 | All Maps","name_short":"dal-1","host":"dal-1.us.uncletopia.com","port":27015,"enabled":true,"region":"us-central","cc":"us","latitude":32.779167,"longitude":-96.80889,"reserved":0,"last_update":"0001-01-01T00:00:00Z","name_a2s":"Uncletopia | Dallas | 1 | All Maps","protocol":17,"map":"pl_upward","folder":"tf","game":"Team Fortress","app_id":440,"player_count":18,"max_players":24,"Bots":0,"server_type":"Dedicated","server_os":"Linux","password":true,"vac":true,"version":"7961495","steam_id":85568392924469986,"keywords":["nocrits","nodmgspread","payload","uncletopia"],"game_id":440,"stv_port":27016,"stv_name":"Uncletopia | Dallas | 1 | All Maps | STV","players":[{"user_id":22,"name":"✨ Rarity ✨","steam_id":76561199172206856,"connected_time":683000000000,"state":"active","ping":53},{"user_id":15,"name":"MrPeanutBetter","steam_id":76561199149697526,"connected_time":2097000000000,"state":"active","ping":124},{"user_id":12,"name":"Crow","steam_id":76561198837804866,"connected_time":2304000000000,"state":"active","ping":91},{"user_id":13,"name":"Kk","steam_id":76561198197211135,"connected_time":2261000000000,"state":"active","ping":50},{"user_id":17,"name":"asm_ghost","steam_id":76561199205363547,"connected_time":1314000000000,"state":"active","ping":105},{"user_id":18,"name":"The Gremlin","steam_id":76561198419066993,"connected_time":1309000000000,"state":"active","ping":115},{"user_id":19,"name":"Call me the sleeps","steam_id":76561198121245586,"connected_time":1224000000000,"state":"active","ping":83},{"user_id":20,"name":"Echo","steam_id":76561199165491231,"connected_time":1055000000000,"state":"active","ping":66},{"user_id":24,"name":"Friendly Neighborhood Engineer","steam_id":76561199074181200,"connected_time":574000000000,"state":"active","ping":153},{"user_id":25,"name":"Derblitz","steam_id":76561198040953176,"connected_time":557000000000,"state":"active","ping":86},{"user_id":26,"name":"Pizza","steam_id":76561198207407833,"connected_time":523000000000,"state":"active","ping":43},{"user_id":27,"name":"Holden Caulfield","steam_id":76561198372579548,"connected_time":485000000000,"state":"active","ping":93},{"user_id":29,"name":"RedBread | Not mad, just Bo3","steam_id":76561197999362370,"connected_time":276000000000,"state":"active","ping":89},{"user_id":30,"name":"Fewny","steam_id":76561198225977000,"connected_time":78000000000,"state":"active","ping":61},{"user_id":31,"name":"fissu!izi","steam_id":76561198856016840,"connected_time":62000000000,"state":"active","ping":112},{"user_id":32,"name":"Killerfish360","steam_id":76561198115029584,"connected_time":47000000000,"state":"active","ping":73},{"user_id":33,"name":"JstForfun","steam_id":76561199068433784,"connected_time":41000000000,"state":"active","ping":168},{"user_id":34,"name":"garebear","steam_id":76561198034080155,"connected_time":36000000000,"state":"active","ping":63}]},{"server_id":108,"name":"Uncletopia | Dallas | 2 | All Maps","name_short":"dal-2","host":"dal-1.us.uncletopia.com","port":27025,"enabled":true,"region":"us-central","cc":"us","latitude":32.779167,"longitude":-96.80889,"reserved":0,"last_update":"0001-01-01T00:00:00Z","name_a2s":"Uncletopia | Dallas | 2 | All Maps","protocol":17,"map":"pl_borneo","folder":"tf","game":"Team Fortress","app_id":440,"player_count":24,"max_players":24,"Bots":0,"server_type":"Dedicated","server_os":"Linux","password":true,"vac":true,"version":"7961495","steam_id":85568392924469988,"keywords":["nocrits","nodmgspread","payload","uncletopia"],"game_id":440,"stv_port":27026,"stv_name":"Uncletopia | Dallas | 2 | All Maps | STV","players":[{"user_id":56,"name":"wrongthink","steam_id":76561198830293087,"connected_time":1642000000000,"state":"active","ping":66},{"user_id":75,"name":"lorient","steam_id":76561198150831438,"connected_time":171000000000,"state":"active","ping":75},{"user_id":14,"name":"Dreamzapp","steam_id":76561199084936632,"connected_time":3884000000000,"state":"active","ping":93},{"user_id":76,"name":"shoota","steam_id":76561198284992433,"connected_time":165000000000,"state":"active","ping":74},{"user_id":41,"name":"SmiggleGiggle","steam_id":76561198171810677,"connected_time":2762000000000,"state":"active","ping":123},{"user_id":71,"name":"Prsm","steam_id":76561198053344995,"connected_time":695000000000,"state":"active","ping":75},{"user_id":69,"name":"leighley","steam_id":76561198135492259,"connected_time":844000000000,"state":"active","ping":65},{"user_id":80,"name":"Certified Hood Classic","steam_id":76561199086159354,"connected_time":25000000000,"state":"active","ping":47},{"user_id":33,"name":"i poop my pants","steam_id":76561199488347875,"connected_time":3129000000000,"state":"active","ping":53},{"user_id":34,"name":"malice","steam_id":76561198208849751,"connected_time":3092000000000,"state":"active","ping":73},{"user_id":65,"name":"room temp IQ","steam_id":76561198018724712,"connected_time":963000000000,"state":"active","ping":37},{"user_id":64,"name":"MR.JOHNSONDIKCOOMINGS","steam_id":76561199127498304,"connected_time":1059000000000,"state":"active","ping":88},{"user_id":73,"name":"corg","steam_id":76561198338740292,"connected_time":481000000000,"state":"active","ping":87},{"user_id":57,"name":"Huachi-Kun","steam_id":76561198878018320,"connected_time":1619000000000,"state":"active","ping":48},{"user_id":58,"name":"Genius Meme","steam_id":76561198162911254,"connected_time":1488000000000,"state":"active","ping":79},{"user_id":70,"name":"iluvtoust","steam_id":76561198869269207,"connected_time":833000000000,"state":"active","ping":47},{"user_id":78,"name":"F2P","steam_id":76561199509106728,"connected_time":107000000000,"state":"active","ping":62},{"user_id":59,"name":"IronicallyMe","steam_id":76561198882111337,"connected_time":1419000000000,"state":"active","ping":83},{"user_id":79,"name":"klevmeister","steam_id":76561198799106535,"connected_time":92000000000,"state":"active","ping":116},{"user_id":38,"name":"Tony","steam_id":76561198169799653,"connected_time":2984000000000,"state":"active","ping":60},{"user_id":40,"name":"shaq$","steam_id":76561198045246504,"connected_time":2793000000000,"state":"active","ping":80},{"user_id":47,"name":"huntertabony","steam_id":76561198241622264,"connected_time":2574000000000,"state":"active","ping":99},{"user_id":60,"name":"SafetyInstructor","steam_id":76561199195205705,"connected_time":1396000000000,"state":"active","ping":56},{"user_id":67,"name":"ATL1| laxthecar","steam_id":76561199020449059,"connected_time":913000000000,"state":"active","ping":68}]},{"server_id":404,"name":"Uncletopia | Dallas | 3 | All Maps","name_short":"dal-3","host":"dal-1.us.uncletopia.com","port":27035,"enabled":true,"region":"us-central","cc":"us","latitude":32.779167,"longitude":-96.80889,"reserved":0,"last_update":"0001-01-01T00:00:00Z","name_a2s":"Uncletopia | Dallas | 3 | All Maps","protocol":17,"map":"koth_brazil","folder":"tf","game":"Team Fortress","app_id":440,"player_count":24,"max_players":24,"Bots":0,"server_type":"Dedicated","server_os":"Linux","password":true,"vac":true,"version":"7961495","steam_id":85568392924515219,"keywords":["cp","nocrits","nodmgspread","uncletopia"],"game_id":440,"stv_port":27036,"stv_name":"Uncletopia | Dallas | 3 | All Maps | STV","players":[{"user_id":105,"name":"BrainlezBrainiac","steam_id":76561199193942805,"connected_time":7063000000000,"state":"active","ping":64},{"user_id":168,"name":"Fortune","steam_id":76561198346118738,"connected_time":2716000000000,"state":"active","ping":60},{"user_id":185,"name":"Octo","steam_id":76561199056210895,"connected_time":1005000000000,"state":"active","ping":72},{"user_id":152,"name":"N4G4S4K1 1S K4RK4L1C1OUS","steam_id":76561199031772797,"connected_time":3995000000000,"state":"active","ping":85},{"user_id":179,"name":"9/11 Airlines","steam_id":76561198096306325,"connected_time":1590000000000,"state":"active","ping":88},{"user_id":193,"name":"Rich Tigress Fina","steam_id":76561198034166729,"connected_time":137000000000,"state":"active","ping":111},{"user_id":176,"name":"YoyoMama","steam_id":76561198260113828,"connected_time":1647000000000,"state":"active","ping":94},{"user_id":182,"name":"Skarp129","steam_id":76561198108679057,"connected_time":1381000000000,"state":"active","ping":78},{"user_id":146,"name":"Van Tastic","steam_id":76561198063855523,"connected_time":4228000000000,"state":"active","ping":42},{"user_id":187,"name":"Mint Jelly","steam_id":76561197991286751,"connected_time":534000000000,"state":"active","ping":66},{"user_id":165,"name":"Blade Racer","steam_id":76561198155896703,"connected_time":3037000000000,"state":"active","ping":76},{"user_id":171,"name":"Rukks","steam_id":76561197993918954,"connected_time":2500000000000,"state":"active","ping":77},{"user_id":144,"name":"MenInHatz","steam_id":76561198825094263,"connected_time":4357000000000,"state":"active","ping":75},{"user_id":177,"name":"degeneracy","steam_id":76561198836102519,"connected_time":1637000000000,"state":"active","ping":94},{"user_id":155,"name":"Da Policia","steam_id":76561198012762789,"connected_time":3835000000000,"state":"active","ping":46},{"user_id":188,"name":"raldite","steam_id":76561198074152931,"connected_time":471000000000,"state":"active","ping":180},{"user_id":137,"name":"Never Ovaryacting","steam_id":76561198158691254,"connected_time":4633000000000,"state":"active","ping":70},{"user_id":189,"name":"Jaflampe","steam_id":76561198175827647,"connected_time":435000000000,"state":"active","ping":79},{"user_id":184,"name":"SummerScarab","steam_id":76561198173860219,"connected_time":1196000000000,"state":"active","ping":69},{"user_id":172,"name":"A Gamer [F2P]","steam_id":76561198138712892,"connected_time":2103000000000,"state":"active","ping":43},{"user_id":153,"name":"Spicy Churro","steam_id":76561197992913147,"connected_time":3958000000000,"state":"active","ping":74},{"user_id":191,"name":"cumgoblin","steam_id":76561198113270138,"connected_time":254000000000,"state":"active","ping":50},{"user_id":190,"name":"CrunchyHemorrhoids","steam_id":76561198868849673,"connected_time":381000000000,"state":"active","ping":76},{"user_id":178,"name":"Jayne Cobb","steam_id":76561198080585050,"connected_time":1616000000000,"state":"active","ping":95}]},{"server_id":405,"name":"Uncletopia | Dallas | 4 | Community","name_short":"dal-4","host":"dal-1.us.uncletopia.com","port":27045,"enabled":true,"region":"us-central","cc":"us","latitude":32.779167,"longitude":-96.80889,"reserved":0,"last_update":"0001-01-01T00:00:00Z","name_a2s":"Uncletopia | Dallas | 4 | Community","protocol":17,"map":"workshop/cp_hazyfort_rc6.ugc1365963729","folder":"tf","game":"Team Fortress","app_id":440,"player_count":0,"max_players":24,"Bots":0,"server_type":"Dedicated","server_os":"Linux","password":true,"vac":true,"version":"7961495","steam_id":85568392924515220,"keywords":["cp","nocrits","nodmgspread","uncletopia"],"game_id":440,"stv_port":27046,"stv_name":"Uncletopia | Dallas | 4 | Community | STV","players":null},{"server_id":5,"name":"Uncletopia | Frankfurt | 1 | All Maps","name_short":"frk-1","host":"frk-1.de.uncletopia.com","port":27015,"enabled":true,"region":"eu","cc":"de","latitude":50.110924,"longitude":8.682127,"reserved":0,"last_update":"0001-01-01T00:00:00Z","name_a2s":"Uncletopia | Frankfurt | 1 | All Maps","protocol":17,"map":"pl_goldrush","folder":"tf","game":"Team Fortress","app_id":440,"player_count":24,"max_players":24,"Bots":0,"server_type":"Dedicated","server_os":"Linux","password":true,"vac":true,"version":"7961495","steam_id":85568392924469989,"keywords":["nocrits","nodmgspread","payload","uncletopia"],"game_id":440,"stv_port":27016,"stv_name":"Uncletopia | Frankfurt | 1 | All Maps | STV","players":[{"user_id":343,"name":"cl","steam_id":76561199436640904,"connected_time":2228000000000,"state":"active","ping":75},{"user_id":385,"name":"Carl","steam_id":76561198045638738,"connected_time":774000000000,"state":"active","ping":64},{"user_id":249,"name":"NitPig","steam_id":76561198212991935,"connected_time":6738000000000,"state":"active","ping":104},{"user_id":386,"name":"Sholunan","steam_id":76561198062435739,"connected_time":774000000000,"state":"active","ping":58},{"user_id":390,"name":"coolguy_chris_2004","steam_id":76561198101508470,"connected_time":48000000000,"state":"active","ping":46},{"user_id":382,"name":"Fedm","steam_id":76561199020090514,"connected_time":1227000000000,"state":"active","ping":71},{"user_id":302,"name":"usuikui","steam_id":76561198093304268,"connected_time":3043000000000,"state":"active","ping":72},{"user_id":368,"name":"Marukuso","steam_id":76561198154229845,"connected_time":1923000000000,"state":"active","ping":55},{"user_id":387,"name":"cheriberry","steam_id":76561198093577036,"connected_time":581000000000,"state":"active","ping":57},{"user_id":304,"name":"redditor_gaming","steam_id":76561198176507538,"connected_time":2970000000000,"state":"active","ping":83},{"user_id":305,"name":"Mind Fuzz","steam_id":76561198050079428,"connected_time":2957000000000,"state":"active","ping":86},{"user_id":384,"name":"Chappi","steam_id":76561198075512843,"connected_time":787000000000,"state":"active","ping":95},{"user_id":285,"name":"Cringelord","steam_id":76561198020989545,"connected_time":3803000000000,"state":"active","ping":85},{"user_id":359,"name":"Sham!","steam_id":76561198050434275,"connected_time":2040000000000,"state":"active","ping":46},{"user_id":347,"name":"Man","steam_id":76561197964776022,"connected_time":2209000000000,"state":"active","ping":37},{"user_id":383,"name":"Mr_Joergen","steam_id":76561198364713702,"connected_time":806000000000,"state":"active","ping":68},{"user_id":299,"name":"UndercoverFurbyHunter","steam_id":76561198265722644,"connected_time":3222000000000,"state":"active","ping":89},{"user_id":370,"name":"Egor Pomidor","steam_id":76561199175688390,"connected_time":1852000000000,"state":"active","ping":78},{"user_id":380,"name":"wiserclub6 #savetf2","steam_id":76561198312144351,"connected_time":1565000000000,"state":"active","ping":90},{"user_id":290,"name":"Jeremy265","steam_id":76561199004316549,"connected_time":3476000000000,"state":"active","ping":133},{"user_id":312,"name":"[000000]SHINOBI","steam_id":76561198202707327,"connected_time":2851000000000,"state":"active","ping":64},{"user_id":381,"name":"Dankstein","steam_id":76561198122662378,"connected_time":1565000000000,"state":"active","ping":79},{"user_id":287,"name":"Królicki_","steam_id":76561199109915352,"connected_time":3650000000000,"state":"active","ping":59},{"user_id":365,"name":"El_Kommadante","steam_id":76561198079551685,"connected_time":1948000000000,"state":"active","ping":63}]},{"server_id":110,"name":"Uncletopia | Frankfurt | 2 | All Maps","name_short":"frk-2","host":"frk-1.de.uncletopia.com","port":27025,"enabled":true,"region":"eu","cc":"de","latitude":50.110924,"longitude":8.682127,"reserved":0,"last_update":"0001-01-01T00:00:00Z","name_a2s":"Uncletopia | Frankfurt | 2 | All Maps","protocol":17,"map":"cp_dustbowl","folder":"tf","game":"Team Fortress","app_id":440,"player_count":24,"max_players":24,"Bots":0,"server_type":"Dedicated","server_os":"Linux","password":true,"vac":true,"version":"7961495","steam_id":85568392924469990,"keywords":["cp","nocrits","nodmgspread","uncletopia"],"game_id":440,"stv_port":27026,"stv_name":"Uncletopia | Frankfurt | 2 | All Maps | STV","players":[{"user_id":253,"name":"Caliban","steam_id":76561197999696839,"connected_time":573000000000,"state":"active","ping":102},{"user_id":212,"name":"housing crisis#savetf2","steam_id":76561198119984382,"connected_time":3595000000000,"state":"active","ping":57},{"user_id":217,"name":"Flavia ♥","steam_id":76561198108360671,"connected_time":2242000000000,"state":"active","ping":93},{"user_id":220,"name":"Tomato","steam_id":76561199124472513,"connected_time":1616000000000,"state":"active","ping":99},{"user_id":226,"name":"Hundehunde (137)","steam_id":76561198028683991,"connected_time":1271000000000,"state":"active","ping":51},{"user_id":227,"name":"rockBustaz","steam_id":76561198088290698,"connected_time":1268000000000,"state":"active","ping":50},{"user_id":249,"name":":::::","steam_id":76561197990757157,"connected_time":765000000000,"state":"active","ping":74},{"user_id":229,"name":"Charlie Brown","steam_id":76561199378865926,"connected_time":1259000000000,"state":"active","ping":80},{"user_id":231,"name":"P","steam_id":76561198399390201,"connected_time":1178000000000,"state":"active","ping":75},{"user_id":232,"name":"slogar","steam_id":76561198046191991,"connected_time":1150000000000,"state":"active","ping":48},{"user_id":260,"name":"God is serb","steam_id":76561198966246028,"connected_time":44000000000,"state":"active","ping":79},{"user_id":246,"name":"System","steam_id":76561199442503973,"connected_time":788000000000,"state":"active","ping":33},{"user_id":235,"name":"John Doe","steam_id":76561198369597903,"connected_time":976000000000,"state":"active","ping":80},{"user_id":261,"name":"KajaStorm","steam_id":76561199215842872,"connected_time":31000000000,"state":"spawning","ping":121},{"user_id":237,"name":"WHUSSKEY","steam_id":76561198137827441,"connected_time":939000000000,"state":"active","ping":62},{"user_id":239,"name":"BuddhaBrot","steam_id":76561198181885110,"connected_time":913000000000,"state":"active","ping":55},{"user_id":240,"name":"they/them pussy enjoyer","steam_id":76561199071718151,"connected_time":911000000000,"state":"active","ping":50},{"user_id":255,"name":"Finnish Farmer","steam_id":76561198205366043,"connected_time":488000000000,"state":"active","ping":82},{"user_id":257,"name":"korea","steam_id":76561198120520111,"connected_time":259000000000,"state":"active","ping":57},{"user_id":250,"name":"Ergas","steam_id":76561198860861032,"connected_time":660000000000,"state":"active","ping":73},{"user_id":251,"name":"dog?","steam_id":76561199232839385,"connected_time":658000000000,"state":"active","ping":90},{"user_id":245,"name":"swoooblez","steam_id":76561197996511478,"connected_time":795000000000,"state":"active","ping":77},{"user_id":262,"name":"Average Water Fan","steam_id":76561199415989636,"connected_time":14000000000,"state":"spawning","ping":91},{"user_id":248,"name":"senk999","steam_id":76561199433663164,"connected_time":782000000000,"state":"active","ping":102}]},{"server_id":308,"name":"Uncletopia | Frankfurt | 3 | All Maps","name_short":"frk-3","host":"frk-1.de.uncletopia.com","port":27035,"enabled":true,"region":"eu","cc":"de","latitude":50.110924,"longitude":8.682127,"reserved":0,"last_update":"0001-01-01T00:00:00Z","name_a2s":"Uncletopia | Frankfurt | 3 | All Maps","protocol":17,"map":"ctf_2fort","folder":"tf","game":"Team Fortress","app_id":440,"player_count":19,"max_players":24,"Bots":0,"server_type":"Dedicated","server_os":"Linux","password":true,"vac":true,"version":"7961495","steam_id":85568392924504274,"keywords":["ctf","nocrits","nodmgspread","uncletopia"],"game_id":440,"stv_port":27036,"stv_name":"Uncletopia | Frankfurt | 3 | All Maps | STV","players":[{"user_id":162,"name":"soupalognionycrouton","steam_id":76561199021878433,"connected_time":530000000000,"state":"active","ping":74},{"user_id":159,"name":"pardner","steam_id":76561198451471161,"connected_time":651000000000,"state":"active","ping":68},{"user_id":170,"name":"_Shkoot","steam_id":76561198318170398,"connected_time":30000000000,"state":"active","ping":45},{"user_id":163,"name":"oGod","steam_id":76561198971536843,"connected_time":526000000000,"state":"active","ping":60},{"user_id":94,"name":"Anri Okita's Massive Milkers","steam_id":76561199186352720,"connected_time":6125000000000,"state":"active","ping":60},{"user_id":154,"name":"Estyle","steam_id":76561198157804700,"connected_time":829000000000,"state":"active","ping":85},{"user_id":164,"name":"tapeworms!","steam_id":76561198069649097,"connected_time":510000000000,"state":"spawning","ping":48},{"user_id":151,"name":"Stolen","steam_id":76561198039251966,"connected_time":1482000000000,"state":"active","ping":122},{"user_id":146,"name":"Doctor Glizzy","steam_id":76561198315474018,"connected_time":1784000000000,"state":"active","ping":71},{"user_id":147,"name":"Lorenzo Lovers","steam_id":76561198073973581,"connected_time":1726000000000,"state":"active","ping":74},{"user_id":136,"name":"abra-kablam","steam_id":76561198195857751,"connected_time":2025000000000,"state":"active","ping":58},{"user_id":132,"name":"Delere","steam_id":76561198061309755,"connected_time":2565000000000,"state":"active","ping":130},{"user_id":171,"name":"L'Inspecteur","steam_id":76561198891046692,"connected_time":6000000000,"state":"spawning","ping":104},{"user_id":155,"name":"epic party rat","steam_id":76561199100632053,"connected_time":817000000000,"state":"active","ping":62},{"user_id":153,"name":"Rolli","steam_id":76561198144699520,"connected_time":1378000000000,"state":"active","ping":87},{"user_id":152,"name":"Borlor","steam_id":76561198206059604,"connected_time":1431000000000,"state":"active","ping":56},{"user_id":168,"name":"cockroach","steam_id":76561198841841656,"connected_time":83000000000,"state":"active","ping":53},{"user_id":133,"name":"Chopperson_","steam_id":76561198873728497,"connected_time":2439000000000,"state":"active","ping":110},{"user_id":160,"name":"e36 1.8","steam_id":76561198134203031,"connected_time":600000000000,"state":"active","ping":49}]},{"server_id":309,"name":"Uncletopia | Frankfurt | 4 | All Maps","name_short":"frk-4","host":"frk-1.de.uncletopia.com","port":27045,"enabled":true,"region":"eu","cc":"de","latitude":50.110924,"longitude":8.682127,"reserved":0,"last_update":"0001-01-01T00:00:00Z","name_a2s":"Uncletopia | Frankfurt | 4 | All Maps","protocol":17,"map":"pl_borneo","folder":"tf","game":"Team Fortress","app_id":440,"player_count":24,"max_players":24,"Bots":0,"server_type":"Dedicated","server_os":"Linux","password":true,"vac":true,"version":"7961495","steam_id":85568392924504275,"keywords":["nocrits","nodmgspread","payload","uncletopia"],"game_id":440,"stv_port":27046,"stv_name":"Uncletopia | Frankfurt | 4 | All Maps | STV","players":[{"user_id":250,"name":"hawkblob","steam_id":76561198803720565,"connected_time":714000000000,"state":"active","ping":74},{"user_id":206,"name":"galaxy","steam_id":76561198164819022,"connected_time":3941000000000,"state":"active","ping":59},{"user_id":253,"name":"Lyell","steam_id":76561198350329389,"connected_time":459000000000,"state":"active","ping":80},{"user_id":219,"name":"vurtun","steam_id":76561198857395274,"connected_time":2085000000000,"state":"active","ping":48},{"user_id":208,"name":"alice","steam_id":76561198269200388,"connected_time":3700000000000,"state":"active","ping":75},{"user_id":239,"name":"Grønkjær","steam_id":76561198041075280,"connected_time":1701000000000,"state":"active","ping":60},{"user_id":254,"name":"Siegmeyer","steam_id":76561198328543549,"connected_time":230000000000,"state":"active","ping":68},{"user_id":210,"name":"DeterminedXD[HUN]","steam_id":76561199469006453,"connected_time":3581000000000,"state":"active","ping":85},{"user_id":255,"name":"generic alias","steam_id":76561198271607226,"connected_time":149000000000,"state":"active","ping":86},{"user_id":237,"name":"Accident","steam_id":76561198115160396,"connected_time":1809000000000,"state":"active","ping":70},{"user_id":248,"name":"XPullaHiiri","steam_id":76561198031652375,"connected_time":961000000000,"state":"active","ping":83},{"user_id":246,"name":"Snd","steam_id":76561198010816408,"connected_time":1025000000000,"state":"active","ping":105},{"user_id":223,"name":"Schogard","steam_id":76561198847318421,"connected_time":1975000000000,"state":"active","ping":108},{"user_id":236,"name":"PlasticVoid","steam_id":76561197997870306,"connected_time":1837000000000,"state":"active","ping":44},{"user_id":226,"name":"Trm","steam_id":76561198214951663,"connected_time":1953000000000,"state":"active","ping":68},{"user_id":257,"name":"Enzio","steam_id":76561199058194357,"connected_time":93000000000,"state":"active","ping":50},{"user_id":249,"name":"riaron","steam_id":76561198187637390,"connected_time":937000000000,"state":"active","ping":85},{"user_id":244,"name":"gionnibravo12","steam_id":76561199500492557,"connected_time":1488000000000,"state":"active","ping":78},{"user_id":230,"name":"⨂","steam_id":76561198087800030,"connected_time":1936000000000,"state":"active","ping":57},{"user_id":258,"name":"Supercoxylac","steam_id":76561198376300138,"connected_time":79000000000,"state":"active","ping":73},{"user_id":256,"name":"Stinky Whizzleteats","steam_id":76561197968945306,"connected_time":122000000000,"state":"active","ping":75},{"user_id":242,"name":"EricToGo","steam_id":76561198068019642,"connected_time":1503000000000,"state":"active","ping":66},{"user_id":235,"name":"hoe","steam_id":76561198078902326,"connected_time":1848000000000,"state":"active","ping":58},{"user_id":243,"name":"SoaCrow","steam_id":76561198069420717,"connected_time":1503000000000,"state":"active","ping":58}]},{"server_id":310,"name":"Uncletopia | Frankfurt | 5 | All Maps","name_short":"frk-5","host":"frk-1.de.uncletopia.com","port":27055,"enabled":true,"region":"eu","cc":"de","latitude":50.110924,"longitude":8.682127,"reserved":0,"last_update":"0001-01-01T00:00:00Z","name_a2s":"Uncletopia | Frankfurt | 5 | All Maps","protocol":17,"map":"ctf_2fort","folder":"tf","game":"Team Fortress","app_id":440,"player_count":23,"max_players":24,"Bots":0,"server_type":"Dedicated","server_os":"Linux","password":true,"vac":true,"version":"7961495","steam_id":85568392924504277,"keywords":["ctf","nocrits","nodmgspread","uncletopia"],"game_id":440,"stv_port":27056,"stv_name":"Uncletopia | Frankfurt | 5 | All Maps | STV","players":[{"user_id":397,"name":"wacky woohoo Ravioli men","steam_id":76561198434761942,"connected_time":514000000000,"state":"active","ping":137},{"user_id":416,"name":"KarlRanzeier","steam_id":76561198066281337,"connected_time":17000000000,"state":"active","ping":59},{"user_id":393,"name":"Burgoo_King","steam_id":76561198133572225,"connected_time":581000000000,"state":"active","ping":68},{"user_id":417,"name":"TJ1212","steam_id":76561199013575313,"connected_time":4000000000,"state":"spawning","ping":54},{"user_id":395,"name":"Rezzy","steam_id":76561198410598772,"connected_time":560000000000,"state":"active","ping":51},{"user_id":398,"name":"Jácint","steam_id":76561198118501005,"connected_time":472000000000,"state":"active","ping":64},{"user_id":399,"name":"ggwp","steam_id":76561199141037141,"connected_time":459000000000,"state":"active","ping":68},{"user_id":354,"name":"Octopixel","steam_id":76561198346310753,"connected_time":1950000000000,"state":"active","ping":63},{"user_id":322,"name":"SissifiedBlackGuy","steam_id":76561199509261527,"connected_time":2878000000000,"state":"active","ping":101},{"user_id":388,"name":"Sicronici","steam_id":76561199054534566,"connected_time":721000000000,"state":"active","ping":75},{"user_id":400,"name":"Fallen_Scholar","steam_id":76561198055468709,"connected_time":459000000000,"state":"active","ping":71},{"user_id":415,"name":"EL SHEPARDOOO32","steam_id":76561198121574523,"connected_time":32000000000,"state":"spawning","ping":72},{"user_id":405,"name":"The King of Roses","steam_id":76561198863399624,"connected_time":383000000000,"state":"active","ping":100},{"user_id":324,"name":"sammy","steam_id":76561199500132317,"connected_time":2869000000000,"state":"active","ping":182},{"user_id":327,"name":"hamster bigger than human","steam_id":76561199297010083,"connected_time":2787000000000,"state":"active","ping":89},{"user_id":368,"name":"Oasis","steam_id":76561198207659821,"connected_time":1343000000000,"state":"active","ping":61},{"user_id":289,"name":"citronous","steam_id":76561198093290934,"connected_time":4954000000000,"state":"active","ping":56},{"user_id":412,"name":"One_shot_one_miss","steam_id":76561199216585695,"connected_time":233000000000,"state":"active","ping":101},{"user_id":413,"name":"One shot, One shot, Ohhh... kil","steam_id":76561199052784483,"connected_time":219000000000,"state":"active","ping":102},{"user_id":407,"name":"HumorlessButton","steam_id":76561198170128638,"connected_time":344000000000,"state":"active","ping":56},{"user_id":409,"name":"Katnor","steam_id":76561199141290973,"connected_time":277000000000,"state":"active","ping":74},{"user_id":410,"name":"SendBob","steam_id":76561198151981614,"connected_time":270000000000,"state":"active","ping":86},{"user_id":414,"name":"Charged","steam_id":76561199127215130,"connected_time":218000000000,"state":"active","ping":84}]},{"server_id":311,"name":"Uncletopia | Frankfurt | 6 | All Maps","name_short":"frk-6","host":"frk-1.de.uncletopia.com","port":27065,"enabled":true,"region":"eu","cc":"de","latitude":50.110924,"longitude":8.682127,"reserved":0,"last_update":"0001-01-01T00:00:00Z","name_a2s":"Uncletopia | Frankfurt | 6 | All Maps","protocol":17,"map":"koth_viaduct","folder":"tf","game":"Team Fortress","app_id":440,"player_count":2,"max_players":24,"Bots":0,"server_type":"Dedicated","server_os":"Linux","password":true,"vac":true,"version":"7961495","steam_id":85568392924504278,"keywords":["cp","nocrits","nodmgspread","uncletopia"],"game_id":440,"stv_port":27066,"stv_name":"Uncletopia | Frankfurt | 6 | All Maps | STV","players":[{"user_id":293,"name":"Bottle gaming","steam_id":76561199262146323,"connected_time":224000000000,"state":"active","ping":58},{"user_id":295,"name":"Sloth","steam_id":76561198436618789,"connected_time":8000000000,"state":"active","ping":82}]},{"server_id":23,"name":"Uncletopia | Frankfurt | 7 | Stopwatch","name_short":"frk-7","host":"frk-1.de.uncletopia.com","port":27075,"enabled":true,"region":"eu","cc":"de","latitude":50.110924,"longitude":8.682127,"reserved":0,"last_update":"0001-01-01T00:00:00Z","name_a2s":"Uncletopia | Frankfurt | 7 | Stopwatch","protocol":17,"map":"cp_metalworks","folder":"tf","game":"Team Fortress","app_id":440,"player_count":0,"max_players":24,"Bots":0,"server_type":"Dedicated","server_os":"Linux","password":true,"vac":true,"version":"7961495","steam_id":85568392924742827,"keywords":["cp","nocrits","nodmgspread","uncletopia"],"game_id":440,"stv_port":27076,"stv_name":"Uncletopia | Frankfurt | 7 | Stopwatch | STV","players":null},{"server_id":24,"name":"Uncletopia | Frankfurt | 8 | Community","name_short":"frk-8","host":"frk-1.de.uncletopia.com","port":27085,"enabled":true,"region":"eu","cc":"de","latitude":50.110924,"longitude":8.682127,"reserved":0,"last_update":"0001-01-01T00:00:00Z","name_a2s":"Uncletopia | Frankfurt | 8 | Community","protocol":17,"map":"workshop/pl_divulgence_b4b.ugc2884808746","folder":"tf","game":"Team Fortress","app_id":440,"player_count":0,"max_players":24,"Bots":0,"server_type":"Dedicated","server_os":"Linux","password":true,"vac":true,"version":"7961495","steam_id":85568392924742828,"keywords":["nocrits","nodmgspread","payload","uncletopia"],"game_id":440,"stv_port":27086,"stv_name":"Uncletopia | Frankfurt | 8 | Community | STV","players":null},{"server_id":202,"name":"Uncletopia | Hong Kong | 1 | All Maps","name_short":"hgk-1","host":"hgk-1.hk.uncletopia.com","port":27015,"enabled":true,"region":"asia","cc":"hk","latitude":22.302711,"longitude":114.177216,"reserved":0,"last_update":"0001-01-01T00:00:00Z","name_a2s":"Uncletopia | Hong Kong | 1 | All Maps","protocol":17,"map":"koth_cascade","folder":"tf","game":"Team Fortress","app_id":440,"player_count":3,"max_players":24,"Bots":0,"server_type":"Dedicated","server_os":"Linux","password":true,"vac":true,"version":"7961495","steam_id":85568392924494504,"keywords":["cp","nocrits","nodmgspread","uncletopia"],"game_id":440,"stv_port":27016,"stv_name":"Uncletopia | Hong Kong | 1 | All Maps | STV","players":[{"user_id":194,"name":"barf dog","steam_id":76561198162173395,"connected_time":372000000000,"state":"active","ping":99},{"user_id":195,"name":"raph.","steam_id":76561199074852635,"connected_time":354000000000,"state":"active","ping":266},{"user_id":196,"name":"adobe benadryl","steam_id":76561198306834480,"connected_time":62000000000,"state":"active","ping":60}]},{"server_id":1,"name":"Uncletopia | Los Angeles | 1 | All Maps","name_short":"lax-1","host":"lax-1.us.uncletopia.com","port":27015,"enabled":true,"region":"us-west","cc":"us","latitude":33.94279,"longitude":-118.41004,"reserved":0,"last_update":"0001-01-01T00:00:00Z","name_a2s":"Uncletopia | Los Angeles | 1 | All Maps","protocol":17,"map":"koth_lakeside_final","folder":"tf","game":"Team Fortress","app_id":440,"player_count":0,"max_players":24,"Bots":0,"server_type":"Dedicated","server_os":"Linux","password":true,"vac":true,"version":"7961495","steam_id":85568392924469991,"keywords":["cp","nocrits","nodmgspread","uncletopia"],"game_id":440,"stv_port":27016,"stv_name":"Uncletopia | Los Angeles | 1 | All Maps | STV","players":null},{"server_id":112,"name":"Uncletopia | Los Angeles | 2 | All Maps","name_short":"lax-2","host":"lax-1.us.uncletopia.com","port":27025,"enabled":true,"region":"us-west","cc":"us","latitude":33.94279,"longitude":-118.41004,"reserved":0,"last_update":"0001-01-01T00:00:00Z","name_a2s":"Uncletopia | Los Angeles | 2 | All Maps","protocol":17,"map":"koth_lazarus","folder":"tf","game":"Team Fortress","app_id":440,"player_count":0,"max_players":24,"Bots":0,"server_type":"Dedicated","server_os":"Linux","password":true,"vac":true,"version":"7961495","steam_id":85568392924469992,"keywords":["cp","nocrits","nodmgspread","uncletopia"],"game_id":440,"stv_port":27026,"stv_name":"Uncletopia | Los Angeles | 2 | All Maps | STV","players":null},{"server_id":324,"name":"Uncletopia | Los Angeles | 3 | All Maps","name_short":"lax-3","host":"lax-1.us.uncletopia.com","port":27035,"enabled":true,"region":"us-west","cc":"us","latitude":33.94279,"longitude":-118.41004,"reserved":0,"last_update":"0001-01-01T00:00:00Z","name_a2s":"Uncletopia | Los Angeles | 3 | All Maps","protocol":17,"map":"pl_frontier_final","folder":"tf","game":"Team Fortress","app_id":440,"player_count":0,"max_players":24,"Bots":0,"server_type":"Dedicated","server_os":"Linux","password":true,"vac":true,"version":"7961495","steam_id":85568392924510198,"keywords":["nocrits","nodmgspread","payload","uncletopia"],"game_id":440,"stv_port":27036,"stv_name":"Uncletopia | Los Angeles | 3 | All Maps | STV","players":null},{"server_id":25,"name":"Uncletopia | Los Angeles | 4 | Stopwatch","name_short":"lax-4","host":"lax-1.us.uncletopia.com","port":27045,"enabled":true,"region":"us-west","cc":"us","latitude":33.94279,"longitude":-118.41004,"reserved":0,"last_update":"0001-01-01T00:00:00Z","name_a2s":"Uncletopia | Los Angeles | 4 | Stopwatch","protocol":17,"map":"workshop/koth_bagel_rc6.ugc2514036946","folder":"tf","game":"Team Fortress","app_id":440,"player_count":0,"max_players":24,"Bots":0,"server_type":"Dedicated","server_os":"Linux","password":true,"vac":true,"version":"7961495","steam_id":85568392924510199,"keywords":["cp","nocrits","nodmgspread","uncletopia"],"game_id":440,"stv_port":27046,"stv_name":"Uncletopia | Los Angeles | 4 | Stopwatch | STV","players":null},{"server_id":11,"name":"Uncletopia | London | 1 | All Maps","name_short":"lon-1","host":"lon-1.uk.uncletopia.com","port":27015,"enabled":true,"region":"eu","cc":"gb","latitude":51.509865,"longitude":-0.118092,"reserved":0,"last_update":"0001-01-01T00:00:00Z","name_a2s":"Uncletopia | London | 1 | All Maps","protocol":17,"map":"cp_steel","folder":"tf","game":"Team Fortress","app_id":440,"player_count":24,"max_players":24,"Bots":0,"server_type":"Dedicated","server_os":"Linux","password":true,"vac":true,"version":"7961495","steam_id":85568392924367362,"keywords":["cp","nocrits","nodmgspread","uncletopia"],"game_id":440,"stv_port":27016,"stv_name":"Uncletopia | London | 1 | All Maps | STV","players":[{"user_id":366,"name":"Spike","steam_id":76561197994537515,"connected_time":458000000000,"state":"active","ping":66},{"user_id":253,"name":"Pride moth","steam_id":76561198799133372,"connected_time":8228000000000,"state":"active","ping":92},{"user_id":350,"name":"6bIK_0CeMEHuTEJIb","steam_id":76561198992528373,"connected_time":971000000000,"state":"active","ping":87},{"user_id":316,"name":"AnimeGirl(real)","steam_id":76561199062433944,"connected_time":5223000000000,"state":"active","ping":131},{"user_id":344,"name":"post-nuke jerma","steam_id":76561198094268619,"connected_time":1498000000000,"state":"active","ping":75},{"user_id":331,"name":"YuraGreek","steam_id":76561198050182252,"connected_time":2972000000000,"state":"active","ping":89},{"user_id":337,"name":"nudjura","steam_id":76561198281986139,"connected_time":1905000000000,"state":"active","ping":44},{"user_id":328,"name":"cuban pete","steam_id":76561198043601838,"connected_time":3828000000000,"state":"active","ping":60},{"user_id":326,"name":"Slifer","steam_id":76561198062255803,"connected_time":4060000000000,"state":"active","ping":79},{"user_id":358,"name":"Mircoxi","steam_id":76561199407632710,"connected_time":682000000000,"state":"active","ping":65},{"user_id":339,"name":"Doktor Glas","steam_id":76561198075963840,"connected_time":1518000000000,"state":"active","ping":66},{"user_id":338,"name":"callthecounselortonight","steam_id":76561198236015392,"connected_time":1854000000000,"state":"active","ping":119},{"user_id":335,"name":"waahh im baby gugu gaga im cry","steam_id":76561198190583242,"connected_time":2434000000000,"state":"active","ping":91},{"user_id":340,"name":"MarioThePlumber","steam_id":76561198314229530,"connected_time":1515000000000,"state":"active","ping":80},{"user_id":327,"name":"Son Goku","steam_id":76561199383437138,"connected_time":4060000000000,"state":"active","ping":124},{"user_id":341,"name":"katten","steam_id":76561198163615254,"connected_time":1512000000000,"state":"active","ping":61},{"user_id":364,"name":"↯","steam_id":76561198055389492,"connected_time":591000000000,"state":"active","ping":43},{"user_id":343,"name":"TheFlames","steam_id":76561198179314694,"connected_time":1509000000000,"state":"active","ping":60},{"user_id":365,"name":"Smokio","steam_id":76561198069650580,"connected_time":535000000000,"state":"active","ping":90},{"user_id":315,"name":"LivEssense","steam_id":76561198052476979,"connected_time":5293000000000,"state":"active","ping":90},{"user_id":342,"name":"Laru","steam_id":76561197998838438,"connected_time":1512000000000,"state":"active","ping":90},{"user_id":218,"name":"The Subway Scientist","steam_id":76561198193757646,"connected_time":10276000000000,"state":"active","ping":45},{"user_id":345,"name":"⸸aura⸸","steam_id":76561198066258544,"connected_time":1487000000000,"state":"active","ping":60},{"user_id":302,"name":"Lux","steam_id":76561198060417740,"connected_time":5690000000000,"state":"active","ping":45}]},{"server_id":114,"name":"Uncletopia | London | 2 | All Maps","name_short":"lon-2","host":"lon-1.uk.uncletopia.com","port":27025,"enabled":true,"region":"eu","cc":"gb","latitude":51.509865,"longitude":-0.118092,"reserved":0,"last_update":"0001-01-01T00:00:00Z","name_a2s":"Uncletopia | London | 2 | All Maps","protocol":17,"map":"pl_snowycoast","folder":"tf","game":"Team Fortress","app_id":440,"player_count":0,"max_players":24,"Bots":0,"server_type":"Dedicated","server_os":"Linux","password":true,"vac":true,"version":"7961495","steam_id":85568392924470941,"keywords":["nocrits","nodmgspread","payload","uncletopia"],"game_id":440,"stv_port":27026,"stv_name":"Uncletopia | London | 2 | All Maps | STV","players":null},{"server_id":320,"name":"Uncletopia | London | 3 | All Maps","name_short":"lon-3","host":"lon-1.uk.uncletopia.com","port":27035,"enabled":true,"region":"eu","cc":"gb","latitude":51.509865,"longitude":-0.118092,"reserved":0,"last_update":"0001-01-01T00:00:00Z","name_a2s":"Uncletopia | London | 3 | All Maps","protocol":17,"map":"pl_thundermountain","folder":"tf","game":"Team Fortress","app_id":440,"player_count":24,"max_players":24,"Bots":0,"server_type":"Dedicated","server_os":"Linux","password":true,"vac":true,"version":"7961495","steam_id":85568392924510192,"keywords":["nocrits","nodmgspread","payload","uncletopia"],"game_id":440,"stv_port":27036,"stv_name":"Uncletopia | London | 3 | All Maps | STV","players":[{"user_id":357,"name":"stonebum","steam_id":76561198057004606,"connected_time":1058000000000,"state":"active","ping":59},{"user_id":356,"name":"STAY HARD","steam_id":76561198057473786,"connected_time":1085000000000,"state":"active","ping":51},{"user_id":358,"name":"IHaveConsumed50KmofMeth","steam_id":76561199221172552,"connected_time":1033000000000,"state":"active","ping":49},{"user_id":333,"name":"Assassin+","steam_id":76561197994310420,"connected_time":2733000000000,"state":"active","ping":74},{"user_id":365,"name":"Butt","steam_id":76561198115496457,"connected_time":737000000000,"state":"active","ping":53},{"user_id":363,"name":"Mantra","steam_id":76561198058505094,"connected_time":870000000000,"state":"active","ping":102},{"user_id":360,"name":"Menny","steam_id":76561197992054834,"connected_time":1024000000000,"state":"active","ping":66},{"user_id":372,"name":"child cruncher","steam_id":76561199376433147,"connected_time":109000000000,"state":"active","ping":44},{"user_id":375,"name":"Mutilated_Scout","steam_id":76561199210952387,"connected_time":62000000000,"state":"active","ping":55},{"user_id":346,"name":"The Spookster","steam_id":76561198122072252,"connected_time":1823000000000,"state":"active","ping":59},{"user_id":335,"name":"marvi444","steam_id":76561198431534139,"connected_time":2613000000000,"state":"active","ping":60},{"user_id":259,"name":"Swayer","steam_id":76561198056192460,"connected_time":8113000000000,"state":"active","ping":66},{"user_id":355,"name":"tripl","steam_id":76561198119449463,"connected_time":1218000000000,"state":"active","ping":53},{"user_id":343,"name":"swagmeester","steam_id":76561198045828392,"connected_time":1958000000000,"state":"active","ping":64},{"user_id":306,"name":"ruschca","steam_id":76561198041966522,"connected_time":4032000000000,"state":"active","ping":44},{"user_id":361,"name":"Cobalt","steam_id":76561198349228196,"connected_time":1016000000000,"state":"active","ping":44},{"user_id":307,"name":"BakedGecko","steam_id":76561198011015750,"connected_time":4032000000000,"state":"active","ping":49},{"user_id":374,"name":"Narvhalø","steam_id":76561198147495474,"connected_time":103000000000,"state":"active","ping":39},{"user_id":351,"name":"Miku.Hatsune.2007","steam_id":76561198199687607,"connected_time":1534000000000,"state":"active","ping":67},{"user_id":348,"name":"Yelowchy","steam_id":76561198199416121,"connected_time":1794000000000,"state":"active","ping":75},{"user_id":339,"name":"Crispy","steam_id":76561198027957907,"connected_time":2468000000000,"state":"active","ping":75},{"user_id":322,"name":"𐂃","steam_id":76561198874987906,"connected_time":3459000000000,"state":"active","ping":56},{"user_id":340,"name":"romov","steam_id":76561199182288871,"connected_time":2426000000000,"state":"active","ping":114},{"user_id":368,"name":"Vinn0","steam_id":76561198987241284,"connected_time":564000000000,"state":"active","ping":61}]},{"server_id":321,"name":"Uncletopia | London | 4 | All Maps","name_short":"lon-4","host":"lon-1.uk.uncletopia.com","port":27045,"enabled":true,"region":"eu","cc":"gb","latitude":51.509865,"longitude":-0.118092,"reserved":0,"last_update":"0001-01-01T00:00:00Z","name_a2s":"Uncletopia | London | 4 | All Maps","protocol":17,"map":"koth_harvest_final","folder":"tf","game":"Team Fortress","app_id":440,"player_count":24,"max_players":24,"Bots":0,"server_type":"Dedicated","server_os":"Linux","password":true,"vac":true,"version":"7961495","steam_id":85568392924510193,"keywords":["cp","nocrits","nodmgspread","uncletopia"],"game_id":440,"stv_port":27046,"stv_name":"Uncletopia | London | 4 | All Maps | STV","players":[{"user_id":340,"name":"kaelan","steam_id":76561198001425310,"connected_time":2773000000000,"state":"active","ping":75},{"user_id":390,"name":"Machine Elf","steam_id":76561198274465755,"connected_time":278000000000,"state":"spawning","ping":35},{"user_id":375,"name":"Largo","steam_id":76561198844368927,"connected_time":1137000000000,"state":"active","ping":72},{"user_id":344,"name":"biohazard.pt","steam_id":76561198088367808,"connected_time":2600000000000,"state":"active","ping":67},{"user_id":378,"name":"Noodle","steam_id":76561198306486695,"connected_time":963000000000,"state":"active","ping":64},{"user_id":360,"name":"Bonca","steam_id":76561198137503531,"connected_time":1855000000000,"state":"active","ping":66},{"user_id":349,"name":"nafaszom","steam_id":76561198091175167,"connected_time":2481000000000,"state":"active","ping":73},{"user_id":372,"name":"finn","steam_id":76561198366652456,"connected_time":1209000000000,"state":"active","ping":70},{"user_id":343,"name":"Femto","steam_id":76561198044307112,"connected_time":2673000000000,"state":"active","ping":70},{"user_id":377,"name":"lulu","steam_id":76561199147764133,"connected_time":1095000000000,"state":"active","ping":72},{"user_id":370,"name":"Hej sokoły!","steam_id":76561198406300604,"connected_time":1262000000000,"state":"active","ping":94},{"user_id":391,"name":"DelT","steam_id":76561198204007537,"connected_time":276000000000,"state":"active","ping":63},{"user_id":386,"name":"ducks","steam_id":76561198166148685,"connected_time":418000000000,"state":"active","ping":31},{"user_id":368,"name":"Dont Rely on me, im very bad","steam_id":76561198362116755,"connected_time":1452000000000,"state":"active","ping":173},{"user_id":380,"name":"Jonkheervanflep","steam_id":76561198006853101,"connected_time":914000000000,"state":"active","ping":67},{"user_id":379,"name":"CrangSign","steam_id":76561198370580355,"connected_time":922000000000,"state":"active","ping":56},{"user_id":394,"name":"ToniGAM3S","steam_id":76561198128605351,"connected_time":97000000000,"state":"active","ping":61},{"user_id":383,"name":"flick","steam_id":76561198083505031,"connected_time":555000000000,"state":"active","ping":45},{"user_id":384,"name":"Big Mean Muther Hubbard","steam_id":76561199223016965,"connected_time":523000000000,"state":"active","ping":51},{"user_id":361,"name":"Gorgeous George","steam_id":76561198144256544,"connected_time":1713000000000,"state":"active","ping":45},{"user_id":393,"name":"snowball","steam_id":76561198026525289,"connected_time":109000000000,"state":"active","ping":88},{"user_id":388,"name":"Tort","steam_id":76561198329646769,"connected_time":365000000000,"state":"active","ping":55},{"user_id":389,"name":"Exe_Red","steam_id":76561198154952759,"connected_time":341000000000,"state":"active","ping":79},{"user_id":382,"name":"Xx_Piss_xX","steam_id":76561199368762224,"connected_time":702000000000,"state":"active","ping":109}]},{"server_id":21,"name":"Uncletopia | London | 5 | All Maps","name_short":"lon-5","host":"lon-1.uk.uncletopia.com","port":27055,"enabled":true,"region":"eu","cc":"gb","latitude":51.509865,"longitude":-0.118092,"reserved":0,"last_update":"0001-01-01T00:00:00Z","name_a2s":"Uncletopia | London | 5 | All Maps","protocol":17,"map":"pl_snowycoast","folder":"tf","game":"Team Fortress","app_id":440,"player_count":24,"max_players":24,"Bots":0,"server_type":"Dedicated","server_os":"Linux","password":true,"vac":true,"version":"7961495","steam_id":85568392924742829,"keywords":["nocrits","nodmgspread","payload","uncletopia"],"game_id":440,"stv_port":27056,"stv_name":"Uncletopia | London | 5 | All Maps | STV","players":[{"user_id":145,"name":"Cly","steam_id":76561198988655555,"connected_time":340000000000,"state":"active","ping":135},{"user_id":141,"name":"full extent of the jam","steam_id":76561198033728176,"connected_time":430000000000,"state":"active","ping":97},{"user_id":139,"name":"Summer ♥","steam_id":76561198047723907,"connected_time":455000000000,"state":"active","ping":33},{"user_id":153,"name":"Raven","steam_id":76561198036076305,"connected_time":187000000000,"state":"active","ping":60},{"user_id":142,"name":"BurningJoke","steam_id":76561199014358707,"connected_time":422000000000,"state":"active","ping":60},{"user_id":143,"name":"fl1p","steam_id":76561198148565659,"connected_time":409000000000,"state":"active","ping":75},{"user_id":88,"name":"Grillem Dafoe","steam_id":76561198306874574,"connected_time":3978000000000,"state":"active","ping":54},{"user_id":144,"name":"FanFish","steam_id":76561199389558024,"connected_time":380000000000,"state":"active","ping":71},{"user_id":158,"name":"not a nihilist","steam_id":76561198004340466,"connected_time":17000000000,"state":"active","ping":47},{"user_id":156,"name":"Well","steam_id":76561198411337640,"connected_time":56000000000,"state":"active","ping":98},{"user_id":92,"name":"Ullr","steam_id":76561198140547483,"connected_time":3883000000000,"state":"active","ping":45},{"user_id":137,"name":"gitlitwitit","steam_id":76561197980019054,"connected_time":1009000000000,"state":"active","ping":69},{"user_id":159,"name":"Cencut","steam_id":76561198989449047,"connected_time":17000000000,"state":"active","ping":122},{"user_id":129,"name":"gamerkiddo","steam_id":76561198047380360,"connected_time":2121000000000,"state":"active","ping":48},{"user_id":152,"name":"Michael","steam_id":76561198003146906,"connected_time":196000000000,"state":"active","ping":42},{"user_id":148,"name":"GrumpyGrey","steam_id":76561199504695656,"connected_time":278000000000,"state":"active","ping":47},{"user_id":108,"name":"Xx_Dr. Benjamin Stoner_xX","steam_id":76561198796374683,"connected_time":2973000000000,"state":"active","ping":95},{"user_id":149,"name":"breadbear \u003c3","steam_id":76561198036895007,"connected_time":250000000000,"state":"active","ping":82},{"user_id":151,"name":"rodney mullen","steam_id":76561198030155915,"connected_time":198000000000,"state":"active","ping":59},{"user_id":122,"name":"night.s","steam_id":76561198326287823,"connected_time":2564000000000,"state":"active","ping":71},{"user_id":125,"name":"FAT Mozart","steam_id":76561198868148394,"connected_time":2257000000000,"state":"active","ping":88},{"user_id":154,"name":"Fuiherik","steam_id":76561199122094683,"connected_time":173000000000,"state":"active","ping":58},{"user_id":115,"name":"StormyRice","steam_id":76561198129971386,"connected_time":2708000000000,"state":"active","ping":52},{"user_id":155,"name":"gaming gamer","steam_id":76561198212488780,"connected_time":169000000000,"state":"active","ping":73}]},{"server_id":22,"name":"Uncletopia | London | 6 | All Maps","name_short":"lon-6","host":"lon-1.uk.uncletopia.com","port":27065,"enabled":true,"region":"eu","cc":"gb","latitude":51.509865,"longitude":-0.118092,"reserved":0,"last_update":"0001-01-01T00:00:00Z","name_a2s":"Uncletopia | London | 6 | All Maps","protocol":17,"map":"pl_upward","folder":"tf","game":"Team Fortress","app_id":440,"player_count":0,"max_players":24,"Bots":0,"server_type":"Dedicated","server_os":"Linux","password":true,"vac":true,"version":"7961495","steam_id":85568392924742830,"keywords":["nocrits","nodmgspread","payload","uncletopia"],"game_id":440,"stv_port":27066,"stv_name":"Uncletopia | London | 6 | All Maps | STV","players":null},{"server_id":40,"name":"Uncletopia | London | 7 | Stopwatch","name_short":"lon-7","host":"lon-1.uk.uncletopia.com","port":27075,"enabled":true,"region":"eu","cc":"gb","latitude":51.509865,"longitude":-0.118092,"reserved":0,"last_update":"0001-01-01T00:00:00Z","name_a2s":"Uncletopia | London | 7 | Stopwatch","protocol":17,"map":"cp_gullywash_final1","folder":"tf","game":"Team Fortress","app_id":440,"player_count":0,"max_players":24,"Bots":0,"server_type":"Dedicated","server_os":"Linux","password":true,"vac":true,"version":"7961495","steam_id":85568392924964314,"keywords":["cp","nocrits","nodmgspread","uncletopia"],"game_id":440,"stv_port":27076,"stv_name":"Uncletopia | London | 7 | Stopwatch | STV","players":null},{"server_id":41,"name":"Uncletopia | London | 8 | Community","name_short":"lon-8","host":"lon-1.uk.uncletopia.com","port":27085,"enabled":true,"region":"eu","cc":"gb","latitude":51.509865,"longitude":-0.118092,"reserved":0,"last_update":"0001-01-01T00:00:00Z","name_a2s":"Uncletopia | London | 8 | Community","protocol":17,"map":"workshop/cp_propaganda_b18.ugc1603743849","folder":"tf","game":"Team Fortress","app_id":440,"player_count":0,"max_players":24,"Bots":0,"server_type":"Dedicated","server_os":"Linux","password":true,"vac":true,"version":"7961495","steam_id":85568392924964315,"keywords":["cp","nocrits","nodmgspread","uncletopia"],"game_id":440,"stv_port":27086,"stv_name":"Uncletopia | London | 8 | Community | STV","players":null},{"server_id":300,"name":"Uncletopia | Montréal | 1 | One Thousand Uncles","name_short":"mtl-1","host":"mtl-1.ca.uncletopia.com","port":27015,"enabled":true,"region":"us-east","cc":"ca","latitude":45.50889,"longitude":-73.56167,"reserved":0,"last_update":"0001-01-01T00:00:00Z","name_a2s":"Uncletopia | Montréal | 1 | One Thousand Uncles","protocol":17,"map":"pl_badwater","folder":"tf","game":"Team Fortress","app_id":440,"player_count":26,"max_players":32,"Bots":20,"server_type":"Dedicated","server_os":"Linux","password":true,"vac":true,"version":"7961495","steam_id":85568392924500087,"keywords":["alltalk","bots","danepve","increased_maxplayers","norespawntime","payload","uncletopia"],"game_id":440,"stv_port":0,"stv_name":"","players":[{"user_id":113,"name":"Yankee_Pirate","steam_id":76561198260667117,"connected_time":572000000000,"state":"active","ping":58},{"user_id":69,"name":"Jacob Deveau","steam_id":76561198997341499,"connected_time":6111000000000,"state":"active","ping":52},{"user_id":88,"name":"Ak","steam_id":76561199333659458,"connected_time":1799000000000,"state":"active","ping":117},{"user_id":114,"name":"LizardMilk_19","steam_id":76561199435002235,"connected_time":224000000000,"state":"active","ping":327},{"user_id":91,"name":"Rhutebeer","steam_id":76561198018302761,"connected_time":1113000000000,"state":"active","ping":102},{"user_id":86,"name":"DjFloppy","steam_id":76561198212014625,"connected_time":2432000000000,"state":"active","ping":120}]},{"server_id":301,"name":"Uncletopia | Montréal | 2 | One Thousand Uncles","name_short":"mtl-2","host":"mtl-1.ca.uncletopia.com","port":27025,"enabled":true,"region":"us-east","cc":"ca","latitude":45.50889,"longitude":-73.56167,"reserved":0,"last_update":"0001-01-01T00:00:00Z","name_a2s":"Uncletopia | Montréal | 2 | One Thousand Uncles","protocol":17,"map":"cp_mossrock","folder":"tf","game":"Team Fortress","app_id":440,"player_count":0,"max_players":32,"Bots":0,"server_type":"Dedicated","server_os":"Linux","password":true,"vac":true,"version":"7961495","steam_id":85568392924500088,"keywords":["alltalk","cp","danepve","increased_maxplayers","norespawntime","uncletopia"],"game_id":440,"stv_port":0,"stv_name":"","players":null},{"server_id":302,"name":"Uncletopia | Montréal | 3 | One Thousand Uncles","name_short":"mtl-3","host":"mtl-1.ca.uncletopia.com","port":27035,"enabled":true,"region":"us-east","cc":"ca","latitude":45.50889,"longitude":-73.56167,"reserved":0,"last_update":"0001-01-01T00:00:00Z","name_a2s":"Uncletopia | Montréal | 3 | One Thousand Uncles","protocol":17,"map":"cp_dustbowl","folder":"tf","game":"Team Fortress","app_id":440,"player_count":0,"max_players":32,"Bots":0,"server_type":"Dedicated","server_os":"Linux","password":true,"vac":true,"version":"7961495","steam_id":85568392924500089,"keywords":["alltalk","cp","danepve","increased_maxplayers","norespawntime","uncletopia"],"game_id":440,"stv_port":0,"stv_name":"","players":null},{"server_id":13,"name":"Uncletopia | New York City | 1 | All Maps","name_short":"nyc-1","host":"nyc-1.us.uncletopia.com","port":27015,"enabled":true,"region":"us-east","cc":"us","latitude":40.73061,"longitude":-73.93524,"reserved":0,"last_update":"0001-01-01T00:00:00Z","name_a2s":"Uncletopia | New York City | 1 | All Maps","protocol":17,"map":"cp_5gorge","folder":"tf","game":"Team Fortress","app_id":440,"player_count":22,"max_players":24,"Bots":0,"server_type":"Dedicated","server_os":"Linux","password":true,"vac":true,"version":"7961495","steam_id":85568392924469993,"keywords":["cp","nocrits","nodmgspread","uncletopia"],"game_id":440,"stv_port":27016,"stv_name":"Uncletopia | New York City | 1 | All Maps | STV","players":[{"user_id":334,"name":"barry steakfries","steam_id":76561199472218520,"connected_time":269000000000,"state":"active","ping":68},{"user_id":309,"name":"benjackson878","steam_id":76561199489171146,"connected_time":1519000000000,"state":"active","ping":99},{"user_id":308,"name":"GummybearKillr","steam_id":76561198031235750,"connected_time":2278000000000,"state":"active","ping":56},{"user_id":292,"name":"artlex","steam_id":76561198849767970,"connected_time":4027000000000,"state":"active","ping":59},{"user_id":338,"name":"tommy","steam_id":76561198111753974,"connected_time":149000000000,"state":"active","ping":43},{"user_id":324,"name":"Harry S. Truman","steam_id":76561197993339757,"connected_time":1237000000000,"state":"active","ping":57},{"user_id":339,"name":"doop","steam_id":76561198370487545,"connected_time":77000000000,"state":"active","ping":48},{"user_id":305,"name":"John Fortnite","steam_id":76561198076608253,"connected_time":2458000000000,"state":"active","ping":57},{"user_id":304,"name":"[Redacted]","steam_id":76561199262579270,"connected_time":2753000000000,"state":"active","ping":67},{"user_id":332,"name":"Queso2469","steam_id":76561197993024580,"connected_time":380000000000,"state":"active","ping":53},{"user_id":340,"name":"Pocky Chomper","steam_id":76561198800333841,"connected_time":36000000000,"state":"active","ping":70},{"user_id":329,"name":"CheetoSmoke7","steam_id":76561198095217273,"connected_time":964000000000,"state":"active","ping":55},{"user_id":310,"name":"Piss God","steam_id":76561198090504334,"connected_time":1518000000000,"state":"active","ping":61},{"user_id":314,"name":"SPELLSDISASTER","steam_id":76561197995620232,"connected_time":1511000000000,"state":"active","ping":33},{"user_id":298,"name":"AshleyJWilliams","steam_id":76561199319657907,"connected_time":3550000000000,"state":"active","ping":90},{"user_id":315,"name":"delta","steam_id":76561198288966901,"connected_time":1510000000000,"state":"active","ping":169},{"user_id":333,"name":"Gary","steam_id":76561198382057084,"connected_time":290000000000,"state":"active","ping":38},{"user_id":325,"name":"7thelden","steam_id":76561198297428761,"connected_time":1223000000000,"state":"active","ping":75},{"user_id":327,"name":"Brown_Dream","steam_id":76561198975766145,"connected_time":1118000000000,"state":"active","ping":76},{"user_id":323,"name":"goku ssj20","steam_id":76561198415484497,"connected_time":1297000000000,"state":"active","ping":172},{"user_id":331,"name":"EPICAlbert777","steam_id":76561198093718909,"connected_time":735000000000,"state":"active","ping":61},{"user_id":307,"name":"Sinister Sandwich","steam_id":76561198142327400,"connected_time":2333000000000,"state":"active","ping":51}]},{"server_id":14,"name":"Uncletopia | New York City | 2 | All Maps","name_short":"nyc-2","host":"nyc-1.us.uncletopia.com","port":27025,"enabled":true,"region":"us-east","cc":"us","latitude":40.73061,"longitude":-73.93524,"reserved":0,"last_update":"0001-01-01T00:00:00Z","name_a2s":"Uncletopia | New York City | 2 | All Maps","protocol":17,"map":"pl_pier","folder":"tf","game":"Team Fortress","app_id":440,"player_count":0,"max_players":24,"Bots":0,"server_type":"Dedicated","server_os":"Linux","password":true,"vac":true,"version":"7961495","steam_id":85568392924469994,"keywords":["nocrits","nodmgspread","payload","uncletopia"],"game_id":440,"stv_port":27026,"stv_name":"Uncletopia | New York City | 2 | All Maps | STV","players":null},{"server_id":15,"name":"Uncletopia | New York City | 3 | Stopwatch","name_short":"nyc-3","host":"nyc-1.us.uncletopia.com","port":27035,"enabled":true,"region":"us-east","cc":"us","latitude":40.73061,"longitude":-73.93524,"reserved":0,"last_update":"0001-01-01T00:00:00Z","name_a2s":"Uncletopia | New York City | 3 | Stopwatch","protocol":17,"map":"workshop/cp_reckoner_rc6.ugc674719999","folder":"tf","game":"Team Fortress","app_id":440,"player_count":0,"max_players":24,"Bots":0,"server_type":"Dedicated","server_os":"Linux","password":true,"vac":true,"version":"7961495","steam_id":85568392924742820,"keywords":["cp","nocrits","nodmgspread","uncletopia"],"game_id":440,"stv_port":27036,"stv_name":"Uncletopia | New York City | 3 | Stopwatch | STV","players":null},{"server_id":16,"name":"Uncletopia | New York City | 4 | Community","name_short":"nyc-4","host":"nyc-1.us.uncletopia.com","port":27045,"enabled":true,"region":"us-east","cc":"us","latitude":40.73061,"longitude":-73.93524,"reserved":0,"last_update":"0001-01-01T00:00:00Z","name_a2s":"Uncletopia | New York City | 4 | Community","protocol":17,"map":"workshop/koth_kemptown_rc1.ugc767410655","folder":"tf","game":"Team Fortress","app_id":440,"player_count":0,"max_players":24,"Bots":0,"server_type":"Dedicated","server_os":"Linux","password":true,"vac":true,"version":"7961495","steam_id":85568392924742821,"keywords":["cp","nocrits","nodmgspread","uncletopia"],"game_id":440,"stv_port":27046,"stv_name":"Uncletopia | New York City | 4 | Community | STV","players":null},{"server_id":142,"name":"Uncletopia | São Paulo | 1 | All Maps","name_short":"sao-1","host":"sao-1.br.uncletopia.com","port":27015,"enabled":true,"region":"sa","cc":"br","latitude":-23.533773,"longitude":-46.62529,"reserved":0,"last_update":"0001-01-01T00:00:00Z","name_a2s":"Uncletopia | São Paulo | 1 | All Maps","protocol":17,"map":"pl_barnblitz","folder":"tf","game":"Team Fortress","app_id":440,"player_count":0,"max_players":24,"Bots":0,"server_type":"Dedicated","server_os":"Linux","password":true,"vac":true,"version":"7961495","steam_id":85568392924469996,"keywords":["nocrits","nodmgspread","payload","uncletopia"],"game_id":440,"stv_port":27016,"stv_name":"Uncletopia | São Paulo | 1 | All Maps | STV","players":null},{"server_id":143,"name":"Uncletopia | São Paulo | 2 | Community","name_short":"sao-2","host":"sao-2.br.uncletopia.com","port":27015,"enabled":true,"region":"sa","cc":"br","latitude":-23.533773,"longitude":-46.62529,"reserved":0,"last_update":"0001-01-01T00:00:00Z","name_a2s":"Uncletopia | São Paulo | 2 | Community","protocol":17,"map":"workshop/koth_slaughter_rc1.ugc1712845210","folder":"tf","game":"Team Fortress","app_id":440,"player_count":1,"max_players":24,"Bots":0,"server_type":"Dedicated","server_os":"Linux","password":true,"vac":true,"version":"7961495","steam_id":85568392924485349,"keywords":["cp","nocrits","nodmgspread","uncletopia"],"game_id":440,"stv_port":27016,"stv_name":"Uncletopia | São Paulo | 2 | Community | STV","players":[{"user_id":6,"name":"Garoto Piranha Profissional","steam_id":76561198277387180,"connected_time":69000000000,"state":"active","ping":56}]},{"server_id":7,"name":"Uncletopia | Seattle | 1 | All Maps","name_short":"sea-1","host":"sea-1.us.uncletopia.com","port":27015,"enabled":true,"region":"us-west","cc":"us","latitude":47.608013,"longitude":-122.33517,"reserved":0,"last_update":"0001-01-01T00:00:00Z","name_a2s":"Uncletopia | Seattle | 1 | All Maps","protocol":17,"map":"koth_viaduct","folder":"tf","game":"Team Fortress","app_id":440,"player_count":24,"max_players":24,"Bots":0,"server_type":"Dedicated","server_os":"Linux","password":true,"vac":true,"version":"7961495","steam_id":85568392924469997,"keywords":["cp","nocrits","nodmgspread","uncletopia"],"game_id":440,"stv_port":27016,"stv_name":"Uncletopia | Seattle | 1 | All Maps | STV","players":[{"user_id":274,"name":"Igrium","steam_id":76561198119549811,"connected_time":508000000000,"state":"active","ping":64},{"user_id":273,"name":"ndvr (femboy (REAL))","steam_id":76561199379200102,"connected_time":530000000000,"state":"active","ping":116},{"user_id":245,"name":"PadrePockets","steam_id":76561197993251606,"connected_time":2353000000000,"state":"active","ping":115},{"user_id":277,"name":"Traceback","steam_id":76561197993212340,"connected_time":114000000000,"state":"active","ping":84},{"user_id":258,"name":"felon","steam_id":76561199100342013,"connected_time":1819000000000,"state":"active","ping":75},{"user_id":216,"name":"Captain Underbelly","steam_id":76561198811270935,"connected_time":4370000000000,"state":"active","ping":67},{"user_id":266,"name":"APersonYouMetOnline","steam_id":76561198386025861,"connected_time":1006000000000,"state":"active","ping":49},{"user_id":272,"name":"Fh","steam_id":76561198000903511,"connected_time":685000000000,"state":"active","ping":61},{"user_id":269,"name":"DeathcatThor","steam_id":76561199179982061,"connected_time":951000000000,"state":"active","ping":62},{"user_id":270,"name":"Preston","steam_id":76561198255721392,"connected_time":769000000000,"state":"active","ping":121},{"user_id":257,"name":"nobody","steam_id":76561198025542484,"connected_time":2062000000000,"state":"active","ping":106},{"user_id":271,"name":"I'mFromSpace","steam_id":76561198808969653,"connected_time":768000000000,"state":"active","ping":66},{"user_id":238,"name":"jer","steam_id":76561198148235230,"connected_time":2623000000000,"state":"active","ping":82},{"user_id":236,"name":"Ryld","steam_id":76561198010174380,"connected_time":2727000000000,"state":"active","ping":68},{"user_id":252,"name":"Campus 80 Crop","steam_id":76561198068672882,"connected_time":2110000000000,"state":"active","ping":61},{"user_id":278,"name":"Gamekiller839","steam_id":76561199475400469,"connected_time":89000000000,"state":"active","ping":38},{"user_id":253,"name":"Mr8bittripper","steam_id":76561198133894229,"connected_time":2083000000000,"state":"active","ping":44},{"user_id":279,"name":"RiceFarmer","steam_id":76561198869180993,"connected_time":84000000000,"state":"active","ping":46},{"user_id":234,"name":"Dongus","steam_id":76561197979056451,"connected_time":2868000000000,"state":"active","ping":46},{"user_id":281,"name":"Glanderson booper","steam_id":76561198021223747,"connected_time":51000000000,"state":"active","ping":51},{"user_id":259,"name":"Little Linguine","steam_id":76561198816986370,"connected_time":1756000000000,"state":"active","ping":53},{"user_id":232,"name":"Dosario","steam_id":76561198298095535,"connected_time":3056000000000,"state":"active","ping":56},{"user_id":226,"name":"Imitation Caucasian","steam_id":76561198320536166,"connected_time":3505000000000,"state":"active","ping":92},{"user_id":268,"name":"SanitysEdge","steam_id":76561198130732813,"connected_time":994000000000,"state":"active","ping":77}]},{"server_id":119,"name":"Uncletopia | Seattle | 2 | All Maps","name_short":"sea-2","host":"sea-1.us.uncletopia.com","port":27025,"enabled":true,"region":"us-west","cc":"us","latitude":47.608013,"longitude":-122.33517,"reserved":0,"last_update":"0001-01-01T00:00:00Z","name_a2s":"Uncletopia | Seattle | 2 | All Maps","protocol":17,"map":"cp_dustbowl","folder":"tf","game":"Team Fortress","app_id":440,"player_count":0,"max_players":24,"Bots":0,"server_type":"Dedicated","server_os":"Linux","password":true,"vac":true,"version":"7961495","steam_id":85568392924469998,"keywords":["cp","nocrits","nodmgspread","uncletopia"],"game_id":440,"stv_port":27026,"stv_name":"Uncletopia | Seattle | 2 | All Maps | STV","players":null},{"server_id":406,"name":"Uncletopia | Seattle | 3 | Stopwatch","name_short":"sea-3","host":"sea-1.us.uncletopia.com","port":27035,"enabled":true,"region":"us-west","cc":"us","latitude":47.608013,"longitude":-122.33517,"reserved":0,"last_update":"0001-01-01T00:00:00Z","name_a2s":"Uncletopia | Seattle | 3 | Stopwatch","protocol":17,"map":"workshop/pl_vigil_rc10.ugc1266210012","folder":"tf","game":"Team Fortress","app_id":440,"player_count":0,"max_players":24,"Bots":0,"server_type":"Dedicated","server_os":"Linux","password":true,"vac":true,"version":"7961495","steam_id":85568392924515217,"keywords":["nocrits","nodmgspread","payload","uncletopia"],"game_id":440,"stv_port":27036,"stv_name":"Uncletopia | Seattle | 3 | Stopwatch | STV","players":null},{"server_id":17,"name":"Uncletopia | San Francisco | 1 | All Maps","name_short":"sfo-1","host":"sfo-1.us.uncletopia.com","port":27015,"enabled":true,"region":"us-west","cc":"us","latitude":37.77397,"longitude":-122.4313,"reserved":0,"last_update":"0001-01-01T00:00:00Z","name_a2s":"Uncletopia | San Francisco | 1 | All Maps","protocol":17,"map":"cp_gullywash_final1","folder":"tf","game":"Team Fortress","app_id":440,"player_count":0,"max_players":24,"Bots":0,"server_type":"Dedicated","server_os":"Linux","password":true,"vac":true,"version":"7961495","steam_id":85568392924469999,"keywords":["cp","nocrits","nodmgspread","uncletopia"],"game_id":440,"stv_port":27016,"stv_name":"Uncletopia | San Francisco | 1 | All Maps | STV","players":null},{"server_id":18,"name":"Uncletopia | San Francisco | 2 | All Maps","name_short":"sfo-2","host":"sfo-1.us.uncletopia.com","port":27025,"enabled":true,"region":"us-west","cc":"us","latitude":37.77397,"longitude":-122.4313,"reserved":0,"last_update":"0001-01-01T00:00:00Z","name_a2s":"Uncletopia | San Francisco | 2 | All Maps","protocol":17,"map":"pl_hoodoo_final","folder":"tf","game":"Team Fortress","app_id":440,"player_count":0,"max_players":24,"Bots":0,"server_type":"Dedicated","server_os":"Linux","password":true,"vac":true,"version":"7961495","steam_id":85568392924470000,"keywords":["nocrits","nodmgspread","payload","uncletopia"],"game_id":440,"stv_port":27026,"stv_name":"Uncletopia | San Francisco | 2 | All Maps | STV","players":null},{"server_id":19,"name":"Uncletopia | San Francisco | 3 | Stopwatch","name_short":"sfo-3","host":"sfo-1.us.uncletopia.com","port":27035,"enabled":true,"region":"us-west","cc":"us","latitude":37.77397,"longitude":-122.4313,"reserved":0,"last_update":"0001-01-01T00:00:00Z","name_a2s":"Uncletopia | San Francisco | 3 | Stopwatch","protocol":17,"map":"workshop/koth_clearcut_b15.ugc2107050255","folder":"tf","game":"Team Fortress","app_id":440,"player_count":0,"max_players":24,"Bots":0,"server_type":"Dedicated","server_os":"Linux","password":true,"vac":true,"version":"7961495","steam_id":85568392924742824,"keywords":["cp","nocrits","nodmgspread","uncletopia"],"game_id":440,"stv_port":27036,"stv_name":"Uncletopia | San Francisco | 3 | Stopwatch | STV","players":null},{"server_id":20,"name":"Uncletopia | San Francisco | 4 | Community","name_short":"sfo-4","host":"sfo-1.us.uncletopia.com","port":27045,"enabled":true,"region":"us-west","cc":"us","latitude":37.77397,"longitude":-122.4313,"reserved":0,"last_update":"0001-01-01T00:00:00Z","name_a2s":"Uncletopia | San Francisco | 4 | Community","protocol":17,"map":"workshop/cp_reckoner_rc6.ugc674719999","folder":"tf","game":"Team Fortress","app_id":440,"player_count":0,"max_players":24,"Bots":0,"server_type":"Dedicated","server_os":"Linux","password":true,"vac":true,"version":"7961495","steam_id":85568392924742826,"keywords":["cp","nocrits","nodmgspread","uncletopia"],"game_id":440,"stv_port":27046,"stv_name":"Uncletopia | San Francisco | 4 | Community | STV","players":null},{"server_id":141,"name":"Uncletopia | Sydney | 1 | All Maps","name_short":"syd-1","host":"syd-1.au.uncletopia.com","port":27015,"enabled":true,"region":"au","cc":"au","latitude":-33.865143,"longitude":151.2099,"reserved":0,"last_update":"0001-01-01T00:00:00Z","name_a2s":"Uncletopia | Sydney | 1 | All Maps","protocol":17,"map":"cp_5gorge","folder":"tf","game":"Team Fortress","app_id":440,"player_count":0,"max_players":24,"Bots":0,"server_type":"Dedicated","server_os":"Linux","password":true,"vac":true,"version":"7961495","steam_id":85568392924470001,"keywords":["cp","nocrits","nodmgspread","uncletopia"],"game_id":440,"stv_port":27016,"stv_name":"Uncletopia | Sydney | 1 | All Maps | STV","players":null},{"server_id":123,"name":"Uncletopia | Sydney | 2 | All Maps","name_short":"syd-2","host":"syd-1.au.uncletopia.com","port":27025,"enabled":true,"region":"au","cc":"au","latitude":-33.865143,"longitude":151.2099,"reserved":0,"last_update":"0001-01-01T00:00:00Z","name_a2s":"Uncletopia | Sydney | 2 | All Maps","protocol":17,"map":"cp_gorge","folder":"tf","game":"Team Fortress","app_id":440,"player_count":0,"max_players":24,"Bots":0,"server_type":"Dedicated","server_os":"Linux","password":true,"vac":true,"version":"7961495","steam_id":85568392924470002,"keywords":["cp","nocrits","nodmgspread","uncletopia"],"game_id":440,"stv_port":27026,"stv_name":"Uncletopia | Sydney | 2 | All Maps | STV","players":null},{"server_id":395,"name":"Uncletopia | Sydney | 3 | All Maps","name_short":"syd-3","host":"syd-1.au.uncletopia.com","port":27035,"enabled":true,"region":"au","cc":"au","latitude":-33.865143,"longitude":151.2099,"reserved":0,"last_update":"0001-01-01T00:00:00Z","name_a2s":"Uncletopia | Sydney | 3 | All Maps","protocol":17,"map":"koth_viaduct","folder":"tf","game":"Team Fortress","app_id":440,"player_count":0,"max_players":24,"Bots":0,"server_type":"Dedicated","server_os":"Linux","password":true,"vac":true,"version":"7961495","steam_id":85568392925194467,"keywords":["cp","nocrits","nodmgspread","uncletopia"],"game_id":440,"stv_port":27036,"stv_name":"Uncletopia | Sydney | 3 | All Maps | STV","players":null},{"server_id":396,"name":"Uncletopia | Sydney | 4 | All Maps","name_short":"syd-4","host":"syd-1.au.uncletopia.com","port":27045,"enabled":true,"region":"au","cc":"au","latitude":-33.865143,"longitude":151.2099,"reserved":0,"last_update":"0001-01-01T00:00:00Z","name_a2s":"Uncletopia | Sydney | 4 | All Maps","protocol":17,"map":"pl_badwater","folder":"tf","game":"Team Fortress","app_id":440,"player_count":0,"max_players":24,"Bots":0,"server_type":"Dedicated","server_os":"Linux","password":true,"vac":true,"version":"7961495","steam_id":85568392925397958,"keywords":["nocrits","nodmgspread","payload","uncletopia"],"game_id":440,"stv_port":27046,"stv_name":"Uncletopia | Sydney | 4 | All Maps | STV","players":null},{"server_id":58,"name":"Uncletopia | Sydney | 5 | Stopwatch","name_short":"syd-5","host":"syd-1.au.uncletopia.com","port":27055,"enabled":true,"region":"au","cc":"au","latitude":-33.865143,"longitude":151.2099,"reserved":0,"last_update":"0001-01-01T00:00:00Z","name_a2s":"Uncletopia | Sydney | 5 | Stopwatch","protocol":17,"map":"koth_highpass","folder":"tf","game":"Team Fortress","app_id":440,"player_count":0,"max_players":24,"Bots":0,"server_type":"Dedicated","server_os":"Linux","password":true,"vac":true,"version":"7961495","steam_id":85568392925397959,"keywords":["cp","nocrits","nodmgspread","uncletopia"],"game_id":440,"stv_port":27056,"stv_name":"Uncletopia | Sydney | 5 | Stopwatch | STV","players":null},{"server_id":59,"name":"Uncletopia | Sydney | 6 | Community","name_short":"syd-6","host":"syd-1.au.uncletopia.com","port":27065,"enabled":true,"region":"au","cc":"au","latitude":-33.865143,"longitude":151.2099,"reserved":0,"last_update":"0001-01-01T00:00:00Z","name_a2s":"Uncletopia | Sydney | 6 | Community","protocol":17,"map":"workshop/koth_soot_final1.ugc2969540689","folder":"tf","game":"Team Fortress","app_id":440,"player_count":0,"max_players":24,"Bots":0,"server_type":"Dedicated","server_os":"Linux","password":true,"vac":true,"version":"7961495","steam_id":85568392925397960,"keywords":["cp","nocrits","nodmgspread","uncletopia"],"game_id":440,"stv_port":27066,"stv_name":"Uncletopia | Sydney | 6 | Community | STV","players":null},{"server_id":49,"name":"Uncletopia | Warsaw | 1 | One Thousand Uncles","name_short":"waw-1","host":"waw-1.pl.uncletopia.com","port":27015,"enabled":true,"region":"eu","cc":"pl","latitude":52.2297,"longitude":21.017532,"reserved":0,"last_update":"0001-01-01T00:00:00Z","name_a2s":"Uncletopia | Warsaw | 1 | One Thousand Uncles","protocol":17,"map":"pl_badwater","folder":"tf","game":"Team Fortress","app_id":440,"player_count":0,"max_players":32,"Bots":0,"server_type":"Dedicated","server_os":"Linux","password":true,"vac":true,"version":"7961495","steam_id":85568392925397850,"keywords":["alltalk","danepve","increased_maxplayers","norespawntime","payload","uncletopia"],"game_id":440,"stv_port":0,"stv_name":"","players":null},{"server_id":50,"name":"Uncletopia | Warsaw | 2 | One Thousand Uncles","name_short":"waw-2","host":"waw-1.pl.uncletopia.com","port":27025,"enabled":true,"region":"eu","cc":"pl","latitude":52.2297,"longitude":21.017532,"reserved":0,"last_update":"0001-01-01T00:00:00Z","name_a2s":"Uncletopia | Warsaw | 2 | One Thousand Uncles","protocol":17,"map":"cp_mossrock","folder":"tf","game":"Team Fortress","app_id":440,"player_count":25,"max_players":32,"Bots":20,"server_type":"Dedicated","server_os":"Linux","password":true,"vac":true,"version":"7961495","steam_id":85568392925397851,"keywords":["alltalk","bots","cp","danepve","increased_maxplayers","norespawntime","uncletopia"],"game_id":440,"stv_port":0,"stv_name":"","players":[{"user_id":151,"name":"tamahuia nagolasa","steam_id":76561199084680369,"connected_time":4000000000,"state":"spawning","ping":53},{"user_id":149,"name":"Little Spy","steam_id":76561199238736286,"connected_time":406000000000,"state":"active","ping":66},{"user_id":117,"name":"tyroksi :D","steam_id":76561198103875245,"connected_time":2716000000000,"state":"active","ping":131},{"user_id":118,"name":"Jeremy Pinkman","steam_id":76561198345967214,"connected_time":2332000000000,"state":"active","ping":99},{"user_id":145,"name":"I regret my life decisions","steam_id":76561199421468208,"connected_time":1051000000000,"state":"active","ping":187}]},{"server_id":51,"name":"Uncletopia | Warsaw | 3 | All Maps","name_short":"waw-3","host":"waw-1.pl.uncletopia.com","port":27035,"enabled":true,"region":"eu","cc":"pl","latitude":52.2297,"longitude":21.017532,"reserved":0,"last_update":"0001-01-01T00:00:00Z","name_a2s":"Uncletopia | Warsaw | 3 | All Maps","protocol":17,"map":"koth_highpass","folder":"tf","game":"Team Fortress","app_id":440,"player_count":2,"max_players":24,"Bots":0,"server_type":"Dedicated","server_os":"Linux","password":true,"vac":true,"version":"7961495","steam_id":85568392925397852,"keywords":["cp","nocrits","nodmgspread","uncletopia"],"game_id":440,"stv_port":27036,"stv_name":"Uncletopia | Warsaw | 3 | All Maps | STV","players":[{"user_id":6,"name":"AZOR","steam_id":76561199199044692,"connected_time":106000000000,"state":"active","ping":68},{"user_id":7,"name":"ZjaranyRekin","steam_id":76561198158223065,"connected_time":84000000000,"state":"active","ping":47}]},{"server_id":52,"name":"Uncletopia | Warsaw | 4 | All Maps","name_short":"waw-4","host":"waw-1.pl.uncletopia.com","port":27045,"enabled":true,"region":"eu","cc":"pl","latitude":52.2297,"longitude":21.017532,"reserved":0,"last_update":"0001-01-01T00:00:00Z","name_a2s":"Uncletopia | Warsaw | 4 | All Maps","protocol":17,"map":"koth_highpass","folder":"tf","game":"Team Fortress","app_id":440,"player_count":0,"max_players":24,"Bots":0,"server_type":"Dedicated","server_os":"Linux","password":true,"vac":true,"version":"7961495","steam_id":85568392925397853,"keywords":["cp","nocrits","nodmgspread","uncletopia"],"game_id":440,"stv_port":27046,"stv_name":"Uncletopia | Warsaw | 4 | All Maps | STV","players":null},{"server_id":53,"name":"Uncletopia | Warsaw | 5 | Stopwatch","name_short":"waw-5","host":"waw-1.pl.uncletopia.com","port":27055,"enabled":true,"region":"eu","cc":"pl","latitude":52.2297,"longitude":21.017532,"reserved":0,"last_update":"0001-01-01T00:00:00Z","name_a2s":"Uncletopia | Warsaw | 5 | Stopwatch","protocol":17,"map":"workshop/koth_bagel_rc6.ugc2514036946","folder":"tf","game":"Team Fortress","app_id":440,"player_count":2,"max_players":24,"Bots":0,"server_type":"Dedicated","server_os":"Linux","password":true,"vac":true,"version":"7961495","steam_id":85568392925397854,"keywords":["cp","nocrits","nodmgspread","uncletopia"],"game_id":440,"stv_port":27056,"stv_name":"Uncletopia | Warsaw | 5 | Stopwatch | STV","players":[{"user_id":3,"name":"Whelchur","steam_id":76561199442895952,"connected_time":722000000000,"state":"active","ping":97},{"user_id":4,"name":"Yuxues","steam_id":76561199218188958,"connected_time":691000000000,"state":"active","ping":100}]},{"server_id":54,"name":"Uncletopia | Warsaw | 6 | Community","name_short":"waw-6","host":"waw-1.pl.uncletopia.com","port":27065,"enabled":true,"region":"eu","cc":"pl","latitude":52.2297,"longitude":21.017532,"reserved":0,"last_update":"0001-01-01T00:00:00Z","name_a2s":"Uncletopia | Warsaw | 6 | Community","protocol":17,"map":"workshop/pl_highwood_b19.ugc1769496557","folder":"tf","game":"Team Fortress","app_id":440,"player_count":0,"max_players":24,"Bots":0,"server_type":"Dedicated","server_os":"Linux","password":true,"vac":true,"version":"7961495","steam_id":85568392925397856,"keywords":["nocrits","nodmgspread","payload","uncletopia"],"game_id":440,"stv_port":27066,"stv_name":"Uncletopia | Warsaw | 6 | Community | STV","players":null}]}