{"status":true,"message":"","result":[{"server_id":9,"name":"Uncletopia | Atlanta | 1 | All Maps","name_short":"atl-1","host":"atl-1.us.uncletopia.com","port":27015,"enabled":true,"region":"us-east","cc":"us","latitude":33.753746,"longitude":-84.38633,"reserved":0,"last_update":"0001-01-01T00:00:00Z","name_a2s":"Uncletopia | Atlanta | 1 | All Maps","protocol":17,"map":"pl_badwater","folder":"tf","game":"Team Fortress","app_id":440,"player_count":23,"max_players":24,"Bots":0,"server_type":"Dedicated","server_os":"Linux","password":true,"vac":true,"version":"7961495","steam_id":85568392924469982,"keywords":["nocrits","nodmgspread","payload","uncletopia"],"game_id":440,"stv_port":27016,"stv_name":"Uncletopia | Atlanta | 1 | All Maps | STV","players":[{"user_id":93,"name":"lil hog","steam_id":76561199230929836,"connected_time":2355000000000,"state":"active","ping":90},{"user_id":17,"name":"Artixes","steam_id":76561198379574232,"connected_time":7450000000000,"state":"active","ping":43},{"user_id":105,"name":"cyclops","steam_id":76561197970370198,"connected_time":1428000000000,"state":"active","ping":73},{"user_id":110,"name":"CitationMachine","steam_id":76561199340032458,"connected_time":455000000000,"state":"active","ping":58},{"user_id":114,"name":"Jimmy McGill","steam_id":76561198135137213,"connected_time":415000000000,"state":"active","ping":65},{"user_id":112,"name":"BatMatt","steam_id":76561198045910433,"connected_time":443000000000,"state":"active","ping":68},{"user_id":103,"name":"Hertz","steam_id":76561198245322982,"connected_time":1637000000000,"state":"active","ping":44},{"user_id":109,"name":"CRWND","steam_id":76561198329810027,"connected_time":971000000000,"state":"active","ping":155},{"user_id":108,"name":"lu","steam_id":76561198080731872,"connected_time":1236000000000,"state":"active","ping":89},{"user_id":85,"name":"Discourse","steam_id":76561198984286678,"connected_time":2781000000000,"state":"active","ping":76},{"user_id":106,"name":"Balsamicpork","steam_id":76561197995358472,"connected_time":1414000000000,"state":"active","ping":90},{"user_id":69,"name":"GtownMenace","steam_id":76561198079359870,"connected_time":3780000000000,"state":"active","ping":109},{"user_id":111,"name":"Pango","steam_id":76561198069811545,"connected_time":446000000000,"state":"active","ping":52},{"user_id":113,"name":"Leftover Soup","steam_id":76561198112816872,"connected_time":421000000000,"state":"active","ping":107},{"user_id":96,"name":"Doom Cart","steam_id":76561198158543955,"connected_time":2347000000000,"state":"active","ping":64},{"user_id":116,"name":"rileyh237","steam_id":76561199038840623,"connected_time":185000000000,"state":"active","ping":76},{"user_id":115,"name":"NERV","steam_id":76561198111023744,"connected_time":411000000000,"state":"active","ping":79},{"user_id":78,"name":"The Iron Chancellor","steam_id":76561198129154894,"connected_time":3408000000000,"state":"active","ping":70},{"user_id":102,"name":"Albino Jellyfish","steam_id":76561198208561097,"connected_time":1794000000000,"state":"active","ping":56},{"user_id":43,"name":"Ashes!","steam_id":76561197998475441,"connected_time":5981000000000,"state":"active","ping":80},{"user_id":61,"name":"Young-OG","steam_id":76561198058800479,"connected_time":5147000000000,"state":"active","ping":61},{"user_id":72,"name":"That Guy","steam_id":76561198074138740,"connected_time":3551000000000,"state":"active","ping":67},{"user_id":84,"name":"taigaxx","steam_id":76561198202669250,"connected_time":3000000000000,"state":"active","ping":99}]},{"server_id":104,"name":"Uncletopia | Atlanta | 2 | All Maps","name_short":"atl-2","host":"atl-1.us.uncletopia.com","port":27025,"enabled":true,"region":"us-east","cc":"us","latitude":33.753746,"longitude":-84.38633,"reserved":0,"last_update":"0001-01-01T00:00:00Z","name_a2s":"Uncletopia | Atlanta | 2 | All Maps","protocol":17,"map":"koth_cascade","folder":"tf","game":"Team Fortress","app_id":440,"player_count":0,"max_players":24,"Bots":0,"server_type":"Dedicated","server_os":"Linux","password":true,"vac":true,"version":"7961495","steam_id":85568392924469983,"keywords":["cp","nocrits","nodmgspread","uncletopia"],"game_id":440,"stv_port":27026,"stv_name":"Uncletopia | Atlanta | 2 | All Maps | STV","players":null},{"server_id":400,"name":"Uncletopia | Atlanta | 3 | Stopwatch","name_short":"atl-3","host":"atl-1.us.uncletopia.com","port":27035,"enabled":true,"region":"us-east","cc":"us","latitude":33.753746,"longitude":-84.38633,"reserved":0,"last_update":"0001-01-01T00:00:00Z","name_a2s":"Uncletopia | Atlanta | 3 | Stopwatch","protocol":17,"map":"cp_snakewater_final1","folder":"tf","game":"Team Fortress","app_id":440,"player_count":2,"max_players":24,"Bots":0,"server_type":"Dedicated","server_os":"Linux","password":true,"vac":true,"version":"7961495","steam_id":85568392924515187,"keywords":["cp","nocrits","nodmgspread","uncletopia"],"game_id":440,"stv_port":27036,"stv_name":"Uncletopia | Atlanta | 3 | Stopwatch | STV","players":[{"user_id":4,"name":"Джекет","steam_id":76561198327897125,"connected_time":2252000000000,"state":"active","ping":173},{"user_id":5,"name":"mezimos","steam_id":76561198286495072,"connected_time":2182000000000,"state":"active","ping":84}]},{"server_id":401,"name":"Uncletopia | Atlanta | 4 | Community","name_short":"atl-4","host":"atl-1.us.uncletopia.com","port":27045,"enabled":true,"region":"us-east","cc":"us","latitude":33.753746,"longitude":-84.38633,"reserved":0,"last_update":"0001-01-01T00:00:00Z","name_a2s":"Uncletopia | Atlanta | 4 | Community","protocol":17,"map":"workshop/pl_emerge_rc2.ugc888027758","folder":"tf","game":"Team Fortress","app_id":440,"player_count":0,"max_players":24,"Bots":0,"server_type":"Dedicated","server_os":"Linux","password":true,"vac":true,"version":"7961495","steam_id":85568392924515188,"keywords":["nocrits","nodmgspread","payload","uncletopia"],"game_id":440,"stv_port":27046,"stv_name":"Uncletopia | Atlanta | 4 | Community | STV","players":null},{"server_id":2,"name":"Uncletopia | Chicago | 1 | All Maps","name_short":"chi-1","host":"chi-1.us.uncletopia.com","port":27015,"enabled":true,"region":"us-central","cc":"us","latitude":41.881832,"longitude":-87.62318,"reserved":0,"last_update":"0001-01-01T00:00:00Z","name_a2s":"Uncletopia | Chicago | 1 | All Maps","protocol":17,"map":"pl_upward","folder":"tf","game":"Team Fortress","app_id":440,"player_count":24,"max_players":24,"Bots":0,"server_type":"Dedicated","server_os":"Linux","password":true,"vac":true,"version":"7961495","steam_id":85568392924469984,"keywords":["nocrits","nodmgspread","payload","uncletopia"],"game_id":440,"stv_port":27016,"stv_name":"Uncletopia | Chicago | 1 | All Maps | STV","players":[{"user_id":172,"name":"b etween d","steam_id":76561198802099686,"connected_time":8145000000000,"state":"active","ping":133},{"user_id":286,"name":"ZeN","steam_id":76561199098746585,"connected_time":303000000000,"state":"active","ping":48},{"user_id":281,"name":"Ceol","steam_id":76561198003955789,"connected_time":742000000000,"state":"active","ping":51},{"user_id":197,"name":"Wigl","steam_id":76561198019324464,"connected_time":6630000000000,"state":"active","ping":76},{"user_id":258,"name":"StretchySnail59","steam_id":76561198073535005,"connected_time":2132000000000,"state":"active","ping":48},{"user_id":280,"name":"Octto","steam_id":76561198070124921,"connected_time":944000000000,"state":"active","ping":63},{"user_id":289,"name":"Kaypo","steam_id":76561198262420097,"connected_time":267000000000,"state":"active","ping":61},{"user_id":269,"name":"dsty","steam_id":76561198160455073,"connected_time":1418000000000,"state":"active","ping":61},{"user_id":209,"name":"creeeeeee","steam_id":76561198392539722,"connected_time":6009000000000,"state":"active","ping":79},{"user_id":282,"name":"4Lukaska","steam_id":76561198083515060,"connected_time":741000000000,"state":"active","ping":59},{"user_id":221,"name":"Smog","steam_id":76561198043705383,"connected_time":5125000000000,"state":"active","ping":74},{"user_id":215,"name":"NavyDinosaur","steam_id":76561198088459962,"connected_time":5553000000000,"state":"active","ping":108},{"user_id":290,"name":"Sunny D+","steam_id":76561197999371052,"connected_time":8000000000,"state":"active","ping":200},{"user_id":287,"name":"GhostBerb","steam_id":76561198087908151,"connected_time":285000000000,"state":"active","ping":87},{"user_id":186,"name":"killjoy","steam_id":76561198234719276,"connected_time":7432000000000,"state":"active","ping":95},{"user_id":277,"name":"--_Cook_--","steam_id":76561198080855748,"connected_time":965000000000,"state":"active","ping":45},{"user_id":148,"name":"freyja","steam_id":76561198249206656,"connected_time":9547000000000,"state":"active","ping":91},{"user_id":263,"name":"poorman #1 sniper","steam_id":76561198447884169,"connected_time":1743000000000,"state":"active","ping":51},{"user_id":278,"name":"B R O W N","steam_id":76561198084016173,"connected_time":963000000000,"state":"active","ping":67},{"user_id":288,"name":"Borgir","steam_id":76561198325390265,"connected_time":281000000000,"state":"active","ping":82},{"user_id":254,"name":"MCATU3","steam_id":76561198210230867,"connected_time":2357000000000,"state":"active","ping":78},{"user_id":223,"name":"barefoot fruitscato","steam_id":76561198094225038,"connected_time":5086000000000,"state":"active","ping":52},{"user_id":256,"name":"ZYNTERLINKED","steam_id":76561198241948526,"connected_time":2251000000000,"state":"active","ping":72},{"user_id":276,"name":"Iron Fox (Update-sized)","steam_id":76561198326520372,"connected_time":1161000000000,"state":"active","ping":108}]},{"server_id":106,"name":"Uncletopia | Chicago | 2 | All Maps","name_short":"chi-2","host":"chi-1.us.uncletopia.com","port":27025,"enabled":true,"region":"us-central","cc":"us","latitude":41.881832,"longitude":-87.62318,"reserved":0,"last_update":"0001-01-01T00:00:00Z","name_a2s":"Uncletopia | Chicago | 2 | All Maps","protocol":17,"map":"pl_barnblitz","folder":"tf","game":"Team Fortress","app_id":440,"player_count":0,"max_players":24,"Bots":0,"server_type":"Dedicated","server_os":"Linux","password":true,"vac":true,"version":"7961495","steam_id":85568392924469985,"keywords":["nocrits","nodmgspread","payload","uncletopia"],"game_id":440,"stv_port":27026,"stv_name":"Uncletopia | Chicago | 2 | All Maps | STV","players":null},{"server_id":402,"name":"Uncletopia | Chicago | 3 | All Maps","name_short":"chi-3","host":"chi-1.us.uncletopia.com","port":27035,"enabled":true,"region":"us-central","cc":"us","latitude":41.881832,"longitude":-87.62318,"reserved":0,"last_update":"0001-01-01T00:00:00Z","name_a2s":"Uncletopia | Chicago | 3 | All Maps","protocol":17,"map":"pl_goldrush","folder":"tf","game":"Team Fortress","app_id":440,"player_count":24,"max_players":24,"Bots":0,"server_type":"Dedicated","server_os":"Linux","password":true,"vac":true,"version":"7961495","steam_id":85568392924515191,"keywords":["nocrits","nodmgspread","payload","uncletopia"],"game_id":440,"stv_port":27036,"stv_name":"Uncletopia | Chicago | 3 | All Maps | STV","players":[{"user_id":174,"name":"Trusty","steam_id":76561198035444237,"connected_time":703000000000,"state":"active","ping":65},{"user_id":133,"name":"magickxanadu","steam_id":76561199117360103,"connected_time":3576000000000,"state":"active","ping":94},{"user_id":141,"name":"apple","steam_id":76561199104175331,"connected_time":2956000000000,"state":"active","ping":65},{"user_id":152,"name":"vanta","steam_id":76561198084317504,"connected_time":1887000000000,"state":"active","ping":48},{"user_id":172,"name":"MR SKELTAL","steam_id":76561198031089598,"connected_time":851000000000,"state":"active","ping":70},{"user_id":143,"name":"wizorb","steam_id":76561198002172674,"connected_time":2805000000000,"state":"active","ping":71},{"user_id":149,"name":"Sup m8","steam_id":76561198081659121,"connected_time":2771000000000,"state":"active","ping":62},{"user_id":166,"name":"Pyroshark","steam_id":76561198133599422,"connected_time":1154000000000,"state":"active","ping":74},{"user_id":18,"name":"HUESO","steam_id":76561198276383681,"connected_time":11667000000000,"state":"active","ping":92},{"user_id":163,"name":"I throw rocks at toddlers","steam_id":76561198087706531,"connected_time":1203000000000,"state":"active","ping":83},{"user_id":182,"name":"Shemply","steam_id":76561198193658910,"connected_time":158000000000,"state":"active","ping":79},{"user_id":180,"name":"bitches dont know bout my pinga","steam_id":76561198069814977,"connected_time":565000000000,"state":"active","ping":72},{"user_id":154,"name":"Dr. Pl0x","steam_id":76561198040785401,"connected_time":1882000000000,"state":"active","ping":103},{"user_id":167,"name":"exposed to air","steam_id":76561197995620232,"connected_time":1081000000000,"state":"active","ping":59},{"user_id":169,"name":"Neat","steam_id":76561198140451429,"connected_time":1014000000000,"state":"active","ping":47},{"user_id":175,"name":"yubyub8888","steam_id":76561198351642437,"connected_time":658000000000,"state":"active","ping":68},{"user_id":101,"name":"High School Nudical","steam_id":76561198172120615,"connected_time":6183000000000,"state":"active","ping":51},{"user_id":150,"name":"I'm bad I know thx \u003c3","steam_id":76561198058840477,"connected_time":2118000000000,"state":"active","ping":99},{"user_id":137,"name":"Firedust19","steam_id":76561198153238631,"connected_time":3355000000000,"state":"active","ping":114},{"user_id":111,"name":"tranny cumslut","steam_id":76561199100034198,"connected_time":5595000000000,"state":"active","ping":71},{"user_id":151,"name":"Rornir","steam_id":76561198081829615,"connected_time":1954000000000,"state":"active","ping":43},{"user_id":179,"name":"the keebler","steam_id":76561199486326945,"connected_time":602000000000,"state":"active","ping":78},{"user_id":161,"name":"Truck-kun2107","steam_id":76561199161417910,"connected_time":1284000000000,"state":"active","ping":97},{"user_id":178,"name":"schalldämpfer","steam_id":76561198178303726,"connected_time":630000000000,"state":"active","ping":60}]},{"server_id":403,"name":"Uncletopia | Chicago | 4 | All Maps","name_short":"chi-4","host":"chi-1.us.uncletopia.com","port":27045,"enabled":true,"region":"us-central","cc":"us","latitude":41.881832,"longitude":-87.62318,"reserved":0,"last_update":"0001-01-01T00:00:00Z","name_a2s":"Uncletopia | Chicago | 4 | All Maps","protocol":17,"map":"cp_process_final","folder":"tf","game":"Team Fortress","app_id":440,"player_count":24,"max_players":24,"Bots":0,"server_type":"Dedicated","server_os":"Linux","password":true,"vac":true,"version":"7961495","steam_id":85568392924515193,"keywords":["cp","nocrits","nodmgspread","uncletopia"],"game_id":440,"stv_port":27046,"stv_name":"Uncletopia | Chicago | 4 | All Maps | STV","players":[{"user_id":5,"name":"relicvault15","steam_id":76561198159343822,"connected_time":3221000000000,"state":"active","ping":64},{"user_id":9,"name":"bleach65","steam_id":76561198115270571,"connected_time":2290000000000,"state":"active","ping":83},{"user_id":16,"name":"katryna","steam_id":76561198023440304,"connected_time":1752000000000,"state":"active","ping":59},{"user_id":44,"name":"HAT-WEARING™ Maggot Gamer Cat","steam_id":76561197973992705,"connected_time":662000000000,"state":"active","ping":102},{"user_id":21,"name":"Paleo","steam_id":76561198053493855,"connected_time":1569000000000,"state":"active","ping":51},{"user_id":39,"name":"lucky","steam_id":76561198323426623,"connected_time":1160000000000,"state":"active","ping":98},{"user_id":13,"name":"Hovg9000","steam_id":76561199191556710,"connected_time":1991000000000,"state":"active","ping":89},{"user_id":14,"name":"9Bendy9","steam_id":76561198164023601,"connected_time":1951000000000,"state":"active","ping":136},{"user_id":24,"name":"opossum","steam_id":76561198148905570,"connected_time":1451000000000,"state":"active","ping":70},{"user_id":19,"name":"Dorso","steam_id":76561198380590080,"connected_time":1644000000000,"state":"active","ping":101},{"user_id":51,"name":"Prsm","steam_id":76561198053344995,"connected_time":261000000000,"state":"active","ping":58},{"user_id":46,"name":"BOBBYBOBBYBOBBYBOBBYBOBBYBOBBYB","steam_id":76561198053277633,"connected_time":644000000000,"state":"active","ping":80},{"user_id":37,"name":"Shark Sandwich","steam_id":76561198025007938,"connected_time":1214000000000,"state":"active","ping":95},{"user_id":48,"name":"Radish Master","steam_id":76561198072523811,"connected_time":487000000000,"state":"active","ping":44},{"user_id":43,"name":"Ceige LFT","steam_id":76561198068538473,"connected_time":787000000000,"state":"active","ping":77},{"user_id":45,"name":"Fluffeline","steam_id":76561198352909489,"connected_time":648000000000,"state":"active","ping":145},{"user_id":52,"name":"TOKENLIZARD","steam_id":76561198218765205,"connected_time":164000000000,"state":"active","ping":83},{"user_id":50,"name":"BigBubble42","steam_id":76561198136286123,"connected_time":449000000000,"state":"active","ping":59},{"user_id":47,"name":"Fraglin","steam_id":76561198124964000,"connected_time":636000000000,"state":"active","ping":85},{"user_id":32,"name":"StudioMania (#SAVETF2)","steam_id":76561198211315795,"connected_time":1273000000000,"state":"active","ping":67},{"user_id":34,"name":"Eccentric","steam_id":76561198850391975,"connected_time":1257000000000,"state":"active","ping":80},{"user_id":49,"name":"femtofarad™","steam_id":76561198308583053,"connected_time":466000000000,"state":"active","ping":86},{"user_id":36,"name":"THORNFIELDGAMER","steam_id":76561199087167473,"connected_time":1225000000000,"state":"active","ping":87},{"user_id":38,"name":"ThatGamingKiwi","steam_id":76561199170522237,"connected_time":1211000000000,"state":"active","ping":79}]},{"server_id":36,"name":"Uncletopia | Chicago | 5 | All Maps","name_short":"chi-5","host":"chi-2.us.uncletopia.com","port":27015,"enabled":true,"region":"us-central","cc":"us","latitude":41.881832,"longitude":-87.62318,"reserved":0,"last_update":"0001-01-01T00:00:00Z","name_a2s":"Uncletopia | Chicago | 5 | All Maps","protocol":17,"map":"koth_viaduct","folder":"tf","game":"Team Fortress","app_id":440,"player_count":0,"max_players":24,"Bots":0,"server_type":"Dedicated","server_os":"Linux","password":true,"vac":true,"version":"7961495","steam_id":85568392924866362,"keywords":["cp","nocrits","nodmgspread","uncletopia"],"game_id":440,"stv_port":27016,"stv_name":"Uncletopia | Chicago | 5 | All Maps | STV","players":null},{"server_id":37,"name":"Uncletopia | Chicago | 6 | All Maps","name_short":"chi-6","host":"chi-2.us.uncletopia.com","port":27025,"enabled":true,"region":"us-central","cc":"us","latitude":41.881832,"longitude":-87.62318,"reserved":0,"last_update":"0001-01-01T00:00:00Z","name_a2s":"Uncletopia | Chicago | 6 | All Maps","protocol":17,"map":"pl_frontier_final","folder":"tf","game":"Team Fortress","app_id":440,"player_count":0,"max_players":24,"Bots":0,"server_type":"Dedicated","server_os":"Linux","password":true,"vac":true,"version":"7961495","steam_id":85568392924866363,"keywords":["nocrits","nodmgspread","payload","uncletopia"],"game_id":440,"stv_port":27026,"stv_name":"Uncletopia | Chicago | 6 | All Maps | STV","players":null},{"server_id":38,"name":"Uncletopia | Chicago | 7 | Stopwatch","name_short":"chi-7","host":"chi-2.us.uncletopia.com","port":27035,"enabled":true,"region":"us-central","cc":"us","latitude":41.881832,"longitude":-87.62318,"reserved":0,"last_update":"0001-01-01T00:00:00Z","name_a2s":"Uncletopia | Chicago | 7 | Stopwatch","protocol":17,"map":"cp_metalworks","folder":"tf","game":"Team Fortress","app_id":440,"player_count":0,"max_players":24,"Bots":0,"server_type":"Dedicated","server_os":"Linux","password":true,"vac":true,"version":"7961495","steam_id":85568392924866364,"keywords":["cp","nocrits","nodmgspread","uncletopia"],"game_id":440,"stv_port":27036,"stv_name":"Uncletopia | Chicago | 7 | Stopwatch | STV","players":null},{"server_id":39,"name":"Uncletopia | Chicago | 8 | Community","name_short":"chi-8","host":"chi-2.us.uncletopia.com","port":27045,"enabled":true,"region":"us-central","cc":"us","latitude":41.881832,"longitude":-87.62318,"reserved":0,"last_update":"0001-01-01T00:00:00Z","name_a2s":"Uncletopia | Chicago | 8 | Community","protocol":17,"map":"pl_pier","folder":"tf","game":"Team Fortress","app_id":440,"player_count":1,"max_players":24,"Bots":0,"server_type":"Dedicated","server_os":"Linux","password":true,"vac":true,"version":"7961495","steam_id":85568392924866365,"keywords":["nocrits","nodmgspread","payload","uncletopia"],"game_id":440,"stv_port":27046,"stv_name":"Uncletopia | Chicago | 8 | Community | STV","players":[{"user_id":8,"name":"Corporate Cuck Kermit","steam_id":76561198914063104,"connected_time":383000000000,"state":"active","ping":55}]},{"server_id":8,"name":"Uncletopia | Dallas | 1 | All Maps","name_short":"dal-1","host":"dal-1.us.uncletopia.com","port":27015,"enabled":true,"region":"us-central","cc":"us","latitude":32.779167,"longitude":-96.80889,"reserved":0,"last_update":"0001-01-01T00:00:00Z","name_a2s":"Uncletopia | Dallas | 1 | All Maps","protocol":17,"map":"koth_lakeside_final","folder":"tf","game":"Team Fortress","app_id":440,"player_count":0,"max_players":24,"Bots":0,"server_type":"Dedicated","server_os":"Linux","password":true,"vac":true,"version":"7961495","steam_id":85568392924469986,"keywords":["cp","nocrits","nodmgspread","uncletopia"],"game_id":440,"stv_port":27016,"stv_name":"Uncletopia | Dallas | 1 | All Maps | STV","players":null},{"server_id":108,"name":"Uncletopia | Dallas | 2 | All Maps","name_short":"dal-2","host":"dal-1.us.uncletopia.com","port":27025,"enabled":true,"region":"us-central","cc":"us","latitude":32.779167,"longitude":-96.80889,"reserved":0,"last_update":"0001-01-01T00:00:00Z","name_a2s":"Uncletopia | Dallas | 2 | All Maps","protocol":17,"map":"koth_lakeside_final","folder":"tf","game":"Team Fortress","app_id":440,"player_count":0,"max_players":24,"Bots":0,"server_type":"Dedicated","server_os":"Linux","password":true,"vac":true,"version":"7961495","steam_id":85568392924469988,"keywords":["cp","nocrits","nodmgspread","uncletopia"],"game_id":440,"stv_port":27026,"stv_name":"Uncletopia | Dallas | 2 | All Maps | STV","players":null},{"server_id":404,"name":"Uncletopia | Dallas | 3 | All Maps","name_short":"dal-3","host":"dal-1.us.uncletopia.com","port":27035,"enabled":true,"region":"us-central","cc":"us","latitude":32.779167,"longitude":-96.80889,"reserved":0,"last_update":"0001-01-01T00:00:00Z","name_a2s":"Uncletopia | Dallas | 3 | All Maps","protocol":17,"map":"cp_process_final","folder":"tf","game":"Team Fortress","app_id":440,"player_count":23,"max_players":24,"Bots":0,"server_type":"Dedicated","server_os":"Linux","password":true,"vac":true,"version":"7961495","steam_id":85568392924515219,"keywords":["cp","nocrits","nodmgspread","uncletopia"],"game_id":440,"stv_port":27036,"stv_name":"Uncletopia | Dallas | 3 | All Maps | STV","players":[{"user_id":102,"name":"rune simpa","steam_id":76561198046174848,"connected_time":2993000000000,"state":"active","ping":55},{"user_id":123,"name":"Hawkborne","steam_id":76561198107249245,"connected_time":1439000000000,"state":"active","ping":67},{"user_id":115,"name":"Hunterkio1222","steam_id":76561198240237672,"connected_time":1851000000000,"state":"active","ping":90},{"user_id":89,"name":"hatchetax","steam_id":76561199013337543,"connected_time":3797000000000,"state":"active","ping":61},{"user_id":104,"name":"Brawns","steam_id":76561198045190199,"connected_time":2902000000000,"state":"active","ping":91},{"user_id":139,"name":"FearMeisterMedusa","steam_id":76561198330311673,"connected_time":186000000000,"state":"active","ping":75},{"user_id":126,"name":"Morbea","steam_id":76561199071098451,"connected_time":1212000000000,"state":"active","ping":109},{"user_id":113,"name":"Wut dat dog doin","steam_id":76561198848535267,"connected_time":1900000000000,"state":"active","ping":102},{"user_id":73,"name":"sckeeb","steam_id":76561198151064563,"connected_time":4196000000000,"state":"active","ping":99},{"user_id":132,"name":"Cam","steam_id":76561198139174433,"connected_time":398000000000,"state":"active","ping":69},{"user_id":108,"name":"Mr.President","steam_id":76561198971144834,"connected_time":2270000000000,"state":"active","ping":62},{"user_id":140,"name":"floofy","steam_id":76561198389769098,"connected_time":174000000000,"state":"active","ping":79},{"user_id":106,"name":"CrustyCruster","steam_id":76561199403553822,"connected_time":2567000000000,"state":"active","ping":84},{"user_id":114,"name":"nori","steam_id":76561198014744084,"connected_time":1890000000000,"state":"active","ping":58},{"user_id":135,"name":"Joe the Hooligan","steam_id":76561198814429079,"connected_time":314000000000,"state":"active","ping":71},{"user_id":117,"name":"Skiddy","steam_id":76561198125942665,"connected_time":1692000000000,"state":"active","ping":106},{"user_id":137,"name":"beats I'll do it over again","steam_id":76561199245717718,"connected_time":256000000000,"state":"active","ping":82},{"user_id":127,"name":"Ashvilliany Legacy","steam_id":76561198111259720,"connected_time":1128000000000,"state":"active","ping":100},{"user_id":118,"name":"87987974","steam_id":76561198046948758,"connected_time":1691000000000,"state":"active","ping":65},{"user_id":130,"name":"Artincendies","steam_id":76561198242373456,"connected_time":492000000000,"state":"active","ping":60},{"user_id":119,"name":"POLICE","steam_id":76561198120757569,"connected_time":1684000000000,"state":"active","ping":90},{"user_id":120,"name":"warren","steam_id":76561198136331136,"connected_time":1659000000000,"state":"active","ping":76},{"user_id":124,"name":"ToddlerStomper","steam_id":76561199023602747,"connected_time":1424000000000,"state":"active","ping":63}]},{"server_id":405,"name":"Uncletopia | Dallas | 4 | Community","name_short":"dal-4","host":"dal-1.us.uncletopia.com","port":27045,"enabled":true,"region":"us-central","cc":"us","latitude":32.779167,"longitude":-96.80889,"reserved":0,"last_update":"0001-01-01T00:00:00Z","name_a2s":"Uncletopia | Dallas | 4 | Community","protocol":17,"map":"pl_pier","folder":"tf","game":"Team Fortress","app_id":440,"player_count":0,"max_players":24,"Bots":0,"server_type":"Dedicated","server_os":"Linux","password":true,"vac":true,"version":"7961495","steam_id":85568392924515220,"keywords":["nocrits","nodmgspread","payload","uncletopia"],"game_id":440,"stv_port":27046,"stv_name":"Uncletopia | Dallas | 4 | Community | STV","players":null},{"server_id":5,"name":"Uncletopia | Frankfurt | 1 | All Maps","name_short":"frk-1","host":"frk-1.de.uncletopia.com","port":27015,"enabled":true,"region":"eu","cc":"de","latitude":50.110924,"longitude":8.682127,"reserved":0,"last_update":"0001-01-01T00:00:00Z","name_a2s":"Uncletopia | Frankfurt | 1 | All Maps","protocol":17,"map":"cp_sunshine","folder":"tf","game":"Team Fortress","app_id":440,"player_count":24,"max_players":24,"Bots":0,"server_type":"Dedicated","server_os":"Linux","password":true,"vac":true,"version":"7961495","steam_id":85568392924469989,"keywords":["cp","nocrits","nodmgspread","uncletopia"],"game_id":440,"stv_port":27016,"stv_name":"Uncletopia | Frankfurt | 1 | All Maps | STV","players":[{"user_id":723,"name":"Bobirulez","steam_id":76561198009125458,"connected_time":285000000000,"state":"active","ping":75},{"user_id":722,"name":"tomato","steam_id":76561198315371425,"connected_time":593000000000,"state":"active","ping":57},{"user_id":715,"name":"Wypierdalaj Z Kuchni","steam_id":76561198798459521,"connected_time":1126000000000,"state":"active","ping":63},{"user_id":720,"name":"Krabs","steam_id":76561198161679477,"connected_time":711000000000,"state":"active","ping":56},{"user_id":721,"name":"WHUSSKEY","steam_id":76561198137827441,"connected_time":687000000000,"state":"active","ping":67},{"user_id":707,"name":"rudolph","steam_id":76561198057399765,"connected_time":1321000000000,"state":"active","ping":33},{"user_id":701,"name":"paradise","steam_id":76561198966057450,"connected_time":1508000000000,"state":"active","ping":81},{"user_id":724,"name":"Szennyeskosár","steam_id":76561198280222874,"connected_time":281000000000,"state":"active","ping":60},{"user_id":693,"name":"Norbert Hallelujah","steam_id":76561198137876982,"connected_time":1734000000000,"state":"active","ping":60},{"user_id":708,"name":"humble genius","steam_id":76561198243808680,"connected_time":1291000000000,"state":"active","ping":59},{"user_id":691,"name":"Oceanic | tuesday maybe","steam_id":76561197979741827,"connected_time":2036000000000,"state":"active","ping":67},{"user_id":717,"name":"itchy balls","steam_id":76561198364466446,"connected_time":1074000000000,"state":"active","ping":66},{"user_id":703,"name":"dumbai","steam_id":76561199098418729,"connected_time":1440000000000,"state":"active","ping":101},{"user_id":685,"name":"N1xD4","steam_id":76561199047686063,"connected_time":2579000000000,"state":"active","ping":66},{"user_id":686,"name":"lisivi","steam_id":76561198365503306,"connected_time":2556000000000,"state":"active","ping":51},{"user_id":683,"name":"booba","steam_id":76561198158018284,"connected_time":2624000000000,"state":"active","ping":56},{"user_id":726,"name":"Mack","steam_id":76561197996171149,"connected_time":173000000000,"state":"active","ping":66},{"user_id":725,"name":"Herm","steam_id":76561197982045677,"connected_time":236000000000,"state":"active","ping":72},{"user_id":713,"name":"bohne","steam_id":76561198205277677,"connected_time":1172000000000,"state":"active","ping":39},{"user_id":718,"name":"JustACoomer","steam_id":76561198151433181,"connected_time":980000000000,"state":"active","ping":50},{"user_id":719,"name":"DXD Tech","steam_id":76561198358379587,"connected_time":942000000000,"state":"active","ping":89},{"user_id":674,"name":"Driver's drunkest God","steam_id":76561198969373800,"connected_time":3356000000000,"state":"active","ping":88},{"user_id":657,"name":"Phat","steam_id":76561198272293356,"connected_time":4093000000000,"state":"active","ping":72},{"user_id":711,"name":"Level","steam_id":76561198330505781,"connected_time":1242000000000,"state":"active","ping":62}]},{"server_id":110,"name":"Uncletopia | Frankfurt | 2 | All Maps","name_short":"frk-2","host":"frk-1.de.uncletopia.com","port":27025,"enabled":true,"region":"eu","cc":"de","latitude":50.110924,"longitude":8.682127,"reserved":0,"last_update":"0001-01-01T00:00:00Z","name_a2s":"Uncletopia | Frankfurt | 2 | All Maps","protocol":17,"map":"pl_thundermountain","folder":"tf","game":"Team Fortress","app_id":440,"player_count":24,"max_players":24,"Bots":0,"server_type":"Dedicated","server_os":"Linux","password":true,"vac":true,"version":"7961495","steam_id":85568392924469990,"keywords":["nocrits","nodmgspread","payload","uncletopia"],"game_id":440,"stv_port":27026,"stv_name":"Uncletopia | Frankfurt | 2 | All Maps | STV","players":[{"user_id":373,"name":"Penguin in Poncho","steam_id":76561198307493773,"connected_time":2910000000000,"state":"active","ping":69},{"user_id":367,"name":"Finnish Farmer","steam_id":76561198205366043,"connected_time":3464000000000,"state":"active","ping":82},{"user_id":417,"name":"Rimx","steam_id":76561198053034840,"connected_time":156000000000,"state":"active","ping":87},{"user_id":418,"name":"Toasty5050","steam_id":76561198073540881,"connected_time":13000000000,"state":"spawning","ping":24},{"user_id":374,"name":"SzczwanaKawia","steam_id":76561198151871852,"connected_time":2905000000000,"state":"active","ping":69},{"user_id":375,"name":"Nikkis","steam_id":76561198190420055,"connected_time":2901000000000,"state":"active","ping":65},{"user_id":376,"name":"Spectre","steam_id":76561198163819482,"connected_time":2896000000000,"state":"active","ping":66},{"user_id":386,"name":"beanie_snail","steam_id":76561199111476299,"connected_time":2243000000000,"state":"active","ping":59},{"user_id":377,"name":"randem_","steam_id":76561198338793755,"connected_time":2847000000000,"state":"active","ping":51},{"user_id":378,"name":"galaxy","steam_id":76561198164819022,"connected_time":2833000000000,"state":"active","ping":65},{"user_id":387,"name":"GFN2280","steam_id":76561198968810399,"connected_time":2200000000000,"state":"active","ping":63},{"user_id":411,"name":"Mr Lemon","steam_id":76561198054685254,"connected_time":750000000000,"state":"active","ping":74},{"user_id":391,"name":"PAUL THE BEER GOD","steam_id":76561199093477280,"connected_time":2007000000000,"state":"active","ping":73},{"user_id":406,"name":"just a cat","steam_id":76561198328023740,"connected_time":1709000000000,"state":"active","ping":51},{"user_id":413,"name":"Puśśy Destroyer","steam_id":76561198119089363,"connected_time":691000000000,"state":"active","ping":104},{"user_id":394,"name":"boneez","steam_id":76561198186800982,"connected_time":1957000000000,"state":"active","ping":60},{"user_id":401,"name":"no mom im not taking meds","steam_id":76561198411598430,"connected_time":1798000000000,"state":"active","ping":62},{"user_id":412,"name":"Ditoro","steam_id":76561198285228298,"connected_time":705000000000,"state":"active","ping":96},{"user_id":400,"name":"Mortar 13","steam_id":76561198056038625,"connected_time":1826000000000,"state":"active","ping":67},{"user_id":408,"name":"PrivateHoria","steam_id":76561198334091691,"connected_time":1513000000000,"state":"active","ping":81},{"user_id":410,"name":"๋","steam_id":76561198169823317,"connected_time":1040000000000,"state":"active","ping":102},{"user_id":404,"name":"DiscoDuck","steam_id":76561198060985375,"connected_time":1743000000000,"state":"active","ping":70},{"user_id":405,"name":"Danimao","steam_id":76561198013942574,"connected_time":1736000000000,"state":"active","ping":58},{"user_id":415,"name":"heddwch","steam_id":76561198076097983,"connected_time":529000000000,"state":"active","ping":79}]},{"server_id":308,"name":"Uncletopia | Frankfurt | 3 | All Maps","name_short":"frk-3","host":"frk-1.de.uncletopia.com","port":27035,"enabled":true,"region":"eu","cc":"de","latitude":50.110924,"longitude":8.682127,"reserved":0,"last_update":"0001-01-01T00:00:00Z","name_a2s":"Uncletopia | Frankfurt | 3 | All Maps","protocol":17,"map":"pl_swiftwater_final1","folder":"tf","game":"Team Fortress","app_id":440,"player_count":21,"max_players":24,"Bots":0,"server_type":"Dedicated","server_os":"Linux","password":true,"vac":true,"version":"7961495","steam_id":85568392924504274,"keywords":["nocrits","nodmgspread","payload","uncletopia"],"game_id":440,"stv_port":27036,"stv_name":"Uncletopia | Frankfurt | 3 | All Maps | STV","players":[{"user_id":329,"name":"Broa28","steam_id":76561199072979817,"connected_time":964000000000,"state":"active","ping":77},{"user_id":339,"name":"Yeetr","steam_id":76561198322726257,"connected_time":321000000000,"state":"active","ping":71},{"user_id":341,"name":"Dolcelatte","steam_id":76561198038501770,"connected_time":288000000000,"state":"active","ping":46},{"user_id":248,"name":"Soerlssoelssöen","steam_id":76561197993060585,"connected_time":4213000000000,"state":"active","ping":69},{"user_id":323,"name":"Naty","steam_id":76561198083488307,"connected_time":1126000000000,"state":"active","ping":73},{"user_id":292,"name":"HarveyGames","steam_id":76561198355794253,"connected_time":2354000000000,"state":"active","ping":118},{"user_id":337,"name":"Archive","steam_id":76561198071255385,"connected_time":669000000000,"state":"active","ping":90},{"user_id":317,"name":"Doriian","steam_id":76561198071438810,"connected_time":1153000000000,"state":"active","ping":74},{"user_id":338,"name":"Playlonix","steam_id":76561199233845629,"connected_time":666000000000,"state":"active","ping":60},{"user_id":328,"name":"tallen","steam_id":76561198061708595,"connected_time":980000000000,"state":"active","ping":86},{"user_id":265,"name":"lun","steam_id":76561198321709121,"connected_time":3251000000000,"state":"active","ping":72},{"user_id":335,"name":"skeleton_archer_1","steam_id":76561198407636430,"connected_time":798000000000,"state":"active","ping":90},{"user_id":345,"name":"Benrosim","steam_id":76561199258825333,"connected_time":128000000000,"state":"active","ping":69},{"user_id":347,"name":"dre","steam_id":76561198252628006,"connected_time":64000000000,"state":"active","ping":54},{"user_id":306,"name":"Barbiehunter #SaveTF2","steam_id":76561198071630928,"connected_time":1306000000000,"state":"active","ping":59},{"user_id":312,"name":"jiberkoma","steam_id":76561198870570691,"connected_time":1190000000000,"state":"active","ping":66},{"user_id":346,"name":"Lyrista","steam_id":76561198136435129,"connected_time":116000000000,"state":"active","ping":77},{"user_id":271,"name":"Rocket Queen's consort","steam_id":76561198092995429,"connected_time":3184000000000,"state":"active","ping":142},{"user_id":296,"name":"WHOLE LOTTA RED","steam_id":76561198870286073,"connected_time":2072000000000,"state":"active","ping":60},{"user_id":304,"name":"NO end to POOTIS","steam_id":76561198144879361,"connected_time":1453000000000,"state":"active","ping":102},{"user_id":302,"name":"Skeletros","steam_id":76561198130969152,"connected_time":1513000000000,"state":"active","ping":137}]},{"server_id":309,"name":"Uncletopia | Frankfurt | 4 | All Maps","name_short":"frk-4","host":"frk-1.de.uncletopia.com","port":27045,"enabled":true,"region":"eu","cc":"de","latitude":50.110924,"longitude":8.682127,"reserved":0,"last_update":"0001-01-01T00:00:00Z","name_a2s":"Uncletopia | Frankfurt | 4 | All Maps","protocol":17,"map":"cp_powerhouse","folder":"tf","game":"Team Fortress","app_id":440,"player_count":22,"max_players":24,"Bots":0,"server_type":"Dedicated","server_os":"Linux","password":true,"vac":true,"version":"7961495","steam_id":85568392924504275,"keywords":["cp","nocrits","nodmgspread","uncletopia"],"game_id":440,"stv_port":27046,"stv_name":"Uncletopia | Frankfurt | 4 | All Maps | STV","players":[{"user_id":244,"name":"scoutcasper","steam_id":76561199019266022,"connected_time":2152000000000,"state":"active","ping":48},{"user_id":217,"name":"vaukly","steam_id":76561199496867563,"connected_time":3166000000000,"state":"active","ping":98},{"user_id":276,"name":"me (real)","steam_id":76561198013770973,"connected_time":742000000000,"state":"active","ping":73},{"user_id":237,"name":"Rapha \u003c3","steam_id":76561198238958174,"connected_time":2329000000000,"state":"active","ping":69},{"user_id":285,"name":"Tuna","steam_id":76561198037708244,"connected_time":241000000000,"state":"active","ping":88},{"user_id":207,"name":"cold#panda","steam_id":76561199220136710,"connected_time":3553000000000,"state":"active","ping":130},{"user_id":199,"name":"123","steam_id":76561198113733477,"connected_time":4042000000000,"state":"active","ping":66},{"user_id":284,"name":"Derlen","steam_id":76561198905424243,"connected_time":325000000000,"state":"active","ping":98},{"user_id":267,"name":"sinefine","steam_id":76561198112944042,"connected_time":914000000000,"state":"active","ping":78},{"user_id":279,"name":"Playback_time","steam_id":76561198349426598,"connected_time":545000000000,"state":"active","ping":45},{"user_id":280,"name":"Dewritos Nacho Red","steam_id":76561198048324872,"connected_time":517000000000,"state":"active","ping":55},{"user_id":185,"name":"[DMZ]","steam_id":76561198034975580,"connected_time":5558000000000,"state":"active","ping":82},{"user_id":268,"name":"dzgnated","steam_id":76561198026927089,"connected_time":907000000000,"state":"active","ping":105},{"user_id":269,"name":"maťo banditcamp.com","steam_id":76561199073073486,"connected_time":902000000000,"state":"active","ping":84},{"user_id":264,"name":"Solymr ibn Wali Barad","steam_id":76561198044008976,"connected_time":1119000000000,"state":"active","ping":75},{"user_id":282,"name":"[O\u0026O]YaboiDucki","steam_id":76561198195976589,"connected_time":494000000000,"state":"active","ping":86},{"user_id":259,"name":"Mr.Shpee","steam_id":76561198158701474,"connected_time":1470000000000,"state":"active","ping":74},{"user_id":256,"name":"Jasu Juntti","steam_id":76561198133631796,"connected_time":1547000000000,"state":"active","ping":69},{"user_id":273,"name":"scott steiners strongest warrio","steam_id":76561198148888622,"connected_time":823000000000,"state":"active","ping":70},{"user_id":243,"name":"autotopilot","steam_id":76561198261922138,"connected_time":2186000000000,"state":"active","ping":72},{"user_id":274,"name":"laza's","steam_id":76561199074095198,"connected_time":818000000000,"state":"active","ping":126},{"user_id":283,"name":"kinimon","steam_id":76561198178453270,"connected_time":488000000000,"state":"active","ping":53}]},{"server_id":310,"name":"Uncletopia | Frankfurt | 5 | All Maps","name_short":"frk-5","host":"frk-1.de.uncletopia.com","port":27055,"enabled":true,"region":"eu","cc":"de","latitude":50.110924,"longitude":8.682127,"reserved":0,"last_update":"0001-01-01T00:00:00Z","name_a2s":"Uncletopia | Frankfurt | 5 | All Maps","protocol":17,"map":"cp_dustbowl","folder":"tf","game":"Team Fortress","app_id":440,"player_count":24,"max_players":24,"Bots":0,"server_type":"Dedicated","server_os":"Linux","password":true,"vac":true,"version":"7961495","steam_id":85568392924504277,"keywords":["cp","nocrits","nodmgspread","uncletopia"],"game_id":440,"stv_port":27056,"stv_name":"Uncletopia | Frankfurt | 5 | All Maps | STV","players":[{"user_id":479,"name":"elmstJP ₪ F4.exe","steam_id":76561197997909480,"connected_time":4028000000000,"state":"active","ping":74},{"user_id":530,"name":"lulu","steam_id":76561199147764133,"connected_time":686000000000,"state":"active","ping":64},{"user_id":509,"name":"JayKey","steam_id":76561198008847925,"connected_time":1231000000000,"state":"active","ping":53},{"user_id":513,"name":"ZeBelgianMedic","steam_id":76561199037517027,"connected_time":1166000000000,"state":"active","ping":76},{"user_id":501,"name":"Bill Clinton","steam_id":76561198060011032,"connected_time":1612000000000,"state":"active","ping":57},{"user_id":510,"name":"Snaky","steam_id":76561199000954430,"connected_time":1207000000000,"state":"active","ping":93},{"user_id":440,"name":"El_Kommadante","steam_id":76561198079551685,"connected_time":7905000000000,"state":"active","ping":77},{"user_id":502,"name":"smosh gaming","steam_id":76561198821743257,"connected_time":1591000000000,"state":"active","ping":88},{"user_id":500,"name":"Nuuskis","steam_id":76561198084042012,"connected_time":1676000000000,"state":"active","ping":81},{"user_id":527,"name":"LadyMissfit","steam_id":76561198042236349,"connected_time":1000000000000,"state":"active","ping":76},{"user_id":506,"name":"Apollo","steam_id":76561198866054007,"connected_time":1480000000000,"state":"active","ping":99},{"user_id":481,"name":"Fatmagic Mukbang ASMR","steam_id":76561198063492110,"connected_time":3908000000000,"state":"active","ping":86},{"user_id":463,"name":"Sham!","steam_id":76561198050434275,"connected_time":6006000000000,"state":"active","ping":45},{"user_id":511,"name":"Japie","steam_id":76561198084292558,"connected_time":1203000000000,"state":"active","ping":55},{"user_id":245,"name":"else1","steam_id":76561197996558319,"connected_time":21762000000000,"state":"active","ping":75},{"user_id":526,"name":"Jake","steam_id":76561198059559158,"connected_time":1027000000000,"state":"active","ping":89},{"user_id":517,"name":"qualiTY","steam_id":76561198011909737,"connected_time":1148000000000,"state":"active","ping":60},{"user_id":518,"name":"Dangerous Andrew","steam_id":76561198067218981,"connected_time":1111000000000,"state":"active","ping":68},{"user_id":431,"name":"Ape","steam_id":76561198322703872,"connected_time":8389000000000,"state":"active","ping":69},{"user_id":519,"name":"Armolitskiy","steam_id":76561198443646513,"connected_time":1107000000000,"state":"active","ping":147},{"user_id":521,"name":"Officer KD6-3.7","steam_id":76561198034343111,"connected_time":1080000000000,"state":"active","ping":51},{"user_id":532,"name":"Asimilate","steam_id":76561198038615368,"connected_time":323000000000,"state":"active","ping":84},{"user_id":529,"name":"Marukuso","steam_id":76561198154229845,"connected_time":921000000000,"state":"active","ping":59},{"user_id":524,"name":"Luna","steam_id":76561198416527370,"connected_time":1054000000000,"state":"active","ping":72}]},{"server_id":311,"name":"Uncletopia | Frankfurt | 6 | All Maps","name_short":"frk-6","host":"frk-1.de.uncletopia.com","port":27065,"enabled":true,"region":"eu","cc":"de","latitude":50.110924,"longitude":8.682127,"reserved":0,"last_update":"0001-01-01T00:00:00Z","name_a2s":"Uncletopia | Frankfurt | 6 | All Maps","protocol":17,"map":"koth_suijin","folder":"tf","game":"Team Fortress","app_id":440,"player_count":20,"max_players":24,"Bots":0,"server_type":"Dedicated","server_os":"Linux","password":true,"vac":true,"version":"7961495","steam_id":85568392924504278,"keywords":["cp","nocrits","nodmgspread","uncletopia"],"game_id":440,"stv_port":27066,"stv_name":"Uncletopia | Frankfurt | 6 | All Maps | STV","players":[{"user_id":577,"name":"ඞSmelvinඞ","steam_id":76561199128834960,"connected_time":25000000000,"state":"active","ping":95},{"user_id":564,"name":"hasansaeedifar","steam_id":76561198974563618,"connected_time":723000000000,"state":"active","ping":235},{"user_id":569,"name":"Qdarks","steam_id":76561198013391340,"connected_time":266000000000,"state":"active","ping":136},{"user_id":489,"name":"WasserGurke","steam_id":76561198372482746,"connected_time":3954000000000,"state":"active","ping":62},{"user_id":570,"name":"Mussolini","steam_id":76561198218384865,"connected_time":239000000000,"state":"active","ping":92},{"user_id":557,"name":"SyborgCat","steam_id":76561198286846816,"connected_time":916000000000,"state":"active","ping":62},{"user_id":543,"name":"GunGuy","steam_id":76561198124510978,"connected_time":1923000000000,"state":"active","ping":54},{"user_id":560,"name":"Ash_Dies_Alone","steam_id":76561198136126828,"connected_time":844000000000,"state":"active","ping":56},{"user_id":562,"name":"Lorenzo Lovers","steam_id":76561198073973581,"connected_time":764000000000,"state":"active","ping":80},{"user_id":492,"name":"TheKees301","steam_id":76561198827506371,"connected_time":3907000000000,"state":"active","ping":71},{"user_id":558,"name":"Average meme enjoyer","steam_id":76561199087566663,"connected_time":915000000000,"state":"active","ping":86},{"user_id":571,"name":"Unsalted Butter","steam_id":76561198053118190,"connected_time":205000000000,"state":"active","ping":47},{"user_id":572,"name":"Jessica","steam_id":76561198342993279,"connected_time":162000000000,"state":"active","ping":118},{"user_id":573,"name":"Ink in veins","steam_id":76561199082262091,"connected_time":153000000000,"state":"active","ping":72},{"user_id":574,"name":"Dr. Le Quack","steam_id":76561197995711176,"connected_time":75000000000,"state":"active","ping":74},{"user_id":575,"name":"Alyx","steam_id":76561198064654326,"connected_time":59000000000,"state":"active","ping":47},{"user_id":576,"name":"Powki","steam_id":76561198974462268,"connected_time":56000000000,"state":"active","ping":77},{"user_id":578,"name":"Mr.B","steam_id":76561199204478925,"connected_time":7000000000,"state":"spawning","ping":102},{"user_id":579,"name":"spy in the base","steam_id":76561198284570752,"connected_time":2000000000,"state":"spawning","ping":55},{"user_id":541,"name":"KillOrGetOut ( ͡° ͜ʖ ͡°)","steam_id":76561198072881803,"connected_time":2023000000000,"state":"active","ping":63}]},{"server_id":23,"name":"Uncletopia | Frankfurt | 7 | Stopwatch","name_short":"frk-7","host":"frk-1.de.uncletopia.com","port":27075,"enabled":true,"region":"eu","cc":"de","latitude":50.110924,"longitude":8.682127,"reserved":0,"last_update":"0001-01-01T00:00:00Z","name_a2s":"Uncletopia | Frankfurt | 7 | Stopwatch","protocol":17,"map":"workshop/pl_vigil_rc10.ugc1266210012","folder":"tf","game":"Team Fortress","app_id":440,"player_count":0,"max_players":24,"Bots":0,"server_type":"Dedicated","server_os":"Linux","password":true,"vac":true,"version":"7961495","steam_id":85568392924742827,"keywords":["nocrits","nodmgspread","payload","uncletopia"],"game_id":440,"stv_port":27076,"stv_name":"Uncletopia | Frankfurt | 7 | Stopwatch | STV","players":null},{"server_id":24,"name":"Uncletopia | Frankfurt | 8 | Community","name_short":"frk-8","host":"frk-1.de.uncletopia.com","port":27085,"enabled":true,"region":"eu","cc":"de","latitude":50.110924,"longitude":8.682127,"reserved":0,"last_update":"0001-01-01T00:00:00Z","name_a2s":"Uncletopia | Frankfurt | 8 | Community","protocol":17,"map":"workshop/cp_bruhstbowl_b6.ugc2878604990","folder":"tf","game":"Team Fortress","app_id":440,"player_count":20,"max_players":24,"Bots":0,"server_type":"Dedicated","server_os":"Linux","password":true,"vac":true,"version":"7961495","steam_id":85568392924742828,"keywords":["cp","nocrits","nodmgspread","uncletopia"],"game_id":440,"stv_port":27086,"stv_name":"Uncletopia | Frankfurt | 8 | Community | STV","players":[{"user_id":125,"name":"Ralistix","steam_id":76561198051654135,"connected_time":1253000000000,"state":"active","ping":80},{"user_id":126,"name":"Magirby","steam_id":76561198818777390,"connected_time":1250000000000,"state":"active","ping":113},{"user_id":74,"name":"grigobno","steam_id":76561198037018719,"connected_time":3936000000000,"state":"active","ping":94},{"user_id":127,"name":"0","steam_id":76561198102429510,"connected_time":1215000000000,"state":"active","ping":68},{"user_id":76,"name":"CheesingBond","steam_id":76561198034939270,"connected_time":3923000000000,"state":"active","ping":111},{"user_id":28,"name":"Elsuedi","steam_id":76561198074722832,"connected_time":7297000000000,"state":"active","ping":57},{"user_id":118,"name":"HeliasC","steam_id":76561198128280111,"connected_time":1435000000000,"state":"active","ping":78},{"user_id":134,"name":"Cursehat","steam_id":76561198071867237,"connected_time":904000000000,"state":"active","ping":89},{"user_id":141,"name":"newlove","steam_id":76561198336608145,"connected_time":342000000000,"state":"active","ping":90},{"user_id":144,"name":"Vonacht","steam_id":76561198016033944,"connected_time":69000000000,"state":"active","ping":73},{"user_id":93,"name":"igor","steam_id":76561198984517474,"connected_time":3108000000000,"state":"active","ping":84},{"user_id":145,"name":"zazuza","steam_id":76561198049820905,"connected_time":54000000000,"state":"active","ping":62},{"user_id":146,"name":"m/59","steam_id":76561198086304421,"connected_time":25000000000,"state":"spawning","ping":163},{"user_id":53,"name":"confusion","steam_id":76561199199499453,"connected_time":5152000000000,"state":"active","ping":78},{"user_id":124,"name":"Sn1Ch","steam_id":76561198073076943,"connected_time":1337000000000,"state":"active","ping":89},{"user_id":59,"name":"Mozzaza","steam_id":76561198156316111,"connected_time":4858000000000,"state":"active","ping":134},{"user_id":128,"name":"static","steam_id":76561198836825741,"connected_time":1204000000000,"state":"active","ping":59},{"user_id":130,"name":"Dr. Antisex","steam_id":76561199140608609,"connected_time":1134000000000,"state":"active","ping":51},{"user_id":101,"name":"monday_morning","steam_id":76561198233457496,"connected_time":2891000000000,"state":"active","ping":48},{"user_id":105,"name":"Swedish Crowbar","steam_id":76561199105488936,"connected_time":2142000000000,"state":"active","ping":63}]},{"server_id":202,"name":"Uncletopia | Hong Kong | 1 | All Maps","name_short":"hgk-1","host":"hgk-1.hk.uncletopia.com","port":27015,"enabled":true,"region":"asia","cc":"hk","latitude":22.302711,"longitude":114.177216,"reserved":0,"last_update":"0001-01-01T00:00:00Z","name_a2s":"Uncletopia | Hong Kong | 1 | All Maps","protocol":17,"map":"cp_dustbowl","folder":"tf","game":"Team Fortress","app_id":440,"player_count":6,"max_players":24,"Bots":0,"server_type":"Dedicated","server_os":"Linux","password":true,"vac":true,"version":"7961495","steam_id":85568392924494504,"keywords":["cp","nocrits","nodmgspread","uncletopia"],"game_id":440,"stv_port":27016,"stv_name":"Uncletopia | Hong Kong | 1 | All Maps | STV","players":[{"user_id":947,"name":"The one who shit on piss","steam_id":76561199254649689,"connected_time":1747000000000,"state":"active","ping":117},{"user_id":945,"name":"dalle","steam_id":76561198109712439,"connected_time":2174000000000,"state":"active","ping":85},{"user_id":952,"name":"Lol","steam_id":76561199060785865,"connected_time":485000000000,"state":"active","ping":180},{"user_id":908,"name":"no vc no c","steam_id":76561197989503095,"connected_time":4837000000000,"state":"active","ping":82},{"user_id":936,"name":"ihavenomouthandimustscream","steam_id":76561198172874097,"connected_time":2587000000000,"state":"active","ping":51},{"user_id":893,"name":"PissDrinker98","steam_id":76561198856157761,"connected_time":6344000000000,"state":"active","ping":110}]},{"server_id":1,"name":"Uncletopia | Los Angeles | 1 | All Maps","name_short":"lax-1","host":"lax-1.us.uncletopia.com","port":27015,"enabled":true,"region":"us-west","cc":"us","latitude":33.94279,"longitude":-118.41004,"reserved":0,"last_update":"0001-01-01T00:00:00Z","name_a2s":"Uncletopia | Los Angeles | 1 | All Maps","protocol":17,"map":"pl_frontier_final","folder":"tf","game":"Team Fortress","app_id":440,"player_count":0,"max_players":24,"Bots":0,"server_type":"Dedicated","server_os":"Linux","password":true,"vac":true,"version":"7961495","steam_id":85568392924469991,"keywords":["nocrits","nodmgspread","payload","uncletopia"],"game_id":440,"stv_port":27016,"stv_name":"Uncletopia | Los Angeles | 1 | All Maps | STV","players":null},{"server_id":112,"name":"Uncletopia | Los Angeles | 2 | All Maps","name_short":"lax-2","host":"lax-1.us.uncletopia.com","port":27025,"enabled":true,"region":"us-west","cc":"us","latitude":33.94279,"longitude":-118.41004,"reserved":0,"last_update":"0001-01-01T00:00:00Z","name_a2s":"Uncletopia | Los Angeles | 2 | All Maps","protocol":17,"map":"koth_cascade","folder":"tf","game":"Team Fortress","app_id":440,"player_count":0,"max_players":24,"Bots":0,"server_type":"Dedicated","server_os":"Linux","password":true,"vac":true,"version":"7961495","steam_id":85568392924469992,"keywords":["cp","nocrits","nodmgspread","uncletopia"],"game_id":440,"stv_port":27026,"stv_name":"Uncletopia | Los Angeles | 2 | All Maps | STV","players":null},{"server_id":324,"name":"Uncletopia | Los Angeles | 3 | All Maps","name_short":"lax-3","host":"lax-1.us.uncletopia.com","port":27035,"enabled":true,"region":"us-west","cc":"us","latitude":33.94279,"longitude":-118.41004,"reserved":0,"last_update":"0001-01-01T00:00:00Z","name_a2s":"Uncletopia | Los Angeles | 3 | All Maps","protocol":17,"map":"pl_frontier_final","folder":"tf","game":"Team Fortress","app_id":440,"player_count":0,"max_players":24,"Bots":0,"server_type":"Dedicated","server_os":"Linux","password":true,"vac":true,"version":"7961495","steam_id":85568392924510198,"keywords":["nocrits","nodmgspread","payload","uncletopia"],"game_id":440,"stv_port":27036,"stv_name":"Uncletopia | Los Angeles | 3 | All Maps | STV","players":null},{"server_id":25,"name":"Uncletopia | Los Angeles | 4 | Stopwatch","name_short":"lax-4","host":"lax-1.us.uncletopia.com","port":27045,"enabled":true,"region":"us-west","cc":"us","latitude":33.94279,"longitude":-118.41004,"reserved":0,"last_update":"0001-01-01T00:00:00Z","name_a2s":"Uncletopia | Los Angeles | 4 | Stopwatch","protocol":17,"map":"pl_barnblitz","folder":"tf","game":"Team Fortress","app_id":440,"player_count":0,"max_players":24,"Bots":0,"server_type":"Dedicated","server_os":"Linux","password":true,"vac":true,"version":"7961495","steam_id":85568392924510199,"keywords":["nocrits","nodmgspread","payload","uncletopia"],"game_id":440,"stv_port":27046,"stv_name":"Uncletopia | Los Angeles | 4 | Stopwatch | STV","players":null},{"server_id":11,"name":"Uncletopia | London | 1 | All Maps","name_short":"lon-1","host":"lon-1.uk.uncletopia.com","port":27015,"enabled":true,"region":"eu","cc":"gb","latitude":51.509865,"longitude":-0.118092,"reserved":0,"last_update":"0001-01-01T00:00:00Z","name_a2s":"Uncletopia | London | 1 | All Maps","protocol":17,"map":"pl_pier","folder":"tf","game":"Team Fortress","app_id":440,"player_count":24,"max_players":24,"Bots":0,"server_type":"Dedicated","server_os":"Linux","password":true,"vac":true,"version":"7961495","steam_id":85568392924367362,"keywords":["nocrits","nodmgspread","payload","uncletopia"],"game_id":440,"stv_port":27016,"stv_name":"Uncletopia | London | 1 | All Maps | STV","players":[{"user_id":510,"name":"ayadam","steam_id":76561198161515769,"connected_time":1776000000000,"state":"active","ping":114},{"user_id":432,"name":"KermSlinger","steam_id":76561198854027069,"connected_time":6560000000000,"state":"active","ping":66},{"user_id":502,"name":"Mr. Plutonium","steam_id":76561198324173178,"connected_time":2466000000000,"state":"active","ping":71},{"user_id":478,"name":"tapeworms!","steam_id":76561198069649097,"connected_time":3085000000000,"state":"active","ping":61},{"user_id":453,"name":"Tengen","steam_id":76561199356990346,"connected_time":4666000000000,"state":"active","ping":104},{"user_id":504,"name":"nipples","steam_id":76561198103496593,"connected_time":2433000000000,"state":"active","ping":136},{"user_id":514,"name":"tired","steam_id":76561198046838168,"connected_time":759000000000,"state":"active","ping":59},{"user_id":500,"name":"Dani","steam_id":76561198211627920,"connected_time":2610000000000,"state":"active","ping":76},{"user_id":308,"name":"AleXandriX","steam_id":76561198035203950,"connected_time":16689000000000,"state":"active","ping":62},{"user_id":505,"name":"Chris Hansen, Kell of Kells","steam_id":76561198986775156,"connected_time":2429000000000,"state":"active","ping":142},{"user_id":476,"name":"Sir Cauterize","steam_id":76561198047079422,"connected_time":3199000000000,"state":"active","ping":52},{"user_id":506,"name":"Negative iq haver","steam_id":76561199017850242,"connected_time":2426000000000,"state":"active","ping":59},{"user_id":512,"name":"grylasverre","steam_id":76561199230434396,"connected_time":1235000000000,"state":"active","ping":67},{"user_id":522,"name":"dark^^","steam_id":76561198036241064,"connected_time":78000000000,"state":"active","ping":72},{"user_id":513,"name":"Weegee","steam_id":76561198150308523,"connected_time":796000000000,"state":"active","ping":63},{"user_id":517,"name":"KlomboFan","steam_id":76561198108851389,"connected_time":695000000000,"state":"active","ping":51},{"user_id":520,"name":"Biggest Homie","steam_id":76561198373107677,"connected_time":262000000000,"state":"active","ping":85},{"user_id":518,"name":"Femboy Thighs","steam_id":76561198115496457,"connected_time":690000000000,"state":"active","ping":48},{"user_id":462,"name":"-KV-Michael557 [OS]","steam_id":76561198041221257,"connected_time":4418000000000,"state":"active","ping":61},{"user_id":519,"name":"ra","steam_id":76561198239927434,"connected_time":677000000000,"state":"active","ping":88},{"user_id":494,"name":"ufomaster1111111","steam_id":76561198837347666,"connected_time":2752000000000,"state":"active","ping":43},{"user_id":521,"name":"Woman (Real)","steam_id":76561199151823932,"connected_time":164000000000,"state":"active","ping":83},{"user_id":507,"name":"Ricey","steam_id":76561198832961307,"connected_time":2375000000000,"state":"active","ping":46},{"user_id":508,"name":"PotatoSpam","steam_id":76561198391643737,"connected_time":2363000000000,"state":"active","ping":136}]},{"server_id":114,"name":"Uncletopia | London | 2 | All Maps","name_short":"lon-2","host":"lon-1.uk.uncletopia.com","port":27025,"enabled":true,"region":"eu","cc":"gb","latitude":51.509865,"longitude":-0.118092,"reserved":0,"last_update":"0001-01-01T00:00:00Z","name_a2s":"Uncletopia | London | 2 | All Maps","protocol":17,"map":"pl_snowycoast","folder":"tf","game":"Team Fortress","app_id":440,"player_count":24,"max_players":24,"Bots":0,"server_type":"Dedicated","server_os":"Linux","password":true,"vac":true,"version":"7961495","steam_id":85568392924470941,"keywords":["nocrits","nodmgspread","payload","uncletopia"],"game_id":440,"stv_port":27026,"stv_name":"Uncletopia | London | 2 | All Maps | STV","players":[{"user_id":667,"name":"LOBZIK","steam_id":76561198114830120,"connected_time":1881000000000,"state":"active","ping":79},{"user_id":673,"name":"TotallyRealRunarTvålfager™","steam_id":76561198018228013,"connected_time":1708000000000,"state":"active","ping":71},{"user_id":688,"name":"Diggity","steam_id":76561198297157085,"connected_time":67000000000,"state":"active","ping":40},{"user_id":689,"name":"CookedBird","steam_id":76561198107521676,"connected_time":0,"state":"spawning","ping":27},{"user_id":678,"name":"alpha","steam_id":76561198250491640,"connected_time":1066000000000,"state":"active","ping":43},{"user_id":653,"name":"TOP G","steam_id":76561198138928548,"connected_time":2537000000000,"state":"active","ping":60},{"user_id":623,"name":"Hexagon","steam_id":76561198151205758,"connected_time":5220000000000,"state":"active","ping":51},{"user_id":682,"name":"Life goes on","steam_id":76561198103978102,"connected_time":778000000000,"state":"active","ping":77},{"user_id":624,"name":"Mr. Mundy","steam_id":76561198132008918,"connected_time":5205000000000,"state":"active","ping":83},{"user_id":680,"name":"Jergu","steam_id":76561198023457541,"connected_time":874000000000,"state":"active","ping":75},{"user_id":654,"name":"zek","steam_id":76561198862763731,"connected_time":2496000000000,"state":"active","ping":65},{"user_id":618,"name":"Grillem Dafoe","steam_id":76561198306874574,"connected_time":5306000000000,"state":"active","ping":61},{"user_id":675,"name":"Plep","steam_id":76561198840259819,"connected_time":1597000000000,"state":"active","ping":60},{"user_id":679,"name":"Insain Bolt!","steam_id":76561198025687726,"connected_time":1004000000000,"state":"active","ping":95},{"user_id":684,"name":"microwavedelights","steam_id":76561199260959455,"connected_time":384000000000,"state":"active","ping":103},{"user_id":656,"name":"jjkun786","steam_id":76561199438517484,"connected_time":2426000000000,"state":"active","ping":37},{"user_id":685,"name":"laser","steam_id":76561198036030697,"connected_time":379000000000,"state":"active","ping":69},{"user_id":627,"name":"Rayan","steam_id":76561198121242246,"connected_time":4621000000000,"state":"active","ping":66},{"user_id":643,"name":"why hello there","steam_id":76561198047271252,"connected_time":3816000000000,"state":"active","ping":77},{"user_id":677,"name":"ice cream","steam_id":76561198087718730,"connected_time":1077000000000,"state":"active","ping":52},{"user_id":681,"name":"nordstream bomber","steam_id":76561199401283123,"connected_time":836000000000,"state":"active","ping":51},{"user_id":669,"name":"Comfy Monkey","steam_id":76561197998434936,"connected_time":1811000000000,"state":"active","ping":106},{"user_id":619,"name":"Tegnerud","steam_id":76561198214185612,"connected_time":5290000000000,"state":"active","ping":75},{"user_id":672,"name":"Personano","steam_id":76561198994355577,"connected_time":1726000000000,"state":"active","ping":59}]},{"server_id":320,"name":"Uncletopia | London | 3 | All Maps","name_short":"lon-3","host":"lon-1.uk.uncletopia.com","port":27035,"enabled":true,"region":"eu","cc":"gb","latitude":51.509865,"longitude":-0.118092,"reserved":0,"last_update":"0001-01-01T00:00:00Z","name_a2s":"Uncletopia | London | 3 | All Maps","protocol":17,"map":"cp_dustbowl","folder":"tf","game":"Team Fortress","app_id":440,"player_count":22,"max_players":24,"Bots":0,"server_type":"Dedicated","server_os":"Linux","password":true,"vac":true,"version":"7961495","steam_id":85568392924510192,"keywords":["cp","nocrits","nodmgspread","uncletopia"],"game_id":440,"stv_port":27036,"stv_name":"Uncletopia | London | 3 | All Maps | STV","players":[{"user_id":499,"name":"❤G a n K","steam_id":76561199125995565,"connected_time":90000000000,"state":"active","ping":82},{"user_id":486,"name":"Carter","steam_id":76561198005243938,"connected_time":708000000000,"state":"active","ping":66},{"user_id":409,"name":"Domberry","steam_id":76561199346712175,"connected_time":4539000000000,"state":"active","ping":98},{"user_id":458,"name":"LainBizkit","steam_id":76561199200708626,"connected_time":1230000000000,"state":"active","ping":103},{"user_id":496,"name":"Semenatoer","steam_id":76561199007730551,"connected_time":106000000000,"state":"spawning","ping":59},{"user_id":452,"name":"harper","steam_id":76561198188642265,"connected_time":1537000000000,"state":"active","ping":124},{"user_id":414,"name":"Shoeman","steam_id":76561198126726364,"connected_time":4090000000000,"state":"active","ping":56},{"user_id":454,"name":"Mono","steam_id":76561198114569493,"connected_time":1323000000000,"state":"active","ping":41},{"user_id":500,"name":"Hitotsume","steam_id":76561198129157178,"connected_time":57000000000,"state":"active","ping":86},{"user_id":459,"name":"Mr Sandman","steam_id":76561198033859261,"connected_time":1132000000000,"state":"active","ping":49},{"user_id":460,"name":"Postyro-man","steam_id":76561198048832733,"connected_time":1116000000000,"state":"active","ping":69},{"user_id":501,"name":"okaythatsverycool336","steam_id":76561199500957806,"connected_time":48000000000,"state":"active","ping":96},{"user_id":461,"name":"gofsker","steam_id":76561199121404047,"connected_time":1113000000000,"state":"active","ping":31},{"user_id":451,"name":"Mamaki","steam_id":76561198799617313,"connected_time":1596000000000,"state":"active","ping":89},{"user_id":489,"name":"Flal","steam_id":76561198453819816,"connected_time":404000000000,"state":"active","ping":69},{"user_id":498,"name":"JaksAtttack","steam_id":76561198261052241,"connected_time":95000000000,"state":"active","ping":72},{"user_id":483,"name":"stormerzz","steam_id":76561198058030238,"connected_time":853000000000,"state":"active","ping":42},{"user_id":502,"name":"Smellvin","steam_id":76561198221248472,"connected_time":22000000000,"state":"spawning","ping":1021},{"user_id":503,"name":"LaserDisc_","steam_id":76561198048461220,"connected_time":3000000000,"state":"spawning","ping":73},{"user_id":491,"name":"Rat King","steam_id":76561198256783599,"connected_time":369000000000,"state":"active","ping":54},{"user_id":492,"name":"Obiweed Kenobi","steam_id":76561198011049256,"connected_time":367000000000,"state":"active","ping":82},{"user_id":493,"name":"Penis Contortionist","steam_id":76561198073663784,"connected_time":365000000000,"state":"active","ping":90}]},{"server_id":321,"name":"Uncletopia | London | 4 | All Maps","name_short":"lon-4","host":"lon-1.uk.uncletopia.com","port":27045,"enabled":true,"region":"eu","cc":"gb","latitude":51.509865,"longitude":-0.118092,"reserved":0,"last_update":"0001-01-01T00:00:00Z","name_a2s":"Uncletopia | London | 4 | All Maps","protocol":17,"map":"cp_sunshine","folder":"tf","game":"Team Fortress","app_id":440,"player_count":24,"max_players":24,"Bots":0,"server_type":"Dedicated","server_os":"Linux","password":true,"vac":true,"version":"7961495","steam_id":85568392924510193,"keywords":["cp","nocrits","nodmgspread","uncletopia"],"game_id":440,"stv_port":27046,"stv_name":"Uncletopia | London | 4 | All Maps | STV","players":[{"user_id":155,"name":"raebbitos","steam_id":76561198167580006,"connected_time":1469000000000,"state":"active","ping":59},{"user_id":142,"name":"Harri Lalies","steam_id":76561198194420078,"connected_time":1728000000000,"state":"active","ping":47},{"user_id":125,"name":"cuddles","steam_id":76561198805181599,"connected_time":3194000000000,"state":"active","ping":54},{"user_id":138,"name":"Surrealistic_Ganerson","steam_id":76561198029591931,"connected_time":1924000000000,"state":"active","ping":94},{"user_id":139,"name":"c1v","steam_id":76561199085624224,"connected_time":1911000000000,"state":"active","ping":64},{"user_id":154,"name":"Mébh Óg MacTíre","steam_id":76561198346399624,"connected_time":1524000000000,"state":"active","ping":87},{"user_id":143,"name":"Stealthy","steam_id":76561198219415360,"connected_time":1715000000000,"state":"active","ping":44},{"user_id":152,"name":"1914","steam_id":76561198257383813,"connected_time":1566000000000,"state":"active","ping":60},{"user_id":145,"name":"snail","steam_id":76561198147277460,"connected_time":1694000000000,"state":"active","ping":64},{"user_id":146,"name":"ArcX","steam_id":76561198805049375,"connected_time":1692000000000,"state":"active","ping":59},{"user_id":156,"name":"Ullr","steam_id":76561198140547483,"connected_time":1416000000000,"state":"active","ping":41},{"user_id":157,"name":"MostSereneDogeBestDoge","steam_id":76561198061196566,"connected_time":1383000000000,"state":"active","ping":61},{"user_id":167,"name":"The","steam_id":76561198359311605,"connected_time":324000000000,"state":"active","ping":68},{"user_id":133,"name":"Wardruna96","steam_id":76561199057083828,"connected_time":2635000000000,"state":"active","ping":75},{"user_id":148,"name":"not my season","steam_id":76561198083588151,"connected_time":1683000000000,"state":"active","ping":88},{"user_id":98,"name":"Smokey Boi","steam_id":76561198018739392,"connected_time":4483000000000,"state":"active","ping":68},{"user_id":168,"name":"The Depressed John","steam_id":76561198148193895,"connected_time":152000000000,"state":"active","ping":123},{"user_id":113,"name":"niandits","steam_id":76561198419798900,"connected_time":3539000000000,"state":"active","ping":133},{"user_id":114,"name":"After8","steam_id":76561198090750865,"connected_time":3507000000000,"state":"active","ping":77},{"user_id":166,"name":"The Subway Scientist","steam_id":76561198193757646,"connected_time":610000000000,"state":"active","ping":58},{"user_id":151,"name":"Locke","steam_id":76561198339408300,"connected_time":1587000000000,"state":"active","ping":55},{"user_id":163,"name":"Xtudix","steam_id":76561199136161708,"connected_time":1256000000000,"state":"active","ping":55},{"user_id":160,"name":"Vitun vittu","steam_id":76561198110679463,"connected_time":1339000000000,"state":"active","ping":72},{"user_id":161,"name":"tete","steam_id":76561198045222850,"connected_time":1337000000000,"state":"active","ping":81}]},{"server_id":21,"name":"Uncletopia | London | 5 | All Maps","name_short":"lon-5","host":"lon-1.uk.uncletopia.com","port":27055,"enabled":true,"region":"eu","cc":"gb","latitude":51.509865,"longitude":-0.118092,"reserved":0,"last_update":"0001-01-01T00:00:00Z","name_a2s":"Uncletopia | London | 5 | All Maps","protocol":17,"map":"pl_swiftwater_final1","folder":"tf","game":"Team Fortress","app_id":440,"player_count":24,"max_players":24,"Bots":0,"server_type":"Dedicated","server_os":"Linux","password":true,"vac":true,"version":"7961495","steam_id":85568392924742829,"keywords":["nocrits","nodmgspread","payload","uncletopia"],"game_id":440,"stv_port":27056,"stv_name":"Uncletopia | London | 5 | All Maps | STV","players":[{"user_id":354,"name":"Patatata","steam_id":76561198152188319,"connected_time":990000000000,"state":"active","ping":74},{"user_id":375,"name":"Irrelevant \u003c---","steam_id":76561199195727551,"connected_time":413000000000,"state":"active","ping":48},{"user_id":376,"name":"Warrior555MainsGanon","steam_id":76561198388627786,"connected_time":384000000000,"state":"active","ping":70},{"user_id":308,"name":"JepCabestany","steam_id":76561198123812578,"connected_time":4119000000000,"state":"active","ping":91},{"user_id":309,"name":"Dr.CandyCane","steam_id":76561199238207915,"connected_time":4063000000000,"state":"active","ping":88},{"user_id":301,"name":"It's a me Malario","steam_id":76561198176546013,"connected_time":4666000000000,"state":"active","ping":51},{"user_id":370,"name":"dunduu","steam_id":76561198875240717,"connected_time":525000000000,"state":"active","ping":81},{"user_id":374,"name":"Johnny Debbs","steam_id":76561198049161915,"connected_time":444000000000,"state":"active","ping":59},{"user_id":364,"name":"Bird On Your Window","steam_id":76561198081933130,"connected_time":829000000000,"state":"active","ping":58},{"user_id":366,"name":"poop","steam_id":76561199074961896,"connected_time":585000000000,"state":"active","ping":42},{"user_id":367,"name":"OutOfDucks","steam_id":76561198166376227,"connected_time":549000000000,"state":"active","ping":61},{"user_id":347,"name":"Boba","steam_id":76561198261766530,"connected_time":1565000000000,"state":"active","ping":78},{"user_id":357,"name":"Nightmenia","steam_id":76561198010430569,"connected_time":960000000000,"state":"active","ping":51},{"user_id":368,"name":"Farticus","steam_id":76561198060511207,"connected_time":548000000000,"state":"active","ping":58},{"user_id":371,"name":"wasto-/-™","steam_id":76561198102888038,"connected_time":521000000000,"state":"active","ping":60},{"user_id":372,"name":"vi","steam_id":76561198303147966,"connected_time":515000000000,"state":"active","ping":47},{"user_id":351,"name":"soldier tf2","steam_id":76561198372186715,"connected_time":1096000000000,"state":"active","ping":95},{"user_id":373,"name":"lawn","steam_id":76561198001243486,"connected_time":513000000000,"state":"active","ping":41},{"user_id":340,"name":"lexa","steam_id":76561198153381971,"connected_time":2272000000000,"state":"active","ping":86},{"user_id":361,"name":"twscsvl","steam_id":76561198045304929,"connected_time":896000000000,"state":"active","ping":101},{"user_id":362,"name":"randompixel","steam_id":76561198003941207,"connected_time":893000000000,"state":"active","ping":58},{"user_id":377,"name":"Taha","steam_id":76561199259524970,"connected_time":384000000000,"state":"active","ping":108},{"user_id":344,"name":"roadie00","steam_id":76561198310205543,"connected_time":2119000000000,"state":"active","ping":129},{"user_id":194,"name":"wheelie bin","steam_id":76561198040040328,"connected_time":13051000000000,"state":"active","ping":50}]},{"server_id":22,"name":"Uncletopia | London | 6 | All Maps","name_short":"lon-6","host":"lon-1.uk.uncletopia.com","port":27065,"enabled":true,"region":"eu","cc":"gb","latitude":51.509865,"longitude":-0.118092,"reserved":0,"last_update":"0001-01-01T00:00:00Z","name_a2s":"Uncletopia | London | 6 | All Maps","protocol":17,"map":"pl_barnblitz","folder":"tf","game":"Team Fortress","app_id":440,"player_count":23,"max_players":24,"Bots":0,"server_type":"Dedicated","server_os":"Linux","password":true,"vac":true,"version":"7961495","steam_id":85568392924742830,"keywords":["nocrits","nodmgspread","payload","uncletopia"],"game_id":440,"stv_port":27066,"stv_name":"Uncletopia | London | 6 | All Maps | STV","players":[{"user_id":398,"name":"Sammy","steam_id":76561198015933339,"connected_time":43000000000,"state":"active","ping":44},{"user_id":367,"name":"Bill Carr","steam_id":76561198110033943,"connected_time":989000000000,"state":"active","ping":39},{"user_id":381,"name":"Unreliable, funny and dangerous","steam_id":76561198050709790,"connected_time":406000000000,"state":"active","ping":112},{"user_id":361,"name":"Meat Dragon","steam_id":76561198120319256,"connected_time":1345000000000,"state":"active","ping":135},{"user_id":375,"name":"mhib","steam_id":76561198048037379,"connected_time":671000000000,"state":"active","ping":87},{"user_id":372,"name":"Alegz","steam_id":76561198287810139,"connected_time":825000000000,"state":"active","ping":96},{"user_id":377,"name":"PANAANI","steam_id":76561198322322739,"connected_time":632000000000,"state":"active","ping":87},{"user_id":383,"name":"haha A-10 Warthog go bbrrrrrrrr","steam_id":76561198247954030,"connected_time":325000000000,"state":"active","ping":82},{"user_id":368,"name":"Spurt","steam_id":76561198078523852,"connected_time":986000000000,"state":"active","ping":59},{"user_id":369,"name":"Bootylicious42069","steam_id":76561199380849468,"connected_time":961000000000,"state":"active","ping":63},{"user_id":370,"name":"mt","steam_id":76561197961319303,"connected_time":913000000000,"state":"active","ping":54},{"user_id":376,"name":"GrzMik","steam_id":76561198061951968,"connected_time":653000000000,"state":"active","ping":94},{"user_id":379,"name":"cisgender clown","steam_id":76561199469909295,"connected_time":504000000000,"state":"active","ping":69},{"user_id":385,"name":"ThatTFguy","steam_id":76561198056794321,"connected_time":274000000000,"state":"active","ping":60},{"user_id":399,"name":"Tri-","steam_id":76561198133524794,"connected_time":41000000000,"state":"active","ping":38},{"user_id":387,"name":"powej","steam_id":76561198056381418,"connected_time":270000000000,"state":"active","ping":43},{"user_id":388,"name":"Monke","steam_id":76561198138073646,"connected_time":218000000000,"state":"active","ping":47},{"user_id":389,"name":"ShovelLettuce #UpdateTF2","steam_id":76561198438742557,"connected_time":189000000000,"state":"active","ping":53},{"user_id":390,"name":"BigSqueakis","steam_id":76561199467894254,"connected_time":182000000000,"state":"active","ping":144},{"user_id":391,"name":"Burpman","steam_id":76561198022897937,"connected_time":161000000000,"state":"active","ping":44},{"user_id":392,"name":"._.","steam_id":76561198300316801,"connected_time":127000000000,"state":"active","ping":107},{"user_id":393,"name":"Hexec","steam_id":76561198322382926,"connected_time":126000000000,"state":"active","ping":57},{"user_id":394,"name":"deflox","steam_id":76561198087450635,"connected_time":111000000000,"state":"active","ping":55}]},{"server_id":40,"name":"Uncletopia | London | 7 | Stopwatch","name_short":"lon-7","host":"lon-1.uk.uncletopia.com","port":27075,"enabled":true,"region":"eu","cc":"gb","latitude":51.509865,"longitude":-0.118092,"reserved":0,"last_update":"0001-01-01T00:00:00Z","name_a2s":"Uncletopia | London | 7 | Stopwatch","protocol":17,"map":"koth_highpass","folder":"tf","game":"Team Fortress","app_id":440,"player_count":2,"max_players":24,"Bots":0,"server_type":"Dedicated","server_os":"Linux","password":true,"vac":true,"version":"7961495","steam_id":85568392924964314,"keywords":["cp","nocrits","nodmgspread","uncletopia"],"game_id":440,"stv_port":27076,"stv_name":"Uncletopia | London | 7 | Stopwatch | STV","players":[{"user_id":19,"name":"lipaul777","steam_id":76561199090751367,"connected_time":643000000000,"state":"active","ping":70},{"user_id":21,"name":"Fus in Boots","steam_id":76561198053897722,"connected_time":319000000000,"state":"active","ping":60}]},{"server_id":41,"name":"Uncletopia | London | 8 | Community","name_short":"lon-8","host":"lon-1.uk.uncletopia.com","port":27085,"enabled":true,"region":"eu","cc":"gb","latitude":51.509865,"longitude":-0.118092,"reserved":0,"last_update":"0001-01-01T00:00:00Z","name_a2s":"Uncletopia | London | 8 | Community","protocol":17,"map":"workshop/cp_glacier_rc6.ugc2905735376","folder":"tf","game":"Team Fortress","app_id":440,"player_count":0,"max_players":24,"Bots":0,"server_type":"Dedicated","server_os":"Linux","password":true,"vac":true,"version":"7961495","steam_id":85568392924964315,"keywords":["cp","nocrits","nodmgspread","uncletopia"],"game_id":440,"stv_port":27086,"stv_name":"Uncletopia | London | 8 | Community | STV","players":null},{"server_id":300,"name":"Uncletopia | Montréal | 1 | One Thousand Uncles","name_short":"mtl-1","host":"mtl-1.ca.uncletopia.com","port":27015,"enabled":true,"region":"us-east","cc":"ca","latitude":45.50889,"longitude":-73.56167,"reserved":0,"last_update":"0001-01-01T00:00:00Z","name_a2s":"","protocol":0,"map":"","folder":"","game":"","app_id":0,"player_count":6,"max_players":0,"Bots":0,"server_type":"","server_os":"","password":false,"vac":false,"version":"","steam_id":0,"keywords":null,"game_id":0,"stv_port":0,"stv_name":"","players":[{"user_id":199,"name":"bouncypear","steam_id":76561198199800094,"connected_time":256000000000,"state":"active","ping":61},{"user_id":180,"name":"Op banana","steam_id":76561198303231451,"connected_time":4159000000000,"state":"active","ping":75},{"user_id":120,"name":"Ata","steam_id":76561198349085545,"connected_time":12542000000000,"state":"active","ping":113},{"user_id":200,"name":"THE CUMEST LORD","steam_id":76561198061412592,"connected_time":41000000000,"state":"active","ping":45},{"user_id":176,"name":"Congcrab","steam_id":76561198078687685,"connected_time":5029000000000,"state":"active","ping":84},{"user_id":193,"name":"Snoopy","steam_id":76561198273735974,"connected_time":2188000000000,"state":"active","ping":98}]},{"server_id":301,"name":"Uncletopia | Montréal | 2 | One Thousand Uncles","name_short":"mtl-2","host":"mtl-1.ca.uncletopia.com","port":27025,"enabled":true,"region":"us-east","cc":"ca","latitude":45.50889,"longitude":-73.56167,"reserved":0,"last_update":"0001-01-01T00:00:00Z","name_a2s":"","protocol":0,"map":"","folder":"","game":"","app_id":0,"player_count":0,"max_players":0,"Bots":0,"server_type":"","server_os":"","password":false,"vac":false,"version":"","steam_id":0,"keywords":null,"game_id":0,"stv_port":0,"stv_name":"","players":null},{"server_id":302,"name":"Uncletopia | Montréal | 3 | One Thousand Uncles","name_short":"mtl-3","host":"mtl-1.ca.uncletopia.com","port":27035,"enabled":true,"region":"us-east","cc":"ca","latitude":45.50889,"longitude":-73.56167,"reserved":0,"last_update":"0001-01-01T00:00:00Z","name_a2s":"","protocol":0,"map":"","folder":"","game":"","app_id":0,"player_count":0,"max_players":0,"Bots":0,"server_type":"","server_os":"","password":false,"vac":false,"version":"","steam_id":0,"keywords":null,"game_id":0,"stv_port":0,"stv_name":"","players":null},{"server_id":13,"name":"Uncletopia | New York City | 1 | All Maps","name_short":"nyc-1","host":"nyc-1.us.uncletopia.com","port":27015,"enabled":true,"region":"us-east","cc":"us","latitude":40.73061,"longitude":-73.93524,"reserved":0,"last_update":"0001-01-01T00:00:00Z","name_a2s":"Uncletopia | New York City | 1 | All Maps","protocol":17,"map":"cp_dustbowl","folder":"tf","game":"Team Fortress","app_id":440,"player_count":0,"max_players":24,"Bots":0,"server_type":"Dedicated","server_os":"Linux","password":true,"vac":true,"version":"7961495","steam_id":85568392924469993,"keywords":["cp","nocrits","nodmgspread","uncletopia"],"game_id":440,"stv_port":27016,"stv_name":"Uncletopia | New York City | 1 | All Maps | STV","players":null},{"server_id":14,"name":"Uncletopia | New York City | 2 | All Maps","name_short":"nyc-2","host":"nyc-1.us.uncletopia.com","port":27025,"enabled":true,"region":"us-east","cc":"us","latitude":40.73061,"longitude":-73.93524,"reserved":0,"last_update":"0001-01-01T00:00:00Z","name_a2s":"Uncletopia | New York City | 2 | All Maps","protocol":17,"map":"koth_cascade","folder":"tf","game":"Team Fortress","app_id":440,"player_count":0,"max_players":24,"Bots":0,"server_type":"Dedicated","server_os":"Linux","password":true,"vac":true,"version":"7961495","steam_id":85568392924469994,"keywords":["cp","nocrits","nodmgspread","uncletopia"],"game_id":440,"stv_port":27026,"stv_name":"Uncletopia | New York City | 2 | All Maps | STV","players":null},{"server_id":15,"name":"Uncletopia | New York City | 3 | Stopwatch","name_short":"nyc-3","host":"nyc-1.us.uncletopia.com","port":27035,"enabled":true,"region":"us-east","cc":"us","latitude":40.73061,"longitude":-73.93524,"reserved":0,"last_update":"0001-01-01T00:00:00Z","name_a2s":"Uncletopia | New York City | 3 | Stopwatch","protocol":17,"map":"cp_snakewater_final1","folder":"tf","game":"Team Fortress","app_id":440,"player_count":0,"max_players":24,"Bots":0,"server_type":"Dedicated","server_os":"Linux","password":true,"vac":true,"version":"7961495","steam_id":85568392924742820,"keywords":["cp","nocrits","nodmgspread","uncletopia"],"game_id":440,"stv_port":27036,"stv_name":"Uncletopia | New York City | 3 | Stopwatch | STV","players":null},{"server_id":16,"name":"Uncletopia | New York City | 4 | Community","name_short":"nyc-4","host":"nyc-1.us.uncletopia.com","port":27045,"enabled":true,"region":"us-east","cc":"us","latitude":40.73061,"longitude":-73.93524,"reserved":0,"last_update":"0001-01-01T00:00:00Z","name_a2s":"Uncletopia | New York City | 4 | Community","protocol":17,"map":"cp_altitude","folder":"tf","game":"Team Fortress","app_id":440,"player_count":0,"max_players":24,"Bots":0,"server_type":"Dedicated","server_os":"Linux","password":true,"vac":true,"version":"7961495","steam_id":85568392924742821,"keywords":["cp","nocrits","nodmgspread","uncletopia"],"game_id":440,"stv_port":27046,"stv_name":"Uncletopia | New York City | 4 | Community | STV","players":null},{"server_id":142,"name":"Uncletopia | São Paulo | 1 | All Maps","name_short":"sao-1","host":"sao-1.br.uncletopia.com","port":27015,"enabled":true,"region":"sa","cc":"br","latitude":-23.533773,"longitude":-46.62529,"reserved":0,"last_update":"0001-01-01T00:00:00Z","name_a2s":"Uncletopia | São Paulo | 1 | All Maps","protocol":17,"map":"koth_viaduct","folder":"tf","game":"Team Fortress","app_id":440,"player_count":0,"max_players":24,"Bots":0,"server_type":"Dedicated","server_os":"Linux","password":true,"vac":true,"version":"7961495","steam_id":85568392924469996,"keywords":["cp","nocrits","nodmgspread","uncletopia"],"game_id":440,"stv_port":27016,"stv_name":"Uncletopia | São Paulo | 1 | All Maps | STV","players":null},{"server_id":143,"name":"Uncletopia | São Paulo | 2 | Community","name_short":"sao-2","host":"sao-2.br.uncletopia.com","port":27015,"enabled":true,"region":"sa","cc":"br","latitude":-23.533773,"longitude":-46.62529,"reserved":0,"last_update":"0001-01-01T00:00:00Z","name_a2s":"Uncletopia | São Paulo | 2 | Community","protocol":17,"map":"workshop/cp_overgrown_rc8.ugc503939302","folder":"tf","game":"Team Fortress","app_id":440,"player_count":1,"max_players":24,"Bots":0,"server_type":"Dedicated","server_os":"Linux","password":true,"vac":true,"version":"7961495","steam_id":85568392924485349,"keywords":["cp","nocrits","nodmgspread","uncletopia"],"game_id":440,"stv_port":27016,"stv_name":"Uncletopia | São Paulo | 2 | Community | STV","players":[{"user_id":8,"name":"Otaah","steam_id":76561199072374071,"connected_time":1004000000000,"state":"active","ping":53}]},{"server_id":7,"name":"Uncletopia | Seattle | 1 | All Maps","name_short":"sea-1","host":"sea-1.us.uncletopia.com","port":27015,"enabled":true,"region":"us-west","cc":"us","latitude":47.608013,"longitude":-122.33517,"reserved":0,"last_update":"0001-01-01T00:00:00Z","name_a2s":"Uncletopia | Seattle | 1 | All Maps","protocol":17,"map":"pl_badwater","folder":"tf","game":"Team Fortress","app_id":440,"player_count":24,"max_players":24,"Bots":0,"server_type":"Dedicated","server_os":"Linux","password":true,"vac":true,"version":"7961495","steam_id":85568392924469997,"keywords":["nocrits","nodmgspread","payload","uncletopia"],"game_id":440,"stv_port":27016,"stv_name":"Uncletopia | Seattle | 1 | All Maps | STV","players":[{"user_id":89,"name":"Immortal8Reaper","steam_id":76561198297661559,"connected_time":2068000000000,"state":"active","ping":77},{"user_id":77,"name":"Snale","steam_id":76561198039517965,"connected_time":2809000000000,"state":"active","ping":58},{"user_id":76,"name":"John Calibur","steam_id":76561197999986606,"connected_time":2846000000000,"state":"active","ping":65},{"user_id":106,"name":"ORANGE","steam_id":76561198000401769,"connected_time":311000000000,"state":"active","ping":45},{"user_id":93,"name":"Jeffery","steam_id":76561198352805460,"connected_time":1194000000000,"state":"active","ping":64},{"user_id":87,"name":"Cleverless Biped","steam_id":76561198045984856,"connected_time":2109000000000,"state":"active","ping":132},{"user_id":95,"name":"Patio","steam_id":76561197986082608,"connected_time":651000000000,"state":"active","ping":51},{"user_id":78,"name":"Mr_sir132","steam_id":76561198125278692,"connected_time":2790000000000,"state":"active","ping":87},{"user_id":109,"name":"Alabit","steam_id":76561198065578560,"connected_time":73000000000,"state":"active","ping":78},{"user_id":85,"name":"Dimple","steam_id":76561198980324190,"connected_time":2128000000000,"state":"active","ping":55},{"user_id":48,"name":"SlitherDoodle","steam_id":76561198000275473,"connected_time":5928000000000,"state":"active","ping":127},{"user_id":108,"name":"Marksito14","steam_id":76561199132272437,"connected_time":141000000000,"state":"active","ping":97},{"user_id":64,"name":"Echolu","steam_id":76561198158613750,"connected_time":4104000000000,"state":"active","ping":136},{"user_id":101,"name":"Little Linguine","steam_id":76561198816986370,"connected_time":460000000000,"state":"active","ping":44},{"user_id":105,"name":"Zetta","steam_id":76561198045710113,"connected_time":325000000000,"state":"active","ping":87},{"user_id":107,"name":"squart guy","steam_id":76561199411560141,"connected_time":219000000000,"state":"active","ping":49},{"user_id":83,"name":"my monitor is off","steam_id":76561198074499537,"connected_time":2200000000000,"state":"active","ping":57},{"user_id":96,"name":"118 Voices","steam_id":76561198167583291,"connected_time":649000000000,"state":"active","ping":85},{"user_id":81,"name":"spider_murphy","steam_id":76561198079057101,"connected_time":2384000000000,"state":"active","ping":90},{"user_id":63,"name":"owl","steam_id":76561198088403016,"connected_time":4124000000000,"state":"active","ping":158},{"user_id":82,"name":"remilia","steam_id":76561198069180543,"connected_time":2311000000000,"state":"active","ping":57},{"user_id":104,"name":"Mitchell","steam_id":76561197972922328,"connected_time":385000000000,"state":"active","ping":56},{"user_id":98,"name":"Creeping Python","steam_id":76561198041636923,"connected_time":630000000000,"state":"active","ping":54},{"user_id":38,"name":"Sizenberg","steam_id":76561198115842661,"connected_time":6573000000000,"state":"active","ping":120}]},{"server_id":119,"name":"Uncletopia | Seattle | 2 | All Maps","name_short":"sea-2","host":"sea-1.us.uncletopia.com","port":27025,"enabled":true,"region":"us-west","cc":"us","latitude":47.608013,"longitude":-122.33517,"reserved":0,"last_update":"0001-01-01T00:00:00Z","name_a2s":"Uncletopia | Seattle | 2 | All Maps","protocol":17,"map":"koth_cascade","folder":"tf","game":"Team Fortress","app_id":440,"player_count":0,"max_players":24,"Bots":0,"server_type":"Dedicated","server_os":"Linux","password":true,"vac":true,"version":"7961495","steam_id":85568392924469998,"keywords":["cp","nocrits","nodmgspread","uncletopia"],"game_id":440,"stv_port":27026,"stv_name":"Uncletopia | Seattle | 2 | All Maps | STV","players":null},{"server_id":406,"name":"Uncletopia | Seattle | 3 | Stopwatch","name_short":"sea-3","host":"sea-1.us.uncletopia.com","port":27035,"enabled":true,"region":"us-west","cc":"us","latitude":47.608013,"longitude":-122.33517,"reserved":0,"last_update":"0001-01-01T00:00:00Z","name_a2s":"Uncletopia | Seattle | 3 | Stopwatch","protocol":17,"map":"pl_pier","folder":"tf","game":"Team Fortress","app_id":440,"player_count":1,"max_players":24,"Bots":0,"server_type":"Dedicated","server_os":"Linux","password":true,"vac":true,"version":"7961495","steam_id":85568392924515217,"keywords":["nocrits","nodmgspread","payload","uncletopia"],"game_id":440,"stv_port":27036,"stv_name":"Uncletopia | Seattle | 3 | Stopwatch | STV","players":[{"user_id":5,"name":"S-Oni","steam_id":76561198388562670,"connected_time":26000000000,"state":"spawning","ping":34}]},{"server_id":17,"name":"Uncletopia | San Francisco | 1 | All Maps","name_short":"sfo-1","host":"sfo-1.us.uncletopia.com","port":27015,"enabled":true,"region":"us-west","cc":"us","latitude":37.77397,"longitude":-122.4313,"reserved":0,"last_update":"0001-01-01T00:00:00Z","name_a2s":"Uncletopia | San Francisco | 1 | All Maps","protocol":17,"map":"koth_cascade","folder":"tf","game":"Team Fortress","app_id":440,"player_count":0,"max_players":24,"Bots":0,"server_type":"Dedicated","server_os":"Linux","password":true,"vac":true,"version":"7961495","steam_id":85568392924469999,"keywords":["cp","nocrits","nodmgspread","uncletopia"],"game_id":440,"stv_port":27016,"stv_name":"Uncletopia | San Francisco | 1 | All Maps | STV","players":null},{"server_id":18,"name":"Uncletopia | San Francisco | 2 | All Maps","name_short":"sfo-2","host":"sfo-1.us.uncletopia.com","port":27025,"enabled":true,"region":"us-west","cc":"us","latitude":37.77397,"longitude":-122.4313,"reserved":0,"last_update":"0001-01-01T00:00:00Z","name_a2s":"Uncletopia | San Francisco | 2 | All Maps","protocol":17,"map":"cp_snakewater_final1","folder":"tf","game":"Team Fortress","app_id":440,"player_count":0,"max_players":24,"Bots":0,"server_type":"Dedicated","server_os":"Linux","password":true,"vac":true,"version":"7961495","steam_id":85568392924470000,"keywords":["cp","nocrits","nodmgspread","uncletopia"],"game_id":440,"stv_port":27026,"stv_name":"Uncletopia | San Francisco | 2 | All Maps | STV","players":null},{"server_id":19,"name":"Uncletopia | San Francisco | 3 | Stopwatch","name_short":"sfo-3","host":"sfo-1.us.uncletopia.com","port":27035,"enabled":true,"region":"us-west","cc":"us","latitude":37.77397,"longitude":-122.4313,"reserved":0,"last_update":"0001-01-01T00:00:00Z","name_a2s":"Uncletopia | San Francisco | 3 | Stopwatch","protocol":17,"map":"pl_pier","folder":"tf","game":"Team Fortress","app_id":440,"player_count":0,"max_players":24,"Bots":0,"server_type":"Dedicated","server_os":"Linux","password":true,"vac":true,"version":"7961495","steam_id":85568392924742824,"keywords":["nocrits","nodmgspread","payload","uncletopia"],"game_id":440,"stv_port":27036,"stv_name":"Uncletopia | San Francisco | 3 | Stopwatch | STV","players":null},{"server_id":20,"name":"Uncletopia | San Francisco | 4 | Community","name_short":"sfo-4","host":"sfo-1.us.uncletopia.com","port":27045,"enabled":true,"region":"us-west","cc":"us","latitude":37.77397,"longitude":-122.4313,"reserved":0,"last_update":"0001-01-01T00:00:00Z","name_a2s":"Uncletopia | San Francisco | 4 | Community","protocol":17,"map":"pl_pier","folder":"tf","game":"Team Fortress","app_id":440,"player_count":0,"max_players":24,"Bots":0,"server_type":"Dedicated","server_os":"Linux","password":true,"vac":true,"version":"7961495","steam_id":85568392924742826,"keywords":["nocrits","nodmgspread","payload","uncletopia"],"game_id":440,"stv_port":27046,"stv_name":"Uncletopia | San Francisco | 4 | Community | STV","players":null},{"server_id":141,"name":"Uncletopia | Sydney | 1 | All Maps","name_short":"syd-1","host":"syd-1.au.uncletopia.com","port":27015,"enabled":true,"region":"au","cc":"au","latitude":-33.865143,"longitude":151.2099,"reserved":0,"last_update":"0001-01-01T00:00:00Z","name_a2s":"Uncletopia | Sydney | 1 | All Maps","protocol":17,"map":"cp_altitude","folder":"tf","game":"Team Fortress","app_id":440,"player_count":0,"max_players":24,"Bots":0,"server_type":"Dedicated","server_os":"Linux","password":true,"vac":true,"version":"7961495","steam_id":85568392924470001,"keywords":["cp","nocrits","nodmgspread","uncletopia"],"game_id":440,"stv_port":27016,"stv_name":"Uncletopia | Sydney | 1 | All Maps | STV","players":null},{"server_id":123,"name":"Uncletopia | Sydney | 2 | All Maps","name_short":"syd-2","host":"syd-1.au.uncletopia.com","port":27025,"enabled":true,"region":"au","cc":"au","latitude":-33.865143,"longitude":151.2099,"reserved":0,"last_update":"0001-01-01T00:00:00Z","name_a2s":"Uncletopia | Sydney | 2 | All Maps","protocol":17,"map":"cp_snakewater_final1","folder":"tf","game":"Team Fortress","app_id":440,"player_count":0,"max_players":24,"Bots":0,"server_type":"Dedicated","server_os":"Linux","password":true,"vac":true,"version":"7961495","steam_id":85568392924470002,"keywords":["cp","nocrits","nodmgspread","uncletopia"],"game_id":440,"stv_port":27026,"stv_name":"Uncletopia | Sydney | 2 | All Maps | STV","players":null},{"server_id":395,"name":"Uncletopia | Sydney | 3 | All Maps","name_short":"syd-3","host":"syd-1.au.uncletopia.com","port":27035,"enabled":true,"region":"au","cc":"au","latitude":-33.865143,"longitude":151.2099,"reserved":0,"last_update":"0001-01-01T00:00:00Z","name_a2s":"Uncletopia | Sydney | 3 | All Maps","protocol":17,"map":"koth_king","folder":"tf","game":"Team Fortress","app_id":440,"player_count":0,"max_players":24,"Bots":0,"server_type":"Dedicated","server_os":"Linux","password":true,"vac":true,"version":"7961495","steam_id":85568392925194467,"keywords":["cp","nocrits","nodmgspread","uncletopia"],"game_id":440,"stv_port":27036,"stv_name":"Uncletopia | Sydney | 3 | All Maps | STV","players":null},{"server_id":396,"name":"Uncletopia | Sydney | 4 | All Maps","name_short":"syd-4","host":"syd-1.au.uncletopia.com","port":27045,"enabled":true,"region":"au","cc":"au","latitude":-33.865143,"longitude":151.2099,"reserved":0,"last_update":"0001-01-01T00:00:00Z","name_a2s":"Uncletopia | Sydney | 4 | All Maps","protocol":17,"map":"cp_altitude","folder":"tf","game":"Team Fortress","app_id":440,"player_count":0,"max_players":24,"Bots":0,"server_type":"Dedicated","server_os":"Linux","password":true,"vac":true,"version":"7961495","steam_id":85568392925397958,"keywords":["cp","nocrits","nodmgspread","uncletopia"],"game_id":440,"stv_port":27046,"stv_name":"Uncletopia | Sydney | 4 | All Maps | STV","players":null},{"server_id":58,"name":"Uncletopia | Sydney | 5 | Stopwatch","name_short":"syd-5","host":"syd-1.au.uncletopia.com","port":27055,"enabled":true,"region":"au","cc":"au","latitude":-33.865143,"longitude":151.2099,"reserved":0,"last_update":"0001-01-01T00:00:00Z","name_a2s":"Uncletopia | Sydney | 5 | Stopwatch","protocol":17,"map":"cp_snakewater_final1","folder":"tf","game":"Team Fortress","app_id":440,"player_count":0,"max_players":24,"Bots":0,"server_type":"Dedicated","server_os":"Linux","password":true,"vac":true,"version":"7961495","steam_id":85568392925397959,"keywords":["cp","nocrits","nodmgspread","uncletopia"],"game_id":440,"stv_port":27056,"stv_name":"Uncletopia | Sydney | 5 | Stopwatch | STV","players":null},{"server_id":59,"name":"Uncletopia | Sydney | 6 | Community","name_short":"syd-6","host":"syd-1.au.uncletopia.com","port":27065,"enabled":true,"region":"au","cc":"au","latitude":-33.865143,"longitude":151.2099,"reserved":0,"last_update":"0001-01-01T00:00:00Z","name_a2s":"Uncletopia | Sydney | 6 | Community","protocol":17,"map":"workshop/cp_glassworks_rc7a.ugc454118349","folder":"tf","game":"Team Fortress","app_id":440,"player_count":0,"max_players":24,"Bots":0,"server_type":"Dedicated","server_os":"Linux","password":true,"vac":true,"version":"7961495","steam_id":85568392925397960,"keywords":["cp","nocrits","nodmgspread","uncletopia"],"game_id":440,"stv_port":27066,"stv_name":"Uncletopia | Sydney | 6 | Community | STV","players":null},{"server_id":49,"name":"Uncletopia | Warsaw | 1 | One Thousand Uncles","name_short":"waw-1","host":"waw-1.pl.uncletopia.com","port":27015,"enabled":true,"region":"eu","cc":"pl","latitude":52.2297,"longitude":21.017532,"reserved":0,"last_update":"0001-01-01T00:00:00Z","name_a2s":"Uncletopia | Warsaw | 1 | One Thousand Uncles","protocol":17,"map":"pl_chilly","folder":"tf","game":"Team Fortress","app_id":440,"player_count":25,"max_players":32,"Bots":16,"server_type":"Dedicated","server_os":"Linux","password":true,"vac":true,"version":"7961495","steam_id":85568392925397850,"keywords":["alltalk","bots","danepve","increased_maxplayers","nocrits","norespawntime","payload","uncletopia"],"game_id":440,"stv_port":0,"stv_name":"","players":[{"user_id":544,"name":"DarthDanny","steam_id":76561197997718926,"connected_time":2416000000000,"state":"active","ping":117},{"user_id":572,"name":"Philosophos_Alpha","steam_id":76561198951264580,"connected_time":515000000000,"state":"active","ping":116},{"user_id":549,"name":"kakash","steam_id":76561199420637314,"connected_time":1634000000000,"state":"active","ping":81},{"user_id":470,"name":"Valoxi","steam_id":76561197995042938,"connected_time":7213000000000,"state":"active","ping":73},{"user_id":573,"name":"RacoonGamer","steam_id":76561198100907657,"connected_time":436000000000,"state":"active","ping":159},{"user_id":571,"name":"content maker","steam_id":76561198351077564,"connected_time":752000000000,"state":"active","ping":61},{"user_id":447,"name":"Even Rüüd","steam_id":76561197981144291,"connected_time":7651000000000,"state":"active","ping":85},{"user_id":508,"name":"Fox King #savetf2","steam_id":76561199110688406,"connected_time":4527000000000,"state":"active","ping":64},{"user_id":519,"name":"1_GaDiNa_1","steam_id":76561199231353700,"connected_time":3267000000000,"state":"active","ping":55}]},{"server_id":50,"name":"Uncletopia | Warsaw | 2 | One Thousand Uncles","name_short":"waw-2","host":"waw-1.pl.uncletopia.com","port":27025,"enabled":true,"region":"eu","cc":"pl","latitude":52.2297,"longitude":21.017532,"reserved":0,"last_update":"0001-01-01T00:00:00Z","name_a2s":"Uncletopia | Warsaw | 2 | One Thousand Uncles","protocol":17,"map":"pl_upward","folder":"tf","game":"Team Fortress","app_id":440,"player_count":25,"max_players":32,"Bots":16,"server_type":"Dedicated","server_os":"Linux","password":true,"vac":true,"version":"7961495","steam_id":85568392925397851,"keywords":["alltalk","bots","danepve","increased_maxplayers","nocrits","norespawntime","payload","uncletopia"],"game_id":440,"stv_port":0,"stv_name":"","players":[{"user_id":289,"name":"Dark Wizart","steam_id":76561198377689439,"connected_time":857000000000,"state":"active","ping":54},{"user_id":313,"name":"The Troglodyte","steam_id":76561199119744358,"connected_time":176000000000,"state":"active","ping":72},{"user_id":314,"name":"Flavia ♥","steam_id":76561198108360671,"connected_time":44000000000,"state":"active","ping":91},{"user_id":278,"name":"KipxSateee","steam_id":76561198149158137,"connected_time":2636000000000,"state":"active","ping":71},{"user_id":199,"name":"Charmedelf","steam_id":76561197993611881,"connected_time":6103000000000,"state":"active","ping":66},{"user_id":285,"name":"Riky95","steam_id":76561198095289436,"connected_time":1370000000000,"state":"active","ping":60},{"user_id":290,"name":"Mathemodus","steam_id":76561198362838962,"connected_time":807000000000,"state":"active","ping":63},{"user_id":287,"name":"Amon Gus","steam_id":76561199094540960,"connected_time":1207000000000,"state":"active","ping":74},{"user_id":291,"name":"Major Suchodolski","steam_id":76561198088919990,"connected_time":716000000000,"state":"active","ping":36}]},{"server_id":51,"name":"Uncletopia | Warsaw | 3 | All Maps","name_short":"waw-3","host":"waw-1.pl.uncletopia.com","port":27035,"enabled":true,"region":"eu","cc":"pl","latitude":52.2297,"longitude":21.017532,"reserved":0,"last_update":"0001-01-01T00:00:00Z","name_a2s":"Uncletopia | Warsaw | 3 | All Maps","protocol":17,"map":"koth_highpass","folder":"tf","game":"Team Fortress","app_id":440,"player_count":0,"max_players":24,"Bots":0,"server_type":"Dedicated","server_os":"Linux","password":true,"vac":true,"version":"7961495","steam_id":85568392925397852,"keywords":["cp","nocrits","nodmgspread","uncletopia"],"game_id":440,"stv_port":27036,"stv_name":"Uncletopia | Warsaw | 3 | All Maps | STV","players":null},{"server_id":52,"name":"Uncletopia | Warsaw | 4 | All Maps","name_short":"waw-4","host":"waw-1.pl.uncletopia.com","port":27045,"enabled":true,"region":"eu","cc":"pl","latitude":52.2297,"longitude":21.017532,"reserved":0,"last_update":"0001-01-01T00:00:00Z","name_a2s":"Uncletopia | Warsaw | 4 | All Maps","protocol":17,"map":"koth_lakeside_final","folder":"tf","game":"Team Fortress","app_id":440,"player_count":0,"max_players":24,"Bots":0,"server_type":"Dedicated","server_os":"Linux","password":true,"vac":true,"version":"7961495","steam_id":85568392925397853,"keywords":["cp","nocrits","nodmgspread","uncletopia"],"game_id":440,"stv_port":27046,"stv_name":"Uncletopia | Warsaw | 4 | All Maps | STV","players":null},{"server_id":53,"name":"Uncletopia | Warsaw | 5 | Stopwatch","name_short":"waw-5","host":"waw-1.pl.uncletopia.com","port":27055,"enabled":true,"region":"eu","cc":"pl","latitude":52.2297,"longitude":21.017532,"reserved":0,"last_update":"0001-01-01T00:00:00Z","name_a2s":"Uncletopia | Warsaw | 5 | Stopwatch","protocol":17,"map":"koth_lakeside_final","folder":"tf","game":"Team Fortress","app_id":440,"player_count":0,"max_players":24,"Bots":0,"server_type":"Dedicated","server_os":"Linux","password":true,"vac":true,"version":"7961495","steam_id":85568392925397854,"keywords":["cp","nocrits","nodmgspread","uncletopia"],"game_id":440,"stv_port":27056,"stv_name":"Uncletopia | Warsaw | 5 | Stopwatch | STV","players":null},{"server_id":54,"name":"Uncletopia | Warsaw | 6 | Community","name_short":"waw-6","host":"waw-1.pl.uncletopia.com","port":27065,"enabled":true,"region":"eu","cc":"pl","latitude":52.2297,"longitude":21.017532,"reserved":0,"last_update":"0001-01-01T00:00:00Z","name_a2s":"Uncletopia | Warsaw | 6 | Community","protocol":17,"map":"workshop/koth_ashville_final.ugc2130459942","folder":"tf","game":"Team Fortress","app_id":440,"player_count":0,"max_players":24,"Bots":0,"server_type":"Dedicated","server_os":"Linux","password":true,"vac":true,"version":"7961495","steam_id":85568392925397856,"keywords":["cp","nocrits","nodmgspread","uncletopia"],"game_id":440,"stv_port":27066,"stv_name":"Uncletopia | Warsaw | 6 | Community | STV","players":null}]}