{"status":true,"message":"","result":[{"server_id":9,"name":"Uncletopia | Atlanta | 1 | All Maps","name_short":"atl-1","host":"atl-1.us.uncletopia.com","port":27015,"enabled":true,"region":"us-east","cc":"us","latitude":33.753746,"longitude":-84.38633,"reserved":0,"last_update":"0001-01-01T00:00:00Z","name_a2s":"Uncletopia | Atlanta | 1 | All Maps","protocol":17,"map":"pl_barnblitz","folder":"tf","game":"Team Fortress","app_id":440,"player_count":24,"max_players":24,"Bots":0,"server_type":"Dedicated","server_os":"Linux","password":true,"vac":true,"version":"7961495","steam_id":85568392924469982,"keywords":["nocrits","nodmgspread","payload","uncletopia"],"game_id":440,"stv_port":27016,"stv_name":"Uncletopia | Atlanta | 1 | All Maps | STV","players":[{"user_id":487,"name":"T√ñZI","steam_id":76561198045268695,"connected_time":1969000000000,"state":"active","ping":86},{"user_id":482,"name":"smuffy","steam_id":76561198091459506,"connected_time":2105000000000,"state":"active","ping":70},{"user_id":471,"name":"z","steam_id":76561198377478982,"connected_time":3063000000000,"state":"active","ping":72},{"user_id":488,"name":"loot","steam_id":76561198069954956,"connected_time":1813000000000,"state":"active","ping":57},{"user_id":470,"name":"ATL1 | on my hunting trip","steam_id":76561198315341646,"connected_time":3585000000000,"state":"active","ping":64},{"user_id":465,"name":"Sinta","steam_id":76561198098398841,"connected_time":3979000000000,"state":"active","ping":60},{"user_id":477,"name":"lynt","steam_id":76561198988333976,"connected_time":2367000000000,"state":"active","ping":46},{"user_id":492,"name":"DeezNoodlez","steam_id":76561198246700372,"connected_time":1201000000000,"state":"active","ping":59},{"user_id":447,"name":"MinimanC","steam_id":76561198071475084,"connected_time":5523000000000,"state":"active","ping":62},{"user_id":462,"name":"Ping","steam_id":76561199206514106,"connected_time":4249000000000,"state":"active","ping":75},{"user_id":254,"name":"Oxygen User","steam_id":76561199111975528,"connected_time":17352000000000,"state":"active","ping":53},{"user_id":496,"name":"Monkey Mode","steam_id":76561197961267543,"connected_time":1136000000000,"state":"active","ping":60},{"user_id":453,"name":"ATL1 | to4st","steam_id":76561198981009008,"connected_time":4659000000000,"state":"active","ping":66},{"user_id":479,"name":"Night time Dan","steam_id":76561199022178492,"connected_time":2275000000000,"state":"active","ping":42},{"user_id":497,"name":"Wingm4n","steam_id":76561198064127012,"connected_time":217000000000,"state":"active","ping":54},{"user_id":431,"name":"Wrench","steam_id":76561198055879094,"connected_time":6929000000000,"state":"active","ping":52},{"user_id":480,"name":"lu","steam_id":76561198080731872,"connected_time":2222000000000,"state":"active","ping":76},{"user_id":458,"name":"Onyx","steam_id":76561198275349640,"connected_time":4292000000000,"state":"active","ping":78},{"user_id":485,"name":"Lylith!!!","steam_id":76561198386687546,"connected_time":2089000000000,"state":"active","ping":55},{"user_id":494,"name":"Le4n!!!","steam_id":76561198045522596,"connected_time":1193000000000,"state":"active","ping":72},{"user_id":495,"name":"joe","steam_id":76561198045781320,"connected_time":1192000000000,"state":"active","ping":62},{"user_id":464,"name":"lil hog","steam_id":76561199230929836,"connected_time":4118000000000,"state":"active","ping":88},{"user_id":427,"name":"Jared","steam_id":76561198027210228,"connected_time":7402000000000,"state":"active","ping":87},{"user_id":444,"name":"Dr.Inkmix(femboy)","steam_id":76561198854070384,"connected_time":5919000000000,"state":"active","ping":113}]},{"server_id":104,"name":"Uncletopia | Atlanta | 2 | All Maps","name_short":"atl-2","host":"atl-1.us.uncletopia.com","port":27025,"enabled":true,"region":"us-east","cc":"us","latitude":33.753746,"longitude":-84.38633,"reserved":0,"last_update":"0001-01-01T00:00:00Z","name_a2s":"Uncletopia | Atlanta | 2 | All Maps","protocol":17,"map":"pl_barnblitz","folder":"tf","game":"Team Fortress","app_id":440,"player_count":21,"max_players":24,"Bots":0,"server_type":"Dedicated","server_os":"Linux","password":true,"vac":true,"version":"7961495","steam_id":85568392924469983,"keywords":["nocrits","nodmgspread","payload","uncletopia"],"game_id":440,"stv_port":27026,"stv_name":"Uncletopia | Atlanta | 2 | All Maps | STV","players":[{"user_id":402,"name":"BlueMew","steam_id":76561198060454348,"connected_time":1907000000000,"state":"active","ping":62},{"user_id":305,"name":"JobsDone2","steam_id":76561198159158870,"connected_time":8125000000000,"state":"active","ping":60},{"user_id":417,"name":"roberttheserbianwarcriminal","steam_id":76561199453150013,"connected_time":3000000000,"state":"spawning","ping":38},{"user_id":334,"name":"Sceptimus","steam_id":76561198179580927,"connected_time":5600000000000,"state":"active","ping":111},{"user_id":407,"name":"mrappledumb","steam_id":76561199133590774,"connected_time":943000000000,"state":"active","ping":81},{"user_id":372,"name":"Grand Piano Tuna","steam_id":76561198135137213,"connected_time":3557000000000,"state":"active","ping":66},{"user_id":414,"name":"vastrobotmax","steam_id":76561198417110724,"connected_time":435000000000,"state":"active","ping":74},{"user_id":332,"name":"LOVEDRAGON","steam_id":76561198089908485,"connected_time":5613000000000,"state":"active","ping":61},{"user_id":408,"name":"Goobr","steam_id":76561199161295967,"connected_time":828000000000,"state":"active","ping":38},{"user_id":306,"name":"Temper","steam_id":76561199042184132,"connected_time":8124000000000,"state":"active","ping":54},{"user_id":399,"name":"potato","steam_id":76561198050552558,"connected_time":2035000000000,"state":"active","ping":91},{"user_id":373,"name":"catfish from toontown","steam_id":76561198060070002,"connected_time":3517000000000,"state":"active","ping":76},{"user_id":413,"name":"TamerMushroom64","steam_id":76561199128190180,"connected_time":576000000000,"state":"active","ping":127},{"user_id":409,"name":"CheetoSmoke7","steam_id":76561198095217273,"connected_time":666000000000,"state":"active","ping":59},{"user_id":412,"name":"simply","steam_id":76561198215728721,"connected_time":642000000000,"state":"active","ping":48},{"user_id":369,"name":"Nathaninja","steam_id":76561199397388379,"connected_time":3861000000000,"state":"active","ping":54},{"user_id":406,"name":"Mr. Squirt","steam_id":76561198174755679,"connected_time":1814000000000,"state":"active","ping":49},{"user_id":393,"name":"tack","steam_id":76561198408477421,"connected_time":2547000000000,"state":"active","ping":65},{"user_id":398,"name":"frenemy","steam_id":76561198011363677,"connected_time":2194000000000,"state":"active","ping":75},{"user_id":397,"name":"chrisd149","steam_id":76561198018710480,"connected_time":2236000000000,"state":"active","ping":52},{"user_id":415,"name":"lucky","steam_id":76561198323426623,"connected_time":329000000000,"state":"active","ping":75}]},{"server_id":400,"name":"Uncletopia | Atlanta | 3 | Stopwatch","name_short":"atl-3","host":"atl-1.us.uncletopia.com","port":27035,"enabled":true,"region":"us-east","cc":"us","latitude":33.753746,"longitude":-84.38633,"reserved":0,"last_update":"0001-01-01T00:00:00Z","name_a2s":"Uncletopia | Atlanta | 3 | Stopwatch","protocol":17,"map":"workshop/koth_product_final.ugc454272353","folder":"tf","game":"Team Fortress","app_id":440,"player_count":0,"max_players":24,"Bots":0,"server_type":"Dedicated","server_os":"Linux","password":true,"vac":true,"version":"7961495","steam_id":85568392924515187,"keywords":["cp","nocrits","nodmgspread","uncletopia"],"game_id":440,"stv_port":27036,"stv_name":"Uncletopia | Atlanta | 3 | Stopwatch | STV","players":null},{"server_id":401,"name":"Uncletopia | Atlanta | 4 | Community","name_short":"atl-4","host":"atl-1.us.uncletopia.com","port":27045,"enabled":true,"region":"us-east","cc":"us","latitude":33.753746,"longitude":-84.38633,"reserved":0,"last_update":"0001-01-01T00:00:00Z","name_a2s":"Uncletopia | Atlanta | 4 | Community","protocol":17,"map":"workshop/koth_ashville_final.ugc2130459942","folder":"tf","game":"Team Fortress","app_id":440,"player_count":0,"max_players":24,"Bots":0,"server_type":"Dedicated","server_os":"Linux","password":true,"vac":true,"version":"7961495","steam_id":85568392924515188,"keywords":["cp","nocrits","nodmgspread","uncletopia"],"game_id":440,"stv_port":27046,"stv_name":"Uncletopia | Atlanta | 4 | Community | STV","players":null},{"server_id":2,"name":"Uncletopia | Chicago | 1 | All Maps","name_short":"chi-1","host":"chi-1.us.uncletopia.com","port":27015,"enabled":true,"region":"us-central","cc":"us","latitude":41.881832,"longitude":-87.62318,"reserved":0,"last_update":"0001-01-01T00:00:00Z","name_a2s":"Uncletopia | Chicago | 1 | All Maps","protocol":17,"map":"pl_badwater","folder":"tf","game":"Team Fortress","app_id":440,"player_count":24,"max_players":24,"Bots":0,"server_type":"Dedicated","server_os":"Linux","password":true,"vac":true,"version":"7961495","steam_id":85568392924469984,"keywords":["nocrits","nodmgspread","payload","uncletopia"],"game_id":440,"stv_port":27016,"stv_name":"Uncletopia | Chicago | 1 | All Maps | STV","players":[{"user_id":492,"name":"Word To Your Mothership","steam_id":76561198034329138,"connected_time":348000000000,"state":"active","ping":95},{"user_id":485,"name":"Reckless Klondike","steam_id":76561198060904416,"connected_time":1080000000000,"state":"active","ping":65},{"user_id":415,"name":"{FITH}‚Ñ¢ Halcyon","steam_id":76561198049132808,"connected_time":4201000000000,"state":"active","ping":52},{"user_id":481,"name":"roblox.god.2012","steam_id":76561198057553641,"connected_time":1633000000000,"state":"active","ping":55},{"user_id":436,"name":"mr.videogame","steam_id":76561198119558096,"connected_time":3482000000000,"state":"active","ping":60},{"user_id":472,"name":"gaming elliptical","steam_id":76561198013456569,"connected_time":1961000000000,"state":"active","ping":45},{"user_id":493,"name":"owlbortch","steam_id":76561198042849350,"connected_time":341000000000,"state":"active","ping":77},{"user_id":499,"name":"Your Local Queer Librarian","steam_id":76561198013077080,"connected_time":89000000000,"state":"active","ping":43},{"user_id":496,"name":"og biden pack cart","steam_id":76561198253731826,"connected_time":293000000000,"state":"active","ping":62},{"user_id":471,"name":"toolbox","steam_id":76561198446151354,"connected_time":1968000000000,"state":"active","ping":80},{"user_id":491,"name":"Lia_Rein","steam_id":76561198151569597,"connected_time":723000000000,"state":"active","ping":146},{"user_id":497,"name":"rf","steam_id":76561198195359229,"connected_time":287000000000,"state":"active","ping":75},{"user_id":434,"name":"THORNFIELDGAMER","steam_id":76561199087167473,"connected_time":3535000000000,"state":"active","ping":75},{"user_id":500,"name":"The_Incredibadger","steam_id":76561198418968116,"connected_time":32000000000,"state":"active","ping":73},{"user_id":475,"name":"Kid named download","steam_id":76561199192074448,"connected_time":1932000000000,"state":"active","ping":78},{"user_id":495,"name":"The Senate","steam_id":76561198198805293,"connected_time":323000000000,"state":"active","ping":118},{"user_id":469,"name":"qory","steam_id":76561198152064890,"connected_time":2294000000000,"state":"active","ping":57},{"user_id":476,"name":"Training Bot [Easy]","steam_id":76561199119473164,"connected_time":1931000000000,"state":"active","ping":65},{"user_id":395,"name":"Laventhey","steam_id":76561198977523626,"connected_time":5105000000000,"state":"active","ping":70},{"user_id":460,"name":"DuckKey","steam_id":76561198904477889,"connected_time":2576000000000,"state":"active","ping":59},{"user_id":490,"name":"Anthid","steam_id":76561198074493797,"connected_time":859000000000,"state":"active","ping":62},{"user_id":498,"name":"Stoopnagle","steam_id":76561198011942560,"connected_time":279000000000,"state":"active","ping":100},{"user_id":480,"name":"Tpoyo","steam_id":76561198049951724,"connected_time":1789000000000,"state":"active","ping":64},{"user_id":483,"name":"Snom","steam_id":76561198333827920,"connected_time":1504000000000,"state":"active","ping":88}]},{"server_id":106,"name":"Uncletopia | Chicago | 2 | All Maps","name_short":"chi-2","host":"chi-1.us.uncletopia.com","port":27025,"enabled":true,"region":"us-central","cc":"us","latitude":41.881832,"longitude":-87.62318,"reserved":0,"last_update":"0001-01-01T00:00:00Z","name_a2s":"Uncletopia | Chicago | 2 | All Maps","protocol":17,"map":"cp_gorge","folder":"tf","game":"Team Fortress","app_id":440,"player_count":24,"max_players":24,"Bots":0,"server_type":"Dedicated","server_os":"Linux","password":true,"vac":true,"version":"7961495","steam_id":85568392924469985,"keywords":["cp","nocrits","nodmgspread","uncletopia"],"game_id":440,"stv_port":27026,"stv_name":"Uncletopia | Chicago | 2 | All Maps | STV","players":[{"user_id":407,"name":"pinglefingle","steam_id":76561198216580197,"connected_time":1488000000000,"state":"active","ping":72},{"user_id":408,"name":"pee gaming","steam_id":76561198113156438,"connected_time":1471000000000,"state":"active","ping":47},{"user_id":421,"name":"TheoLynwood","steam_id":76561198079596878,"connected_time":429000000000,"state":"active","ping":54},{"user_id":378,"name":"cali","steam_id":76561198326822403,"connected_time":3112000000000,"state":"active","ping":60},{"user_id":417,"name":"Nate D","steam_id":76561197967933772,"connected_time":871000000000,"state":"active","ping":59},{"user_id":383,"name":"femgineer?","steam_id":76561198894533615,"connected_time":3000000000000,"state":"active","ping":52},{"user_id":363,"name":"beats (16:38)","steam_id":76561199245717718,"connected_time":4389000000000,"state":"active","ping":51},{"user_id":428,"name":"KrashBoomBang","steam_id":76561199002978777,"connected_time":123000000000,"state":"active","ping":66},{"user_id":424,"name":"Ninetees","steam_id":76561198119483989,"connected_time":158000000000,"state":"active","ping":83},{"user_id":425,"name":"No_Dictators","steam_id":76561199065777321,"connected_time":153000000000,"state":"active","ping":70},{"user_id":422,"name":"Australian Sniper Man","steam_id":76561199010541953,"connected_time":287000000000,"state":"active","ping":42},{"user_id":429,"name":"Just washed","steam_id":76561199030160932,"connected_time":95000000000,"state":"active","ping":84},{"user_id":411,"name":"Im totally a hacker","steam_id":76561198888005736,"connected_time":1396000000000,"state":"active","ping":66},{"user_id":367,"name":"Brandino!","steam_id":76561198000446932,"connected_time":4348000000000,"state":"active","ping":67},{"user_id":412,"name":"wew","steam_id":76561198062608696,"connected_time":1368000000000,"state":"active","ping":57},{"user_id":385,"name":"Tim Shitsby","steam_id":76561198010138349,"connected_time":2967000000000,"state":"active","ping":70},{"user_id":418,"name":"void","steam_id":76561198107501413,"connected_time":652000000000,"state":"active","ping":58},{"user_id":427,"name":"The one who knocks","steam_id":76561198863619592,"connected_time":136000000000,"state":"active","ping":48},{"user_id":430,"name":"Se√±or Peligro","steam_id":76561198074916706,"connected_time":91000000000,"state":"active","ping":100},{"user_id":431,"name":"Elmer J. Fapp","steam_id":76561198049339994,"connected_time":17000000000,"state":"active","ping":48},{"user_id":369,"name":"john dunce fifteen","steam_id":76561198165299077,"connected_time":4312000000000,"state":"active","ping":72},{"user_id":415,"name":"rookie_cookie","steam_id":76561198889338378,"connected_time":1282000000000,"state":"active","ping":64},{"user_id":405,"name":"Icybullets","steam_id":76561198950782310,"connected_time":1691000000000,"state":"active","ping":59},{"user_id":420,"name":"I'm bad I know thx \u003c3","steam_id":76561198058840477,"connected_time":620000000000,"state":"active","ping":91}]},{"server_id":402,"name":"Uncletopia | Chicago | 3 | All Maps","name_short":"chi-3","host":"chi-1.us.uncletopia.com","port":27035,"enabled":true,"region":"us-central","cc":"us","latitude":41.881832,"longitude":-87.62318,"reserved":0,"last_update":"0001-01-01T00:00:00Z","name_a2s":"Uncletopia | Chicago | 3 | All Maps","protocol":17,"map":"pl_pier","folder":"tf","game":"Team Fortress","app_id":440,"player_count":24,"max_players":24,"Bots":0,"server_type":"Dedicated","server_os":"Linux","password":true,"vac":true,"version":"7961495","steam_id":85568392924515191,"keywords":["nocrits","nodmgspread","payload","uncletopia"],"game_id":440,"stv_port":27036,"stv_name":"Uncletopia | Chicago | 3 | All Maps | STV","players":[{"user_id":417,"name":"FrostStorm","steam_id":76561198142685151,"connected_time":36000000000,"state":"spawning","ping":58},{"user_id":394,"name":"frank","steam_id":76561198137777483,"connected_time":1654000000000,"state":"active","ping":68},{"user_id":415,"name":"comet sooicidy","steam_id":76561198025173479,"connected_time":53000000000,"state":"spawning","ping":81},{"user_id":390,"name":"for the king","steam_id":76561197973488858,"connected_time":1906000000000,"state":"active","ping":51},{"user_id":414,"name":"Wukey","steam_id":76561197969001266,"connected_time":134000000000,"state":"active","ping":55},{"user_id":378,"name":"delight","steam_id":76561197980280272,"connected_time":2425000000000,"state":"active","ping":91},{"user_id":371,"name":"Naldo","steam_id":76561198121273420,"connected_time":2612000000000,"state":"active","ping":96},{"user_id":401,"name":"broghafam","steam_id":76561199084913446,"connected_time":1274000000000,"state":"active","ping":48},{"user_id":261,"name":"ChaosBlast","steam_id":76561198071557391,"connected_time":9048000000000,"state":"active","ping":91},{"user_id":411,"name":"ChoccyMiltank","steam_id":76561198981474284,"connected_time":430000000000,"state":"active","ping":89},{"user_id":175,"name":"Brotein","steam_id":76561198053743602,"connected_time":15422000000000,"state":"active","ping":49},{"user_id":419,"name":"Chuina","steam_id":76561198056871257,"connected_time":11000000000,"state":"spawning","ping":76},{"user_id":393,"name":"Poo","steam_id":76561198265144507,"connected_time":1708000000000,"state":"active","ping":75},{"user_id":374,"name":"TheSkreachingCat","steam_id":76561198144460344,"connected_time":2527000000000,"state":"active","ping":68},{"user_id":382,"name":"MangoMaster7834","steam_id":76561199231165397,"connected_time":2325000000000,"state":"active","ping":87},{"user_id":377,"name":"stormfoam","steam_id":76561198936871387,"connected_time":2481000000000,"state":"active","ping":59},{"user_id":379,"name":"serendipity","steam_id":76561198095087127,"connected_time":2421000000000,"state":"active","ping":58},{"user_id":416,"name":"Grify","steam_id":76561198012292317,"connected_time":46000000000,"state":"active","ping":74},{"user_id":335,"name":"esoobac","steam_id":76561198010370396,"connected_time":5076000000000,"state":"active","ping":97},{"user_id":403,"name":"Steak-Pocketer","steam_id":76561198277651410,"connected_time":1221000000000,"state":"active","ping":57},{"user_id":405,"name":"trumpet","steam_id":76561198130523690,"connected_time":1064000000000,"state":"active","ping":48},{"user_id":385,"name":"on my backup mouse","steam_id":76561198072179483,"connected_time":2247000000000,"state":"active","ping":90},{"user_id":418,"name":"Soma","steam_id":76561198137093894,"connected_time":14000000000,"state":"active","ping":83},{"user_id":392,"name":"D3rpy Waffl3s","steam_id":76561198245373108,"connected_time":1898000000000,"state":"active","ping":104}]},{"server_id":403,"name":"Uncletopia | Chicago | 4 | All Maps","name_short":"chi-4","host":"chi-1.us.uncletopia.com","port":27045,"enabled":true,"region":"us-central","cc":"us","latitude":41.881832,"longitude":-87.62318,"reserved":0,"last_update":"0001-01-01T00:00:00Z","name_a2s":"Uncletopia | Chicago | 4 | All Maps","protocol":17,"map":"pl_badwater","folder":"tf","game":"Team Fortress","app_id":440,"player_count":24,"max_players":24,"Bots":0,"server_type":"Dedicated","server_os":"Linux","password":true,"vac":true,"version":"7961495","steam_id":85568392924515193,"keywords":["nocrits","nodmgspread","payload","uncletopia"],"game_id":440,"stv_port":27046,"stv_name":"Uncletopia | Chicago | 4 | All Maps | STV","players":[{"user_id":245,"name":"ashsillygoober","steam_id":76561199454622997,"connected_time":893000000000,"state":"active","ping":68},{"user_id":238,"name":"Chimpish","steam_id":76561199263493270,"connected_time":1457000000000,"state":"active","ping":82},{"user_id":176,"name":"Ourseem","steam_id":76561199406432468,"connected_time":6986000000000,"state":"active","ping":68},{"user_id":168,"name":"Outer","steam_id":76561199121781498,"connected_time":7216000000000,"state":"active","ping":79},{"user_id":232,"name":"On The Bright Side...","steam_id":76561198168785883,"connected_time":2392000000000,"state":"active","ping":48},{"user_id":241,"name":"your moms car","steam_id":76561199389283507,"connected_time":1154000000000,"state":"active","ping":59},{"user_id":242,"name":"„Åè„Ç≥:ÂΩ°","steam_id":76561199200969139,"connected_time":1110000000000,"state":"active","ping":112},{"user_id":268,"name":"LocaKola","steam_id":76561198173435430,"connected_time":262000000000,"state":"active","ping":61},{"user_id":247,"name":"OldRavensFan","steam_id":76561198043919562,"connected_time":823000000000,"state":"active","ping":58},{"user_id":246,"name":"‚ô•MagicWeedCat‚ô•","steam_id":76561199121834449,"connected_time":865000000000,"state":"active","ping":76},{"user_id":262,"name":"„Åè„Åù","steam_id":76561198153398037,"connected_time":583000000000,"state":"active","ping":59},{"user_id":249,"name":"Leethalweapon","steam_id":76561198412167609,"connected_time":805000000000,"state":"active","ping":72},{"user_id":257,"name":"OrangeSodaMachine","steam_id":76561198079230156,"connected_time":669000000000,"state":"active","ping":94},{"user_id":263,"name":"Corbe","steam_id":76561198353893927,"connected_time":544000000000,"state":"active","ping":76},{"user_id":252,"name":"glitch","steam_id":76561197979495589,"connected_time":741000000000,"state":"active","ping":69},{"user_id":253,"name":"Space‚≠êTaffy","steam_id":76561198002271720,"connected_time":739000000000,"state":"active","ping":56},{"user_id":254,"name":"Rulers Reach fan","steam_id":76561198367340750,"connected_time":733000000000,"state":"active","ping":60},{"user_id":256,"name":"Cosmolian","steam_id":76561199178160545,"connected_time":679000000000,"state":"active","ping":93},{"user_id":267,"name":"Hugs","steam_id":76561198214584133,"connected_time":329000000000,"state":"active","ping":104},{"user_id":259,"name":"Transfem Bumblebee","steam_id":76561198119393205,"connected_time":650000000000,"state":"active","ping":76},{"user_id":260,"name":"lil ghoul","steam_id":76561197974030954,"connected_time":647000000000,"state":"active","ping":91},{"user_id":261,"name":"darkadversaryaudio","steam_id":76561198122819981,"connected_time":626000000000,"state":"active","ping":58},{"user_id":264,"name":"Grimprr","steam_id":76561198275816797,"connected_time":528000000000,"state":"active","ping":71},{"user_id":266,"name":"Chadmander","steam_id":76561197974136337,"connected_time":513000000000,"state":"active","ping":44}]},{"server_id":36,"name":"Uncletopia | Chicago | 5 | All Maps","name_short":"chi-5","host":"chi-2.us.uncletopia.com","port":27015,"enabled":true,"region":"us-central","cc":"us","latitude":41.881832,"longitude":-87.62318,"reserved":0,"last_update":"0001-01-01T00:00:00Z","name_a2s":"Uncletopia | Chicago | 5 | All Maps","protocol":17,"map":"pl_pier","folder":"tf","game":"Team Fortress","app_id":440,"player_count":24,"max_players":24,"Bots":0,"server_type":"Dedicated","server_os":"Linux","password":true,"vac":true,"version":"7961495","steam_id":85568392924866362,"keywords":["nocrits","nodmgspread","payload","uncletopia"],"game_id":440,"stv_port":27016,"stv_name":"Uncletopia | Chicago | 5 | All Maps | STV","players":[{"user_id":558,"name":"lil' Wayne","steam_id":76561198050136796,"connected_time":521000000000,"state":"active","ping":89},{"user_id":559,"name":"ark","steam_id":76561198041066271,"connected_time":514000000000,"state":"active","ping":81},{"user_id":556,"name":"big squirt killa","steam_id":76561198891198052,"connected_time":824000000000,"state":"active","ping":82},{"user_id":504,"name":"Master Of Whales","steam_id":76561198349104889,"connected_time":3131000000000,"state":"active","ping":91},{"user_id":538,"name":"Eustace \"CA$H MONEY\" Bagge","steam_id":76561198154022811,"connected_time":1868000000000,"state":"active","ping":61},{"user_id":522,"name":"Minecraft Villager Gaming","steam_id":76561198280321704,"connected_time":2531000000000,"state":"active","ping":54},{"user_id":557,"name":"Haveltherock27","steam_id":76561199219844391,"connected_time":594000000000,"state":"active","ping":88},{"user_id":567,"name":"sentry turret","steam_id":76561198327057433,"connected_time":92000000000,"state":"active","ping":79},{"user_id":546,"name":"Wiggs is the Shiggs","steam_id":76561198078379719,"connected_time":1516000000000,"state":"active","ping":127},{"user_id":507,"name":"TheHumanTaco119","steam_id":76561198996107520,"connected_time":3069000000000,"state":"active","ping":106},{"user_id":560,"name":"B.","steam_id":76561198040445907,"connected_time":493000000000,"state":"active","ping":75},{"user_id":565,"name":"canakblasteran","steam_id":76561199472518822,"connected_time":424000000000,"state":"active","ping":92},{"user_id":562,"name":"ultrapuffs","steam_id":76561198023463293,"connected_time":449000000000,"state":"active","ping":61},{"user_id":563,"name":"i miss fauna","steam_id":76561198045144546,"connected_time":448000000000,"state":"active","ping":94},{"user_id":510,"name":"Mr.Kevin120","steam_id":76561199186919096,"connected_time":2898000000000,"state":"active","ping":77},{"user_id":499,"name":"HollyBlocky","steam_id":76561198030156100,"connected_time":3490000000000,"state":"active","ping":77},{"user_id":551,"name":"DUKE","steam_id":76561199058944087,"connected_time":1290000000000,"state":"active","ping":103},{"user_id":564,"name":"Seskova","steam_id":76561198090207032,"connected_time":444000000000,"state":"active","ping":103},{"user_id":533,"name":"Squid","steam_id":76561198142873471,"connected_time":2040000000000,"state":"active","ping":74},{"user_id":566,"name":"Primordial pouch","steam_id":76561198077993687,"connected_time":242000000000,"state":"active","ping":77},{"user_id":553,"name":"The Soup","steam_id":76561198156746320,"connected_time":1123000000000,"state":"active","ping":51},{"user_id":555,"name":"Juanelo","steam_id":76561199096390505,"connected_time":1118000000000,"state":"active","ping":82},{"user_id":534,"name":"The Sydney Sleeper Itself","steam_id":76561198180251763,"connected_time":2039000000000,"state":"active","ping":69},{"user_id":550,"name":"KRUSHER","steam_id":76561198072157019,"connected_time":1318000000000,"state":"active","ping":86}]},{"server_id":37,"name":"Uncletopia | Chicago | 6 | All Maps","name_short":"chi-6","host":"chi-2.us.uncletopia.com","port":27025,"enabled":true,"region":"us-central","cc":"us","latitude":41.881832,"longitude":-87.62318,"reserved":0,"last_update":"0001-01-01T00:00:00Z","name_a2s":"Uncletopia | Chicago | 6 | All Maps","protocol":17,"map":"pl_pier","folder":"tf","game":"Team Fortress","app_id":440,"player_count":24,"max_players":24,"Bots":0,"server_type":"Dedicated","server_os":"Linux","password":true,"vac":true,"version":"7961495","steam_id":85568392924866363,"keywords":["nocrits","nodmgspread","payload","uncletopia"],"game_id":440,"stv_port":27026,"stv_name":"Uncletopia | Chicago | 6 | All Maps | STV","players":[{"user_id":669,"name":"fusioN","steam_id":76561198079179612,"connected_time":1325000000000,"state":"active","ping":60},{"user_id":686,"name":"The Barkeep","steam_id":76561199198025505,"connected_time":0,"state":"connecting","ping":0},{"user_id":658,"name":"Lunchboxx","steam_id":76561198079735916,"connected_time":2346000000000,"state":"active","ping":46},{"user_id":657,"name":"steven","steam_id":76561198173047169,"connected_time":2657000000000,"state":"active","ping":64},{"user_id":678,"name":"scarybroccoli","steam_id":76561198296440084,"connected_time":685000000000,"state":"active","ping":76},{"user_id":617,"name":"No'el","steam_id":76561198063959574,"connected_time":5480000000000,"state":"active","ping":79},{"user_id":664,"name":"Bajookanese E Thug","steam_id":76561198067176829,"connected_time":1662000000000,"state":"active","ping":115},{"user_id":672,"name":"jaytheking05","steam_id":76561198856419769,"connected_time":1030000000000,"state":"active","ping":60},{"user_id":625,"name":"Dr.StrangeGlove","steam_id":76561198286114229,"connected_time":4577000000000,"state":"active","ping":71},{"user_id":673,"name":"GoodleShoes/ttv","steam_id":76561198030993521,"connected_time":1019000000000,"state":"active","ping":61},{"user_id":647,"name":"Ham","steam_id":76561198143371318,"connected_time":3208000000000,"state":"active","ping":99},{"user_id":679,"name":"bnob?","steam_id":76561198965284387,"connected_time":617000000000,"state":"active","ping":68},{"user_id":684,"name":"bro pyro chill with the taunts","steam_id":76561199169445769,"connected_time":191000000000,"state":"active","ping":84},{"user_id":674,"name":"*****setget","steam_id":76561198118824188,"connected_time":1014000000000,"state":"active","ping":129},{"user_id":680,"name":"mellowhype","steam_id":76561198040675606,"connected_time":607000000000,"state":"active","ping":81},{"user_id":605,"name":"Emerald_Knight","steam_id":76561198067372868,"connected_time":5919000000000,"state":"active","ping":54},{"user_id":644,"name":"_GOOSE","steam_id":76561198013747901,"connected_time":3430000000000,"state":"active","ping":81},{"user_id":682,"name":"exa*‚ú©‚Äß‚ÇäÀö","steam_id":76561198044511912,"connected_time":490000000000,"state":"active","ping":104},{"user_id":654,"name":"Dr. Quack","steam_id":76561198260753684,"connected_time":2882000000000,"state":"active","ping":58},{"user_id":670,"name":"Smartchicken","steam_id":76561198037744517,"connected_time":1089000000000,"state":"active","ping":75},{"user_id":615,"name":"Just a Festive TimeButt","steam_id":76561198074261742,"connected_time":5530000000000,"state":"active","ping":72},{"user_id":659,"name":"DrFlapJack","steam_id":76561199075410469,"connected_time":2025000000000,"state":"active","ping":100},{"user_id":677,"name":"Butteryback","steam_id":76561198049642485,"connected_time":756000000000,"state":"active","ping":60},{"user_id":685,"name":"guy","steam_id":76561198079925551,"connected_time":128000000000,"state":"active","ping":74}]},{"server_id":38,"name":"Uncletopia | Chicago | 7 | Stopwatch","name_short":"chi-7","host":"chi-2.us.uncletopia.com","port":27035,"enabled":true,"region":"us-central","cc":"us","latitude":41.881832,"longitude":-87.62318,"reserved":0,"last_update":"0001-01-01T00:00:00Z","name_a2s":"Uncletopia | Chicago | 7 | Stopwatch","protocol":17,"map":"workshop/koth_bagel_rc6.ugc2514036946","folder":"tf","game":"Team Fortress","app_id":440,"player_count":0,"max_players":24,"Bots":0,"server_type":"Dedicated","server_os":"Linux","password":true,"vac":true,"version":"7961495","steam_id":85568392924866364,"keywords":["cp","nocrits","nodmgspread","uncletopia"],"game_id":440,"stv_port":27036,"stv_name":"Uncletopia | Chicago | 7 | Stopwatch | STV","players":null},{"server_id":39,"name":"Uncletopia | Chicago | 8 | Community","name_short":"chi-8","host":"chi-2.us.uncletopia.com","port":27045,"enabled":true,"region":"us-central","cc":"us","latitude":41.881832,"longitude":-87.62318,"reserved":0,"last_update":"0001-01-01T00:00:00Z","name_a2s":"Uncletopia | Chicago | 8 | Community","protocol":17,"map":"workshop/cp_glacier_rc6.ugc2905735376","folder":"tf","game":"Team Fortress","app_id":440,"player_count":24,"max_players":24,"Bots":0,"server_type":"Dedicated","server_os":"Linux","password":true,"vac":true,"version":"7961495","steam_id":85568392924866365,"keywords":["cp","nocrits","nodmgspread","uncletopia"],"game_id":440,"stv_port":27046,"stv_name":"Uncletopia | Chicago | 8 | Community | STV","players":[{"user_id":122,"name":"Echo","steam_id":76561199165491231,"connected_time":751000000000,"state":"active","ping":44},{"user_id":123,"name":"smoky","steam_id":76561199455602396,"connected_time":704000000000,"state":"active","ping":60},{"user_id":132,"name":"William Lovett","steam_id":76561197991063996,"connected_time":219000000000,"state":"active","ping":52},{"user_id":108,"name":"friendly salamander","steam_id":76561198888219116,"connected_time":1817000000000,"state":"active","ping":60},{"user_id":124,"name":"MrPeanutBetter","steam_id":76561199149697526,"connected_time":622000000000,"state":"active","ping":106},{"user_id":118,"name":"OiledUpGreasyThugGaming64","steam_id":76561199013505974,"connected_time":901000000000,"state":"active","ping":45},{"user_id":112,"name":"Moo","steam_id":76561198377702754,"connected_time":1301000000000,"state":"active","ping":56},{"user_id":98,"name":"jg125","steam_id":76561198824953530,"connected_time":2549000000000,"state":"active","ping":143},{"user_id":115,"name":"Magnet Dood","steam_id":76561198364178746,"connected_time":975000000000,"state":"active","ping":48},{"user_id":120,"name":"kqfrr","steam_id":76561199008854673,"connected_time":856000000000,"state":"active","ping":58},{"user_id":116,"name":"purplerosie334","steam_id":76561199491020174,"connected_time":927000000000,"state":"active","ping":99},{"user_id":20,"name":"bin atlas from atlas","steam_id":76561198075089009,"connected_time":8839000000000,"state":"active","ping":105},{"user_id":125,"name":"caleb","steam_id":76561199001982443,"connected_time":618000000000,"state":"active","ping":95},{"user_id":117,"name":"PIE RO","steam_id":76561199138699358,"connected_time":908000000000,"state":"active","ping":62},{"user_id":119,"name":"lacoulaswwwe","steam_id":76561198966352385,"connected_time":872000000000,"state":"active","ping":75},{"user_id":38,"name":"defcon","steam_id":76561198100656328,"connected_time":8349000000000,"state":"active","ping":65},{"user_id":121,"name":"matthewcass444","steam_id":76561199304179685,"connected_time":824000000000,"state":"active","ping":105},{"user_id":126,"name":"gulch","steam_id":76561199227946025,"connected_time":608000000000,"state":"active","ping":60},{"user_id":136,"name":"Jey","steam_id":76561198110957641,"connected_time":80000000000,"state":"active","ping":79},{"user_id":35,"name":"GnarlySheep","steam_id":76561198067288233,"connected_time":8493000000000,"state":"active","ping":56},{"user_id":133,"name":"Casual (alt)","steam_id":76561199498553459,"connected_time":144000000000,"state":"active","ping":60},{"user_id":130,"name":"Garlic","steam_id":76561198357375007,"connected_time":381000000000,"state":"active","ping":82},{"user_id":131,"name":"Spyro","steam_id":76561198005983477,"connected_time":345000000000,"state":"active","ping":62},{"user_id":134,"name":"Spare(8)Ball","steam_id":76561197982432995,"connected_time":139000000000,"state":"active","ping":102}]},{"server_id":8,"name":"Uncletopia | Dallas | 1 | All Maps","name_short":"dal-1","host":"dal-1.us.uncletopia.com","port":27015,"enabled":true,"region":"us-central","cc":"us","latitude":32.779167,"longitude":-96.80889,"reserved":0,"last_update":"0001-01-01T00:00:00Z","name_a2s":"Uncletopia | Dallas | 1 | All Maps","protocol":17,"map":"pl_frontier_final","folder":"tf","game":"Team Fortress","app_id":440,"player_count":23,"max_players":24,"Bots":0,"server_type":"Dedicated","server_os":"Linux","password":true,"vac":true,"version":"7961495","steam_id":85568392924469986,"keywords":["nocrits","nodmgspread","payload","uncletopia"],"game_id":440,"stv_port":27016,"stv_name":"Uncletopia | Dallas | 1 | All Maps | STV","players":[{"user_id":298,"name":"SkadooshPlayz","steam_id":76561198310986662,"connected_time":480000000000,"state":"active","ping":94},{"user_id":307,"name":"The Chrisind","steam_id":76561198024980467,"connected_time":0,"state":"spawning","ping":0},{"user_id":277,"name":"I AM A STURGEON üêüüêüüêü","steam_id":76561198119536224,"connected_time":2148000000000,"state":"active","ping":81},{"user_id":281,"name":"CeLeb144","steam_id":76561199089907740,"connected_time":1972000000000,"state":"active","ping":60},{"user_id":284,"name":"ShapedSilver","steam_id":76561199073305310,"connected_time":1944000000000,"state":"active","ping":61},{"user_id":240,"name":"plink","steam_id":76561198057829889,"connected_time":4184000000000,"state":"active","ping":57},{"user_id":304,"name":"CorvusCrome","steam_id":76561198241986368,"connected_time":28000000000,"state":"active","ping":88},{"user_id":282,"name":"Amish Robot","steam_id":76561198041156065,"connected_time":1966000000000,"state":"active","ping":46},{"user_id":303,"name":"papi Chulo","steam_id":76561198126274984,"connected_time":44000000000,"state":"active","ping":71},{"user_id":302,"name":"The creator(made twitter)","steam_id":76561198870900265,"connected_time":67000000000,"state":"active","ping":81},{"user_id":289,"name":"Larry Gooseman","steam_id":76561198018696922,"connected_time":1336000000000,"state":"active","ping":76},{"user_id":297,"name":"Grilled Cheese Enjoyer","steam_id":76561199440272639,"connected_time":504000000000,"state":"active","ping":48},{"user_id":271,"name":"trainmarine -bt","steam_id":76561198341784551,"connected_time":2511000000000,"state":"active","ping":56},{"user_id":288,"name":"Monte","steam_id":76561198097499917,"connected_time":1586000000000,"state":"active","ping":72},{"user_id":287,"name":"Born to :3 Forced to :)","steam_id":76561198083882597,"connected_time":1698000000000,"state":"active","ping":45},{"user_id":293,"name":"thesmilingman654","steam_id":76561199196497254,"connected_time":769000000000,"state":"active","ping":81},{"user_id":299,"name":"Bogey","steam_id":76561198096227944,"connected_time":280000000000,"state":"active","ping":44},{"user_id":305,"name":"Drapph","steam_id":76561199384213314,"connected_time":27000000000,"state":"active","ping":75},{"user_id":286,"name":"Derblitz","steam_id":76561198040953176,"connected_time":1924000000000,"state":"active","ping":64},{"user_id":301,"name":"magnoly","steam_id":76561199228865188,"connected_time":73000000000,"state":"active","ping":45},{"user_id":292,"name":"otwtomarsoffdabars(spacecore)","steam_id":76561199085974120,"connected_time":1077000000000,"state":"active","ping":79},{"user_id":306,"name":"BB Lorexav","steam_id":76561198207565988,"connected_time":19000000000,"state":"active","ping":74},{"user_id":295,"name":"PhaserLazer","steam_id":76561198407341298,"connected_time":646000000000,"state":"active","ping":39}]},{"server_id":108,"name":"Uncletopia | Dallas | 2 | All Maps","name_short":"dal-2","host":"dal-1.us.uncletopia.com","port":27025,"enabled":true,"region":"us-central","cc":"us","latitude":32.779167,"longitude":-96.80889,"reserved":0,"last_update":"0001-01-01T00:00:00Z","name_a2s":"Uncletopia | Dallas | 2 | All Maps","protocol":17,"map":"cp_gorge","folder":"tf","game":"Team Fortress","app_id":440,"player_count":22,"max_players":24,"Bots":0,"server_type":"Dedicated","server_os":"Linux","password":true,"vac":true,"version":"7961495","steam_id":85568392924469988,"keywords":["cp","nocrits","nodmgspread","uncletopia"],"game_id":440,"stv_port":27026,"stv_name":"Uncletopia | Dallas | 2 | All Maps | STV","players":[{"user_id":353,"name":"really gay gun spy main","steam_id":76561199026721822,"connected_time":2829000000000,"state":"active","ping":91},{"user_id":344,"name":"MenInHatz","steam_id":76561198825094263,"connected_time":3274000000000,"state":"active","ping":99},{"user_id":349,"name":"Kerpal45","steam_id":76561198153340350,"connected_time":3091000000000,"state":"active","ping":82},{"user_id":400,"name":"An00bis","steam_id":76561198044084508,"connected_time":50000000000,"state":"active","ping":60},{"user_id":398,"name":"Bowl of Cereal Gaming","steam_id":76561199042252292,"connected_time":73000000000,"state":"active","ping":70},{"user_id":395,"name":"Bullwinkle J. Moose","steam_id":76561198075977196,"connected_time":489000000000,"state":"active","ping":93},{"user_id":318,"name":"Dinoboi","steam_id":76561198163998774,"connected_time":4136000000000,"state":"active","ping":91},{"user_id":376,"name":"The Notorious RBG","steam_id":76561198014275148,"connected_time":1764000000000,"state":"active","ping":81},{"user_id":396,"name":"uncletopia dallas 2 player","steam_id":76561198412786186,"connected_time":486000000000,"state":"active","ping":45},{"user_id":385,"name":"doge","steam_id":76561199122146006,"connected_time":1357000000000,"state":"active","ping":60},{"user_id":348,"name":"BumpofNight","steam_id":76561198011581312,"connected_time":3095000000000,"state":"active","ping":76},{"user_id":394,"name":"Philo","steam_id":76561198061873341,"connected_time":634000000000,"state":"active","ping":75},{"user_id":337,"name":"Thunder","steam_id":76561198097721532,"connected_time":3590000000000,"state":"active","ping":75},{"user_id":393,"name":"radicalPolio","steam_id":76561197961561855,"connected_time":756000000000,"state":"active","ping":42},{"user_id":391,"name":"Smug","steam_id":76561198448205229,"connected_time":1082000000000,"state":"active","ping":60},{"user_id":379,"name":"Average GHOST (Vocaloid) Listen","steam_id":76561199471951160,"connected_time":1698000000000,"state":"active","ping":45},{"user_id":401,"name":"kyrgyzstan3","steam_id":76561198207940136,"connected_time":39000000000,"state":"active","ping":45},{"user_id":390,"name":"shinon","steam_id":76561198373626848,"connected_time":1116000000000,"state":"active","ping":75},{"user_id":397,"name":"BenditoBurrito","steam_id":76561198825303650,"connected_time":126000000000,"state":"active","ping":60},{"user_id":340,"name":"crustycheeseblock","steam_id":76561198947654861,"connected_time":3472000000000,"state":"active","ping":45},{"user_id":387,"name":"2010 Ford Focus","steam_id":76561197996158240,"connected_time":1282000000000,"state":"active","ping":75},{"user_id":392,"name":"Broadsword #LGM","steam_id":76561198011160411,"connected_time":1056000000000,"state":"active","ping":90}]},{"server_id":404,"name":"Uncletopia | Dallas | 3 | All Maps","name_short":"dal-3","host":"dal-1.us.uncletopia.com","port":27035,"enabled":true,"region":"us-central","cc":"us","latitude":32.779167,"longitude":-96.80889,"reserved":0,"last_update":"0001-01-01T00:00:00Z","name_a2s":"Uncletopia | Dallas | 3 | All Maps","protocol":17,"map":"koth_highpass","folder":"tf","game":"Team Fortress","app_id":440,"player_count":0,"max_players":24,"Bots":0,"server_type":"Dedicated","server_os":"Linux","password":true,"vac":true,"version":"7961495","steam_id":85568392924515219,"keywords":["cp","nocrits","nodmgspread","uncletopia"],"game_id":440,"stv_port":27036,"stv_name":"Uncletopia | Dallas | 3 | All Maps | STV","players":null},{"server_id":405,"name":"Uncletopia | Dallas | 4 | Community","name_short":"dal-4","host":"dal-1.us.uncletopia.com","port":27045,"enabled":true,"region":"us-central","cc":"us","latitude":32.779167,"longitude":-96.80889,"reserved":0,"last_update":"0001-01-01T00:00:00Z","name_a2s":"Uncletopia | Dallas | 4 | Community","protocol":17,"map":"workshop/koth_synthetic_rc6a.ugc1549817316","folder":"tf","game":"Team Fortress","app_id":440,"player_count":0,"max_players":24,"Bots":0,"server_type":"Dedicated","server_os":"Linux","password":true,"vac":true,"version":"7961495","steam_id":85568392924515220,"keywords":["cp","nocrits","nodmgspread","uncletopia"],"game_id":440,"stv_port":27046,"stv_name":"Uncletopia | Dallas | 4 | Community | STV","players":null},{"server_id":5,"name":"Uncletopia | Frankfurt | 1 | All Maps","name_short":"frk-1","host":"frk-1.de.uncletopia.com","port":27015,"enabled":true,"region":"eu","cc":"de","latitude":50.110924,"longitude":8.682127,"reserved":0,"last_update":"0001-01-01T00:00:00Z","name_a2s":"Uncletopia | Frankfurt | 1 | All Maps","protocol":17,"map":"pl_borneo","folder":"tf","game":"Team Fortress","app_id":440,"player_count":0,"max_players":24,"Bots":0,"server_type":"Dedicated","server_os":"Linux","password":true,"vac":true,"version":"7961495","steam_id":85568392924469989,"keywords":["nocrits","nodmgspread","payload","uncletopia"],"game_id":440,"stv_port":27016,"stv_name":"Uncletopia | Frankfurt | 1 | All Maps | STV","players":null},{"server_id":110,"name":"Uncletopia | Frankfurt | 2 | All Maps","name_short":"frk-2","host":"frk-1.de.uncletopia.com","port":27025,"enabled":true,"region":"eu","cc":"de","latitude":50.110924,"longitude":8.682127,"reserved":0,"last_update":"0001-01-01T00:00:00Z","name_a2s":"Uncletopia | Frankfurt | 2 | All Maps","protocol":17,"map":"koth_viaduct","folder":"tf","game":"Team Fortress","app_id":440,"player_count":0,"max_players":24,"Bots":0,"server_type":"Dedicated","server_os":"Linux","password":true,"vac":true,"version":"7961495","steam_id":85568392924469990,"keywords":["cp","nocrits","nodmgspread","uncletopia"],"game_id":440,"stv_port":27026,"stv_name":"Uncletopia | Frankfurt | 2 | All Maps | STV","players":null},{"server_id":308,"name":"Uncletopia | Frankfurt | 3 | All Maps","name_short":"frk-3","host":"frk-1.de.uncletopia.com","port":27035,"enabled":true,"region":"eu","cc":"de","latitude":50.110924,"longitude":8.682127,"reserved":0,"last_update":"0001-01-01T00:00:00Z","name_a2s":"Uncletopia | Frankfurt | 3 | All Maps","protocol":17,"map":"koth_cascade","folder":"tf","game":"Team Fortress","app_id":440,"player_count":0,"max_players":24,"Bots":0,"server_type":"Dedicated","server_os":"Linux","password":true,"vac":true,"version":"7961495","steam_id":85568392924504274,"keywords":["cp","nocrits","nodmgspread","uncletopia"],"game_id":440,"stv_port":27036,"stv_name":"Uncletopia | Frankfurt | 3 | All Maps | STV","players":null},{"server_id":309,"name":"Uncletopia | Frankfurt | 4 | All Maps","name_short":"frk-4","host":"frk-1.de.uncletopia.com","port":27045,"enabled":true,"region":"eu","cc":"de","latitude":50.110924,"longitude":8.682127,"reserved":0,"last_update":"0001-01-01T00:00:00Z","name_a2s":"Uncletopia | Frankfurt | 4 | All Maps","protocol":17,"map":"cp_sunshine","folder":"tf","game":"Team Fortress","app_id":440,"player_count":0,"max_players":24,"Bots":0,"server_type":"Dedicated","server_os":"Linux","password":true,"vac":true,"version":"7961495","steam_id":85568392924504275,"keywords":["cp","nocrits","nodmgspread","uncletopia"],"game_id":440,"stv_port":27046,"stv_name":"Uncletopia | Frankfurt | 4 | All Maps | STV","players":null},{"server_id":310,"name":"Uncletopia | Frankfurt | 5 | All Maps","name_short":"frk-5","host":"frk-1.de.uncletopia.com","port":27055,"enabled":true,"region":"eu","cc":"de","latitude":50.110924,"longitude":8.682127,"reserved":0,"last_update":"0001-01-01T00:00:00Z","name_a2s":"Uncletopia | Frankfurt | 5 | All Maps","protocol":17,"map":"cp_sunshine","folder":"tf","game":"Team Fortress","app_id":440,"player_count":0,"max_players":24,"Bots":0,"server_type":"Dedicated","server_os":"Linux","password":true,"vac":true,"version":"7961495","steam_id":85568392924504277,"keywords":["cp","nocrits","nodmgspread","uncletopia"],"game_id":440,"stv_port":27056,"stv_name":"Uncletopia | Frankfurt | 5 | All Maps | STV","players":null},{"server_id":311,"name":"Uncletopia | Frankfurt | 6 | All Maps","name_short":"frk-6","host":"frk-1.de.uncletopia.com","port":27065,"enabled":true,"region":"eu","cc":"de","latitude":50.110924,"longitude":8.682127,"reserved":0,"last_update":"0001-01-01T00:00:00Z","name_a2s":"Uncletopia | Frankfurt | 6 | All Maps","protocol":17,"map":"pl_upward","folder":"tf","game":"Team Fortress","app_id":440,"player_count":24,"max_players":24,"Bots":0,"server_type":"Dedicated","server_os":"Linux","password":true,"vac":true,"version":"7961495","steam_id":85568392924504278,"keywords":["nocrits","nodmgspread","payload","uncletopia"],"game_id":440,"stv_port":27066,"stv_name":"Uncletopia | Frankfurt | 6 | All Maps | STV","players":[{"user_id":418,"name":"diarrea inoculada 2000","steam_id":76561198412197820,"connected_time":1296000000000,"state":"active","ping":62},{"user_id":423,"name":"Mads Mikkelsen","steam_id":76561198083482001,"connected_time":692000000000,"state":"active","ping":55},{"user_id":392,"name":"*Stare*","steam_id":76561199072209884,"connected_time":2895000000000,"state":"active","ping":58},{"user_id":397,"name":"Gryoss","steam_id":76561197999837111,"connected_time":2774000000000,"state":"active","ping":87},{"user_id":424,"name":"I am a pro racist(car racer)","steam_id":76561198164806677,"connected_time":690000000000,"state":"active","ping":74},{"user_id":425,"name":"compact disc","steam_id":76561198154677956,"connected_time":687000000000,"state":"active","ping":60},{"user_id":430,"name":"Rico Rodr√≠guez","steam_id":76561198964298791,"connected_time":402000000000,"state":"active","ping":52},{"user_id":389,"name":"Joo ‚ô¶","steam_id":76561197987609203,"connected_time":3185000000000,"state":"active","ping":72},{"user_id":412,"name":"Sang","steam_id":76561198008510868,"connected_time":2139000000000,"state":"active","ping":60},{"user_id":387,"name":"CumbustiblePunda","steam_id":76561197974274677,"connected_time":3570000000000,"state":"active","ping":54},{"user_id":409,"name":"meriones","steam_id":76561198034234373,"connected_time":2339000000000,"state":"active","ping":58},{"user_id":416,"name":"Dei Genetrix","steam_id":76561198305678122,"connected_time":1608000000000,"state":"active","ping":61},{"user_id":400,"name":"ubbles","steam_id":76561197970314906,"connected_time":2682000000000,"state":"active","ping":71},{"user_id":393,"name":"hawker127","steam_id":76561198259488237,"connected_time":2888000000000,"state":"active","ping":50},{"user_id":401,"name":"Tre3","steam_id":76561198054795379,"connected_time":2674000000000,"state":"active","ping":48},{"user_id":402,"name":"Ross from F.R.I.E.N.D.S.","steam_id":76561198008511665,"connected_time":2616000000000,"state":"active","ping":45},{"user_id":429,"name":"Lyncurion","steam_id":76561199260022725,"connected_time":469000000000,"state":"active","ping":66},{"user_id":431,"name":"Junkrat simp","steam_id":76561198134378108,"connected_time":336000000000,"state":"active","ping":66},{"user_id":421,"name":"ramko_","steam_id":76561198379753516,"connected_time":1064000000000,"state":"active","ping":79},{"user_id":404,"name":"Snowmotion","steam_id":76561198075022454,"connected_time":2580000000000,"state":"active","ping":45},{"user_id":410,"name":"bright","steam_id":76561198323945338,"connected_time":2310000000000,"state":"active","ping":124},{"user_id":422,"name":"Stop The Violence","steam_id":76561198044876779,"connected_time":1055000000000,"state":"active","ping":69},{"user_id":363,"name":"sword machine","steam_id":76561198895235231,"connected_time":5936000000000,"state":"active","ping":75},{"user_id":411,"name":"Oaky Leaf","steam_id":76561198162821920,"connected_time":2293000000000,"state":"active","ping":75}]},{"server_id":23,"name":"Uncletopia | Frankfurt | 7 | Stopwatch","name_short":"frk-7","host":"frk-1.de.uncletopia.com","port":27075,"enabled":true,"region":"eu","cc":"de","latitude":50.110924,"longitude":8.682127,"reserved":0,"last_update":"0001-01-01T00:00:00Z","name_a2s":"Uncletopia | Frankfurt | 7 | Stopwatch","protocol":17,"map":"cp_metalworks","folder":"tf","game":"Team Fortress","app_id":440,"player_count":0,"max_players":24,"Bots":0,"server_type":"Dedicated","server_os":"Linux","password":true,"vac":true,"version":"7961495","steam_id":85568392924742827,"keywords":["cp","nocrits","nodmgspread","uncletopia"],"game_id":440,"stv_port":27076,"stv_name":"Uncletopia | Frankfurt | 7 | Stopwatch | STV","players":null},{"server_id":24,"name":"Uncletopia | Frankfurt | 8 | Community","name_short":"frk-8","host":"frk-1.de.uncletopia.com","port":27085,"enabled":true,"region":"eu","cc":"de","latitude":50.110924,"longitude":8.682127,"reserved":0,"last_update":"0001-01-01T00:00:00Z","name_a2s":"Uncletopia | Frankfurt | 8 | Community","protocol":17,"map":"workshop/koth_synthetic_rc6a.ugc1549817316","folder":"tf","game":"Team Fortress","app_id":440,"player_count":0,"max_players":24,"Bots":0,"server_type":"Dedicated","server_os":"Linux","password":true,"vac":true,"version":"7961495","steam_id":85568392924742828,"keywords":["cp","nocrits","nodmgspread","uncletopia"],"game_id":440,"stv_port":27086,"stv_name":"Uncletopia | Frankfurt | 8 | Community | STV","players":null},{"server_id":202,"name":"Uncletopia | Hong Kong | 1 | All Maps","name_short":"hgk-1","host":"hgk-1.hk.uncletopia.com","port":27015,"enabled":true,"region":"asia","cc":"hk","latitude":22.302711,"longitude":114.177216,"reserved":0,"last_update":"0001-01-01T00:00:00Z","name_a2s":"Uncletopia | Hong Kong | 1 | All Maps","protocol":17,"map":"pl_upward","folder":"tf","game":"Team Fortress","app_id":440,"player_count":0,"max_players":24,"Bots":0,"server_type":"Dedicated","server_os":"Linux","password":true,"vac":true,"version":"7961495","steam_id":85568392924494504,"keywords":["nocrits","nodmgspread","payload","uncletopia"],"game_id":440,"stv_port":27016,"stv_name":"Uncletopia | Hong Kong | 1 | All Maps | STV","players":null},{"server_id":1,"name":"Uncletopia | Los Angeles | 1 | All Maps","name_short":"lax-1","host":"lax-1.us.uncletopia.com","port":27015,"enabled":true,"region":"us-west","cc":"us","latitude":33.94279,"longitude":-118.41004,"reserved":0,"last_update":"0001-01-01T00:00:00Z","name_a2s":"Uncletopia | Los Angeles | 1 | All Maps","protocol":17,"map":"cp_dustbowl","folder":"tf","game":"Team Fortress","app_id":440,"player_count":1,"max_players":24,"Bots":0,"server_type":"Dedicated","server_os":"Linux","password":true,"vac":true,"version":"7961495","steam_id":85568392924469991,"keywords":["cp","nocrits","nodmgspread","uncletopia"],"game_id":440,"stv_port":27016,"stv_name":"Uncletopia | Los Angeles | 1 | All Maps | STV","players":[{"user_id":15,"name":"Pybrowm1","steam_id":76561199500706672,"connected_time":600000000000,"state":"active","ping":53}]},{"server_id":112,"name":"Uncletopia | Los Angeles | 2 | All Maps","name_short":"lax-2","host":"lax-1.us.uncletopia.com","port":27025,"enabled":true,"region":"us-west","cc":"us","latitude":33.94279,"longitude":-118.41004,"reserved":0,"last_update":"0001-01-01T00:00:00Z","name_a2s":"Uncletopia | Los Angeles | 2 | All Maps","protocol":17,"map":"cp_process_final","folder":"tf","game":"Team Fortress","app_id":440,"player_count":0,"max_players":24,"Bots":0,"server_type":"Dedicated","server_os":"Linux","password":true,"vac":true,"version":"7961495","steam_id":85568392924469992,"keywords":["cp","nocrits","nodmgspread","uncletopia"],"game_id":440,"stv_port":27026,"stv_name":"Uncletopia | Los Angeles | 2 | All Maps | STV","players":null},{"server_id":324,"name":"Uncletopia | Los Angeles | 3 | All Maps","name_short":"lax-3","host":"lax-1.us.uncletopia.com","port":27035,"enabled":true,"region":"us-west","cc":"us","latitude":33.94279,"longitude":-118.41004,"reserved":0,"last_update":"0001-01-01T00:00:00Z","name_a2s":"Uncletopia | Los Angeles | 3 | All Maps","protocol":17,"map":"pl_pier","folder":"tf","game":"Team Fortress","app_id":440,"player_count":24,"max_players":24,"Bots":0,"server_type":"Dedicated","server_os":"Linux","password":true,"vac":true,"version":"7961495","steam_id":85568392924510198,"keywords":["nocrits","nodmgspread","payload","uncletopia"],"game_id":440,"stv_port":27036,"stv_name":"Uncletopia | Los Angeles | 3 | All Maps | STV","players":[{"user_id":92,"name":"slowdance","steam_id":76561198097427947,"connected_time":1533000000000,"state":"active","ping":96},{"user_id":77,"name":"Colossal Falafel","steam_id":76561198108086245,"connected_time":2633000000000,"state":"active","ping":104},{"user_id":91,"name":"Chafn","steam_id":76561197969386702,"connected_time":1542000000000,"state":"active","ping":54},{"user_id":105,"name":"koolkobra76","steam_id":76561198174724163,"connected_time":882000000000,"state":"active","ping":59},{"user_id":104,"name":"Other Players, My One Weakness","steam_id":76561197989247588,"connected_time":884000000000,"state":"active","ping":76},{"user_id":101,"name":"fish","steam_id":76561198054070811,"connected_time":959000000000,"state":"active","ping":42},{"user_id":102,"name":"Gun","steam_id":76561199264073138,"connected_time":941000000000,"state":"active","ping":33},{"user_id":103,"name":"Elfy","steam_id":76561199166448617,"connected_time":908000000000,"state":"active","ping":67},{"user_id":111,"name":"cielael","steam_id":76561198043971956,"connected_time":669000000000,"state":"active","ping":46},{"user_id":93,"name":"Chad MorningWood","steam_id":76561198139832291,"connected_time":1531000000000,"state":"active","ping":54},{"user_id":98,"name":"Soda","steam_id":76561198219209367,"connected_time":1030000000000,"state":"active","ping":64},{"user_id":116,"name":"soccor2013","steam_id":76561198404271005,"connected_time":254000000000,"state":"active","ping":63},{"user_id":112,"name":"Mothman007","steam_id":76561198074312041,"connected_time":467000000000,"state":"active","ping":80},{"user_id":107,"name":"dwight schrute","steam_id":76561198001237877,"connected_time":857000000000,"state":"active","ping":100},{"user_id":42,"name":"jdm","steam_id":76561199497603020,"connected_time":4702000000000,"state":"active","ping":46},{"user_id":115,"name":"Droidder","steam_id":76561198119484250,"connected_time":386000000000,"state":"active","ping":53},{"user_id":64,"name":"rat","steam_id":76561198130412963,"connected_time":4035000000000,"state":"active","ping":87},{"user_id":30,"name":"nanoboosts","steam_id":76561199500861337,"connected_time":4837000000000,"state":"active","ping":49},{"user_id":79,"name":"Username","steam_id":76561198198918781,"connected_time":2570000000000,"state":"active","ping":60},{"user_id":114,"name":"ATLS1 | Strange Festive","steam_id":76561198050385093,"connected_time":417000000000,"state":"active","ping":118},{"user_id":109,"name":"video games","steam_id":76561198334059206,"connected_time":833000000000,"state":"active","ping":60},{"user_id":117,"name":"RoyDJ„ÉÑ","steam_id":76561198184851991,"connected_time":211000000000,"state":"active","ping":96},{"user_id":110,"name":"TheAlphaDoor","steam_id":76561198336551859,"connected_time":826000000000,"state":"active","ping":52},{"user_id":71,"name":"Maid 'n' China","steam_id":76561198423392976,"connected_time":3700000000000,"state":"active","ping":49}]},{"server_id":25,"name":"Uncletopia | Los Angeles | 4 | Stopwatch","name_short":"lax-4","host":"lax-1.us.uncletopia.com","port":27045,"enabled":true,"region":"us-west","cc":"us","latitude":33.94279,"longitude":-118.41004,"reserved":0,"last_update":"0001-01-01T00:00:00Z","name_a2s":"Uncletopia | Los Angeles | 4 | Stopwatch","protocol":17,"map":"koth_highpass","folder":"tf","game":"Team Fortress","app_id":440,"player_count":0,"max_players":24,"Bots":0,"server_type":"Dedicated","server_os":"Linux","password":true,"vac":true,"version":"7961495","steam_id":85568392924510199,"keywords":["cp","nocrits","nodmgspread","uncletopia"],"game_id":440,"stv_port":27046,"stv_name":"Uncletopia | Los Angeles | 4 | Stopwatch | STV","players":null},{"server_id":11,"name":"Uncletopia | London | 1 | All Maps","name_short":"lon-1","host":"lon-1.uk.uncletopia.com","port":27015,"enabled":true,"region":"eu","cc":"gb","latitude":51.509865,"longitude":-0.118092,"reserved":0,"last_update":"0001-01-01T00:00:00Z","name_a2s":"Uncletopia | London | 1 | All Maps","protocol":17,"map":"pl_borneo","folder":"tf","game":"Team Fortress","app_id":440,"player_count":21,"max_players":24,"Bots":0,"server_type":"Dedicated","server_os":"Linux","password":true,"vac":true,"version":"7961495","steam_id":85568392924367362,"keywords":["nocrits","nodmgspread","payload","uncletopia"],"game_id":440,"stv_port":27016,"stv_name":"Uncletopia | London | 1 | All Maps | STV","players":[{"user_id":747,"name":"GIRLBITER alice","steam_id":76561198180361759,"connected_time":1882000000000,"state":"active","ping":35},{"user_id":739,"name":"Aaron","steam_id":76561197990046953,"connected_time":3242000000000,"state":"active","ping":58},{"user_id":749,"name":"Clown :o)","steam_id":76561198074657015,"connected_time":1681000000000,"state":"active","ping":61},{"user_id":732,"name":"Finkaksu Devourer of Sour Candy","steam_id":76561198201389163,"connected_time":5563000000000,"state":"active","ping":69},{"user_id":740,"name":"suicidal","steam_id":76561199383437138,"connected_time":3222000000000,"state":"active","ping":117},{"user_id":757,"name":"xTheDarkLight","steam_id":76561198239128298,"connected_time":133000000000,"state":"active","ping":60},{"user_id":754,"name":"Emilio Juarez","steam_id":76561198179693110,"connected_time":945000000000,"state":"active","ping":47},{"user_id":755,"name":"Alice","steam_id":76561198052410860,"connected_time":301000000000,"state":"active","ping":147},{"user_id":758,"name":"The Black Duckling","steam_id":76561198383394891,"connected_time":106000000000,"state":"active","ping":136},{"user_id":652,"name":"Sandshee","steam_id":76561198088574666,"connected_time":10598000000000,"state":"active","ping":45},{"user_id":752,"name":"ashley","steam_id":76561198448551449,"connected_time":1598000000000,"state":"active","ping":35},{"user_id":756,"name":"El Grando Smokio","steam_id":76561198265117422,"connected_time":288000000000,"state":"active","ping":166},{"user_id":746,"name":"Laru","steam_id":76561197998838438,"connected_time":1960000000000,"state":"active","ping":75},{"user_id":704,"name":"gnarly business","steam_id":76561198832688767,"connected_time":9199000000000,"state":"active","ping":47},{"user_id":735,"name":"impossible whopper eater","steam_id":76561198058641805,"connected_time":4104000000000,"state":"active","ping":48},{"user_id":741,"name":"beebo","steam_id":76561199120277007,"connected_time":3022000000000,"state":"active","ping":89},{"user_id":750,"name":"SENSITIVITY OVERDRIVE!!!!","steam_id":76561198163615254,"connected_time":1672000000000,"state":"active","ping":60},{"user_id":753,"name":"xva","steam_id":76561198969286813,"connected_time":1087000000000,"state":"active","ping":73},{"user_id":678,"name":"Speed-Dial","steam_id":76561198012428315,"connected_time":10156000000000,"state":"active","ping":45},{"user_id":413,"name":"‚ößaura‚öß","steam_id":76561198066258544,"connected_time":19057000000000,"state":"active","ping":59},{"user_id":737,"name":"sora (live)","steam_id":76561198096547662,"connected_time":4102000000000,"state":"active","ping":49}]},{"server_id":114,"name":"Uncletopia | London | 2 | All Maps","name_short":"lon-2","host":"lon-1.uk.uncletopia.com","port":27025,"enabled":true,"region":"eu","cc":"gb","latitude":51.509865,"longitude":-0.118092,"reserved":0,"last_update":"0001-01-01T00:00:00Z","name_a2s":"Uncletopia | London | 2 | All Maps","protocol":17,"map":"cp_dustbowl","folder":"tf","game":"Team Fortress","app_id":440,"player_count":23,"max_players":24,"Bots":0,"server_type":"Dedicated","server_os":"Linux","password":true,"vac":true,"version":"7961495","steam_id":85568392924470941,"keywords":["cp","nocrits","nodmgspread","uncletopia"],"game_id":440,"stv_port":27026,"stv_name":"Uncletopia | London | 2 | All Maps | STV","players":[{"user_id":805,"name":"Przemomalin","steam_id":76561197987528170,"connected_time":804000000000,"state":"active","ping":86},{"user_id":716,"name":"Nag","steam_id":76561197970488206,"connected_time":3141000000000,"state":"active","ping":64},{"user_id":720,"name":"Steve, from HR","steam_id":76561198072088365,"connected_time":3106000000000,"state":"active","ping":67},{"user_id":743,"name":"travis","steam_id":76561198138119811,"connected_time":2168000000000,"state":"active","ping":45},{"user_id":723,"name":"tralalaOuiOui","steam_id":76561197963471507,"connected_time":3043000000000,"state":"active","ping":45},{"user_id":804,"name":"irritable vowel syndrome","steam_id":76561198117033273,"connected_time":868000000000,"state":"active","ping":47},{"user_id":806,"name":"noah","steam_id":76561198099457089,"connected_time":725000000000,"state":"active","ping":61},{"user_id":640,"name":"√áodar","steam_id":76561198235518444,"connected_time":4528000000000,"state":"active","ping":36},{"user_id":817,"name":"Old No. 7","steam_id":76561199496914117,"connected_time":195000000000,"state":"active","ping":121},{"user_id":813,"name":"Savage Dialectician","steam_id":76561198059534939,"connected_time":531000000000,"state":"active","ping":59},{"user_id":772,"name":"Swayer","steam_id":76561198056192460,"connected_time":2089000000000,"state":"active","ping":46},{"user_id":758,"name":"randompixel","steam_id":76561198003941207,"connected_time":2120000000000,"state":"active","ping":45},{"user_id":735,"name":"Xuii Frog","steam_id":76561198191800994,"connected_time":2612000000000,"state":"active","ping":45},{"user_id":802,"name":"Tor","steam_id":76561197966752462,"connected_time":1551000000000,"state":"active","ping":58},{"user_id":807,"name":"grandpa's post-mortem photo","steam_id":76561198130116078,"connected_time":695000000000,"state":"active","ping":99},{"user_id":814,"name":"Gry","steam_id":76561198053961616,"connected_time":426000000000,"state":"active","ping":50},{"user_id":811,"name":"one bad day off","steam_id":76561198201648919,"connected_time":609000000000,"state":"active","ping":122},{"user_id":816,"name":"heuji","steam_id":76561197971067828,"connected_time":306000000000,"state":"active","ping":49},{"user_id":737,"name":"Fatscout gaming","steam_id":76561198156935964,"connected_time":2548000000000,"state":"active","ping":57},{"user_id":738,"name":"Mercy","steam_id":76561198151887344,"connected_time":2538000000000,"state":"active","ping":53},{"user_id":818,"name":"Grocery","steam_id":76561198065597861,"connected_time":124000000000,"state":"active","ping":80},{"user_id":798,"name":"froglids","steam_id":76561198045466919,"connected_time":1752000000000,"state":"active","ping":71},{"user_id":812,"name":"tomydjoh","steam_id":76561198077421906,"connected_time":574000000000,"state":"active","ping":45}]},{"server_id":320,"name":"Uncletopia | London | 3 | All Maps","name_short":"lon-3","host":"lon-1.uk.uncletopia.com","port":27035,"enabled":true,"region":"eu","cc":"gb","latitude":51.509865,"longitude":-0.118092,"reserved":0,"last_update":"0001-01-01T00:00:00Z","name_a2s":"Uncletopia | London | 3 | All Maps","protocol":17,"map":"koth_highpass","folder":"tf","game":"Team Fortress","app_id":440,"player_count":0,"max_players":24,"Bots":0,"server_type":"Dedicated","server_os":"Linux","password":true,"vac":true,"version":"7961495","steam_id":85568392924510192,"keywords":["cp","nocrits","nodmgspread","uncletopia"],"game_id":440,"stv_port":27036,"stv_name":"Uncletopia | London | 3 | All Maps | STV","players":null},{"server_id":321,"name":"Uncletopia | London | 4 | All Maps","name_short":"lon-4","host":"lon-1.uk.uncletopia.com","port":27045,"enabled":true,"region":"eu","cc":"gb","latitude":51.509865,"longitude":-0.118092,"reserved":0,"last_update":"0001-01-01T00:00:00Z","name_a2s":"Uncletopia | London | 4 | All Maps","protocol":17,"map":"cp_snakewater_final1","folder":"tf","game":"Team Fortress","app_id":440,"player_count":24,"max_players":24,"Bots":0,"server_type":"Dedicated","server_os":"Linux","password":true,"vac":true,"version":"7961495","steam_id":85568392924510193,"keywords":["cp","nocrits","nodmgspread","uncletopia"],"game_id":440,"stv_port":27046,"stv_name":"Uncletopia | London | 4 | All Maps | STV","players":[{"user_id":895,"name":"The Bishop","steam_id":76561198013273080,"connected_time":993000000000,"state":"active","ping":39},{"user_id":902,"name":"Houlles","steam_id":76561198095277383,"connected_time":605000000000,"state":"active","ping":55},{"user_id":896,"name":"alessandro","steam_id":76561198982417906,"connected_time":799000000000,"state":"active","ping":61},{"user_id":875,"name":"Cosmetic brain","steam_id":76561198055936410,"connected_time":2357000000000,"state":"active","ping":85},{"user_id":866,"name":"Bajas","steam_id":76561198179339326,"connected_time":2729000000000,"state":"active","ping":85},{"user_id":909,"name":"Cranbury","steam_id":76561198079170457,"connected_time":212000000000,"state":"active","ping":46},{"user_id":899,"name":"perfectemu","steam_id":76561199147866624,"connected_time":757000000000,"state":"active","ping":153},{"user_id":908,"name":"monsterISfun","steam_id":76561198121734867,"connected_time":278000000000,"state":"active","ping":70},{"user_id":880,"name":"chillrend_morphs_high_lod6","steam_id":76561198452963141,"connected_time":2192000000000,"state":"active","ping":93},{"user_id":881,"name":"Nomakh","steam_id":76561198096414653,"connected_time":2177000000000,"state":"active","ping":91},{"user_id":889,"name":"psu","steam_id":76561198094652091,"connected_time":1552000000000,"state":"active","ping":84},{"user_id":911,"name":"Ryan Gosling (Literally me)","steam_id":76561198438150893,"connected_time":126000000000,"state":"active","ping":111},{"user_id":893,"name":"CBT","steam_id":76561199439141531,"connected_time":1139000000000,"state":"active","ping":69},{"user_id":894,"name":"Live Ruby Reaction","steam_id":76561198304902462,"connected_time":1117000000000,"state":"active","ping":31},{"user_id":884,"name":"Vershal Smershal","steam_id":76561198116223995,"connected_time":2070000000000,"state":"active","ping":56},{"user_id":837,"name":"zog","steam_id":76561198285862099,"connected_time":4560000000000,"state":"active","ping":36},{"user_id":906,"name":"alibi","steam_id":76561198079490000,"connected_time":464000000000,"state":"active","ping":56},{"user_id":897,"name":"tr4ce","steam_id":76561198085296732,"connected_time":796000000000,"state":"active","ping":46},{"user_id":883,"name":"PistolShrimp","steam_id":76561199171648755,"connected_time":2089000000000,"state":"active","ping":54},{"user_id":912,"name":"stanislava.pitrov13","steam_id":76561198267829540,"connected_time":81000000000,"state":"active","ping":54},{"user_id":905,"name":"etc","steam_id":76561197998394797,"connected_time":509000000000,"state":"active","ping":46},{"user_id":904,"name":"bob","steam_id":76561199122075079,"connected_time":576000000000,"state":"active","ping":136},{"user_id":913,"name":"Cooldude95","steam_id":76561198881847928,"connected_time":48000000000,"state":"active","ping":120},{"user_id":822,"name":"Marcel","steam_id":76561198348686648,"connected_time":6079000000000,"state":"active","ping":47}]},{"server_id":21,"name":"Uncletopia | London | 5 | All Maps","name_short":"lon-5","host":"lon-1.uk.uncletopia.com","port":27055,"enabled":true,"region":"eu","cc":"gb","latitude":51.509865,"longitude":-0.118092,"reserved":0,"last_update":"0001-01-01T00:00:00Z","name_a2s":"Uncletopia | London | 5 | All Maps","protocol":17,"map":"pl_pier","folder":"tf","game":"Team Fortress","app_id":440,"player_count":21,"max_players":24,"Bots":0,"server_type":"Dedicated","server_os":"Linux","password":true,"vac":true,"version":"7961495","steam_id":85568392924742829,"keywords":["nocrits","nodmgspread","payload","uncletopia"],"game_id":440,"stv_port":27056,"stv_name":"Uncletopia | London | 5 | All Maps | STV","players":[{"user_id":439,"name":"my fault og","steam_id":76561198256811438,"connected_time":2036000000000,"state":"active","ping":95},{"user_id":427,"name":"Dan Dan the Furious","steam_id":76561198091032527,"connected_time":3465000000000,"state":"active","ping":36},{"user_id":449,"name":"Smartest Person In the Universe","steam_id":76561199444636848,"connected_time":1428000000000,"state":"active","ping":35},{"user_id":457,"name":"Dr Bondus Bolongus Dongus","steam_id":76561198378657692,"connected_time":575000000000,"state":"active","ping":50},{"user_id":458,"name":"MISTER SIUUU","steam_id":76561198018330092,"connected_time":558000000000,"state":"active","ping":75},{"user_id":453,"name":"Cryo","steam_id":76561198324132940,"connected_time":1120000000000,"state":"active","ping":45},{"user_id":452,"name":"Ruvik","steam_id":76561198031040533,"connected_time":1260000000000,"state":"active","ping":47},{"user_id":435,"name":"FreyjaBreadWitch","steam_id":76561199211405367,"connected_time":2731000000000,"state":"active","ping":87},{"user_id":454,"name":"Munchkin","steam_id":76561198119528210,"connected_time":783000000000,"state":"active","ping":45},{"user_id":379,"name":"Unreliable, funny and dangerous","steam_id":76561198050709790,"connected_time":5607000000000,"state":"active","ping":88},{"user_id":459,"name":"jjkun786","steam_id":76561199438517484,"connected_time":553000000000,"state":"active","ping":575},{"user_id":461,"name":"0peMs","steam_id":76561198346277211,"connected_time":541000000000,"state":"active","ping":69},{"user_id":437,"name":"rummy","steam_id":76561197997573379,"connected_time":2207000000000,"state":"active","ping":44},{"user_id":357,"name":"Osaka","steam_id":76561198088909286,"connected_time":6984000000000,"state":"active","ping":74},{"user_id":462,"name":"Desnot","steam_id":76561198862581894,"connected_time":419000000000,"state":"active","ping":76},{"user_id":396,"name":"Aftiks","steam_id":76561198875182686,"connected_time":4637000000000,"state":"active","ping":90},{"user_id":417,"name":"Maximilian1359","steam_id":76561198152439608,"connected_time":3810000000000,"state":"active","ping":49},{"user_id":466,"name":"Scuffed katana+9 PvP stones+4","steam_id":76561199375170916,"connected_time":287000000000,"state":"active","ping":107},{"user_id":422,"name":"A Table","steam_id":76561198056456470,"connected_time":3619000000000,"state":"active","ping":67},{"user_id":456,"name":"Onions","steam_id":76561198150195195,"connected_time":640000000000,"state":"active","ping":57},{"user_id":467,"name":"sz(k)","steam_id":76561198118500940,"connected_time":199000000000,"state":"active","ping":70}]},{"server_id":22,"name":"Uncletopia | London | 6 | All Maps","name_short":"lon-6","host":"lon-1.uk.uncletopia.com","port":27065,"enabled":true,"region":"eu","cc":"gb","latitude":51.509865,"longitude":-0.118092,"reserved":0,"last_update":"0001-01-01T00:00:00Z","name_a2s":"Uncletopia | London | 6 | All Maps","protocol":17,"map":"koth_viaduct","folder":"tf","game":"Team Fortress","app_id":440,"player_count":0,"max_players":24,"Bots":0,"server_type":"Dedicated","server_os":"Linux","password":true,"vac":true,"version":"7961495","steam_id":85568392924742830,"keywords":["cp","nocrits","nodmgspread","uncletopia"],"game_id":440,"stv_port":27066,"stv_name":"Uncletopia | London | 6 | All Maps | STV","players":null},{"server_id":40,"name":"Uncletopia | London | 7 | Stopwatch","name_short":"lon-7","host":"lon-1.uk.uncletopia.com","port":27075,"enabled":true,"region":"eu","cc":"gb","latitude":51.509865,"longitude":-0.118092,"reserved":0,"last_update":"0001-01-01T00:00:00Z","name_a2s":"Uncletopia | London | 7 | Stopwatch","protocol":17,"map":"cp_snakewater_final1","folder":"tf","game":"Team Fortress","app_id":440,"player_count":0,"max_players":24,"Bots":0,"server_type":"Dedicated","server_os":"Linux","password":true,"vac":true,"version":"7961495","steam_id":85568392924964314,"keywords":["cp","nocrits","nodmgspread","uncletopia"],"game_id":440,"stv_port":27076,"stv_name":"Uncletopia | London | 7 | Stopwatch | STV","players":null},{"server_id":41,"name":"Uncletopia | London | 8 | Community","name_short":"lon-8","host":"lon-1.uk.uncletopia.com","port":27085,"enabled":true,"region":"eu","cc":"gb","latitude":51.509865,"longitude":-0.118092,"reserved":0,"last_update":"0001-01-01T00:00:00Z","name_a2s":"Uncletopia | London | 8 | Community","protocol":17,"map":"workshop/cp_villa_b19.ugc2113052569","folder":"tf","game":"Team Fortress","app_id":440,"player_count":0,"max_players":24,"Bots":0,"server_type":"Dedicated","server_os":"Linux","password":true,"vac":true,"version":"7961495","steam_id":85568392924964315,"keywords":["cp","nocrits","nodmgspread","uncletopia"],"game_id":440,"stv_port":27086,"stv_name":"Uncletopia | London | 8 | Community | STV","players":null},{"server_id":300,"name":"Uncletopia | Montr√©al | 1 | One Thousand Uncles","name_short":"mtl-1","host":"mtl-1.ca.uncletopia.com","port":27015,"enabled":true,"region":"us-east","cc":"ca","latitude":45.50889,"longitude":-73.56167,"reserved":0,"last_update":"0001-01-01T00:00:00Z","name_a2s":"Uncletopia | Montr√©al | 1 | One Thousand Uncles","protocol":17,"map":"cp_mercenarypark","folder":"tf","game":"Team Fortress","app_id":440,"player_count":21,"max_players":32,"Bots":16,"server_type":"Dedicated","server_os":"Linux","password":true,"vac":true,"version":"7961495","steam_id":85568392924500087,"keywords":["alltalk","bots","cp","danepve","increased_maxplayers","norespawntime","uncletopia"],"game_id":440,"stv_port":0,"stv_name":"","players":[{"user_id":361,"name":"CCTV CAMERA","steam_id":76561198079973828,"connected_time":2341000000000,"state":"active","ping":75},{"user_id":378,"name":"Berlioz","steam_id":76561198040532757,"connected_time":875000000000,"state":"active","ping":75},{"user_id":350,"name":"HI_THERE","steam_id":76561198436389409,"connected_time":3124000000000,"state":"active","ping":60},{"user_id":354,"name":"CatMagic","steam_id":76561199454230243,"connected_time":2677000000000,"state":"active","ping":85},{"user_id":379,"name":"Grand Wizard","steam_id":76561199382783363,"connected_time":535000000000,"state":"active","ping":87}]},{"server_id":301,"name":"Uncletopia | Montr√©al | 2 | One Thousand Uncles","name_short":"mtl-2","host":"mtl-1.ca.uncletopia.com","port":27025,"enabled":true,"region":"us-east","cc":"ca","latitude":45.50889,"longitude":-73.56167,"reserved":0,"last_update":"0001-01-01T00:00:00Z","name_a2s":"Uncletopia | Montr√©al | 2 | One Thousand Uncles","protocol":17,"map":"pl_chilly","folder":"tf","game":"Team Fortress","app_id":440,"player_count":0,"max_players":32,"Bots":0,"server_type":"Dedicated","server_os":"Linux","password":true,"vac":true,"version":"7961495","steam_id":85568392924500088,"keywords":["alltalk","danepve","increased_maxplayers","norespawntime","payload","uncletopia"],"game_id":440,"stv_port":0,"stv_name":"","players":null},{"server_id":302,"name":"Uncletopia | Montr√©al | 3 | One Thousand Uncles","name_short":"mtl-3","host":"mtl-1.ca.uncletopia.com","port":27035,"enabled":true,"region":"us-east","cc":"ca","latitude":45.50889,"longitude":-73.56167,"reserved":0,"last_update":"0001-01-01T00:00:00Z","name_a2s":"Uncletopia | Montr√©al | 3 | One Thousand Uncles","protocol":17,"map":"pl_pier","folder":"tf","game":"Team Fortress","app_id":440,"player_count":0,"max_players":32,"Bots":0,"server_type":"Dedicated","server_os":"Linux","password":true,"vac":true,"version":"7961495","steam_id":85568392924500089,"keywords":["alltalk","danepve","increased_maxplayers","norespawntime","payload","uncletopia"],"game_id":440,"stv_port":0,"stv_name":"","players":null},{"server_id":13,"name":"Uncletopia | New York City | 1 | All Maps","name_short":"nyc-1","host":"nyc-1.us.uncletopia.com","port":27015,"enabled":true,"region":"us-east","cc":"us","latitude":40.73061,"longitude":-73.93524,"reserved":0,"last_update":"0001-01-01T00:00:00Z","name_a2s":"Uncletopia | New York City | 1 | All Maps","protocol":17,"map":"pl_snowycoast","folder":"tf","game":"Team Fortress","app_id":440,"player_count":24,"max_players":24,"Bots":0,"server_type":"Dedicated","server_os":"Linux","password":true,"vac":true,"version":"7961495","steam_id":85568392924469993,"keywords":["nocrits","nodmgspread","payload","uncletopia"],"game_id":440,"stv_port":27016,"stv_name":"Uncletopia | New York City | 1 | All Maps | STV","players":[{"user_id":479,"name":"superx","steam_id":76561198044976613,"connected_time":1579000000000,"state":"active","ping":48},{"user_id":497,"name":"Samercam","steam_id":76561198189403190,"connected_time":443000000000,"state":"active","ping":81},{"user_id":480,"name":"Uncle Majic the Hip Hop Magicia","steam_id":76561198107924303,"connected_time":1569000000000,"state":"active","ping":50},{"user_id":489,"name":"the WAVmaker","steam_id":76561198205705932,"connected_time":521000000000,"state":"active","ping":72},{"user_id":476,"name":"Straight White Man \u003che/him\u003e","steam_id":76561199500876333,"connected_time":1844000000000,"state":"active","ping":74},{"user_id":494,"name":"leumas","steam_id":76561198240408540,"connected_time":471000000000,"state":"active","ping":67},{"user_id":498,"name":"Boot Mcstink","steam_id":76561199226873917,"connected_time":430000000000,"state":"active","ping":84},{"user_id":425,"name":"whatever","steam_id":76561197994759007,"connected_time":4475000000000,"state":"active","ping":76},{"user_id":486,"name":"CookeMogul","steam_id":76561199229791635,"connected_time":1107000000000,"state":"active","ping":80},{"user_id":463,"name":"Chicken Burger","steam_id":76561198358529311,"connected_time":2438000000000,"state":"active","ping":45},{"user_id":444,"name":"SpaceSanctum","steam_id":76561198805242305,"connected_time":3361000000000,"state":"active","ping":47},{"user_id":502,"name":"morning glory","steam_id":76561198105081948,"connected_time":223000000000,"state":"active","ping":54},{"user_id":492,"name":"ToyBox","steam_id":76561199074735423,"connected_time":509000000000,"state":"active","ping":50},{"user_id":475,"name":"Psychosis","steam_id":76561198078659070,"connected_time":2129000000000,"state":"active","ping":97},{"user_id":447,"name":"Satan's Salad","steam_id":76561198043965827,"connected_time":3257000000000,"state":"active","ping":72},{"user_id":488,"name":"Rat Queen Emily","steam_id":76561198232446788,"connected_time":544000000000,"state":"active","ping":61},{"user_id":483,"name":"Motorol¬™","steam_id":76561198358119669,"connected_time":1284000000000,"state":"active","ping":130},{"user_id":493,"name":"Steel Tombstone","steam_id":76561199160542103,"connected_time":492000000000,"state":"active","ping":44},{"user_id":469,"name":"Strange Diplomat","steam_id":76561198428191920,"connected_time":2241000000000,"state":"active","ping":55},{"user_id":495,"name":"girthmilk","steam_id":76561198054799782,"connected_time":465000000000,"state":"active","ping":84},{"user_id":501,"name":"Cloud4084","steam_id":76561199447681715,"connected_time":273000000000,"state":"active","ping":119},{"user_id":503,"name":"Popmaster","steam_id":76561198060807197,"connected_time":201000000000,"state":"active","ping":68},{"user_id":499,"name":"non professional nouns.","steam_id":76561198294013916,"connected_time":389000000000,"state":"active","ping":45},{"user_id":468,"name":"zpalmtree","steam_id":76561198134307620,"connected_time":2342000000000,"state":"active","ping":76}]},{"server_id":14,"name":"Uncletopia | New York City | 2 | All Maps","name_short":"nyc-2","host":"nyc-1.us.uncletopia.com","port":27025,"enabled":true,"region":"us-east","cc":"us","latitude":40.73061,"longitude":-73.93524,"reserved":0,"last_update":"0001-01-01T00:00:00Z","name_a2s":"Uncletopia | New York City | 2 | All Maps","protocol":17,"map":"koth_king","folder":"tf","game":"Team Fortress","app_id":440,"player_count":23,"max_players":24,"Bots":0,"server_type":"Dedicated","server_os":"Linux","password":true,"vac":true,"version":"7961495","steam_id":85568392924469994,"keywords":["cp","nocrits","nodmgspread","uncletopia"],"game_id":440,"stv_port":27026,"stv_name":"Uncletopia | New York City | 2 | All Maps | STV","players":[{"user_id":602,"name":"KrazyKid","steam_id":76561199074429644,"connected_time":1631000000000,"state":"active","ping":74},{"user_id":570,"name":"ZBeth Best","steam_id":76561198101890770,"connected_time":2634000000000,"state":"active","ping":45},{"user_id":625,"name":"snick gaming","steam_id":76561198088778979,"connected_time":557000000000,"state":"active","ping":118},{"user_id":605,"name":"bobbymcbobington","steam_id":76561199089411172,"connected_time":1592000000000,"state":"active","ping":121},{"user_id":607,"name":"Raizen","steam_id":76561199092445367,"connected_time":1512000000000,"state":"active","ping":57},{"user_id":573,"name":"Samrizo el Chorizo","steam_id":76561198009838162,"connected_time":2571000000000,"state":"active","ping":39},{"user_id":572,"name":"BabyJesus","steam_id":76561198845403641,"connected_time":2618000000000,"state":"active","ping":52},{"user_id":615,"name":"GoodIeShoes/ttv","steam_id":76561198263543519,"connected_time":1108000000000,"state":"active","ping":56},{"user_id":599,"name":"rstrom","steam_id":76561197961225022,"connected_time":1739000000000,"state":"active","ping":63},{"user_id":623,"name":"Hoopla","steam_id":76561198327775508,"connected_time":631000000000,"state":"active","ping":34},{"user_id":629,"name":"Duk","steam_id":76561198450692568,"connected_time":233000000000,"state":"active","ping":63},{"user_id":619,"name":"Caramel?! | Trans rights!","steam_id":76561198041863697,"connected_time":1002000000000,"state":"active","ping":105},{"user_id":624,"name":"therealdeal680","steam_id":76561199190330316,"connected_time":622000000000,"state":"active","ping":89},{"user_id":559,"name":"Squash","steam_id":76561198054254518,"connected_time":3268000000000,"state":"active","ping":45},{"user_id":630,"name":"Windows 7 Ultimate","steam_id":76561198337692867,"connected_time":194000000000,"state":"active","ping":116},{"user_id":620,"name":"jailbreak","steam_id":76561198802085218,"connected_time":981000000000,"state":"active","ping":87},{"user_id":583,"name":"brisky","steam_id":76561198869675719,"connected_time":2183000000000,"state":"active","ping":52},{"user_id":634,"name":"gamerfan539","steam_id":76561198803527852,"connected_time":10000000000,"state":"spawning","ping":45},{"user_id":632,"name":"MintHaggis","steam_id":76561198006674825,"connected_time":112000000000,"state":"active","ping":75},{"user_id":626,"name":"Oni","steam_id":76561198112066584,"connected_time":542000000000,"state":"active","ping":76},{"user_id":627,"name":"DrMania82","steam_id":76561198113086878,"connected_time":527000000000,"state":"active","ping":74},{"user_id":622,"name":"AugustusLove","steam_id":76561198004785839,"connected_time":904000000000,"state":"active","ping":120},{"user_id":595,"name":"Kohuh","steam_id":76561198861737544,"connected_time":1950000000000,"state":"active","ping":44}]},{"server_id":15,"name":"Uncletopia | New York City | 3 | Stopwatch","name_short":"nyc-3","host":"nyc-1.us.uncletopia.com","port":27035,"enabled":true,"region":"us-east","cc":"us","latitude":40.73061,"longitude":-73.93524,"reserved":0,"last_update":"0001-01-01T00:00:00Z","name_a2s":"Uncletopia | New York City | 3 | Stopwatch","protocol":17,"map":"workshop/koth_ashville_final.ugc2130459942","folder":"tf","game":"Team Fortress","app_id":440,"player_count":0,"max_players":24,"Bots":0,"server_type":"Dedicated","server_os":"Linux","password":true,"vac":true,"version":"7961495","steam_id":85568392924742820,"keywords":["cp","nocrits","nodmgspread","uncletopia"],"game_id":440,"stv_port":27036,"stv_name":"Uncletopia | New York City | 3 | Stopwatch | STV","players":null},{"server_id":16,"name":"Uncletopia | New York City | 4 | Community","name_short":"nyc-4","host":"nyc-1.us.uncletopia.com","port":27045,"enabled":true,"region":"us-east","cc":"us","latitude":40.73061,"longitude":-73.93524,"reserved":0,"last_update":"0001-01-01T00:00:00Z","name_a2s":"Uncletopia | New York City | 4 | Community","protocol":17,"map":"workshop/pl_cashworks_final1.ugc2904065412","folder":"tf","game":"Team Fortress","app_id":440,"player_count":0,"max_players":24,"Bots":0,"server_type":"Dedicated","server_os":"Linux","password":true,"vac":true,"version":"7961495","steam_id":85568392924742821,"keywords":["nocrits","nodmgspread","payload","uncletopia"],"game_id":440,"stv_port":27046,"stv_name":"Uncletopia | New York City | 4 | Community | STV","players":null},{"server_id":142,"name":"Uncletopia | S√£o Paulo | 1 | All Maps","name_short":"sao-1","host":"sao-1.br.uncletopia.com","port":27015,"enabled":true,"region":"sa","cc":"br","latitude":-23.533773,"longitude":-46.62529,"reserved":0,"last_update":"0001-01-01T00:00:00Z","name_a2s":"Uncletopia | S√£o Paulo | 1 | All Maps","protocol":17,"map":"cp_dustbowl","folder":"tf","game":"Team Fortress","app_id":440,"player_count":5,"max_players":24,"Bots":0,"server_type":"Dedicated","server_os":"Linux","password":true,"vac":true,"version":"7961495","steam_id":85568392924469996,"keywords":["cp","nocrits","nodmgspread","uncletopia"],"game_id":440,"stv_port":27016,"stv_name":"Uncletopia | S√£o Paulo | 1 | All Maps | STV","players":[{"user_id":32,"name":"pepiniyo29","steam_id":76561198365974225,"connected_time":839000000000,"state":"spawning","ping":90},{"user_id":21,"name":"Thompy, o cactoriano","steam_id":76561199409024712,"connected_time":7372000000000,"state":"spawning","ping":48},{"user_id":33,"name":"randomuserxd69","steam_id":76561199434896929,"connected_time":691000000000,"state":"spawning","ping":68},{"user_id":34,"name":"eles pegaram minha maconha","steam_id":76561199359501901,"connected_time":437000000000,"state":"spawning","ping":46},{"user_id":30,"name":"Gugamineyt13","steam_id":76561199059938679,"connected_time":1000000000000,"state":"spawning","ping":57}]},{"server_id":143,"name":"Uncletopia | S√£o Paulo | 2 | Community","name_short":"sao-2","host":"sao-2.br.uncletopia.com","port":27015,"enabled":true,"region":"sa","cc":"br","latitude":-23.533773,"longitude":-46.62529,"reserved":0,"last_update":"0001-01-01T00:00:00Z","name_a2s":"Uncletopia | S√£o Paulo | 2 | Community","protocol":17,"map":"workshop/koth_kemptown_rc1.ugc767410655","folder":"tf","game":"Team Fortress","app_id":440,"player_count":0,"max_players":24,"Bots":0,"server_type":"Dedicated","server_os":"Linux","password":true,"vac":true,"version":"7961495","steam_id":85568392924485349,"keywords":["cp","nocrits","nodmgspread","uncletopia"],"game_id":440,"stv_port":27016,"stv_name":"Uncletopia | S√£o Paulo | 2 | Community | STV","players":null},{"server_id":7,"name":"Uncletopia | Seattle | 1 | All Maps","name_short":"sea-1","host":"sea-1.us.uncletopia.com","port":27015,"enabled":true,"region":"us-west","cc":"us","latitude":47.608013,"longitude":-122.33517,"reserved":0,"last_update":"0001-01-01T00:00:00Z","name_a2s":"Uncletopia | Seattle | 1 | All Maps","protocol":17,"map":"pl_swiftwater_final1","folder":"tf","game":"Team Fortress","app_id":440,"player_count":24,"max_players":24,"Bots":0,"server_type":"Dedicated","server_os":"Linux","password":true,"vac":true,"version":"7961495","steam_id":85568392924469997,"keywords":["nocrits","nodmgspread","payload","uncletopia"],"game_id":440,"stv_port":27016,"stv_name":"Uncletopia | Seattle | 1 | All Maps | STV","players":[{"user_id":411,"name":"Soap Man","steam_id":76561198000490235,"connected_time":3415000000000,"state":"active","ping":52},{"user_id":509,"name":"super dude epic fail","steam_id":76561198101823902,"connected_time":22000000000,"state":"active","ping":55},{"user_id":334,"name":"Nom Skirrett","steam_id":76561198014600788,"connected_time":6839000000000,"state":"active","ping":61},{"user_id":506,"name":"[BBC] myr","steam_id":76561198200786939,"connected_time":63000000000,"state":"active","ping":43},{"user_id":412,"name":"Inspecteur Spie","steam_id":76561198082825407,"connected_time":3403000000000,"state":"active","ping":65},{"user_id":504,"name":"zinnk","steam_id":76561198092081825,"connected_time":70000000000,"state":"active","ping":59},{"user_id":489,"name":"Fh","steam_id":76561198000903511,"connected_time":1644000000000,"state":"active","ping":61},{"user_id":488,"name":"Spectre‚Åπ‚Åπ‚Åπ","steam_id":76561198037535169,"connected_time":1647000000000,"state":"active","ping":66},{"user_id":507,"name":"dearender the burger fan","steam_id":76561199427644498,"connected_time":60000000000,"state":"active","ping":54},{"user_id":483,"name":"tmm (theManMan)","steam_id":76561199488457138,"connected_time":1692000000000,"state":"active","ping":56},{"user_id":362,"name":"Shah","steam_id":76561198047508851,"connected_time":5747000000000,"state":"active","ping":51},{"user_id":426,"name":"Arkell","steam_id":76561198135884882,"connected_time":3057000000000,"state":"active","ping":46},{"user_id":505,"name":"Shrimps","steam_id":76561198983016709,"connected_time":69000000000,"state":"active","ping":51},{"user_id":414,"name":"NewWorldBlues","steam_id":76561198823311447,"connected_time":3333000000000,"state":"active","ping":67},{"user_id":503,"name":"Ting","steam_id":76561198111669760,"connected_time":367000000000,"state":"active","ping":47},{"user_id":508,"name":"celestia ludenberg","steam_id":76561199196437823,"connected_time":45000000000,"state":"active","ping":90},{"user_id":446,"name":"Soupcan","steam_id":76561198056269538,"connected_time":2541000000000,"state":"active","ping":52},{"user_id":458,"name":"Eraser cat","steam_id":76561199045570463,"connected_time":2358000000000,"state":"active","ping":42},{"user_id":496,"name":"Amateur Glaswegian","steam_id":76561198030851956,"connected_time":1469000000000,"state":"active","ping":49},{"user_id":501,"name":"Gamekiller839","steam_id":76561199475400469,"connected_time":920000000000,"state":"active","ping":27},{"user_id":510,"name":"MaDeuce","steam_id":76561198110732835,"connected_time":16000000000,"state":"active","ping":65},{"user_id":383,"name":"\u003c blank \u003e","steam_id":76561198097188001,"connected_time":4448000000000,"state":"active","ping":43},{"user_id":470,"name":"butt3r_","steam_id":76561198156374792,"connected_time":2049000000000,"state":"active","ping":44},{"user_id":372,"name":"logitchy","steam_id":76561199062753505,"connected_time":5527000000000,"state":"active","ping":137}]},{"server_id":119,"name":"Uncletopia | Seattle | 2 | All Maps","name_short":"sea-2","host":"sea-1.us.uncletopia.com","port":27025,"enabled":true,"region":"us-west","cc":"us","latitude":47.608013,"longitude":-122.33517,"reserved":0,"last_update":"0001-01-01T00:00:00Z","name_a2s":"Uncletopia | Seattle | 2 | All Maps","protocol":17,"map":"cp_snakewater_final1","folder":"tf","game":"Team Fortress","app_id":440,"player_count":0,"max_players":24,"Bots":0,"server_type":"Dedicated","server_os":"Linux","password":true,"vac":true,"version":"7961495","steam_id":85568392924469998,"keywords":["cp","nocrits","nodmgspread","uncletopia"],"game_id":440,"stv_port":27026,"stv_name":"Uncletopia | Seattle | 2 | All Maps | STV","players":null},{"server_id":406,"name":"Uncletopia | Seattle | 3 | Stopwatch","name_short":"sea-3","host":"sea-1.us.uncletopia.com","port":27035,"enabled":true,"region":"us-west","cc":"us","latitude":47.608013,"longitude":-122.33517,"reserved":0,"last_update":"0001-01-01T00:00:00Z","name_a2s":"Uncletopia | Seattle | 3 | Stopwatch","protocol":17,"map":"workshop/koth_product_final.ugc454272353","folder":"tf","game":"Team Fortress","app_id":440,"player_count":0,"max_players":24,"Bots":0,"server_type":"Dedicated","server_os":"Linux","password":true,"vac":true,"version":"7961495","steam_id":85568392924515217,"keywords":["cp","nocrits","nodmgspread","uncletopia"],"game_id":440,"stv_port":27036,"stv_name":"Uncletopia | Seattle | 3 | Stopwatch | STV","players":null},{"server_id":17,"name":"Uncletopia | San Francisco | 1 | All Maps","name_short":"sfo-1","host":"sfo-1.us.uncletopia.com","port":27015,"enabled":true,"region":"us-west","cc":"us","latitude":37.77397,"longitude":-122.4313,"reserved":0,"last_update":"0001-01-01T00:00:00Z","name_a2s":"Uncletopia | San Francisco | 1 | All Maps","protocol":17,"map":"koth_highpass","folder":"tf","game":"Team Fortress","app_id":440,"player_count":6,"max_players":24,"Bots":0,"server_type":"Dedicated","server_os":"Linux","password":true,"vac":true,"version":"7961495","steam_id":85568392924469999,"keywords":["cp","nocrits","nodmgspread","uncletopia"],"game_id":440,"stv_port":27016,"stv_name":"Uncletopia | San Francisco | 1 | All Maps | STV","players":[{"user_id":36,"name":"asm_ghost","steam_id":76561199205363547,"connected_time":12000000000,"state":"spawning","ping":62},{"user_id":32,"name":"ohnocringe","steam_id":76561199381232082,"connected_time":785000000000,"state":"active","ping":82},{"user_id":30,"name":"The Lord of Bread","steam_id":76561199203901420,"connected_time":1416000000000,"state":"active","ping":43},{"user_id":33,"name":"Antking14","steam_id":76561198188971771,"connected_time":489000000000,"state":"active","ping":61},{"user_id":34,"name":"[Industrial] A_HUMBLEBUMBLED","steam_id":76561198064771878,"connected_time":243000000000,"state":"active","ping":55},{"user_id":35,"name":"Taco+Taco=Burrito","steam_id":76561198063128663,"connected_time":188000000000,"state":"active","ping":43}]},{"server_id":18,"name":"Uncletopia | San Francisco | 2 | All Maps","name_short":"sfo-2","host":"sfo-1.us.uncletopia.com","port":27025,"enabled":true,"region":"us-west","cc":"us","latitude":37.77397,"longitude":-122.4313,"reserved":0,"last_update":"0001-01-01T00:00:00Z","name_a2s":"Uncletopia | San Francisco | 2 | All Maps","protocol":17,"map":"cp_steel","folder":"tf","game":"Team Fortress","app_id":440,"player_count":24,"max_players":24,"Bots":0,"server_type":"Dedicated","server_os":"Linux","password":true,"vac":true,"version":"7961495","steam_id":85568392924470000,"keywords":["cp","nocrits","nodmgspread","uncletopia"],"game_id":440,"stv_port":27026,"stv_name":"Uncletopia | San Francisco | 2 | All Maps | STV","players":[{"user_id":176,"name":"RainboomCrash","steam_id":76561198065612273,"connected_time":1348000000000,"state":"active","ping":65},{"user_id":185,"name":"HanakoToast","steam_id":76561198045233131,"connected_time":596000000000,"state":"active","ping":69},{"user_id":163,"name":"the rat gets the cheese","steam_id":76561199077027954,"connected_time":1804000000000,"state":"active","ping":79},{"user_id":183,"name":"Sylvain","steam_id":76561198113385271,"connected_time":815000000000,"state":"active","ping":116},{"user_id":168,"name":"Dukino","steam_id":76561198008455368,"connected_time":1610000000000,"state":"active","ping":103},{"user_id":180,"name":"Mr. Onion","steam_id":76561198153165950,"connected_time":1156000000000,"state":"active","ping":104},{"user_id":189,"name":"OGBobbyJohns","steam_id":76561197964339077,"connected_time":208000000000,"state":"active","ping":67},{"user_id":186,"name":"Grill Skills","steam_id":76561198053575147,"connected_time":551000000000,"state":"active","ping":75},{"user_id":172,"name":"Sivolt#2314","steam_id":76561199103106232,"connected_time":1398000000000,"state":"active","ping":54},{"user_id":159,"name":"Igrium","steam_id":76561198119549811,"connected_time":1915000000000,"state":"active","ping":52},{"user_id":173,"name":"Magical.Puffin","steam_id":76561198129039275,"connected_time":1392000000000,"state":"active","ping":47},{"user_id":188,"name":"Keamy","steam_id":76561199471434875,"connected_time":279000000000,"state":"active","ping":59},{"user_id":190,"name":"Urban","steam_id":76561198840725170,"connected_time":201000000000,"state":"active","ping":66},{"user_id":192,"name":"Hoodie_85","steam_id":76561199471600489,"connected_time":48000000000,"state":"active","ping":117},{"user_id":184,"name":"Seriously Bruh","steam_id":76561198070408485,"connected_time":805000000000,"state":"active","ping":71},{"user_id":187,"name":"Kilian","steam_id":76561197964374101,"connected_time":541000000000,"state":"active","ping":55},{"user_id":181,"name":"GreenBlah","steam_id":76561198009178916,"connected_time":1020000000000,"state":"active","ping":66},{"user_id":174,"name":"Soft copper wings","steam_id":76561198092317849,"connected_time":1387000000000,"state":"active","ping":58},{"user_id":177,"name":"Civokat","steam_id":76561198389885427,"connected_time":1283000000000,"state":"active","ping":50},{"user_id":178,"name":"some nerd","steam_id":76561198297272878,"connected_time":1261000000000,"state":"active","ping":58},{"user_id":153,"name":"noceof","steam_id":76561198043656816,"connected_time":2325000000000,"state":"active","ping":153},{"user_id":179,"name":"Dr. Juvenal","steam_id":76561198114553453,"connected_time":1229000000000,"state":"active","ping":64},{"user_id":167,"name":"Jpzarde","steam_id":76561197978240364,"connected_time":1715000000000,"state":"active","ping":75},{"user_id":157,"name":"foofydafoofer","steam_id":76561199395830278,"connected_time":2231000000000,"state":"active","ping":61}]},{"server_id":19,"name":"Uncletopia | San Francisco | 3 | Stopwatch","name_short":"sfo-3","host":"sfo-1.us.uncletopia.com","port":27035,"enabled":true,"region":"us-west","cc":"us","latitude":37.77397,"longitude":-122.4313,"reserved":0,"last_update":"0001-01-01T00:00:00Z","name_a2s":"Uncletopia | San Francisco | 3 | Stopwatch","protocol":17,"map":"workshop/koth_product_final.ugc454272353","folder":"tf","game":"Team Fortress","app_id":440,"player_count":0,"max_players":24,"Bots":0,"server_type":"Dedicated","server_os":"Linux","password":true,"vac":true,"version":"7961495","steam_id":85568392924742824,"keywords":["cp","nocrits","nodmgspread","uncletopia"],"game_id":440,"stv_port":27036,"stv_name":"Uncletopia | San Francisco | 3 | Stopwatch | STV","players":null},{"server_id":20,"name":"Uncletopia | San Francisco | 4 | Community","name_short":"sfo-4","host":"sfo-1.us.uncletopia.com","port":27045,"enabled":true,"region":"us-west","cc":"us","latitude":37.77397,"longitude":-122.4313,"reserved":0,"last_update":"0001-01-01T00:00:00Z","name_a2s":"Uncletopia | San Francisco | 4 | Community","protocol":17,"map":"workshop/cp_alloy_rc3.ugc592805587","folder":"tf","game":"Team Fortress","app_id":440,"player_count":0,"max_players":24,"Bots":0,"server_type":"Dedicated","server_os":"Linux","password":true,"vac":true,"version":"7961495","steam_id":85568392924742826,"keywords":["cp","nocrits","nodmgspread","uncletopia"],"game_id":440,"stv_port":27046,"stv_name":"Uncletopia | San Francisco | 4 | Community | STV","players":null},{"server_id":141,"name":"Uncletopia | Sydney | 1 | All Maps","name_short":"syd-1","host":"syd-1.au.uncletopia.com","port":27015,"enabled":true,"region":"au","cc":"au","latitude":-33.865143,"longitude":151.2099,"reserved":0,"last_update":"0001-01-01T00:00:00Z","name_a2s":"Uncletopia | Sydney | 1 | All Maps","protocol":17,"map":"koth_nucleus","folder":"tf","game":"Team Fortress","app_id":440,"player_count":0,"max_players":24,"Bots":0,"server_type":"Dedicated","server_os":"Linux","password":true,"vac":true,"version":"7961495","steam_id":85568392924470001,"keywords":["cp","nocrits","nodmgspread","uncletopia"],"game_id":440,"stv_port":27016,"stv_name":"Uncletopia | Sydney | 1 | All Maps | STV","players":null},{"server_id":123,"name":"Uncletopia | Sydney | 2 | All Maps","name_short":"syd-2","host":"syd-1.au.uncletopia.com","port":27025,"enabled":true,"region":"au","cc":"au","latitude":-33.865143,"longitude":151.2099,"reserved":0,"last_update":"0001-01-01T00:00:00Z","name_a2s":"Uncletopia | Sydney | 2 | All Maps","protocol":17,"map":"cp_fastlane","folder":"tf","game":"Team Fortress","app_id":440,"player_count":0,"max_players":24,"Bots":0,"server_type":"Dedicated","server_os":"Linux","password":true,"vac":true,"version":"7961495","steam_id":85568392924470002,"keywords":["cp","nocrits","nodmgspread","uncletopia"],"game_id":440,"stv_port":27026,"stv_name":"Uncletopia | Sydney | 2 | All Maps | STV","players":null},{"server_id":395,"name":"Uncletopia | Sydney | 3 | All Maps","name_short":"syd-3","host":"syd-1.au.uncletopia.com","port":27035,"enabled":true,"region":"au","cc":"au","latitude":-33.865143,"longitude":151.2099,"reserved":0,"last_update":"0001-01-01T00:00:00Z","name_a2s":"Uncletopia | Sydney | 3 | All Maps","protocol":17,"map":"cp_metalworks","folder":"tf","game":"Team Fortress","app_id":440,"player_count":0,"max_players":24,"Bots":0,"server_type":"Dedicated","server_os":"Linux","password":true,"vac":true,"version":"7961495","steam_id":85568392925194467,"keywords":["cp","nocrits","nodmgspread","uncletopia"],"game_id":440,"stv_port":27036,"stv_name":"Uncletopia | Sydney | 3 | All Maps | STV","players":null},{"server_id":396,"name":"Uncletopia | Sydney | 4 | All Maps","name_short":"syd-4","host":"syd-1.au.uncletopia.com","port":27045,"enabled":true,"region":"au","cc":"au","latitude":-33.865143,"longitude":151.2099,"reserved":0,"last_update":"0001-01-01T00:00:00Z","name_a2s":"Uncletopia | Sydney | 4 | All Maps","protocol":17,"map":"koth_cascade","folder":"tf","game":"Team Fortress","app_id":440,"player_count":0,"max_players":24,"Bots":0,"server_type":"Dedicated","server_os":"Linux","password":true,"vac":true,"version":"7961495","steam_id":85568392925397958,"keywords":["cp","nocrits","nodmgspread","uncletopia"],"game_id":440,"stv_port":27046,"stv_name":"Uncletopia | Sydney | 4 | All Maps | STV","players":null},{"server_id":58,"name":"Uncletopia | Sydney | 5 | Stopwatch","name_short":"syd-5","host":"syd-1.au.uncletopia.com","port":27055,"enabled":true,"region":"au","cc":"au","latitude":-33.865143,"longitude":151.2099,"reserved":0,"last_update":"0001-01-01T00:00:00Z","name_a2s":"Uncletopia | Sydney | 5 | Stopwatch","protocol":17,"map":"workshop/koth_product_final.ugc454272353","folder":"tf","game":"Team Fortress","app_id":440,"player_count":0,"max_players":24,"Bots":0,"server_type":"Dedicated","server_os":"Linux","password":true,"vac":true,"version":"7961495","steam_id":85568392925397959,"keywords":["cp","nocrits","nodmgspread","uncletopia"],"game_id":440,"stv_port":27056,"stv_name":"Uncletopia | Sydney | 5 | Stopwatch | STV","players":null},{"server_id":59,"name":"Uncletopia | Sydney | 6 | Community","name_short":"syd-6","host":"syd-1.au.uncletopia.com","port":27065,"enabled":true,"region":"au","cc":"au","latitude":-33.865143,"longitude":151.2099,"reserved":0,"last_update":"0001-01-01T00:00:00Z","name_a2s":"Uncletopia | Sydney | 6 | Community","protocol":17,"map":"workshop/koth_trenchfoot_ab1.ugc731436616","folder":"tf","game":"Team Fortress","app_id":440,"player_count":0,"max_players":24,"Bots":0,"server_type":"Dedicated","server_os":"Linux","password":true,"vac":true,"version":"7961495","steam_id":85568392925397960,"keywords":["cp","nocrits","nodmgspread","uncletopia"],"game_id":440,"stv_port":27066,"stv_name":"Uncletopia | Sydney | 6 | Community | STV","players":null},{"server_id":49,"name":"Uncletopia | Warsaw | 1 | One Thousand Uncles","name_short":"waw-1","host":"waw-1.pl.uncletopia.com","port":27015,"enabled":true,"region":"eu","cc":"pl","latitude":52.2297,"longitude":21.017532,"reserved":0,"last_update":"0001-01-01T00:00:00Z","name_a2s":"Uncletopia | Warsaw | 1 | One Thousand Uncles","protocol":17,"map":"cp_mercenarypark","folder":"tf","game":"Team Fortress","app_id":440,"player_count":0,"max_players":32,"Bots":0,"server_type":"Dedicated","server_os":"Linux","password":true,"vac":true,"version":"7961495","steam_id":85568392925397850,"keywords":["alltalk","cp","danepve","increased_maxplayers","norespawntime","uncletopia"],"game_id":440,"stv_port":0,"stv_name":"","players":null},{"server_id":50,"name":"Uncletopia | Warsaw | 2 | One Thousand Uncles","name_short":"waw-2","host":"waw-1.pl.uncletopia.com","port":27025,"enabled":true,"region":"eu","cc":"pl","latitude":52.2297,"longitude":21.017532,"reserved":0,"last_update":"0001-01-01T00:00:00Z","name_a2s":"Uncletopia | Warsaw | 2 | One Thousand Uncles","protocol":17,"map":"pl_thundermountain","folder":"tf","game":"Team Fortress","app_id":440,"player_count":22,"max_players":32,"Bots":16,"server_type":"Dedicated","server_os":"Linux","password":true,"vac":true,"version":"7961495","steam_id":85568392925397851,"keywords":["alltalk","bots","danepve","increased_maxplayers","norespawntime","payload","uncletopia"],"game_id":440,"stv_port":0,"stv_name":"","players":[{"user_id":810,"name":"Vagabundas","steam_id":76561198343529494,"connected_time":295000000000,"state":"active","ping":82},{"user_id":746,"name":"Damin","steam_id":76561198204500297,"connected_time":5213000000000,"state":"active","ping":60},{"user_id":811,"name":"maxxioryy","steam_id":76561198383092515,"connected_time":270000000000,"state":"active","ping":73},{"user_id":788,"name":"Cheshireycat","steam_id":76561198067204908,"connected_time":2604000000000,"state":"active","ping":85},{"user_id":812,"name":"Daan77","steam_id":76561198129940468,"connected_time":256000000000,"state":"active","ping":64},{"user_id":577,"name":"Phisor","steam_id":76561198233450952,"connected_time":20866000000000,"state":"active","ping":62}]},{"server_id":51,"name":"Uncletopia | Warsaw | 3 | All Maps","name_short":"waw-3","host":"waw-1.pl.uncletopia.com","port":27035,"enabled":true,"region":"eu","cc":"pl","latitude":52.2297,"longitude":21.017532,"reserved":0,"last_update":"0001-01-01T00:00:00Z","name_a2s":"Uncletopia | Warsaw | 3 | All Maps","protocol":17,"map":"koth_highpass","folder":"tf","game":"Team Fortress","app_id":440,"player_count":0,"max_players":24,"Bots":0,"server_type":"Dedicated","server_os":"Linux","password":true,"vac":true,"version":"7961495","steam_id":85568392925397852,"keywords":["cp","nocrits","nodmgspread","uncletopia"],"game_id":440,"stv_port":27036,"stv_name":"Uncletopia | Warsaw | 3 | All Maps | STV","players":null},{"server_id":52,"name":"Uncletopia | Warsaw | 4 | All Maps","name_short":"waw-4","host":"waw-1.pl.uncletopia.com","port":27045,"enabled":true,"region":"eu","cc":"pl","latitude":52.2297,"longitude":21.017532,"reserved":0,"last_update":"0001-01-01T00:00:00Z","name_a2s":"Uncletopia | Warsaw | 4 | All Maps","protocol":17,"map":"koth_highpass","folder":"tf","game":"Team Fortress","app_id":440,"player_count":0,"max_players":24,"Bots":0,"server_type":"Dedicated","server_os":"Linux","password":true,"vac":true,"version":"7961495","steam_id":85568392925397853,"keywords":["cp","nocrits","nodmgspread","uncletopia"],"game_id":440,"stv_port":27046,"stv_name":"Uncletopia | Warsaw | 4 | All Maps | STV","players":null},{"server_id":53,"name":"Uncletopia | Warsaw | 5 | Stopwatch","name_short":"waw-5","host":"waw-1.pl.uncletopia.com","port":27055,"enabled":true,"region":"eu","cc":"pl","latitude":52.2297,"longitude":21.017532,"reserved":0,"last_update":"0001-01-01T00:00:00Z","name_a2s":"Uncletopia | Warsaw | 5 | Stopwatch","protocol":17,"map":"workshop/koth_clearcut_b15.ugc2107050255","folder":"tf","game":"Team Fortress","app_id":440,"player_count":0,"max_players":24,"Bots":0,"server_type":"Dedicated","server_os":"Linux","password":true,"vac":true,"version":"7961495","steam_id":85568392925397854,"keywords":["cp","nocrits","nodmgspread","uncletopia"],"game_id":440,"stv_port":27056,"stv_name":"Uncletopia | Warsaw | 5 | Stopwatch | STV","players":null},{"server_id":54,"name":"Uncletopia | Warsaw | 6 | Community","name_short":"waw-6","host":"waw-1.pl.uncletopia.com","port":27065,"enabled":true,"region":"eu","cc":"pl","latitude":52.2297,"longitude":21.017532,"reserved":0,"last_update":"0001-01-01T00:00:00Z","name_a2s":"Uncletopia | Warsaw | 6 | Community","protocol":17,"map":"workshop/cp_coilblaze_rc7.ugc1272700588","folder":"tf","game":"Team Fortress","app_id":440,"player_count":0,"max_players":24,"Bots":0,"server_type":"Dedicated","server_os":"Linux","password":true,"vac":true,"version":"7961495","steam_id":85568392925397856,"keywords":["cp","nocrits","nodmgspread","uncletopia"],"game_id":440,"stv_port":27066,"stv_name":"Uncletopia | Warsaw | 6 | Community | STV","players":null}]}