{"status":true,"message":"","result":[{"server_id":9,"name":"Uncletopia | Atlanta | 1 | All Maps","name_short":"atl-1","host":"atl-1.us.uncletopia.com","port":27015,"enabled":true,"region":"us-east","cc":"us","latitude":33.753746,"longitude":-84.38633,"reserved":0,"last_update":"0001-01-01T00:00:00Z","name_a2s":"Uncletopia | Atlanta | 1 | All Maps","protocol":17,"map":"pl_borneo","folder":"tf","game":"Team Fortress","app_id":440,"player_count":24,"max_players":24,"Bots":0,"server_type":"Dedicated","server_os":"Linux","password":true,"vac":true,"version":"7882260","steam_id":85568392924469982,"keywords":["nocrits","nodmgspread","payload","uncletopia"],"game_id":440,"stv_port":27016,"stv_name":"Uncletopia | Atlanta | 1 | All Maps | STV","players":[{"user_id":563,"name":"RandomPixels","steam_id":76561198844646074,"connected_time":658000000000,"state":"active","ping":102},{"user_id":544,"name":"SparkStorm","steam_id":76561198095817025,"connected_time":3220000000000,"state":"active","ping":44},{"user_id":571,"name":"jpuck","steam_id":76561198025018960,"connected_time":194000000000,"state":"active","ping":59},{"user_id":569,"name":"In Flames","steam_id":76561198026186354,"connected_time":378000000000,"state":"active","ping":102},{"user_id":572,"name":"basmati jarate","steam_id":76561198319442494,"connected_time":26000000000,"state":"active","ping":102},{"user_id":530,"name":"Eazy_Peazy16","steam_id":76561198079056194,"connected_time":5411000000000,"state":"active","ping":71},{"user_id":488,"name":"C Papi","steam_id":76561198027779564,"connected_time":7739000000000,"state":"active","ping":51},{"user_id":531,"name":"roaming","steam_id":76561198172454407,"connected_time":5397000000000,"state":"active","ping":89},{"user_id":548,"name":"xX_HimboSwallower_Xx","steam_id":76561198016029965,"connected_time":3159000000000,"state":"active","ping":65},{"user_id":570,"name":"Draxion","steam_id":76561198132263393,"connected_time":367000000000,"state":"active","ping":49},{"user_id":551,"name":"Sophie","steam_id":76561198170408057,"connected_time":2079000000000,"state":"active","ping":55},{"user_id":512,"name":"NovaSc6ut","steam_id":76561198277163301,"connected_time":6462000000000,"state":"active","ping":82},{"user_id":533,"name":"David De Bergerac","steam_id":76561198010306294,"connected_time":4936000000000,"state":"active","ping":81},{"user_id":552,"name":"Ghetto Smosh Fan","steam_id":76561198097272509,"connected_time":2079000000000,"state":"active","ping":37},{"user_id":565,"name":"Chernov","steam_id":76561198014463424,"connected_time":437000000000,"state":"active","ping":60},{"user_id":557,"name":"Onyx","steam_id":76561198275349640,"connected_time":1124000000000,"state":"active","ping":83},{"user_id":566,"name":"MANIFEST BREASTINY","steam_id":76561197967353228,"connected_time":391000000000,"state":"active","ping":65},{"user_id":554,"name":"Toonice","steam_id":76561198402994885,"connected_time":1991000000000,"state":"active","ping":88},{"user_id":562,"name":"genix","steam_id":76561198278721648,"connected_time":795000000000,"state":"active","ping":82},{"user_id":567,"name":"KBoneski ‚ô°","steam_id":76561198307409065,"connected_time":391000000000,"state":"active","ping":108},{"user_id":536,"name":"Nox(She/They)Very eepy","steam_id":76561198141950842,"connected_time":4631000000000,"state":"active","ping":48},{"user_id":568,"name":"eish","steam_id":76561198089463603,"connected_time":390000000000,"state":"active","ping":121},{"user_id":545,"name":"Albino Jellyfish","steam_id":76561198208561097,"connected_time":3220000000000,"state":"active","ping":72},{"user_id":560,"name":"Am da Best","steam_id":76561198163825955,"connected_time":1044000000000,"state":"active","ping":112}]},{"server_id":104,"name":"Uncletopia | Atlanta | 2 | All Maps","name_short":"atl-2","host":"atl-1.us.uncletopia.com","port":27025,"enabled":true,"region":"us-east","cc":"us","latitude":33.753746,"longitude":-84.38633,"reserved":0,"last_update":"0001-01-01T00:00:00Z","name_a2s":"Uncletopia | Atlanta | 2 | All Maps","protocol":17,"map":"pl_pier","folder":"tf","game":"Team Fortress","app_id":440,"player_count":24,"max_players":24,"Bots":0,"server_type":"Dedicated","server_os":"Linux","password":true,"vac":true,"version":"7882260","steam_id":85568392924469983,"keywords":["nocrits","nodmgspread","payload","uncletopia"],"game_id":440,"stv_port":27026,"stv_name":"Uncletopia | Atlanta | 2 | All Maps | STV","players":[{"user_id":470,"name":"Your Local Jester","steam_id":76561199120223717,"connected_time":2189000000000,"state":"active","ping":66},{"user_id":487,"name":"Walt","steam_id":76561198964107245,"connected_time":742000000000,"state":"active","ping":88},{"user_id":427,"name":"nft airshotter","steam_id":76561198158137522,"connected_time":5495000000000,"state":"active","ping":42},{"user_id":466,"name":"General Sherman","steam_id":76561198044769376,"connected_time":2514000000000,"state":"active","ping":56},{"user_id":473,"name":"MellowBoy-2354","steam_id":76561199080630632,"connected_time":2073000000000,"state":"active","ping":71},{"user_id":422,"name":"Pizza Wario","steam_id":76561199031172409,"connected_time":5958000000000,"state":"active","ping":93},{"user_id":488,"name":"Enkinanna","steam_id":76561198045965821,"connected_time":334000000000,"state":"active","ping":66},{"user_id":462,"name":"Skyfox","steam_id":76561198036647535,"connected_time":2964000000000,"state":"active","ping":149},{"user_id":478,"name":"Nephs","steam_id":76561198136763403,"connected_time":1413000000000,"state":"active","ping":81},{"user_id":480,"name":"Plinko","steam_id":76561197968530638,"connected_time":1159000000000,"state":"active","ping":39},{"user_id":458,"name":"mdharsy","steam_id":76561198065831053,"connected_time":3230000000000,"state":"active","ping":97},{"user_id":481,"name":"Dabbledornk","steam_id":76561198065241300,"connected_time":1156000000000,"state":"active","ping":56},{"user_id":489,"name":"AlexLovesYou","steam_id":76561199163263543,"connected_time":331000000000,"state":"active","ping":68},{"user_id":486,"name":"Jesse","steam_id":76561198157305426,"connected_time":788000000000,"state":"active","ping":45},{"user_id":484,"name":"FenderBender","steam_id":76561198106379456,"connected_time":984000000000,"state":"active","ping":111},{"user_id":428,"name":"how do i girl???","steam_id":76561198050290565,"connected_time":5492000000000,"state":"active","ping":90},{"user_id":382,"name":"Monkey Mode","steam_id":76561197961267543,"connected_time":9877000000000,"state":"active","ping":58},{"user_id":485,"name":"flooreater419","steam_id":76561198098656830,"connected_time":960000000000,"state":"active","ping":74},{"user_id":477,"name":"YASAI JUICE","steam_id":76561198131971992,"connected_time":1977000000000,"state":"active","ping":59},{"user_id":447,"name":"TwizzstedLlama","steam_id":76561198054021548,"connected_time":3912000000000,"state":"active","ping":68},{"user_id":461,"name":"HE‚ÄôS IN THE GODDAMN WALLS","steam_id":76561198363267009,"connected_time":3121000000000,"state":"active","ping":62},{"user_id":472,"name":"igotmail","steam_id":76561198070631899,"connected_time":2160000000000,"state":"active","ping":80},{"user_id":483,"name":"totally not a pile of beans","steam_id":76561198119851931,"connected_time":1070000000000,"state":"active","ping":81},{"user_id":448,"name":"Mr_Frosty","steam_id":76561199380389079,"connected_time":3875000000000,"state":"active","ping":82}]},{"server_id":400,"name":"Uncletopia | Atlanta | 3 | Community","name_short":"atl-3","host":"atl-1.us.uncletopia.com","port":27035,"enabled":true,"region":"us-east","cc":"us","latitude":33.753746,"longitude":-84.38633,"reserved":0,"last_update":"0001-01-01T00:00:00Z","name_a2s":"Uncletopia | Atlanta | 3 | Community","protocol":17,"map":"workshop/koth_product_final.ugc454272353","folder":"tf","game":"Team Fortress","app_id":440,"player_count":0,"max_players":24,"Bots":0,"server_type":"Dedicated","server_os":"Linux","password":true,"vac":true,"version":"7882260","steam_id":85568392924515187,"keywords":["cp","nocrits","nodmgspread","uncletopia"],"game_id":440,"stv_port":27036,"stv_name":"Uncletopia | Atlanta | 3 | Community | STV","players":null},{"server_id":401,"name":"Uncletopia | Atlanta | 4 | No Payload","name_short":"atl-4","host":"atl-1.us.uncletopia.com","port":27045,"enabled":true,"region":"us-east","cc":"us","latitude":33.753746,"longitude":-84.38633,"reserved":0,"last_update":"0001-01-01T00:00:00Z","name_a2s":"","protocol":0,"map":"","folder":"","game":"","app_id":0,"player_count":0,"max_players":0,"Bots":0,"server_type":"","server_os":"","password":false,"vac":false,"version":"","steam_id":0,"keywords":null,"game_id":0,"stv_port":0,"stv_name":"","players":null},{"server_id":2,"name":"Uncletopia | Chicago | 1 | All Maps","name_short":"chi-1","host":"chi-1.us.uncletopia.com","port":27015,"enabled":true,"region":"us-central","cc":"us","latitude":41.881832,"longitude":-87.62318,"reserved":0,"last_update":"0001-01-01T00:00:00Z","name_a2s":"Uncletopia | Chicago | 1 | All Maps","protocol":17,"map":"pl_borneo","folder":"tf","game":"Team Fortress","app_id":440,"player_count":20,"max_players":24,"Bots":0,"server_type":"Dedicated","server_os":"Linux","password":true,"vac":true,"version":"7882260","steam_id":85568392924469984,"keywords":["nocrits","nodmgspread","payload","uncletopia"],"game_id":440,"stv_port":27016,"stv_name":"Uncletopia | Chicago | 1 | All Maps | STV","players":[{"user_id":806,"name":"eat Pant","steam_id":76561197974965536,"connected_time":2269000000000,"state":"active","ping":56},{"user_id":837,"name":"GoofyAhGamingGuy","steam_id":76561199331315881,"connected_time":21000000000,"state":"spawning","ping":57},{"user_id":812,"name":"meth ape","steam_id":76561199110579692,"connected_time":1588000000000,"state":"active","ping":74},{"user_id":782,"name":"SilentFootba11","steam_id":76561199006570947,"connected_time":3451000000000,"state":"active","ping":82},{"user_id":820,"name":"Chung","steam_id":76561198114928567,"connected_time":752000000000,"state":"active","ping":75},{"user_id":821,"name":"River Rat","steam_id":76561198116383976,"connected_time":547000000000,"state":"active","ping":111},{"user_id":834,"name":"Rya‚ò∫","steam_id":76561198370128860,"connected_time":51000000000,"state":"active","ping":72},{"user_id":835,"name":"A Rope, for big pits","steam_id":76561198068044782,"connected_time":47000000000,"state":"active","ping":65},{"user_id":823,"name":"Nooblord","steam_id":76561199105123730,"connected_time":341000000000,"state":"active","ping":103},{"user_id":827,"name":"ÂêåÊÄßÊàÄÁå¥Â≠ê","steam_id":76561198117588398,"connected_time":193000000000,"state":"active","ping":103},{"user_id":793,"name":"flootsmcdoots","steam_id":76561198124744765,"connected_time":3127000000000,"state":"active","ping":88},{"user_id":818,"name":"BigShwarma","steam_id":76561198259380127,"connected_time":1552000000000,"state":"active","ping":64},{"user_id":769,"name":"hayley ‚ô•","steam_id":76561198093125555,"connected_time":5532000000000,"state":"active","ping":135},{"user_id":760,"name":"Ademar","steam_id":76561199391802581,"connected_time":6205000000000,"state":"active","ping":52},{"user_id":805,"name":"„ÄéHazon„Äè","steam_id":76561198119852107,"connected_time":2288000000000,"state":"active","ping":71},{"user_id":836,"name":"Snom","steam_id":76561198333827920,"connected_time":45000000000,"state":"active","ping":77},{"user_id":832,"name":"caption cool","steam_id":76561197990612056,"connected_time":95000000000,"state":"active","ping":35},{"user_id":791,"name":"Hou Tou Gu","steam_id":76561198041196591,"connected_time":3187000000000,"state":"active","ping":70},{"user_id":833,"name":"hood rich ben shapiro","steam_id":76561198984612489,"connected_time":91000000000,"state":"active","ping":91},{"user_id":809,"name":"Famelegion","steam_id":76561198958341424,"connected_time":2176000000000,"state":"active","ping":92}]},{"server_id":106,"name":"Uncletopia | Chicago | 2 | All Maps","name_short":"chi-2","host":"chi-1.us.uncletopia.com","port":27025,"enabled":true,"region":"us-central","cc":"us","latitude":41.881832,"longitude":-87.62318,"reserved":0,"last_update":"0001-01-01T00:00:00Z","name_a2s":"Uncletopia | Chicago | 2 | All Maps","protocol":17,"map":"pl_upward","folder":"tf","game":"Team Fortress","app_id":440,"player_count":24,"max_players":24,"Bots":0,"server_type":"Dedicated","server_os":"Linux","password":true,"vac":true,"version":"7882260","steam_id":85568392924469985,"keywords":["nocrits","nodmgspread","payload","uncletopia"],"game_id":440,"stv_port":27026,"stv_name":"Uncletopia | Chicago | 2 | All Maps | STV","players":[{"user_id":355,"name":"basil","steam_id":76561198075758026,"connected_time":4362000000000,"state":"active","ping":85},{"user_id":408,"name":"Hope","steam_id":76561199201900779,"connected_time":382000000000,"state":"active","ping":72},{"user_id":374,"name":"Whorse","steam_id":76561198114141445,"connected_time":2430000000000,"state":"active","ping":73},{"user_id":383,"name":"VixianUwU","steam_id":76561198948815060,"connected_time":1818000000000,"state":"active","ping":80},{"user_id":395,"name":"freyja","steam_id":76561198249206656,"connected_time":1229000000000,"state":"active","ping":62},{"user_id":354,"name":"malopi","steam_id":76561198354990729,"connected_time":4367000000000,"state":"active","ping":76},{"user_id":368,"name":"mechiimi ‚òÖ","steam_id":76561198321627268,"connected_time":3347000000000,"state":"active","ping":113},{"user_id":410,"name":"hindo","steam_id":76561199190501445,"connected_time":214000000000,"state":"active","ping":85},{"user_id":356,"name":"Bloo","steam_id":76561199015827567,"connected_time":4353000000000,"state":"active","ping":151},{"user_id":394,"name":"Puggle","steam_id":76561198144864264,"connected_time":1236000000000,"state":"active","ping":85},{"user_id":411,"name":"Atlas (Skylar)","steam_id":76561198041531774,"connected_time":208000000000,"state":"active","ping":52},{"user_id":400,"name":"Burf","steam_id":76561198019341161,"connected_time":830000000000,"state":"active","ping":65},{"user_id":409,"name":"Festive Conch Shell","steam_id":76561198042072993,"connected_time":307000000000,"state":"active","ping":73},{"user_id":403,"name":"Timon's high on crack cocaine!","steam_id":76561198180396430,"connected_time":591000000000,"state":"active","ping":76},{"user_id":393,"name":"Flubby","steam_id":76561198069171252,"connected_time":1403000000000,"state":"active","ping":59},{"user_id":347,"name":"mio","steam_id":76561198239286750,"connected_time":4834000000000,"state":"active","ping":64},{"user_id":413,"name":"Uwu Micster","steam_id":76561198843890616,"connected_time":82000000000,"state":"active","ping":86},{"user_id":357,"name":"shitting","steam_id":76561198098781227,"connected_time":4342000000000,"state":"active","ping":94},{"user_id":412,"name":"hatchetax","steam_id":76561199013337543,"connected_time":152000000000,"state":"active","ping":73},{"user_id":404,"name":"Aeront","steam_id":76561198072032723,"connected_time":590000000000,"state":"active","ping":95},{"user_id":405,"name":"chilis baby back ribs","steam_id":76561198813516435,"connected_time":580000000000,"state":"active","ping":98},{"user_id":392,"name":"coms","steam_id":76561198359456881,"connected_time":1605000000000,"state":"active","ping":61},{"user_id":339,"name":":\u003c","steam_id":76561198354473513,"connected_time":5749000000000,"state":"active","ping":54},{"user_id":406,"name":"Kidzbopsicle","steam_id":76561198047660691,"connected_time":569000000000,"state":"active","ping":60}]},{"server_id":402,"name":"Uncletopia | Chicago | 3 | All Maps","name_short":"chi-3","host":"chi-1.us.uncletopia.com","port":27035,"enabled":true,"region":"us-central","cc":"us","latitude":41.881832,"longitude":-87.62318,"reserved":0,"last_update":"0001-01-01T00:00:00Z","name_a2s":"Uncletopia | Chicago | 3 | All Maps","protocol":17,"map":"pl_borneo","folder":"tf","game":"Team Fortress","app_id":440,"player_count":24,"max_players":24,"Bots":0,"server_type":"Dedicated","server_os":"Linux","password":true,"vac":true,"version":"7882260","steam_id":85568392924515191,"keywords":["nocrits","nodmgspread","payload","uncletopia"],"game_id":440,"stv_port":27036,"stv_name":"Uncletopia | Chicago | 3 | All Maps | STV","players":[{"user_id":589,"name":"Boxen","steam_id":76561198014983127,"connected_time":2095000000000,"state":"active","ping":86},{"user_id":597,"name":"Person","steam_id":76561198093244204,"connected_time":1575000000000,"state":"active","ping":74},{"user_id":590,"name":"Bellator","steam_id":76561198064103979,"connected_time":2094000000000,"state":"active","ping":80},{"user_id":603,"name":"InchMan","steam_id":76561198272658825,"connected_time":685000000000,"state":"active","ping":95},{"user_id":611,"name":"only a spoonful","steam_id":76561198113180616,"connected_time":438000000000,"state":"active","ping":70},{"user_id":604,"name":"Carlos Spartan","steam_id":76561198362047478,"connected_time":655000000000,"state":"active","ping":106},{"user_id":605,"name":"StupidMemes","steam_id":76561198253547727,"connected_time":652000000000,"state":"active","ping":48},{"user_id":602,"name":"Olly","steam_id":76561198054273611,"connected_time":784000000000,"state":"active","ping":63},{"user_id":583,"name":"Tiny Fisto","steam_id":76561198446888505,"connected_time":2591000000000,"state":"active","ping":87},{"user_id":579,"name":"toma","steam_id":76561198075583376,"connected_time":3524000000000,"state":"active","ping":90},{"user_id":606,"name":"Leifvs","steam_id":76561198255946142,"connected_time":618000000000,"state":"active","ping":116},{"user_id":607,"name":"Peepster","steam_id":76561198297854733,"connected_time":605000000000,"state":"active","ping":68},{"user_id":600,"name":"Bvare","steam_id":76561198043335113,"connected_time":1138000000000,"state":"active","ping":44},{"user_id":612,"name":"2 dick dooku","steam_id":76561197987279903,"connected_time":251000000000,"state":"active","ping":61},{"user_id":559,"name":"Medic Boyfriend","steam_id":76561198104086771,"connected_time":4343000000000,"state":"active","ping":103},{"user_id":609,"name":"sheep","steam_id":76561198172943006,"connected_time":598000000000,"state":"active","ping":47},{"user_id":613,"name":"Hoob.egfug","steam_id":76561197980557818,"connected_time":31000000000,"state":"spawning","ping":62},{"user_id":576,"name":"Techne","steam_id":76561198090486583,"connected_time":3578000000000,"state":"active","ping":88},{"user_id":587,"name":"guywholikesSOUP","steam_id":76561198006670369,"connected_time":2519000000000,"state":"active","ping":52},{"user_id":614,"name":"Chairman Meow","steam_id":76561198107795169,"connected_time":21000000000,"state":"active","ping":88},{"user_id":588,"name":"*","steam_id":76561198173047169,"connected_time":2202000000000,"state":"active","ping":64},{"user_id":598,"name":"aleksei","steam_id":76561199061380038,"connected_time":1477000000000,"state":"active","ping":62},{"user_id":599,"name":"GUY","steam_id":76561198122612359,"connected_time":1399000000000,"state":"active","ping":70},{"user_id":595,"name":"kogasira","steam_id":76561198094152516,"connected_time":1929000000000,"state":"active","ping":66}]},{"server_id":403,"name":"Uncletopia | Chicago | 4 | All Maps","name_short":"chi-4","host":"chi-1.us.uncletopia.com","port":27045,"enabled":true,"region":"us-central","cc":"us","latitude":41.881832,"longitude":-87.62318,"reserved":0,"last_update":"0001-01-01T00:00:00Z","name_a2s":"Uncletopia | Chicago | 4 | All Maps","protocol":17,"map":"koth_lakeside_final","folder":"tf","game":"Team Fortress","app_id":440,"player_count":24,"max_players":24,"Bots":0,"server_type":"Dedicated","server_os":"Linux","password":true,"vac":true,"version":"7882260","steam_id":85568392924515193,"keywords":["cp","nocrits","nodmgspread","uncletopia"],"game_id":440,"stv_port":27046,"stv_name":"Uncletopia | Chicago | 4 | All Maps | STV","players":[{"user_id":771,"name":"YES YES YES","steam_id":76561198969592244,"connected_time":1366000000000,"state":"active","ping":90},{"user_id":790,"name":"MeatBall","steam_id":76561199055196261,"connected_time":81000000000,"state":"active","ping":63},{"user_id":787,"name":"illious","steam_id":76561198169925494,"connected_time":289000000000,"state":"active","ping":66},{"user_id":773,"name":"Ba-Zing-Ga","steam_id":76561198323260286,"connected_time":1359000000000,"state":"active","ping":81},{"user_id":733,"name":"chiswola","steam_id":76561198046920142,"connected_time":5329000000000,"state":"active","ping":73},{"user_id":755,"name":"Jeong Jeong","steam_id":76561198125063586,"connected_time":2704000000000,"state":"active","ping":44},{"user_id":776,"name":"Holiday Fartcruise","steam_id":76561198043851584,"connected_time":1307000000000,"state":"active","ping":118},{"user_id":775,"name":"Gay Cake","steam_id":76561198004388831,"connected_time":1331000000000,"state":"active","ping":66},{"user_id":770,"name":"The 64th Gamer","steam_id":76561198191188271,"connected_time":1387000000000,"state":"active","ping":68},{"user_id":777,"name":"GlorifiedAshy","steam_id":76561198382684727,"connected_time":1307000000000,"state":"active","ping":62},{"user_id":781,"name":"AlexeiStukov","steam_id":76561197993272929,"connected_time":1115000000000,"state":"active","ping":69},{"user_id":741,"name":"sheeum","steam_id":76561198277403366,"connected_time":4719000000000,"state":"active","ping":72},{"user_id":757,"name":"jpuzza","steam_id":76561198035535731,"connected_time":2639000000000,"state":"active","ping":54},{"user_id":789,"name":"Puke Skyfucker","steam_id":76561198012846213,"connected_time":148000000000,"state":"active","ping":73},{"user_id":782,"name":"super-oofio64","steam_id":76561198954052123,"connected_time":887000000000,"state":"active","ping":106},{"user_id":767,"name":"rommb","steam_id":76561198090159427,"connected_time":1559000000000,"state":"active","ping":46},{"user_id":760,"name":"Rajakz","steam_id":76561198220741160,"connected_time":2619000000000,"state":"active","ping":62},{"user_id":785,"name":"Keyboardbreaker","steam_id":76561198372836132,"connected_time":583000000000,"state":"active","ping":113},{"user_id":791,"name":"Michelangelo","steam_id":76561198258471829,"connected_time":71000000000,"state":"active","ping":61},{"user_id":778,"name":"Featherless Biped","steam_id":76561198034171721,"connected_time":1301000000000,"state":"active","ping":70},{"user_id":779,"name":"Pertinax","steam_id":76561198000753987,"connected_time":1298000000000,"state":"active","ping":54},{"user_id":762,"name":"eryn üó∫","steam_id":76561198004433070,"connected_time":2413000000000,"state":"active","ping":74},{"user_id":786,"name":"dunky donut","steam_id":76561198070574618,"connected_time":312000000000,"state":"active","ping":59},{"user_id":723,"name":"Ëå∂ Tea","steam_id":76561198083053923,"connected_time":6466000000000,"state":"active","ping":73}]},{"server_id":36,"name":"Uncletopia | Chicago | 5 | All Maps","name_short":"chi-5","host":"chi-2.us.uncletopia.com","port":27015,"enabled":true,"region":"us-central","cc":"us","latitude":41.881832,"longitude":-87.62318,"reserved":0,"last_update":"0001-01-01T00:00:00Z","name_a2s":"Uncletopia | Chicago | 5 | All Maps","protocol":17,"map":"cp_steel","folder":"tf","game":"Team Fortress","app_id":440,"player_count":24,"max_players":24,"Bots":0,"server_type":"Dedicated","server_os":"Linux","password":true,"vac":true,"version":"7882260","steam_id":85568392924866362,"keywords":["cp","nocrits","nodmgspread","uncletopia"],"game_id":440,"stv_port":27016,"stv_name":"Uncletopia | Chicago | 5 | All Maps | STV","players":[{"user_id":291,"name":"honked off the bobo","steam_id":76561198123287268,"connected_time":2626000000000,"state":"active","ping":45},{"user_id":257,"name":"vince","steam_id":76561198054144974,"connected_time":4697000000000,"state":"active","ping":77},{"user_id":318,"name":"Leaderofthe00fkins","steam_id":76561198281999872,"connected_time":462000000000,"state":"active","ping":113},{"user_id":319,"name":"AkimboAoki","steam_id":76561198158323058,"connected_time":445000000000,"state":"active","ping":91},{"user_id":314,"name":"give me your baby faces blaster","steam_id":76561199013442982,"connected_time":555000000000,"state":"active","ping":90},{"user_id":288,"name":"Paleo","steam_id":76561198053493855,"connected_time":2698000000000,"state":"active","ping":57},{"user_id":272,"name":"Kelkith","steam_id":76561197985450422,"connected_time":3753000000000,"state":"active","ping":79},{"user_id":320,"name":"footoftheday","steam_id":76561198052712449,"connected_time":417000000000,"state":"active","ping":73},{"user_id":275,"name":"Michaelpc1","steam_id":76561198088365519,"connected_time":3693000000000,"state":"active","ping":75},{"user_id":309,"name":"Patrick Bateman","steam_id":76561198020011851,"connected_time":719000000000,"state":"active","ping":56},{"user_id":293,"name":"carp","steam_id":76561198042865147,"connected_time":2579000000000,"state":"active","ping":46},{"user_id":247,"name":"BorosLegate","steam_id":76561198058629882,"connected_time":5548000000000,"state":"active","ping":66},{"user_id":279,"name":"Bonchiko","steam_id":76561198065133470,"connected_time":3201000000000,"state":"active","ping":71},{"user_id":298,"name":"Junsei","steam_id":76561199088984886,"connected_time":2491000000000,"state":"active","ping":72},{"user_id":294,"name":"N√©miscau","steam_id":76561198257979613,"connected_time":2569000000000,"state":"active","ping":117},{"user_id":295,"name":"foura","steam_id":76561198181972739,"connected_time":2554000000000,"state":"active","ping":121},{"user_id":250,"name":"AbdulTheAgent","steam_id":76561198042492487,"connected_time":5431000000000,"state":"active","ping":81},{"user_id":315,"name":"doog","steam_id":76561198136444198,"connected_time":524000000000,"state":"active","ping":101},{"user_id":297,"name":"Wiggee","steam_id":76561197972792989,"connected_time":2532000000000,"state":"active","ping":74},{"user_id":316,"name":"DANI","steam_id":76561198350089346,"connected_time":522000000000,"state":"active","ping":59},{"user_id":321,"name":"dnaak","steam_id":76561197960489193,"connected_time":380000000000,"state":"active","ping":45},{"user_id":304,"name":"Alfonso Molestro","steam_id":76561197998677099,"connected_time":2069000000000,"state":"active","ping":78},{"user_id":305,"name":"NS1993","steam_id":76561198057362273,"connected_time":1951000000000,"state":"active","ping":83},{"user_id":317,"name":"Nicolas Cage Kisses Mace Windu","steam_id":76561198046127710,"connected_time":499000000000,"state":"active","ping":59}]},{"server_id":37,"name":"Uncletopia | Chicago | 6 | All Maps","name_short":"chi-6","host":"chi-2.us.uncletopia.com","port":27025,"enabled":true,"region":"us-central","cc":"us","latitude":41.881832,"longitude":-87.62318,"reserved":0,"last_update":"0001-01-01T00:00:00Z","name_a2s":"Uncletopia | Chicago | 6 | All Maps","protocol":17,"map":"pl_pier","folder":"tf","game":"Team Fortress","app_id":440,"player_count":24,"max_players":24,"Bots":0,"server_type":"Dedicated","server_os":"Linux","password":true,"vac":true,"version":"7882260","steam_id":85568392924866363,"keywords":["nocrits","nodmgspread","payload","uncletopia"],"game_id":440,"stv_port":27026,"stv_name":"Uncletopia | Chicago | 6 | All Maps | STV","players":[{"user_id":256,"name":"Willem Dafoe","steam_id":76561198037453253,"connected_time":772000000000,"state":"active","ping":57},{"user_id":242,"name":"JonBoy","steam_id":76561198082052480,"connected_time":1211000000000,"state":"active","ping":101},{"user_id":246,"name":"Rivet","steam_id":76561198122059898,"connected_time":1152000000000,"state":"active","ping":88},{"user_id":244,"name":"Hindmost","steam_id":76561199081837220,"connected_time":1169000000000,"state":"active","ping":96},{"user_id":230,"name":"Chompak","steam_id":76561198136566294,"connected_time":2519000000000,"state":"active","ping":72},{"user_id":237,"name":"Moonman327","steam_id":76561197992616059,"connected_time":2205000000000,"state":"active","ping":68},{"user_id":245,"name":"Cromwell The Scorned","steam_id":76561198070830330,"connected_time":1168000000000,"state":"active","ping":71},{"user_id":216,"name":"Sage","steam_id":76561198143101697,"connected_time":3853000000000,"state":"active","ping":104},{"user_id":259,"name":"Assitins","steam_id":76561198041572892,"connected_time":57000000000,"state":"active","ping":75},{"user_id":248,"name":"Bedside table, on the kangaroo","steam_id":76561198044277932,"connected_time":1143000000000,"state":"active","ping":50},{"user_id":212,"name":"Cy4nideCutie","steam_id":76561198126686695,"connected_time":3905000000000,"state":"active","ping":74},{"user_id":238,"name":"Thot Patrol","steam_id":76561198138713736,"connected_time":2097000000000,"state":"active","ping":56},{"user_id":249,"name":"Duke of Copper Wire","steam_id":76561198043075077,"connected_time":1133000000000,"state":"active","ping":75},{"user_id":240,"name":"Mom","steam_id":76561198207936000,"connected_time":1435000000000,"state":"active","ping":92},{"user_id":250,"name":"BON6 R1P5","steam_id":76561199187170139,"connected_time":1133000000000,"state":"active","ping":76},{"user_id":215,"name":"dahperson","steam_id":76561198067207467,"connected_time":3857000000000,"state":"active","ping":56},{"user_id":254,"name":"jalapeno handjob","steam_id":76561198123298824,"connected_time":997000000000,"state":"active","ping":89},{"user_id":234,"name":"soupy","steam_id":76561197974283797,"connected_time":2327000000000,"state":"active","ping":45},{"user_id":253,"name":"Kyle H. McCloud","steam_id":76561198025050432,"connected_time":1046000000000,"state":"active","ping":95},{"user_id":258,"name":"Regoradin","steam_id":76561198059440961,"connected_time":489000000000,"state":"active","ping":114},{"user_id":219,"name":"Sir Axel VI","steam_id":76561198066016272,"connected_time":3838000000000,"state":"active","ping":72},{"user_id":228,"name":"hacivad","steam_id":76561198205981316,"connected_time":3094000000000,"state":"active","ping":45},{"user_id":236,"name":"Thingy","steam_id":76561198140161202,"connected_time":2226000000000,"state":"active","ping":74},{"user_id":255,"name":"InternetDog","steam_id":76561198043808749,"connected_time":817000000000,"state":"active","ping":71}]},{"server_id":38,"name":"Uncletopia | Chicago | 7 | Stopwatch Beta","name_short":"chi-7","host":"chi-2.us.uncletopia.com","port":27035,"enabled":true,"region":"us-central","cc":"us","latitude":41.881832,"longitude":-87.62318,"reserved":0,"last_update":"0001-01-01T00:00:00Z","name_a2s":"Uncletopia | Chicago | 7 | Stopwatch Beta","protocol":17,"map":"pl_upward","folder":"tf","game":"Team Fortress","app_id":440,"player_count":0,"max_players":24,"Bots":0,"server_type":"Dedicated","server_os":"Linux","password":true,"vac":true,"version":"7882260","steam_id":85568392924866364,"keywords":["nocrits","nodmgspread","payload","uncletopia"],"game_id":440,"stv_port":27036,"stv_name":"Uncletopia | Chicago | 7 | Stopwatch Beta | STV","players":null},{"server_id":39,"name":"Uncletopia | Chicago | 8 | Community","name_short":"chi-8","host":"chi-2.us.uncletopia.com","port":27045,"enabled":true,"region":"us-central","cc":"us","latitude":41.881832,"longitude":-87.62318,"reserved":0,"last_update":"0001-01-01T00:00:00Z","name_a2s":"Uncletopia | Chicago | 8 | Community","protocol":17,"map":"workshop/cp_alloy_rc3.ugc592805587","folder":"tf","game":"Team Fortress","app_id":440,"player_count":1,"max_players":24,"Bots":0,"server_type":"Dedicated","server_os":"Linux","password":true,"vac":true,"version":"7882260","steam_id":85568392924866365,"keywords":["cp","nocrits","nodmgspread","uncletopia"],"game_id":440,"stv_port":27046,"stv_name":"Uncletopia | Chicago | 8 | Community | STV","players":[{"user_id":112,"name":"diddlysquat","steam_id":76561199047410820,"connected_time":280000000000,"state":"active","ping":54}]},{"server_id":8,"name":"Uncletopia | Dallas | 1 | All Maps","name_short":"dal-1","host":"dal-1.us.uncletopia.com","port":27015,"enabled":true,"region":"us-central","cc":"us","latitude":32.779167,"longitude":-96.80889,"reserved":0,"last_update":"0001-01-01T00:00:00Z","name_a2s":"Uncletopia | Dallas | 1 | All Maps","protocol":17,"map":"pl_upward","folder":"tf","game":"Team Fortress","app_id":440,"player_count":24,"max_players":24,"Bots":0,"server_type":"Dedicated","server_os":"Linux","password":true,"vac":true,"version":"7882260","steam_id":85568392924469986,"keywords":["nocrits","nodmgspread","payload","uncletopia"],"game_id":440,"stv_port":27016,"stv_name":"Uncletopia | Dallas | 1 | All Maps | STV","players":[{"user_id":799,"name":"Insizhen","steam_id":76561198051352605,"connected_time":3327000000000,"state":"active","ping":50},{"user_id":723,"name":"Icarus the legend","steam_id":76561199013250091,"connected_time":8860000000000,"state":"active","ping":45},{"user_id":828,"name":"PiolaCat","steam_id":76561199100535345,"connected_time":1300000000000,"state":"active","ping":119},{"user_id":786,"name":"Das Psycho","steam_id":76561198064615020,"connected_time":4591000000000,"state":"active","ping":71},{"user_id":807,"name":"TechnoBear2099","steam_id":76561198238863596,"connected_time":2793000000000,"state":"active","ping":42},{"user_id":841,"name":"Huge Jackman","steam_id":76561198098142914,"connected_time":285000000000,"state":"active","ping":73},{"user_id":829,"name":"darps","steam_id":76561198105227318,"connected_time":1284000000000,"state":"active","ping":73},{"user_id":809,"name":"BADWOLF42","steam_id":76561198055447523,"connected_time":2456000000000,"state":"active","ping":54},{"user_id":832,"name":"Hope Haver","steam_id":76561198048564906,"connected_time":903000000000,"state":"active","ping":46},{"user_id":833,"name":"selling rice","steam_id":76561198063357023,"connected_time":886000000000,"state":"active","ping":80},{"user_id":838,"name":"barker bill","steam_id":76561198018451994,"connected_time":605000000000,"state":"active","ping":60},{"user_id":842,"name":"Dylanxp300","steam_id":76561198271974937,"connected_time":189000000000,"state":"active","ping":100},{"user_id":761,"name":"TheGhostThatWas","steam_id":76561198055836483,"connected_time":6520000000000,"state":"active","ping":75},{"user_id":804,"name":"fish fingers","steam_id":76561199078516567,"connected_time":3067000000000,"state":"active","ping":118},{"user_id":823,"name":"T√ñZI","steam_id":76561198045268695,"connected_time":1384000000000,"state":"active","ping":106},{"user_id":768,"name":"Fujiwara no Mokou","steam_id":76561198063315650,"connected_time":6054000000000,"state":"active","ping":65},{"user_id":733,"name":"Rin \"Hindwing\" Redtail","steam_id":76561199074865638,"connected_time":8315000000000,"state":"active","ping":50},{"user_id":816,"name":"Bird","steam_id":76561198231624620,"connected_time":1684000000000,"state":"active","ping":70},{"user_id":831,"name":"Dinner","steam_id":76561198067294811,"connected_time":1147000000000,"state":"active","ping":43},{"user_id":840,"name":"aintnowaiyboi","steam_id":76561198301372369,"connected_time":467000000000,"state":"active","ping":38},{"user_id":837,"name":"sebjzy ‚ô•","steam_id":76561198009959034,"connected_time":619000000000,"state":"active","ping":62},{"user_id":835,"name":"ShapedSilver","steam_id":76561199073305310,"connected_time":736000000000,"state":"active","ping":56},{"user_id":819,"name":"pink","steam_id":76561198110723576,"connected_time":1641000000000,"state":"active","ping":61},{"user_id":836,"name":"Ironaka","steam_id":76561198029993183,"connected_time":620000000000,"state":"active","ping":100}]},{"server_id":108,"name":"Uncletopia | Dallas | 2 | All Maps","name_short":"dal-2","host":"dal-1.us.uncletopia.com","port":27025,"enabled":true,"region":"us-central","cc":"us","latitude":32.779167,"longitude":-96.80889,"reserved":0,"last_update":"0001-01-01T00:00:00Z","name_a2s":"Uncletopia | Dallas | 2 | All Maps","protocol":17,"map":"pl_badwater","folder":"tf","game":"Team Fortress","app_id":440,"player_count":24,"max_players":24,"Bots":0,"server_type":"Dedicated","server_os":"Linux","password":true,"vac":true,"version":"7882260","steam_id":85568392924469988,"keywords":["nocrits","nodmgspread","payload","uncletopia"],"game_id":440,"stv_port":27026,"stv_name":"Uncletopia | Dallas | 2 | All Maps | STV","players":[{"user_id":507,"name":"gorf?","steam_id":76561198142286417,"connected_time":1103000000000,"state":"active","ping":77},{"user_id":392,"name":"Barely","steam_id":76561198121326917,"connected_time":11129000000000,"state":"active","ping":90},{"user_id":508,"name":"frank","steam_id":76561198186815298,"connected_time":1074000000000,"state":"active","ping":105},{"user_id":486,"name":"Mr. Bixby","steam_id":76561198868839264,"connected_time":3011000000000,"state":"active","ping":51},{"user_id":500,"name":"Punished \"Venom\" Snick","steam_id":76561198066566813,"connected_time":2123000000000,"state":"active","ping":101},{"user_id":509,"name":"drrockso20[MicS]","steam_id":76561198001003987,"connected_time":1061000000000,"state":"active","ping":87},{"user_id":481,"name":"‚ô´Pilk King‚ô´","steam_id":76561198073660779,"connected_time":3597000000000,"state":"active","ping":42},{"user_id":487,"name":"GLG MUTT","steam_id":76561198147785541,"connected_time":3006000000000,"state":"active","ping":57},{"user_id":455,"name":"Hollister's Tree","steam_id":76561198982631429,"connected_time":6180000000000,"state":"active","ping":60},{"user_id":516,"name":"FishGod","steam_id":76561198056156434,"connected_time":576000000000,"state":"active","ping":44},{"user_id":510,"name":"Waaaaz","steam_id":76561198029754301,"connected_time":1059000000000,"state":"active","ping":103},{"user_id":484,"name":"dailydiamond","steam_id":76561199123582502,"connected_time":3153000000000,"state":"active","ping":131},{"user_id":505,"name":"Owlnubbies","steam_id":76561198137462310,"connected_time":1240000000000,"state":"active","ping":73},{"user_id":515,"name":"RandomGavin?","steam_id":76561199102839784,"connected_time":850000000000,"state":"active","ping":83},{"user_id":504,"name":"kree","steam_id":76561197979960008,"connected_time":1317000000000,"state":"active","ping":77},{"user_id":511,"name":"gnome zone","steam_id":76561198883349445,"connected_time":1042000000000,"state":"active","ping":103},{"user_id":496,"name":"Runic","steam_id":76561198025537364,"connected_time":2781000000000,"state":"active","ping":83},{"user_id":512,"name":"YOUNG UPGRADE","steam_id":76561198035474725,"connected_time":1032000000000,"state":"active","ping":85},{"user_id":383,"name":"Giselle","steam_id":76561198162593640,"connected_time":12119000000000,"state":"active","ping":104},{"user_id":480,"name":"GLG.Liz","steam_id":76561198021957956,"connected_time":3841000000000,"state":"active","ping":54},{"user_id":513,"name":"SoldMyKidneyForCollege","steam_id":76561198096329559,"connected_time":1013000000000,"state":"active","ping":111},{"user_id":498,"name":"Coup de Grass","steam_id":76561198011643226,"connected_time":2736000000000,"state":"active","ping":100},{"user_id":514,"name":"McClaw","steam_id":76561198075481973,"connected_time":1009000000000,"state":"active","ping":85},{"user_id":442,"name":"penguinever0","steam_id":76561198882179246,"connected_time":7450000000000,"state":"active","ping":56}]},{"server_id":5,"name":"Uncletopia | Frankfurt | 1 | All Maps","name_short":"frk-1","host":"frk-1.de.uncletopia.com","port":27015,"enabled":true,"region":"eu","cc":"de","latitude":50.110924,"longitude":8.682127,"reserved":0,"last_update":"0001-01-01T00:00:00Z","name_a2s":"Uncletopia | Frankfurt | 1 | All Maps","protocol":17,"map":"pl_upward","folder":"tf","game":"Team Fortress","app_id":440,"player_count":0,"max_players":24,"Bots":0,"server_type":"Dedicated","server_os":"Linux","password":true,"vac":true,"version":"7882260","steam_id":85568392924469989,"keywords":["nocrits","nodmgspread","payload","uncletopia"],"game_id":440,"stv_port":27016,"stv_name":"Uncletopia | Frankfurt | 1 | All Maps | STV","players":null},{"server_id":110,"name":"Uncletopia | Frankfurt | 2 | All Maps","name_short":"frk-2","host":"frk-1.de.uncletopia.com","port":27025,"enabled":true,"region":"eu","cc":"de","latitude":50.110924,"longitude":8.682127,"reserved":0,"last_update":"0001-01-01T00:00:00Z","name_a2s":"Uncletopia | Frankfurt | 2 | All Maps","protocol":17,"map":"pl_barnblitz","folder":"tf","game":"Team Fortress","app_id":440,"player_count":0,"max_players":24,"Bots":0,"server_type":"Dedicated","server_os":"Linux","password":true,"vac":true,"version":"7882260","steam_id":85568392924469990,"keywords":["nocrits","nodmgspread","payload","uncletopia"],"game_id":440,"stv_port":27026,"stv_name":"Uncletopia | Frankfurt | 2 | All Maps | STV","players":null},{"server_id":308,"name":"Uncletopia | Frankfurt | 3 | All Maps","name_short":"frk-3","host":"frk-1.de.uncletopia.com","port":27035,"enabled":true,"region":"eu","cc":"de","latitude":50.110924,"longitude":8.682127,"reserved":0,"last_update":"0001-01-01T00:00:00Z","name_a2s":"Uncletopia | Frankfurt | 3 | All Maps","protocol":17,"map":"koth_highpass","folder":"tf","game":"Team Fortress","app_id":440,"player_count":0,"max_players":24,"Bots":0,"server_type":"Dedicated","server_os":"Linux","password":true,"vac":true,"version":"7882260","steam_id":85568392924504274,"keywords":["cp","nocrits","nodmgspread","uncletopia"],"game_id":440,"stv_port":27036,"stv_name":"Uncletopia | Frankfurt | 3 | All Maps | STV","players":null},{"server_id":309,"name":"Uncletopia | Frankfurt | 4 | All Maps","name_short":"frk-4","host":"frk-1.de.uncletopia.com","port":27045,"enabled":true,"region":"eu","cc":"de","latitude":50.110924,"longitude":8.682127,"reserved":0,"last_update":"0001-01-01T00:00:00Z","name_a2s":"Uncletopia | Frankfurt | 4 | All Maps","protocol":17,"map":"koth_lakeside_final","folder":"tf","game":"Team Fortress","app_id":440,"player_count":0,"max_players":24,"Bots":0,"server_type":"Dedicated","server_os":"Linux","password":true,"vac":true,"version":"7882260","steam_id":85568392924504275,"keywords":["cp","nocrits","nodmgspread","uncletopia"],"game_id":440,"stv_port":27046,"stv_name":"Uncletopia | Frankfurt | 4 | All Maps | STV","players":null},{"server_id":310,"name":"Uncletopia | Frankfurt | 5 | All Maps","name_short":"frk-5","host":"frk-1.de.uncletopia.com","port":27055,"enabled":true,"region":"eu","cc":"de","latitude":50.110924,"longitude":8.682127,"reserved":0,"last_update":"0001-01-01T00:00:00Z","name_a2s":"Uncletopia | Frankfurt | 5 | All Maps","protocol":17,"map":"pl_frontier_final","folder":"tf","game":"Team Fortress","app_id":440,"player_count":0,"max_players":24,"Bots":0,"server_type":"Dedicated","server_os":"Linux","password":true,"vac":true,"version":"7882260","steam_id":85568392924504277,"keywords":["nocrits","nodmgspread","payload","uncletopia"],"game_id":440,"stv_port":27056,"stv_name":"Uncletopia | Frankfurt | 5 | All Maps | STV","players":null},{"server_id":311,"name":"Uncletopia | Frankfurt | 6 | All Maps","name_short":"frk-6","host":"frk-1.de.uncletopia.com","port":27065,"enabled":true,"region":"eu","cc":"de","latitude":50.110924,"longitude":8.682127,"reserved":0,"last_update":"0001-01-01T00:00:00Z","name_a2s":"Uncletopia | Frankfurt | 6 | All Maps","protocol":17,"map":"cp_sunshine","folder":"tf","game":"Team Fortress","app_id":440,"player_count":0,"max_players":24,"Bots":0,"server_type":"Dedicated","server_os":"Linux","password":true,"vac":true,"version":"7882260","steam_id":85568392924504278,"keywords":["cp","nocrits","nodmgspread","uncletopia"],"game_id":440,"stv_port":27066,"stv_name":"Uncletopia | Frankfurt | 6 | All Maps | STV","players":null},{"server_id":23,"name":"Uncletopia | Frankfurt | 7 | Stopwatch Beta","name_short":"frk-7","host":"frk-1.de.uncletopia.com","port":27075,"enabled":true,"region":"eu","cc":"de","latitude":50.110924,"longitude":8.682127,"reserved":0,"last_update":"0001-01-01T00:00:00Z","name_a2s":"Uncletopia | Frankfurt | 7 | Stopwatch Beta","protocol":17,"map":"workshop/koth_clearcut_b15.ugc2107050255","folder":"tf","game":"Team Fortress","app_id":440,"player_count":0,"max_players":24,"Bots":0,"server_type":"Dedicated","server_os":"Linux","password":true,"vac":true,"version":"7882260","steam_id":85568392924742827,"keywords":["cp","nocrits","nodmgspread","uncletopia"],"game_id":440,"stv_port":27076,"stv_name":"Uncletopia | Frankfurt | 7 | Stopwatch Beta | STV","players":null},{"server_id":24,"name":"Uncletopia | Frankfurt | 8 | Community","name_short":"frk-8","host":"frk-1.de.uncletopia.com","port":27085,"enabled":true,"region":"eu","cc":"de","latitude":50.110924,"longitude":8.682127,"reserved":0,"last_update":"0001-01-01T00:00:00Z","name_a2s":"Uncletopia | Frankfurt | 8 | Community","protocol":17,"map":"workshop/cp_reckoner_rc6.ugc674719999","folder":"tf","game":"Team Fortress","app_id":440,"player_count":0,"max_players":24,"Bots":0,"server_type":"Dedicated","server_os":"Linux","password":true,"vac":true,"version":"7882260","steam_id":85568392924742828,"keywords":["cp","nocrits","nodmgspread","uncletopia"],"game_id":440,"stv_port":27086,"stv_name":"Uncletopia | Frankfurt | 8 | Community | STV","players":null},{"server_id":202,"name":"Uncletopia | Hong Kong | 1 | All Maps","name_short":"hgk-1","host":"hgk-1.hk.uncletopia.com","port":27015,"enabled":true,"region":"asia","cc":"hk","latitude":22.302711,"longitude":114.177216,"reserved":0,"last_update":"0001-01-01T00:00:00Z","name_a2s":"Uncletopia | Hong Kong | 1 | All Maps","protocol":17,"map":"cp_altitude","folder":"tf","game":"Team Fortress","app_id":440,"player_count":1,"max_players":24,"Bots":0,"server_type":"Dedicated","server_os":"Linux","password":true,"vac":true,"version":"7882260","steam_id":85568392924494504,"keywords":["cp","nocrits","nodmgspread","uncletopia"],"game_id":440,"stv_port":27016,"stv_name":"Uncletopia | Hong Kong | 1 | All Maps | STV","players":[{"user_id":123,"name":"3wfFbdrjEze5d2G","steam_id":76561198435900451,"connected_time":7000000000,"state":"spawning","ping":161}]},{"server_id":1,"name":"Uncletopia | Los Angeles | 1 | All Maps","name_short":"lax-1","host":"lax-1.us.uncletopia.com","port":27015,"enabled":true,"region":"us-west","cc":"us","latitude":33.94279,"longitude":-118.41004,"reserved":0,"last_update":"0001-01-01T00:00:00Z","name_a2s":"Uncletopia | Los Angeles | 1 | All Maps","protocol":17,"map":"pl_swiftwater_final1","folder":"tf","game":"Team Fortress","app_id":440,"player_count":24,"max_players":24,"Bots":0,"server_type":"Dedicated","server_os":"Linux","password":true,"vac":true,"version":"7882260","steam_id":85568392924469991,"keywords":["nocrits","nodmgspread","payload","uncletopia"],"game_id":440,"stv_port":27016,"stv_name":"Uncletopia | Los Angeles | 1 | All Maps | STV","players":[{"user_id":214,"name":"Gamma","steam_id":76561198162485719,"connected_time":6562000000000,"state":"active","ping":52},{"user_id":287,"name":"Juan M. Maldacena","steam_id":76561198066883814,"connected_time":126000000000,"state":"active","ping":57},{"user_id":276,"name":"Jazpy","steam_id":76561198036872545,"connected_time":792000000000,"state":"active","ping":75},{"user_id":237,"name":"FETTUCCINE GANG","steam_id":76561198398722419,"connected_time":3430000000000,"state":"active","ping":92},{"user_id":283,"name":"moe","steam_id":76561198929586245,"connected_time":614000000000,"state":"active","ping":56},{"user_id":171,"name":"jayzak24","steam_id":76561198354267509,"connected_time":8967000000000,"state":"active","ping":54},{"user_id":172,"name":"goopsnatch","steam_id":76561198143877682,"connected_time":8958000000000,"state":"active","ping":85},{"user_id":275,"name":"mkl","steam_id":76561197986401685,"connected_time":830000000000,"state":"active","ping":87},{"user_id":263,"name":"i cant aim","steam_id":76561198065873462,"connected_time":2036000000000,"state":"active","ping":45},{"user_id":260,"name":"PrimerChase","steam_id":76561198378826131,"connected_time":2256000000000,"state":"active","ping":121},{"user_id":261,"name":"pati qk","steam_id":76561198858474714,"connected_time":2246000000000,"state":"active","ping":85},{"user_id":277,"name":"OptiCxmShot","steam_id":76561198049019578,"connected_time":760000000000,"state":"active","ping":125},{"user_id":176,"name":"riSygneD","steam_id":76561198331618687,"connected_time":8754000000000,"state":"active","ping":34},{"user_id":258,"name":"Carthage (TRANSRIGHTS)","steam_id":76561198049001571,"connected_time":2342000000000,"state":"active","ping":93},{"user_id":278,"name":"Saul Catman","steam_id":76561199228539914,"connected_time":742000000000,"state":"active","ping":66},{"user_id":188,"name":"cream team","steam_id":76561198139043953,"connected_time":8133000000000,"state":"active","ping":80},{"user_id":279,"name":"StarryKosmic","steam_id":76561198041330642,"connected_time":742000000000,"state":"active","ping":103},{"user_id":269,"name":"flo rida","steam_id":76561198226169704,"connected_time":1366000000000,"state":"active","ping":48},{"user_id":264,"name":"Reem0h","steam_id":76561198169848690,"connected_time":2029000000000,"state":"active","ping":108},{"user_id":280,"name":"sekusse","steam_id":76561198233073948,"connected_time":716000000000,"state":"active","ping":130},{"user_id":281,"name":"MrFrost","steam_id":76561198800061541,"connected_time":710000000000,"state":"active","ping":66},{"user_id":288,"name":"Timewaves","steam_id":76561198000186054,"connected_time":35000000000,"state":"active","ping":48},{"user_id":266,"name":"toxicpeck @@yahoocum","steam_id":76561198213385439,"connected_time":1947000000000,"state":"active","ping":109},{"user_id":268,"name":"hapi bananuh","steam_id":76561198091547092,"connected_time":1836000000000,"state":"active","ping":98}]},{"server_id":112,"name":"Uncletopia | Los Angeles | 2 | All Maps","name_short":"lax-2","host":"lax-1.us.uncletopia.com","port":27025,"enabled":true,"region":"us-west","cc":"us","latitude":33.94279,"longitude":-118.41004,"reserved":0,"last_update":"0001-01-01T00:00:00Z","name_a2s":"Uncletopia | Los Angeles | 2 | All Maps","protocol":17,"map":"cp_powerhouse","folder":"tf","game":"Team Fortress","app_id":440,"player_count":25,"max_players":24,"Bots":0,"server_type":"Dedicated","server_os":"Linux","password":true,"vac":true,"version":"7882260","steam_id":85568392924469992,"keywords":["cp","nocrits","nodmgspread","uncletopia"],"game_id":440,"stv_port":27026,"stv_name":"Uncletopia | Los Angeles | 2 | All Maps | STV","players":[{"user_id":154,"name":"¬§GKGR¬§ CONSUME","steam_id":76561197987458145,"connected_time":4184000000000,"state":"active","ping":62},{"user_id":198,"name":"walrooos","steam_id":76561198024521839,"connected_time":306000000000,"state":"active","ping":82},{"user_id":167,"name":"t","steam_id":76561198175988929,"connected_time":2814000000000,"state":"active","ping":111},{"user_id":155,"name":"Scuff1e","steam_id":76561198272995728,"connected_time":4060000000000,"state":"active","ping":82},{"user_id":184,"name":"shakoiwa","steam_id":76561199059441773,"connected_time":1631000000000,"state":"active","ping":53},{"user_id":192,"name":"meth leppard","steam_id":76561198049947281,"connected_time":1109000000000,"state":"active","ping":60},{"user_id":186,"name":"Sinn","steam_id":76561199013434543,"connected_time":1364000000000,"state":"active","ping":71},{"user_id":180,"name":"Person Man","steam_id":76561198293857963,"connected_time":1752000000000,"state":"active","ping":62},{"user_id":199,"name":"zaza addict","steam_id":76561198202982780,"connected_time":239000000000,"state":"connecting","ping":0},{"user_id":178,"name":"Glar","steam_id":76561198341907150,"connected_time":1985000000000,"state":"active","ping":59},{"user_id":200,"name":"GimliLOTR","steam_id":76561198163746000,"connected_time":224000000000,"state":"active","ping":111},{"user_id":83,"name":"Gerbias","steam_id":76561198001002427,"connected_time":9523000000000,"state":"active","ping":62},{"user_id":191,"name":"James","steam_id":76561198077251918,"connected_time":1146000000000,"state":"active","ping":55},{"user_id":162,"name":"Thunder","steam_id":76561198097721532,"connected_time":3779000000000,"state":"active","ping":50},{"user_id":46,"name":"dairy delinquent","steam_id":76561198971552734,"connected_time":10978000000000,"state":"active","ping":35},{"user_id":201,"name":"xSolair","steam_id":76561199216870782,"connected_time":149000000000,"state":"active","ping":84},{"user_id":203,"name":"MORE BOUNCE TO THE OUNCE","steam_id":76561198243399336,"connected_time":17000000000,"state":"spawning","ping":59},{"user_id":122,"name":"G. Howard Dee","steam_id":76561198058382812,"connected_time":6683000000000,"state":"active","ping":47},{"user_id":81,"name":"beeble!","steam_id":76561198219538525,"connected_time":9648000000000,"state":"active","ping":87},{"user_id":195,"name":"Darkspiral","steam_id":76561198080807559,"connected_time":713000000000,"state":"active","ping":57},{"user_id":53,"name":"his felony","steam_id":76561199485565834,"connected_time":10886000000000,"state":"active","ping":76},{"user_id":193,"name":"Dangerous_Dave76","steam_id":76561199230056550,"connected_time":1098000000000,"state":"active","ping":58},{"user_id":194,"name":"basket","steam_id":76561199486768009,"connected_time":1079000000000,"state":"active","ping":58},{"user_id":202,"name":"Tocha","steam_id":76561198119725400,"connected_time":116000000000,"state":"active","ping":101},{"user_id":197,"name":"perc 10","steam_id":76561198116471653,"connected_time":578000000000,"state":"active","ping":97}]},{"server_id":324,"name":"Uncletopia | Los Angeles | 3 | All Maps","name_short":"lax-3","host":"lax-1.us.uncletopia.com","port":27035,"enabled":true,"region":"us-west","cc":"us","latitude":33.94279,"longitude":-118.41004,"reserved":0,"last_update":"0001-01-01T00:00:00Z","name_a2s":"Uncletopia | Los Angeles | 3 | All Maps","protocol":17,"map":"cp_dustbowl","folder":"tf","game":"Team Fortress","app_id":440,"player_count":23,"max_players":24,"Bots":0,"server_type":"Dedicated","server_os":"Linux","password":true,"vac":true,"version":"7882260","steam_id":85568392924510198,"keywords":["cp","nocrits","nodmgspread","uncletopia"],"game_id":440,"stv_port":27036,"stv_name":"Uncletopia | Los Angeles | 3 | All Maps | STV","players":[{"user_id":13,"name":"Veritox","steam_id":76561198075778026,"connected_time":4858000000000,"state":"active","ping":66},{"user_id":14,"name":"squid","steam_id":76561198070236972,"connected_time":4842000000000,"state":"active","ping":60},{"user_id":46,"name":"NagitoTheLucky","steam_id":76561198065096327,"connected_time":1928000000000,"state":"active","ping":60},{"user_id":72,"name":"Cheesus","steam_id":76561198072134514,"connected_time":107000000000,"state":"active","ping":67},{"user_id":19,"name":"PROFILE NAME","steam_id":76561199438851854,"connected_time":3985000000000,"state":"active","ping":93},{"user_id":73,"name":"Topaz","steam_id":76561199093694654,"connected_time":28000000000,"state":"active","ping":52},{"user_id":74,"name":"Gaige","steam_id":76561198063462825,"connected_time":28000000000,"state":"spawning","ping":100},{"user_id":41,"name":"Sh3ba Spaniel","steam_id":76561198047412394,"connected_time":2317000000000,"state":"active","ping":109},{"user_id":49,"name":"Barnie Sandlers","steam_id":76561198153295482,"connected_time":1751000000000,"state":"active","ping":42},{"user_id":70,"name":"Bada Bingus","steam_id":76561198046743307,"connected_time":697000000000,"state":"active","ping":124},{"user_id":28,"name":"||:‚ô©‚ô©‚ô©‚ô™:|| Opplydead","steam_id":76561198028630334,"connected_time":3324000000000,"state":"active","ping":53},{"user_id":57,"name":"matt_rolltide","steam_id":76561198796727164,"connected_time":1397000000000,"state":"active","ping":39},{"user_id":65,"name":"Ralph Kramden (Slim Charles)","steam_id":76561197981687895,"connected_time":928000000000,"state":"active","ping":64},{"user_id":60,"name":"Lune","steam_id":76561198124572077,"connected_time":1179000000000,"state":"active","ping":97},{"user_id":75,"name":"roylando","steam_id":76561198853215040,"connected_time":22000000000,"state":"spawning","ping":90},{"user_id":76,"name":"the private","steam_id":76561198232500756,"connected_time":22000000000,"state":"active","ping":81},{"user_id":69,"name":"vern","steam_id":76561198129892148,"connected_time":731000000000,"state":"active","ping":46},{"user_id":77,"name":"XxDragon4321xX","steam_id":76561198046705735,"connected_time":13000000000,"state":"active","ping":70},{"user_id":62,"name":"H00DEDRIOT","steam_id":76561198351880498,"connected_time":1172000000000,"state":"active","ping":89},{"user_id":47,"name":"A Stinky Lizard","steam_id":76561198334119508,"connected_time":1926000000000,"state":"active","ping":54},{"user_id":48,"name":"mario","steam_id":76561199440272639,"connected_time":1921000000000,"state":"active","ping":97},{"user_id":64,"name":"cozy","steam_id":76561199044037628,"connected_time":1164000000000,"state":"active","ping":122},{"user_id":68,"name":"Soke","steam_id":76561198135416383,"connected_time":816000000000,"state":"active","ping":62}]},{"server_id":25,"name":"Uncletopia | Los Angeles | 4 | Stopwatch Beta","name_short":"lax-4","host":"lax-1.us.uncletopia.com","port":27045,"enabled":true,"region":"us-west","cc":"us","latitude":33.94279,"longitude":-118.41004,"reserved":0,"last_update":"0001-01-01T00:00:00Z","name_a2s":"Uncletopia | Los Angeles | 4 | Stopwatch Beta","protocol":17,"map":"koth_viaduct","folder":"tf","game":"Team Fortress","app_id":440,"player_count":0,"max_players":24,"Bots":0,"server_type":"Dedicated","server_os":"Linux","password":true,"vac":true,"version":"7882260","steam_id":85568392924510199,"keywords":["cp","nocrits","nodmgspread","uncletopia"],"game_id":440,"stv_port":27046,"stv_name":"Uncletopia | Los Angeles | 4 | Stopwatch Beta | STV","players":null},{"server_id":11,"name":"Uncletopia | London | 1 | All Maps","name_short":"lon-1","host":"lon-1.uk.uncletopia.com","port":27015,"enabled":true,"region":"eu","cc":"gb","latitude":51.509865,"longitude":-0.118092,"reserved":0,"last_update":"0001-01-01T00:00:00Z","name_a2s":"Uncletopia | London | 1 | All Maps","protocol":17,"map":"pl_barnblitz","folder":"tf","game":"Team Fortress","app_id":440,"player_count":24,"max_players":24,"Bots":0,"server_type":"Dedicated","server_os":"Linux","password":true,"vac":true,"version":"7882260","steam_id":85568392924367362,"keywords":["nocrits","nodmgspread","payload","uncletopia"],"game_id":440,"stv_port":27016,"stv_name":"Uncletopia | London | 1 | All Maps | STV","players":[{"user_id":993,"name":"-kraft-","steam_id":76561198086695613,"connected_time":3286000000000,"state":"active","ping":92},{"user_id":1013,"name":"Jouppi","steam_id":76561198063725468,"connected_time":1363000000000,"state":"active","ping":90},{"user_id":971,"name":"Cosmetic brain","steam_id":76561198055936410,"connected_time":4398000000000,"state":"active","ping":79},{"user_id":1007,"name":"Worm","steam_id":76561198296497176,"connected_time":2515000000000,"state":"active","ping":44},{"user_id":1014,"name":"0","steam_id":76561199084809092,"connected_time":1325000000000,"state":"active","ping":106},{"user_id":1015,"name":"Dovakin","steam_id":76561198103265377,"connected_time":1324000000000,"state":"active","ping":106},{"user_id":1024,"name":"Hammock","steam_id":76561197979206279,"connected_time":371000000000,"state":"active","ping":53},{"user_id":988,"name":"CombustionCamel","steam_id":76561198168085530,"connected_time":3756000000000,"state":"active","ping":33},{"user_id":1008,"name":"Lyncurion","steam_id":76561199260022725,"connected_time":2478000000000,"state":"active","ping":84},{"user_id":1016,"name":"joachym","steam_id":76561198428579761,"connected_time":1312000000000,"state":"active","ping":68},{"user_id":1005,"name":"Xx_EpicGaymer_xX","steam_id":76561198846784757,"connected_time":2757000000000,"state":"active","ping":60},{"user_id":1019,"name":"Cordial_Lump","steam_id":76561198027777950,"connected_time":1099000000000,"state":"active","ping":143},{"user_id":994,"name":"Vap","steam_id":76561197999702200,"connected_time":3281000000000,"state":"active","ping":43},{"user_id":1023,"name":"DeanAdamFry","steam_id":76561198054153160,"connected_time":380000000000,"state":"active","ping":49},{"user_id":1001,"name":"Proud Jojo Fan #TF2SP","steam_id":76561198847327216,"connected_time":3179000000000,"state":"active","ping":75},{"user_id":992,"name":"turn the fridge on","steam_id":76561199480942903,"connected_time":3471000000000,"state":"active","ping":71},{"user_id":1020,"name":"Alf","steam_id":76561198869666452,"connected_time":1083000000000,"state":"active","ping":76},{"user_id":1009,"name":"–ù–∞—á–∞–ª—å–Ω–∏–∫","steam_id":76561198422028453,"connected_time":2423000000000,"state":"active","ping":120},{"user_id":738,"name":"dec","steam_id":76561198009660168,"connected_time":25283000000000,"state":"active","ping":58},{"user_id":983,"name":"KLAMA  ‚ù§","steam_id":76561198351549661,"connected_time":4177000000000,"state":"active","ping":75},{"user_id":961,"name":"S_ApplePie","steam_id":76561198106947669,"connected_time":6953000000000,"state":"active","ping":75},{"user_id":990,"name":"margaret thatcher's girl power","steam_id":76561199401283123,"connected_time":3623000000000,"state":"active","ping":50},{"user_id":1017,"name":"Lazy","steam_id":76561199244421220,"connected_time":1298000000000,"state":"active","ping":64},{"user_id":1025,"name":"Mega Saturn","steam_id":76561198024750500,"connected_time":371000000000,"state":"active","ping":75}]},{"server_id":114,"name":"Uncletopia | London | 2 | All Maps","name_short":"lon-2","host":"lon-1.uk.uncletopia.com","port":27025,"enabled":true,"region":"eu","cc":"gb","latitude":51.509865,"longitude":-0.118092,"reserved":0,"last_update":"0001-01-01T00:00:00Z","name_a2s":"Uncletopia | London | 2 | All Maps","protocol":17,"map":"koth_highpass","folder":"tf","game":"Team Fortress","app_id":440,"player_count":0,"max_players":24,"Bots":0,"server_type":"Dedicated","server_os":"Linux","password":true,"vac":true,"version":"7882260","steam_id":85568392924470941,"keywords":["cp","nocrits","nodmgspread","uncletopia"],"game_id":440,"stv_port":27026,"stv_name":"Uncletopia | London | 2 | All Maps | STV","players":null},{"server_id":320,"name":"Uncletopia | London | 3 | All Maps","name_short":"lon-3","host":"lon-1.uk.uncletopia.com","port":27035,"enabled":true,"region":"eu","cc":"gb","latitude":51.509865,"longitude":-0.118092,"reserved":0,"last_update":"0001-01-01T00:00:00Z","name_a2s":"Uncletopia | London | 3 | All Maps","protocol":17,"map":"koth_cascade","folder":"tf","game":"Team Fortress","app_id":440,"player_count":0,"max_players":24,"Bots":0,"server_type":"Dedicated","server_os":"Linux","password":true,"vac":true,"version":"7882260","steam_id":85568392924510192,"keywords":["cp","nocrits","nodmgspread","uncletopia"],"game_id":440,"stv_port":27036,"stv_name":"Uncletopia | London | 3 | All Maps | STV","players":null},{"server_id":321,"name":"Uncletopia | London | 4 | All Maps","name_short":"lon-4","host":"lon-1.uk.uncletopia.com","port":27045,"enabled":true,"region":"eu","cc":"gb","latitude":51.509865,"longitude":-0.118092,"reserved":0,"last_update":"0001-01-01T00:00:00Z","name_a2s":"Uncletopia | London | 4 | All Maps","protocol":17,"map":"pl_badwater","folder":"tf","game":"Team Fortress","app_id":440,"player_count":0,"max_players":24,"Bots":0,"server_type":"Dedicated","server_os":"Linux","password":true,"vac":true,"version":"7882260","steam_id":85568392924510193,"keywords":["nocrits","nodmgspread","payload","uncletopia"],"game_id":440,"stv_port":27046,"stv_name":"Uncletopia | London | 4 | All Maps | STV","players":null},{"server_id":21,"name":"Uncletopia | London | 5 | All Maps","name_short":"lon-5","host":"lon-1.uk.uncletopia.com","port":27055,"enabled":true,"region":"eu","cc":"gb","latitude":51.509865,"longitude":-0.118092,"reserved":0,"last_update":"0001-01-01T00:00:00Z","name_a2s":"Uncletopia | London | 5 | All Maps","protocol":17,"map":"pl_pier","folder":"tf","game":"Team Fortress","app_id":440,"player_count":0,"max_players":24,"Bots":0,"server_type":"Dedicated","server_os":"Linux","password":true,"vac":true,"version":"7882260","steam_id":85568392924742829,"keywords":["nocrits","nodmgspread","payload","uncletopia"],"game_id":440,"stv_port":27056,"stv_name":"Uncletopia | London | 5 | All Maps | STV","players":null},{"server_id":22,"name":"Uncletopia | London | 6 | All Maps","name_short":"lon-6","host":"lon-1.uk.uncletopia.com","port":27065,"enabled":true,"region":"eu","cc":"gb","latitude":51.509865,"longitude":-0.118092,"reserved":0,"last_update":"0001-01-01T00:00:00Z","name_a2s":"Uncletopia | London | 6 | All Maps","protocol":17,"map":"pl_borneo","folder":"tf","game":"Team Fortress","app_id":440,"player_count":0,"max_players":24,"Bots":0,"server_type":"Dedicated","server_os":"Linux","password":true,"vac":true,"version":"7882260","steam_id":85568392924742830,"keywords":["nocrits","nodmgspread","payload","uncletopia"],"game_id":440,"stv_port":27066,"stv_name":"Uncletopia | London | 6 | All Maps | STV","players":null},{"server_id":40,"name":"Uncletopia | London | 7 | No Payload","name_short":"lon-7","host":"lon-1.uk.uncletopia.com","port":27075,"enabled":true,"region":"eu","cc":"gb","latitude":51.509865,"longitude":-0.118092,"reserved":0,"last_update":"0001-01-01T00:00:00Z","name_a2s":"Uncletopia | London | 7 | No Payload","protocol":17,"map":"koth_highpass","folder":"tf","game":"Team Fortress","app_id":440,"player_count":0,"max_players":24,"Bots":0,"server_type":"Dedicated","server_os":"Linux","password":true,"vac":true,"version":"7882260","steam_id":85568392924964314,"keywords":["cp","nocrits","nodmgspread","uncletopia"],"game_id":440,"stv_port":27076,"stv_name":"Uncletopia | London | 7 | No Payload | STV","players":null},{"server_id":41,"name":"Uncletopia | London | 8 | Community","name_short":"lon-8","host":"lon-1.uk.uncletopia.com","port":27085,"enabled":true,"region":"eu","cc":"gb","latitude":51.509865,"longitude":-0.118092,"reserved":0,"last_update":"0001-01-01T00:00:00Z","name_a2s":"Uncletopia | London | 8 | Community","protocol":17,"map":"workshop/koth_bagel_rc6.ugc2514036946","folder":"tf","game":"Team Fortress","app_id":440,"player_count":0,"max_players":24,"Bots":0,"server_type":"Dedicated","server_os":"Linux","password":true,"vac":true,"version":"7882260","steam_id":85568392924964315,"keywords":["cp","nocrits","nodmgspread","uncletopia"],"game_id":440,"stv_port":27086,"stv_name":"Uncletopia | London | 8 | Community | STV","players":null},{"server_id":300,"name":"Uncletopia | Montr√©al | 1 | All Maps","name_short":"mtl-1","host":"mtl-1.ca.uncletopia.com","port":27015,"enabled":true,"region":"us-east","cc":"ca","latitude":45.50889,"longitude":-73.56167,"reserved":0,"last_update":"0001-01-01T00:00:00Z","name_a2s":"Uncletopia | Montr√©al | 1 | All Maps","protocol":17,"map":"cp_sunshine","folder":"tf","game":"Team Fortress","app_id":440,"player_count":5,"max_players":24,"Bots":0,"server_type":"Dedicated","server_os":"Linux","password":true,"vac":true,"version":"7882260","steam_id":85568392924500087,"keywords":["cp","nocrits","nodmgspread","uncletopia"],"game_id":440,"stv_port":27016,"stv_name":"Uncletopia | Montr√©al | 1 | All Maps | STV","players":[{"user_id":35,"name":"Polly Geist","steam_id":76561198271964253,"connected_time":1410000000000,"state":"active","ping":90},{"user_id":37,"name":"E #savetf2","steam_id":76561199071810890,"connected_time":1386000000000,"state":"active","ping":97},{"user_id":38,"name":"join blue for free butsex","steam_id":76561198800365464,"connected_time":1313000000000,"state":"active","ping":103},{"user_id":43,"name":"The strongest ‚ë® ball","steam_id":76561198126760743,"connected_time":865000000000,"state":"active","ping":90},{"user_id":51,"name":"trist","steam_id":76561198082016232,"connected_time":166000000000,"state":"spawning","ping":82}]},{"server_id":301,"name":"Uncletopia | Montr√©al | 2 | All Maps","name_short":"mtl-2","host":"mtl-1.ca.uncletopia.com","port":27025,"enabled":true,"region":"us-east","cc":"ca","latitude":45.50889,"longitude":-73.56167,"reserved":0,"last_update":"0001-01-01T00:00:00Z","name_a2s":"Uncletopia | Montr√©al | 2 | All Maps","protocol":17,"map":"pl_pier","folder":"tf","game":"Team Fortress","app_id":440,"player_count":0,"max_players":24,"Bots":0,"server_type":"Dedicated","server_os":"Linux","password":true,"vac":true,"version":"7882260","steam_id":85568392924500088,"keywords":["nocrits","nodmgspread","payload","uncletopia"],"game_id":440,"stv_port":27026,"stv_name":"Uncletopia | Montr√©al | 2 | All Maps | STV","players":null},{"server_id":302,"name":"Uncletopia | Montr√©al | 3 | All Maps","name_short":"mtl-3","host":"mtl-1.ca.uncletopia.com","port":27035,"enabled":true,"region":"us-east","cc":"ca","latitude":45.50889,"longitude":-73.56167,"reserved":0,"last_update":"0001-01-01T00:00:00Z","name_a2s":"Uncletopia | Montr√©al | 3 | All Maps","protocol":17,"map":"pl_enclosure_final","folder":"tf","game":"Team Fortress","app_id":440,"player_count":20,"max_players":24,"Bots":0,"server_type":"Dedicated","server_os":"Linux","password":true,"vac":true,"version":"7882260","steam_id":85568392924500089,"keywords":["nocrits","nodmgspread","payload","uncletopia"],"game_id":440,"stv_port":27036,"stv_name":"Uncletopia | Montr√©al | 3 | All Maps | STV","players":[{"user_id":83,"name":"Pizza the Hut","steam_id":76561197970450546,"connected_time":102000000000,"state":"active","ping":127},{"user_id":69,"name":"Cubbz","steam_id":76561198084767389,"connected_time":1410000000000,"state":"active","ping":102},{"user_id":9,"name":"xXMlgStalinXx","steam_id":76561198108128024,"connected_time":6853000000000,"state":"active","ping":79},{"user_id":10,"name":"Scuffy","steam_id":76561198058465018,"connected_time":6826000000000,"state":"active","ping":90},{"user_id":59,"name":"Tskuno","steam_id":76561198129291597,"connected_time":2611000000000,"state":"active","ping":70},{"user_id":13,"name":"ImpeccablePenguin","steam_id":76561198298776010,"connected_time":6392000000000,"state":"active","ping":87},{"user_id":76,"name":"Aldinach","steam_id":76561198079912615,"connected_time":713000000000,"state":"active","ping":44},{"user_id":77,"name":"Charlie","steam_id":76561199098209171,"connected_time":700000000000,"state":"active","ping":84},{"user_id":82,"name":"Bee_Pirate","steam_id":76561199000599111,"connected_time":129000000000,"state":"active","ping":53},{"user_id":72,"name":"Fiendish Frog","steam_id":76561198029478821,"connected_time":1358000000000,"state":"active","ping":57},{"user_id":84,"name":"ChozoChorizo","steam_id":76561198272609196,"connected_time":84000000000,"state":"active","ping":71},{"user_id":73,"name":"Gullen","steam_id":76561198120444822,"connected_time":1350000000000,"state":"active","ping":88},{"user_id":27,"name":"Nova","steam_id":76561198322564395,"connected_time":4578000000000,"state":"active","ping":86},{"user_id":28,"name":"Poobis enraged","steam_id":76561199189075618,"connected_time":4550000000000,"state":"active","ping":99},{"user_id":74,"name":"Narwhal King","steam_id":76561198082650989,"connected_time":1271000000000,"state":"active","ping":72},{"user_id":64,"name":"‚ù§ Dolphiniz ‚ù§","steam_id":76561199093367765,"connected_time":1633000000000,"state":"active","ping":113},{"user_id":31,"name":"CivilWarMike","steam_id":76561198141188839,"connected_time":4385000000000,"state":"active","ping":82},{"user_id":49,"name":"Yoshimelon","steam_id":76561198253054325,"connected_time":3565000000000,"state":"active","ping":82},{"user_id":50,"name":"Snake Handler","steam_id":76561198027198306,"connected_time":3527000000000,"state":"active","ping":73},{"user_id":47,"name":"ejschild745","steam_id":76561199013388867,"connected_time":3705000000000,"state":"active","ping":134}]},{"server_id":303,"name":"Uncletopia | Montr√©al | 4 | No Payload","name_short":"mtl-4","host":"mtl-1.ca.uncletopia.com","port":27045,"enabled":true,"region":"us-east","cc":"ca","latitude":45.50889,"longitude":-73.56167,"reserved":0,"last_update":"0001-01-01T00:00:00Z","name_a2s":"Uncletopia | Montr√©al | 4 | No Payload","protocol":17,"map":"koth_highpass","folder":"tf","game":"Team Fortress","app_id":440,"player_count":0,"max_players":24,"Bots":0,"server_type":"Dedicated","server_os":"Linux","password":true,"vac":true,"version":"7882260","steam_id":85568392924500090,"keywords":["cp","nocrits","nodmgspread","uncletopia"],"game_id":440,"stv_port":27046,"stv_name":"Uncletopia | Montr√©al | 4 | No Payload | STV","players":null},{"server_id":13,"name":"Uncletopia | New York City | 1 | All Maps","name_short":"nyc-1","host":"nyc-1.us.uncletopia.com","port":27015,"enabled":true,"region":"us-east","cc":"us","latitude":40.73061,"longitude":-73.93524,"reserved":0,"last_update":"0001-01-01T00:00:00Z","name_a2s":"Uncletopia | New York City | 1 | All Maps","protocol":17,"map":"pl_swiftwater_final1","folder":"tf","game":"Team Fortress","app_id":440,"player_count":22,"max_players":24,"Bots":0,"server_type":"Dedicated","server_os":"Linux","password":true,"vac":true,"version":"7882260","steam_id":85568392924469993,"keywords":["nocrits","nodmgspread","payload","uncletopia"],"game_id":440,"stv_port":27016,"stv_name":"Uncletopia | New York City | 1 | All Maps | STV","players":[{"user_id":453,"name":"Pixeled","steam_id":76561198088917077,"connected_time":3548000000000,"state":"active","ping":84},{"user_id":454,"name":"Blue","steam_id":76561199093604072,"connected_time":3542000000000,"state":"active","ping":72},{"user_id":443,"name":"CORGI.EXE","steam_id":76561198077093432,"connected_time":4921000000000,"state":"active","ping":53},{"user_id":477,"name":"Devoid","steam_id":76561198254039012,"connected_time":1588000000000,"state":"active","ping":47},{"user_id":482,"name":"KatNip","steam_id":76561198075062554,"connected_time":571000000000,"state":"active","ping":73},{"user_id":460,"name":"ADRIEN BRODY","steam_id":76561198009299473,"connected_time":3153000000000,"state":"active","ping":50},{"user_id":428,"name":"IMM0RTAL","steam_id":76561198013747901,"connected_time":5950000000000,"state":"active","ping":61},{"user_id":464,"name":"msay","steam_id":76561198170888029,"connected_time":2290000000000,"state":"active","ping":93},{"user_id":446,"name":"Parth Makeo","steam_id":76561198002516581,"connected_time":4150000000000,"state":"active","ping":45},{"user_id":484,"name":"Krellah","steam_id":76561198287045069,"connected_time":500000000000,"state":"active","ping":57},{"user_id":483,"name":"eepy.....","steam_id":76561198218897541,"connected_time":556000000000,"state":"active","ping":47},{"user_id":485,"name":"sonic1394","steam_id":76561198054636788,"connected_time":486000000000,"state":"active","ping":70},{"user_id":490,"name":"Clubay","steam_id":76561198993623071,"connected_time":75000000000,"state":"spawning","ping":69},{"user_id":452,"name":"·óúÀ¨·óú","steam_id":76561198049076233,"connected_time":3601000000000,"state":"active","ping":55},{"user_id":486,"name":"Phillip Jeffries","steam_id":76561198064052174,"connected_time":441000000000,"state":"active","ping":53},{"user_id":487,"name":"Hagane Miku Fan","steam_id":76561198377917071,"connected_time":407000000000,"state":"active","ping":70},{"user_id":480,"name":"Jane","steam_id":76561198353961509,"connected_time":1248000000000,"state":"active","ping":30},{"user_id":473,"name":"Bean456","steam_id":76561199179804378,"connected_time":1714000000000,"state":"active","ping":72},{"user_id":270,"name":"Shush","steam_id":76561198123902813,"connected_time":15039000000000,"state":"active","ping":90},{"user_id":479,"name":"Wigl","steam_id":76561198019324464,"connected_time":1309000000000,"state":"active","ping":55},{"user_id":467,"name":"Musica Universalis","steam_id":76561198184794174,"connected_time":2005000000000,"state":"active","ping":54},{"user_id":450,"name":"Wiener Hole Paper Cut","steam_id":76561198000808203,"connected_time":4012000000000,"state":"active","ping":62}]},{"server_id":14,"name":"Uncletopia | New York City | 2 | All Maps","name_short":"nyc-2","host":"nyc-1.us.uncletopia.com","port":27025,"enabled":true,"region":"us-east","cc":"us","latitude":40.73061,"longitude":-73.93524,"reserved":0,"last_update":"0001-01-01T00:00:00Z","name_a2s":"Uncletopia | New York City | 2 | All Maps","protocol":17,"map":"cp_badlands","folder":"tf","game":"Team Fortress","app_id":440,"player_count":24,"max_players":24,"Bots":0,"server_type":"Dedicated","server_os":"Linux","password":true,"vac":true,"version":"7882260","steam_id":85568392924469994,"keywords":["cp","nocrits","nodmgspread","uncletopia"],"game_id":440,"stv_port":27026,"stv_name":"Uncletopia | New York City | 2 | All Maps | STV","players":[{"user_id":493,"name":"AlecTheNefarious","steam_id":76561198035291230,"connected_time":1251000000000,"state":"active","ping":74},{"user_id":388,"name":"SHADY SWEATER SALESMAN","steam_id":76561198014616865,"connected_time":11272000000000,"state":"active","ping":59},{"user_id":483,"name":"30day","steam_id":76561198219163831,"connected_time":2645000000000,"state":"active","ping":60},{"user_id":490,"name":"lanoc","steam_id":76561198055415367,"connected_time":1874000000000,"state":"active","ping":59},{"user_id":459,"name":"Victor Skull","steam_id":76561198352212864,"connected_time":4655000000000,"state":"active","ping":36},{"user_id":484,"name":"Abusive Father","steam_id":76561199123118241,"connected_time":2645000000000,"state":"active","ping":131},{"user_id":499,"name":"Royal Birb","steam_id":76561198124184158,"connected_time":396000000000,"state":"active","ping":114},{"user_id":485,"name":"waru","steam_id":76561198044251420,"connected_time":2643000000000,"state":"active","ping":51},{"user_id":491,"name":"Slime Rancher 2 Enjoyer","steam_id":76561199171272762,"connected_time":1266000000000,"state":"active","ping":74},{"user_id":496,"name":"nycgremlin","steam_id":76561198054685142,"connected_time":714000000000,"state":"active","ping":66},{"user_id":498,"name":"Virtual Zorua","steam_id":76561198196180302,"connected_time":557000000000,"state":"active","ping":64},{"user_id":436,"name":"Just_Bad","steam_id":76561198145153093,"connected_time":6965000000000,"state":"active","ping":47},{"user_id":449,"name":"l4d2 marshall","steam_id":76561198042570322,"connected_time":5406000000000,"state":"active","ping":75},{"user_id":401,"name":"Periculosum PhD in Funny","steam_id":76561198123370914,"connected_time":9668000000000,"state":"active","ping":92},{"user_id":473,"name":"Baron von Whoopsie","steam_id":76561197996691013,"connected_time":3553000000000,"state":"active","ping":55},{"user_id":457,"name":"i'm in the house like carpet","steam_id":76561198046111695,"connected_time":4920000000000,"state":"active","ping":76},{"user_id":438,"name":"HydriusYin","steam_id":76561198071591352,"connected_time":6910000000000,"state":"active","ping":70},{"user_id":444,"name":"Pizza","steam_id":76561198118748364,"connected_time":6272000000000,"state":"active","ping":73},{"user_id":446,"name":"Autogyro","steam_id":76561198047943679,"connected_time":6031000000000,"state":"active","ping":82},{"user_id":495,"name":"[LIVE] ttv/lilirouxxx","steam_id":76561198000522179,"connected_time":1222000000000,"state":"active","ping":74},{"user_id":468,"name":"Weary","steam_id":76561198145767546,"connected_time":4025000000000,"state":"active","ping":72},{"user_id":431,"name":"Christian Chandler","steam_id":76561198056223909,"connected_time":7210000000000,"state":"active","ping":74},{"user_id":486,"name":"sithreis","steam_id":76561198000564263,"connected_time":2611000000000,"state":"active","ping":70},{"user_id":487,"name":"BKAngryChopper","steam_id":76561198010019214,"connected_time":2609000000000,"state":"active","ping":35}]},{"server_id":15,"name":"Uncletopia | New York City | 3 | Stopwatch Beta","name_short":"nyc-3","host":"nyc-1.us.uncletopia.com","port":27035,"enabled":true,"region":"us-east","cc":"us","latitude":40.73061,"longitude":-73.93524,"reserved":0,"last_update":"0001-01-01T00:00:00Z","name_a2s":"Uncletopia | New York City | 3 | Stopwatch Beta","protocol":17,"map":"pl_borneo","folder":"tf","game":"Team Fortress","app_id":440,"player_count":0,"max_players":24,"Bots":0,"server_type":"Dedicated","server_os":"Linux","password":true,"vac":true,"version":"7882260","steam_id":85568392924742820,"keywords":["nocrits","nodmgspread","payload","uncletopia"],"game_id":440,"stv_port":27036,"stv_name":"Uncletopia | New York City | 3 | Stopwatch Beta | STV","players":null},{"server_id":16,"name":"Uncletopia | New York City | 4 | Community","name_short":"nyc-4","host":"nyc-1.us.uncletopia.com","port":27045,"enabled":true,"region":"us-east","cc":"us","latitude":40.73061,"longitude":-73.93524,"reserved":0,"last_update":"0001-01-01T00:00:00Z","name_a2s":"Uncletopia | New York City | 4 | Community","protocol":17,"map":"cp_altitude","folder":"tf","game":"Team Fortress","app_id":440,"player_count":0,"max_players":24,"Bots":0,"server_type":"Dedicated","server_os":"Linux","password":true,"vac":true,"version":"7882260","steam_id":85568392924742821,"keywords":["cp","nocrits","nodmgspread","uncletopia"],"game_id":440,"stv_port":27046,"stv_name":"Uncletopia | New York City | 4 | Community | STV","players":null},{"server_id":142,"name":"Uncletopia | S√£o Paulo | 1 | All Maps","name_short":"sao-1","host":"sao-1.br.uncletopia.com","port":27015,"enabled":true,"region":"sa","cc":"br","latitude":-23.533773,"longitude":-46.62529,"reserved":0,"last_update":"0001-01-01T00:00:00Z","name_a2s":"Uncletopia | S√£o Paulo | 1 | All Maps","protocol":17,"map":"pl_badwater","folder":"tf","game":"Team Fortress","app_id":440,"player_count":0,"max_players":24,"Bots":0,"server_type":"Dedicated","server_os":"Linux","password":true,"vac":true,"version":"7882260","steam_id":85568392924469996,"keywords":["nocrits","nodmgspread","payload","uncletopia"],"game_id":440,"stv_port":27016,"stv_name":"Uncletopia | S√£o Paulo | 1 | All Maps | STV","players":null},{"server_id":143,"name":"Uncletopia | S√£o Paulo | 2 | All Maps","name_short":"sao-2","host":"sao-2.br.uncletopia.com","port":27015,"enabled":true,"region":"sa","cc":"br","latitude":-23.533773,"longitude":-46.62529,"reserved":0,"last_update":"0001-01-01T00:00:00Z","name_a2s":"Uncletopia | S√£o Paulo | 2 | All Maps","protocol":17,"map":"cp_altitude","folder":"tf","game":"Team Fortress","app_id":440,"player_count":6,"max_players":24,"Bots":0,"server_type":"Dedicated","server_os":"Linux","password":true,"vac":true,"version":"7882260","steam_id":85568392924485349,"keywords":["cp","nocrits","nodmgspread","uncletopia"],"game_id":440,"stv_port":27016,"stv_name":"Uncletopia | S√£o Paulo | 2 | All Maps | STV","players":[{"user_id":41,"name":"TacticalDuckie","steam_id":76561198275769295,"connected_time":2199000000000,"state":"active","ping":200},{"user_id":47,"name":"allanoot","steam_id":76561199062229206,"connected_time":444000000000,"state":"active","ping":61},{"user_id":40,"name":"superkahles","steam_id":76561198844096180,"connected_time":2215000000000,"state":"active","ping":204},{"user_id":45,"name":"Sketchdude","steam_id":76561198428554205,"connected_time":1004000000000,"state":"active","ping":264},{"user_id":46,"name":"Dimentioof","steam_id":76561198945867866,"connected_time":994000000000,"state":"active","ping":185},{"user_id":48,"name":"Diamondback","steam_id":76561198999002250,"connected_time":43000000000,"state":"spawning","ping":237}]},{"server_id":7,"name":"Uncletopia | Seattle | 1 | All Maps","name_short":"sea-1","host":"sea-1.us.uncletopia.com","port":27015,"enabled":true,"region":"us-west","cc":"us","latitude":47.608013,"longitude":-122.33517,"reserved":0,"last_update":"0001-01-01T00:00:00Z","name_a2s":"Uncletopia | Seattle | 1 | All Maps","protocol":17,"map":"pl_borneo","folder":"tf","game":"Team Fortress","app_id":440,"player_count":23,"max_players":24,"Bots":0,"server_type":"Dedicated","server_os":"Linux","password":true,"vac":true,"version":"7882260","steam_id":85568392924469997,"keywords":["nocrits","nodmgspread","payload","uncletopia"],"game_id":440,"stv_port":27016,"stv_name":"Uncletopia | Seattle | 1 | All Maps | STV","players":[{"user_id":505,"name":"..flop","steam_id":76561197989058876,"connected_time":564000000000,"state":"active","ping":96},{"user_id":504,"name":"Sgt Autmn","steam_id":76561198072047939,"connected_time":579000000000,"state":"active","ping":45},{"user_id":517,"name":"Alice in Rubberland","steam_id":76561198087328346,"connected_time":135000000000,"state":"active","ping":90},{"user_id":469,"name":"Haydob13","steam_id":76561198110378191,"connected_time":5254000000000,"state":"active","ping":56},{"user_id":142,"name":"lili","steam_id":76561199391478575,"connected_time":31355000000000,"state":"active","ping":71},{"user_id":491,"name":"Zee‚ù§","steam_id":76561198274550638,"connected_time":2783000000000,"state":"active","ping":117},{"user_id":498,"name":"spenca","steam_id":76561198025371154,"connected_time":1330000000000,"state":"active","ping":61},{"user_id":471,"name":"Google","steam_id":76561198857237473,"connected_time":4645000000000,"state":"active","ping":48},{"user_id":503,"name":"towel","steam_id":76561198173308291,"connected_time":801000000000,"state":"active","ping":71},{"user_id":502,"name":"the dueling man","steam_id":76561198174589878,"connected_time":900000000000,"state":"active","ping":70},{"user_id":519,"name":"amedei porcelana","steam_id":76561198150382695,"connected_time":81000000000,"state":"active","ping":74},{"user_id":489,"name":"Grim","steam_id":76561198158911860,"connected_time":3039000000000,"state":"active","ping":60},{"user_id":508,"name":"BlueBruh","steam_id":76561199078613052,"connected_time":461000000000,"state":"active","ping":80},{"user_id":500,"name":"samantha","steam_id":76561198049258493,"connected_time":1001000000000,"state":"active","ping":48},{"user_id":472,"name":"ether","steam_id":76561198210322871,"connected_time":4568000000000,"state":"active","ping":69},{"user_id":512,"name":"Jimjonjoe","steam_id":76561199195695913,"connected_time":289000000000,"state":"active","ping":124},{"user_id":509,"name":"A man with no plan","steam_id":76561198031075099,"connected_time":460000000000,"state":"active","ping":70},{"user_id":516,"name":"Evo","steam_id":76561197963535524,"connected_time":157000000000,"state":"active","ping":67},{"user_id":459,"name":"Qas","steam_id":76561198067564482,"connected_time":5847000000000,"state":"active","ping":71},{"user_id":511,"name":"Dongus","steam_id":76561197979056451,"connected_time":339000000000,"state":"active","ping":45},{"user_id":514,"name":"DesertFroggo","steam_id":76561198015607829,"connected_time":261000000000,"state":"active","ping":74},{"user_id":501,"name":"kittyzombie2023 :D","steam_id":76561198094512992,"connected_time":992000000000,"state":"active","ping":98},{"user_id":466,"name":"Bendidy","steam_id":76561198041964300,"connected_time":5280000000000,"state":"active","ping":72}]},{"server_id":119,"name":"Uncletopia | Seattle | 2 | All Maps","name_short":"sea-2","host":"sea-1.us.uncletopia.com","port":27025,"enabled":true,"region":"us-west","cc":"us","latitude":47.608013,"longitude":-122.33517,"reserved":0,"last_update":"0001-01-01T00:00:00Z","name_a2s":"Uncletopia | Seattle | 2 | All Maps","protocol":17,"map":"koth_harvest_final","folder":"tf","game":"Team Fortress","app_id":440,"player_count":24,"max_players":24,"Bots":0,"server_type":"Dedicated","server_os":"Linux","password":true,"vac":true,"version":"7882260","steam_id":85568392924469998,"keywords":["cp","nocrits","nodmgspread","uncletopia"],"game_id":440,"stv_port":27026,"stv_name":"Uncletopia | Seattle | 2 | All Maps | STV","players":[{"user_id":468,"name":"lasky","steam_id":76561198017030029,"connected_time":2473000000000,"state":"active","ping":80},{"user_id":495,"name":"Apollo","steam_id":76561198162364702,"connected_time":135000000000,"state":"active","ping":45},{"user_id":469,"name":"NEBULA","steam_id":76561198086878595,"connected_time":2461000000000,"state":"active","ping":69},{"user_id":479,"name":"Slothy","steam_id":76561198967069349,"connected_time":1462000000000,"state":"active","ping":56},{"user_id":496,"name":"panda","steam_id":76561198025214612,"connected_time":128000000000,"state":"active","ping":51},{"user_id":392,"name":"worker","steam_id":76561198039608940,"connected_time":7494000000000,"state":"active","ping":61},{"user_id":490,"name":"GameBreaker","steam_id":76561198836171572,"connected_time":687000000000,"state":"active","ping":64},{"user_id":485,"name":"Mat-Shades","steam_id":76561198013998031,"connected_time":838000000000,"state":"active","ping":143},{"user_id":441,"name":"pensissimo","steam_id":76561198079996267,"connected_time":4400000000000,"state":"active","ping":57},{"user_id":486,"name":"SCUD missile up your ass","steam_id":76561198066452726,"connected_time":804000000000,"state":"active","ping":77},{"user_id":475,"name":"hosewater","steam_id":76561198023383126,"connected_time":2273000000000,"state":"active","ping":53},{"user_id":445,"name":"Fozzy","steam_id":76561198258458765,"connected_time":4216000000000,"state":"active","ping":45},{"user_id":487,"name":"I love VAC!!!!!","steam_id":76561198329087915,"connected_time":789000000000,"state":"active","ping":84},{"user_id":449,"name":"TDOB","steam_id":76561198062701904,"connected_time":4118000000000,"state":"active","ping":131},{"user_id":478,"name":"John Wick's puppy","steam_id":76561198064662875,"connected_time":2072000000000,"state":"active","ping":63},{"user_id":466,"name":"i.love.ants.321","steam_id":76561198169755734,"connected_time":2878000000000,"state":"active","ping":60},{"user_id":477,"name":"kazoo2","steam_id":76561198260473504,"connected_time":2174000000000,"state":"active","ping":115},{"user_id":417,"name":"g h o s t","steam_id":76561198061341744,"connected_time":5817000000000,"state":"active","ping":80},{"user_id":491,"name":"awesomebrololo","steam_id":76561198374283489,"connected_time":344000000000,"state":"active","ping":78},{"user_id":492,"name":"Greskrendtregk","steam_id":76561197969553142,"connected_time":269000000000,"state":"active","ping":281},{"user_id":494,"name":"mike, ski bum","steam_id":76561198225411004,"connected_time":163000000000,"state":"active","ping":62},{"user_id":427,"name":"RIP LANCE REDDICK","steam_id":76561198099980149,"connected_time":4983000000000,"state":"active","ping":77},{"user_id":465,"name":"Mico (Mico)","steam_id":76561198125462953,"connected_time":2990000000000,"state":"active","ping":56},{"user_id":454,"name":"roryisreallyoutofit","steam_id":76561198065825165,"connected_time":3566000000000,"state":"active","ping":100}]},{"server_id":406,"name":"Uncletopia | Seattle | 3 | Stopwatch Beta","name_short":"sea-3","host":"sea-1.us.uncletopia.com","port":27035,"enabled":true,"region":"us-west","cc":"us","latitude":47.608013,"longitude":-122.33517,"reserved":0,"last_update":"0001-01-01T00:00:00Z","name_a2s":"Uncletopia | Seattle | 3 | Stopwatch Beta","protocol":17,"map":"koth_viaduct","folder":"tf","game":"Team Fortress","app_id":440,"player_count":0,"max_players":24,"Bots":0,"server_type":"Dedicated","server_os":"Linux","password":true,"vac":true,"version":"7882260","steam_id":85568392924515217,"keywords":["cp","nocrits","nodmgspread","uncletopia"],"game_id":440,"stv_port":27036,"stv_name":"Uncletopia | Seattle | 3 | Stopwatch Beta | STV","players":null},{"server_id":17,"name":"Uncletopia | San Francisco | 1 | All Maps","name_short":"sfo-1","host":"sfo-1.us.uncletopia.com","port":27015,"enabled":true,"region":"us-west","cc":"us","latitude":37.77397,"longitude":-122.4313,"reserved":0,"last_update":"0001-01-01T00:00:00Z","name_a2s":"Uncletopia | San Francisco | 1 | All Maps","protocol":17,"map":"cp_process_final","folder":"tf","game":"Team Fortress","app_id":440,"player_count":24,"max_players":24,"Bots":0,"server_type":"Dedicated","server_os":"Linux","password":true,"vac":true,"version":"7882260","steam_id":85568392924469999,"keywords":["cp","nocrits","nodmgspread","uncletopia"],"game_id":440,"stv_port":27016,"stv_name":"Uncletopia | San Francisco | 1 | All Maps | STV","players":[{"user_id":496,"name":"^_^","steam_id":76561198971354161,"connected_time":1646000000000,"state":"active","ping":100},{"user_id":517,"name":"bunnyly enough","steam_id":76561198094119347,"connected_time":808000000000,"state":"active","ping":100},{"user_id":456,"name":"mr. jingles","steam_id":76561198418172095,"connected_time":4741000000000,"state":"active","ping":86},{"user_id":515,"name":"I am drinking hot tea","steam_id":76561198206922028,"connected_time":901000000000,"state":"active","ping":60},{"user_id":475,"name":"big car","steam_id":76561198067082350,"connected_time":3182000000000,"state":"active","ping":50},{"user_id":488,"name":"orangesuit1","steam_id":76561199020443017,"connected_time":1889000000000,"state":"active","ping":67},{"user_id":505,"name":"Chongo B Vibin'","steam_id":76561198017604393,"connected_time":1507000000000,"state":"active","ping":58},{"user_id":521,"name":"BuncusBeffer","steam_id":76561198285936616,"connected_time":258000000000,"state":"active","ping":55},{"user_id":489,"name":"birbneedsumseed","steam_id":76561198853439850,"connected_time":1881000000000,"state":"active","ping":45},{"user_id":490,"name":"Caius","steam_id":76561198011364458,"connected_time":1878000000000,"state":"active","ping":74},{"user_id":442,"name":"very specific tastes","steam_id":76561198042913843,"connected_time":6398000000000,"state":"active","ping":76},{"user_id":503,"name":"Burgertime","steam_id":76561198039288434,"connected_time":1545000000000,"state":"active","ping":105},{"user_id":491,"name":"viciousbeatmaker","steam_id":76561198086876652,"connected_time":1873000000000,"state":"active","ping":60},{"user_id":498,"name":"a cat plushie","steam_id":76561198080046542,"connected_time":1617000000000,"state":"active","ping":63},{"user_id":514,"name":"Lemur","steam_id":76561198056693287,"connected_time":919000000000,"state":"active","ping":68},{"user_id":512,"name":"AnarchyPaladin","steam_id":76561198066635428,"connected_time":944000000000,"state":"active","ping":64},{"user_id":516,"name":"QueenOfSkys","steam_id":76561198319559197,"connected_time":900000000000,"state":"active","ping":62},{"user_id":500,"name":"El Gato Paranoico","steam_id":76561198116567116,"connected_time":1600000000000,"state":"active","ping":104},{"user_id":462,"name":"LiveLongNote","steam_id":76561198138118635,"connected_time":4566000000000,"state":"active","ping":95},{"user_id":468,"name":"UneditedAndy","steam_id":76561198982544947,"connected_time":3972000000000,"state":"active","ping":91},{"user_id":418,"name":"Ian","steam_id":76561198159334435,"connected_time":7535000000000,"state":"active","ping":177},{"user_id":518,"name":"Daddy","steam_id":76561199247095754,"connected_time":752000000000,"state":"active","ping":84},{"user_id":493,"name":"kite man","steam_id":76561198156336213,"connected_time":1863000000000,"state":"active","ping":56},{"user_id":520,"name":"g0nk","steam_id":76561198838309024,"connected_time":496000000000,"state":"active","ping":91}]},{"server_id":18,"name":"Uncletopia | San Francisco | 2 | All Maps","name_short":"sfo-2","host":"sfo-1.us.uncletopia.com","port":27025,"enabled":true,"region":"us-west","cc":"us","latitude":37.77397,"longitude":-122.4313,"reserved":0,"last_update":"0001-01-01T00:00:00Z","name_a2s":"Uncletopia | San Francisco | 2 | All Maps","protocol":17,"map":"pl_frontier_final","folder":"tf","game":"Team Fortress","app_id":440,"player_count":24,"max_players":24,"Bots":0,"server_type":"Dedicated","server_os":"Linux","password":true,"vac":true,"version":"7882260","steam_id":85568392924470000,"keywords":["nocrits","nodmgspread","payload","uncletopia"],"game_id":440,"stv_port":27026,"stv_name":"Uncletopia | San Francisco | 2 | All Maps | STV","players":[{"user_id":413,"name":"lytewerk","steam_id":76561198002819791,"connected_time":29000000000,"state":"active","ping":80},{"user_id":393,"name":"Avem","steam_id":76561198058763710,"connected_time":1956000000000,"state":"active","ping":46},{"user_id":394,"name":"PizzaThot","steam_id":76561198278237289,"connected_time":1948000000000,"state":"active","ping":90},{"user_id":383,"name":"Squirrel","steam_id":76561198026605788,"connected_time":3185000000000,"state":"active","ping":45},{"user_id":407,"name":"The Official Arby's ¬Æ","steam_id":76561198093036361,"connected_time":699000000000,"state":"active","ping":123},{"user_id":395,"name":"Dermit the Fregg","steam_id":76561198055636485,"connected_time":1943000000000,"state":"active","ping":109},{"user_id":412,"name":"Diclonius","steam_id":76561198075646647,"connected_time":510000000000,"state":"active","ping":49},{"user_id":378,"name":"HAIRY BALLS","steam_id":76561198061007414,"connected_time":3505000000000,"state":"active","ping":64},{"user_id":406,"name":"GibbusGod","steam_id":76561199232436690,"connected_time":720000000000,"state":"active","ping":107},{"user_id":326,"name":"Fluff","steam_id":76561198255399052,"connected_time":7017000000000,"state":"active","ping":83},{"user_id":379,"name":"MCman","steam_id":76561198412110305,"connected_time":3505000000000,"state":"active","ping":75},{"user_id":408,"name":"Jax","steam_id":76561198197125189,"connected_time":681000000000,"state":"active","ping":128},{"user_id":396,"name":"Jerry Kool-Aid","steam_id":76561198030281560,"connected_time":1917000000000,"state":"active","ping":127},{"user_id":389,"name":"frostedflakes99","steam_id":76561199049292578,"connected_time":2736000000000,"state":"active","ping":60},{"user_id":357,"name":"Dr. Tropen","steam_id":76561198405271669,"connected_time":5046000000000,"state":"active","ping":98},{"user_id":411,"name":"Sigma Mentality","steam_id":76561198045753316,"connected_time":624000000000,"state":"active","ping":70},{"user_id":397,"name":"WoodsRunner","steam_id":76561198121812870,"connected_time":1909000000000,"state":"active","ping":114},{"user_id":401,"name":"Igrium","steam_id":76561198119549811,"connected_time":1571000000000,"state":"active","ping":56},{"user_id":402,"name":"Sunny","steam_id":76561198220129435,"connected_time":1098000000000,"state":"active","ping":59},{"user_id":409,"name":"CEOlifestyle","steam_id":76561198025747866,"connected_time":670000000000,"state":"active","ping":62},{"user_id":403,"name":"Etzan","steam_id":76561198026897084,"connected_time":1084000000000,"state":"active","ping":60},{"user_id":292,"name":"troutsupply.net | shitass","steam_id":76561198210572481,"connected_time":8261000000000,"state":"active","ping":56},{"user_id":410,"name":"Satori Komeiji","steam_id":76561198158211423,"connected_time":659000000000,"state":"active","ping":55},{"user_id":414,"name":"Bushwookie","steam_id":76561198048925798,"connected_time":26000000000,"state":"spawning","ping":118}]},{"server_id":19,"name":"Uncletopia | San Francisco | 3 | Stopwatch Beta","name_short":"sfo-3","host":"sfo-1.us.uncletopia.com","port":27035,"enabled":true,"region":"us-west","cc":"us","latitude":37.77397,"longitude":-122.4313,"reserved":0,"last_update":"0001-01-01T00:00:00Z","name_a2s":"Uncletopia | San Francisco | 3 | Stopwatch Beta","protocol":17,"map":"workshop/koth_ramjam_rc1.ugc459778887","folder":"tf","game":"Team Fortress","app_id":440,"player_count":0,"max_players":24,"Bots":0,"server_type":"Dedicated","server_os":"Linux","password":true,"vac":true,"version":"7882260","steam_id":85568392924742824,"keywords":["cp","nocrits","nodmgspread","uncletopia"],"game_id":440,"stv_port":27036,"stv_name":"Uncletopia | San Francisco | 3 | Stopwatch Beta | STV","players":null},{"server_id":20,"name":"Uncletopia | San Francisco | 4 | Community","name_short":"sfo-4","host":"sfo-1.us.uncletopia.com","port":27045,"enabled":true,"region":"us-west","cc":"us","latitude":37.77397,"longitude":-122.4313,"reserved":0,"last_update":"0001-01-01T00:00:00Z","name_a2s":"Uncletopia | San Francisco | 4 | Community","protocol":17,"map":"workshop/koth_ashville_final.ugc2130459942","folder":"tf","game":"Team Fortress","app_id":440,"player_count":0,"max_players":24,"Bots":0,"server_type":"Dedicated","server_os":"Linux","password":true,"vac":true,"version":"7882260","steam_id":85568392924742826,"keywords":["cp","nocrits","nodmgspread","uncletopia"],"game_id":440,"stv_port":27046,"stv_name":"Uncletopia | San Francisco | 4 | Community | STV","players":null},{"server_id":141,"name":"Uncletopia | Sydney | 1 | All Maps","name_short":"syd-1","host":"syd-1.au.uncletopia.com","port":27015,"enabled":true,"region":"au","cc":"au","latitude":-33.865143,"longitude":151.2099,"reserved":0,"last_update":"0001-01-01T00:00:00Z","name_a2s":"Uncletopia | Sydney | 1 | All Maps","protocol":17,"map":"pl_swiftwater_final1","folder":"tf","game":"Team Fortress","app_id":440,"player_count":24,"max_players":24,"Bots":0,"server_type":"Dedicated","server_os":"Linux","password":true,"vac":true,"version":"7882260","steam_id":85568392924470001,"keywords":["nocrits","nodmgspread","payload","uncletopia"],"game_id":440,"stv_port":27016,"stv_name":"Uncletopia | Sydney | 1 | All Maps | STV","players":[{"user_id":102,"name":"Crispy","steam_id":76561198081760160,"connected_time":2543000000000,"state":"active","ping":69},{"user_id":133,"name":"adammagee","steam_id":76561197972653972,"connected_time":248000000000,"state":"active","ping":54},{"user_id":74,"name":"Rashid Of The Dank Memes","steam_id":76561198281398078,"connected_time":3567000000000,"state":"active","ping":61},{"user_id":122,"name":"BOBO","steam_id":76561199482732718,"connected_time":1272000000000,"state":"active","ping":43},{"user_id":130,"name":"miyamoto is daddy","steam_id":76561199483818230,"connected_time":482000000000,"state":"active","ping":85},{"user_id":68,"name":"MindlessTie","steam_id":76561198107844324,"connected_time":3816000000000,"state":"active","ping":67},{"user_id":24,"name":"Maquire's Constipation","steam_id":76561198096130103,"connected_time":6150000000000,"state":"active","ping":51},{"user_id":124,"name":"Sentry Gun (EpicGuy4227)","steam_id":76561198094132328,"connected_time":1153000000000,"state":"active","ping":41},{"user_id":131,"name":"El Chupacabra","steam_id":76561198070641651,"connected_time":402000000000,"state":"active","ping":45},{"user_id":128,"name":"meatenschlappen","steam_id":76561198048064049,"connected_time":893000000000,"state":"active","ping":72},{"user_id":62,"name":"Yeat","steam_id":76561198202555552,"connected_time":4102000000000,"state":"active","ping":42},{"user_id":88,"name":"Fercon","steam_id":76561198061000247,"connected_time":2945000000000,"state":"active","ping":96},{"user_id":101,"name":"whiteshaq","steam_id":76561198131988811,"connected_time":2588000000000,"state":"active","ping":49},{"user_id":91,"name":"Psalm 118:10-17","steam_id":76561198305904806,"connected_time":2870000000000,"state":"active","ping":56},{"user_id":106,"name":"former romeo","steam_id":76561198031293430,"connected_time":2343000000000,"state":"active","ping":75},{"user_id":105,"name":"Zieria","steam_id":76561199261811388,"connected_time":2453000000000,"state":"active","ping":39},{"user_id":107,"name":"Lobart√©","steam_id":76561198090116136,"connected_time":2317000000000,"state":"active","ping":63},{"user_id":134,"name":"Bonker","steam_id":76561198845159846,"connected_time":248000000000,"state":"active","ping":47},{"user_id":126,"name":"Motormouth","steam_id":76561197980851839,"connected_time":1074000000000,"state":"active","ping":84},{"user_id":129,"name":"Lumalee ‚ù§","steam_id":76561198157613299,"connected_time":681000000000,"state":"active","ping":62},{"user_id":120,"name":"In the face!","steam_id":76561199400467501,"connected_time":1323000000000,"state":"active","ping":105},{"user_id":138,"name":"hive","steam_id":76561199099744527,"connected_time":198000000000,"state":"active","ping":69},{"user_id":137,"name":"krandlez` (Any/All)","steam_id":76561198044839726,"connected_time":212000000000,"state":"active","ping":40},{"user_id":135,"name":"WogBat","steam_id":76561198151221055,"connected_time":220000000000,"state":"active","ping":51}]},{"server_id":123,"name":"Uncletopia | Sydney | 2 | All Maps","name_short":"syd-2","host":"syd-1.au.uncletopia.com","port":27025,"enabled":true,"region":"au","cc":"au","latitude":-33.865143,"longitude":151.2099,"reserved":0,"last_update":"0001-01-01T00:00:00Z","name_a2s":"Uncletopia | Sydney | 2 | All Maps","protocol":17,"map":"pl_upward","folder":"tf","game":"Team Fortress","app_id":440,"player_count":2,"max_players":24,"Bots":0,"server_type":"Dedicated","server_os":"Linux","password":true,"vac":true,"version":"7882260","steam_id":85568392924470002,"keywords":["nocrits","nodmgspread","payload","uncletopia"],"game_id":440,"stv_port":27026,"stv_name":"Uncletopia | Sydney | 2 | All Maps | STV","players":[{"user_id":10,"name":"Zilvera","steam_id":76561198065801850,"connected_time":506000000000,"state":"active","ping":45},{"user_id":12,"name":"CEO of Sex (Lollichop Collector","steam_id":76561199083971136,"connected_time":120000000000,"state":"active","ping":68}]},{"server_id":395,"name":"Uncletopia | Sydney | 3 | All Maps","name_short":"syd-3","host":"syd-1.au.uncletopia.com","port":27035,"enabled":true,"region":"au","cc":"au","latitude":-33.865143,"longitude":151.2099,"reserved":0,"last_update":"0001-01-01T00:00:00Z","name_a2s":"Uncletopia | Sydney | 3 | All Maps","protocol":17,"map":"koth_viaduct","folder":"tf","game":"Team Fortress","app_id":440,"player_count":0,"max_players":24,"Bots":0,"server_type":"Dedicated","server_os":"Linux","password":true,"vac":true,"version":"7882260","steam_id":85568392925194467,"keywords":["cp","nocrits","nodmgspread","uncletopia"],"game_id":440,"stv_port":27036,"stv_name":"Uncletopia | Sydney | 3 | All Maps | STV","players":null},{"server_id":396,"name":"Uncletopia | Sydney | 4 | All Maps","name_short":"syd-4","host":"syd-1.au.uncletopia.com","port":27045,"enabled":true,"region":"au","cc":"au","latitude":-33.865143,"longitude":151.2099,"reserved":0,"last_update":"0001-01-01T00:00:00Z","name_a2s":"Uncletopia | Sydney | 4 | All Maps","protocol":17,"map":"pl_badwater","folder":"tf","game":"Team Fortress","app_id":440,"player_count":0,"max_players":24,"Bots":0,"server_type":"Dedicated","server_os":"Linux","password":true,"vac":true,"version":"7882260","steam_id":85568392925397958,"keywords":["nocrits","nodmgspread","payload","uncletopia"],"game_id":440,"stv_port":27046,"stv_name":"Uncletopia | Sydney | 4 | All Maps | STV","players":null},{"server_id":58,"name":"Uncletopia | Sydney | 5 | Stopwatch Beta","name_short":"syd-5","host":"syd-1.au.uncletopia.com","port":27055,"enabled":true,"region":"au","cc":"au","latitude":-33.865143,"longitude":151.2099,"reserved":0,"last_update":"0001-01-01T00:00:00Z","name_a2s":"Uncletopia | Sydney | 5 | Stopwatch Beta","protocol":17,"map":"workshop/koth_ramjam_rc1.ugc459778887","folder":"tf","game":"Team Fortress","app_id":440,"player_count":0,"max_players":24,"Bots":0,"server_type":"Dedicated","server_os":"Linux","password":true,"vac":true,"version":"7882260","steam_id":85568392925397959,"keywords":["cp","nocrits","nodmgspread","uncletopia"],"game_id":440,"stv_port":27056,"stv_name":"Uncletopia | Sydney | 5 | Stopwatch Beta | STV","players":null},{"server_id":59,"name":"Uncletopia | Sydney | 6 | Community","name_short":"syd-6","host":"syd-1.au.uncletopia.com","port":27065,"enabled":true,"region":"au","cc":"au","latitude":-33.865143,"longitude":151.2099,"reserved":0,"last_update":"0001-01-01T00:00:00Z","name_a2s":"Uncletopia | Sydney | 6 | Community","protocol":17,"map":"workshop/koth_synthetic_rc6a.ugc1549817316","folder":"tf","game":"Team Fortress","app_id":440,"player_count":0,"max_players":24,"Bots":0,"server_type":"Dedicated","server_os":"Linux","password":true,"vac":true,"version":"7882260","steam_id":85568392925397960,"keywords":["cp","nocrits","nodmgspread","uncletopia"],"game_id":440,"stv_port":27066,"stv_name":"Uncletopia | Sydney | 6 | Community | STV","players":null},{"server_id":49,"name":"Uncletopia | Warsaw | 1 | All Maps","name_short":"waw-1","host":"waw-1.pl.uncletopia.com","port":27015,"enabled":true,"region":"eu","cc":"pl","latitude":52.2297,"longitude":21.017532,"reserved":0,"last_update":"0001-01-01T00:00:00Z","name_a2s":"","protocol":0,"map":"","folder":"","game":"","app_id":0,"player_count":0,"max_players":0,"Bots":0,"server_type":"","server_os":"","password":false,"vac":false,"version":"","steam_id":0,"keywords":null,"game_id":0,"stv_port":0,"stv_name":"","players":null},{"server_id":50,"name":"Uncletopia | Warsaw | 2 | All Maps","name_short":"waw-2","host":"waw-1.pl.uncletopia.com","port":27025,"enabled":true,"region":"eu","cc":"pl","latitude":52.2297,"longitude":21.017532,"reserved":0,"last_update":"0001-01-01T00:00:00Z","name_a2s":"Uncletopia | Warsaw | 2 | All Maps","protocol":17,"map":"pl_barnblitz","folder":"tf","game":"Team Fortress","app_id":440,"player_count":0,"max_players":24,"Bots":0,"server_type":"Dedicated","server_os":"Linux","password":true,"vac":true,"version":"7882260","steam_id":85568392925397851,"keywords":["nocrits","nodmgspread","payload","uncletopia"],"game_id":440,"stv_port":27026,"stv_name":"Uncletopia | Warsaw | 2 | All Maps | STV","players":null},{"server_id":51,"name":"Uncletopia | Warsaw | 3 | All Maps","name_short":"waw-3","host":"waw-1.pl.uncletopia.com","port":27035,"enabled":true,"region":"eu","cc":"pl","latitude":52.2297,"longitude":21.017532,"reserved":0,"last_update":"0001-01-01T00:00:00Z","name_a2s":"Uncletopia | Warsaw | 3 | All Maps","protocol":17,"map":"pl_snowycoast","folder":"tf","game":"Team Fortress","app_id":440,"player_count":0,"max_players":24,"Bots":0,"server_type":"Dedicated","server_os":"Linux","password":true,"vac":true,"version":"7882260","steam_id":85568392925397852,"keywords":["nocrits","nodmgspread","payload","uncletopia"],"game_id":440,"stv_port":27036,"stv_name":"Uncletopia | Warsaw | 3 | All Maps | STV","players":null},{"server_id":52,"name":"Uncletopia | Warsaw | 4 | All Maps","name_short":"waw-4","host":"waw-1.pl.uncletopia.com","port":27045,"enabled":true,"region":"eu","cc":"pl","latitude":52.2297,"longitude":21.017532,"reserved":0,"last_update":"0001-01-01T00:00:00Z","name_a2s":"Uncletopia | Warsaw | 4 | All Maps","protocol":17,"map":"koth_cascade","folder":"tf","game":"Team Fortress","app_id":440,"player_count":0,"max_players":24,"Bots":0,"server_type":"Dedicated","server_os":"Linux","password":true,"vac":true,"version":"7882260","steam_id":85568392925397853,"keywords":["cp","nocrits","nodmgspread","uncletopia"],"game_id":440,"stv_port":27046,"stv_name":"Uncletopia | Warsaw | 4 | All Maps | STV","players":null},{"server_id":53,"name":"Uncletopia | Warsaw | 5 | Stopwatch Beta","name_short":"waw-5","host":"waw-1.pl.uncletopia.com","port":27055,"enabled":true,"region":"eu","cc":"pl","latitude":52.2297,"longitude":21.017532,"reserved":0,"last_update":"0001-01-01T00:00:00Z","name_a2s":"Uncletopia | Warsaw | 5 | Stopwatch Beta","protocol":17,"map":"cp_gullywash_final1","folder":"tf","game":"Team Fortress","app_id":440,"player_count":0,"max_players":24,"Bots":0,"server_type":"Dedicated","server_os":"Linux","password":true,"vac":true,"version":"7882260","steam_id":85568392925397854,"keywords":["cp","nocrits","nodmgspread","uncletopia"],"game_id":440,"stv_port":27056,"stv_name":"Uncletopia | Warsaw | 5 | Stopwatch Beta | STV","players":null},{"server_id":54,"name":"Uncletopia | Warsaw | 6 | Community","name_short":"waw-6","host":"waw-1.pl.uncletopia.com","port":27065,"enabled":true,"region":"eu","cc":"pl","latitude":52.2297,"longitude":21.017532,"reserved":0,"last_update":"0001-01-01T00:00:00Z","name_a2s":"Uncletopia | Warsaw | 6 | Community","protocol":17,"map":"workshop/cp_mannbase_rc2a.ugc1900737467","folder":"tf","game":"Team Fortress","app_id":440,"player_count":0,"max_players":24,"Bots":0,"server_type":"Dedicated","server_os":"Linux","password":true,"vac":true,"version":"7882260","steam_id":85568392925397856,"keywords":["cp","nocrits","nodmgspread","uncletopia"],"game_id":440,"stv_port":27066,"stv_name":"Uncletopia | Warsaw | 6 | Community | STV","players":null}]}