{"status":true,"message":"","result":[{"server_id":9,"name":"Uncletopia | Atlanta | 1 | All Maps","name_short":"atl-1","host":"atl-1.us.uncletopia.com","port":27015,"enabled":true,"region":"us-east","cc":"us","latitude":33.753746,"longitude":-84.38633,"reserved":0,"last_update":"0001-01-01T00:00:00Z","name_a2s":"Uncletopia | Atlanta | 1 | All Maps","protocol":17,"map":"cp_mercenarypark","folder":"tf","game":"Team Fortress","app_id":440,"player_count":23,"max_players":24,"Bots":0,"server_type":"Dedicated","server_os":"Linux","password":true,"vac":true,"version":"7961495","steam_id":85568392924469982,"keywords":["cp","nocrits","nodmgspread","uncletopia"],"game_id":440,"stv_port":27016,"stv_name":"Uncletopia | Atlanta | 1 | All Maps | STV","players":[{"user_id":707,"name":"Woods","steam_id":76561198440012069,"connected_time":4038000000000,"state":"active","ping":75},{"user_id":746,"name":"VidzCMC","steam_id":76561198848142973,"connected_time":522000000000,"state":"active","ping":87},{"user_id":710,"name":"Lylith!!!","steam_id":76561198386687546,"connected_time":3776000000000,"state":"active","ping":45},{"user_id":735,"name":"loot","steam_id":76561198069954956,"connected_time":1452000000000,"state":"active","ping":45},{"user_id":728,"name":"Kipados","steam_id":76561197997147319,"connected_time":1850000000000,"state":"active","ping":87},{"user_id":758,"name":"Hope Haver","steam_id":76561198048564906,"connected_time":19000000000,"state":"active","ping":61},{"user_id":691,"name":"Luigi4tl","steam_id":76561198051862389,"connected_time":4673000000000,"state":"active","ping":61},{"user_id":757,"name":"ungureito „ÅÜ„Çì„Åê„Çå„ÅÑ„Å®","steam_id":76561198063521721,"connected_time":90000000000,"state":"active","ping":70},{"user_id":747,"name":"A Blender","steam_id":76561198085439451,"connected_time":496000000000,"state":"active","ping":108},{"user_id":753,"name":"Viewie","steam_id":76561198280108853,"connected_time":206000000000,"state":"active","ping":74},{"user_id":582,"name":"Obelisk","steam_id":76561198049416866,"connected_time":7463000000000,"state":"active","ping":50},{"user_id":713,"name":"Bucket Hat Trick","steam_id":76561198381785132,"connected_time":3482000000000,"state":"active","ping":80},{"user_id":754,"name":"Dragon","steam_id":76561198112056273,"connected_time":139000000000,"state":"active","ping":62},{"user_id":740,"name":"Terror-Billy #SaveTF2","steam_id":76561198328141870,"connected_time":1073000000000,"state":"active","ping":68},{"user_id":742,"name":"Platypuspenguin","steam_id":76561198212228081,"connected_time":559000000000,"state":"active","ping":63},{"user_id":756,"name":"TrashBoat","steam_id":76561199089671432,"connected_time":121000000000,"state":"active","ping":79},{"user_id":748,"name":"ATL1 | LOFILE","steam_id":76561198083798918,"connected_time":476000000000,"state":"active","ping":68},{"user_id":749,"name":".psychotic","steam_id":76561198105677266,"connected_time":433000000000,"state":"active","ping":79},{"user_id":750,"name":"i am in constant agony","steam_id":76561198103496593,"connected_time":419000000000,"state":"active","ping":47},{"user_id":751,"name":"Nails","steam_id":76561198399261089,"connected_time":361000000000,"state":"active","ping":98},{"user_id":521,"name":"Thotimus Begonimus","steam_id":76561197970275938,"connected_time":8852000000000,"state":"active","ping":45},{"user_id":743,"name":"lu","steam_id":76561198080731872,"connected_time":559000000000,"state":"active","ping":85},{"user_id":709,"name":"Le4n!!!","steam_id":76561198045522596,"connected_time":3965000000000,"state":"active","ping":61}]},{"server_id":104,"name":"Uncletopia | Atlanta | 2 | All Maps","name_short":"atl-2","host":"atl-1.us.uncletopia.com","port":27025,"enabled":true,"region":"us-east","cc":"us","latitude":33.753746,"longitude":-84.38633,"reserved":0,"last_update":"0001-01-01T00:00:00Z","name_a2s":"Uncletopia | Atlanta | 2 | All Maps","protocol":17,"map":"pl_borneo","folder":"tf","game":"Team Fortress","app_id":440,"player_count":19,"max_players":24,"Bots":0,"server_type":"Dedicated","server_os":"Linux","password":true,"vac":true,"version":"7961495","steam_id":85568392924469983,"keywords":["nocrits","nodmgspread","payload","uncletopia"],"game_id":440,"stv_port":27026,"stv_name":"Uncletopia | Atlanta | 2 | All Maps | STV","players":[{"user_id":890,"name":"Just Luck","steam_id":76561198294350105,"connected_time":2463000000000,"state":"active","ping":72},{"user_id":864,"name":"object permanence","steam_id":76561198050393061,"connected_time":3917000000000,"state":"active","ping":85},{"user_id":926,"name":"GreenApples","steam_id":76561198120559543,"connected_time":18000000000,"state":"active","ping":102},{"user_id":925,"name":"ron desandwich","steam_id":76561198079892116,"connected_time":127000000000,"state":"active","ping":63},{"user_id":911,"name":"Strange Festive Femboy","steam_id":76561198050385093,"connected_time":1805000000000,"state":"active","ping":81},{"user_id":912,"name":"fish","steam_id":76561198054070811,"connected_time":1788000000000,"state":"active","ping":106},{"user_id":882,"name":"NovaSc6ut","steam_id":76561198277163301,"connected_time":2613000000000,"state":"active","ping":94},{"user_id":883,"name":"C Papi","steam_id":76561198027779564,"connected_time":2609000000000,"state":"active","ping":45},{"user_id":889,"name":"ShortenedName","steam_id":76561198079337360,"connected_time":2482000000000,"state":"active","ping":63},{"user_id":919,"name":"Flaxks‚ô°","steam_id":76561198410260447,"connected_time":1398000000000,"state":"active","ping":82},{"user_id":921,"name":"Wooden E","steam_id":76561198020308956,"connected_time":1333000000000,"state":"active","ping":45},{"user_id":922,"name":"The One True Luke","steam_id":76561198180891187,"connected_time":1044000000000,"state":"active","ping":68},{"user_id":905,"name":"bruh_guy45","steam_id":76561198801073169,"connected_time":2108000000000,"state":"active","ping":95},{"user_id":917,"name":"Fuegisimo","steam_id":76561198033678698,"connected_time":1522000000000,"state":"active","ping":73},{"user_id":924,"name":"Rockstar Grill Operator","steam_id":76561199125789367,"connected_time":163000000000,"state":"active","ping":64},{"user_id":896,"name":"Evanstar12345","steam_id":76561198382109895,"connected_time":2392000000000,"state":"active","ping":69},{"user_id":920,"name":"Booster Raccoon","steam_id":76561198060426836,"connected_time":1385000000000,"state":"active","ping":63},{"user_id":877,"name":"Homo Ejectus","steam_id":76561197968701952,"connected_time":3480000000000,"state":"active","ping":92},{"user_id":910,"name":"slashproc","steam_id":76561198035307579,"connected_time":1901000000000,"state":"active","ping":71}]},{"server_id":400,"name":"Uncletopia | Atlanta | 3 | Stopwatch","name_short":"atl-3","host":"atl-1.us.uncletopia.com","port":27035,"enabled":true,"region":"us-east","cc":"us","latitude":33.753746,"longitude":-84.38633,"reserved":0,"last_update":"0001-01-01T00:00:00Z","name_a2s":"Uncletopia | Atlanta | 3 | Stopwatch","protocol":17,"map":"cp_granary","folder":"tf","game":"Team Fortress","app_id":440,"player_count":22,"max_players":24,"Bots":0,"server_type":"Dedicated","server_os":"Linux","password":true,"vac":true,"version":"7961495","steam_id":85568392924515187,"keywords":["cp","nocrits","nodmgspread","uncletopia"],"game_id":440,"stv_port":27036,"stv_name":"Uncletopia | Atlanta | 3 | Stopwatch | STV","players":[{"user_id":411,"name":"G.L.O.R.I.","steam_id":76561198134414380,"connected_time":1185000000000,"state":"active","ping":144},{"user_id":412,"name":"muddy","steam_id":76561198035015260,"connected_time":1147000000000,"state":"active","ping":82},{"user_id":430,"name":"kazoo2","steam_id":76561198260473504,"connected_time":327000000000,"state":"active","ping":80},{"user_id":421,"name":"DanDaMan","steam_id":76561199010054857,"connected_time":886000000000,"state":"active","ping":76},{"user_id":429,"name":"Dabbledornk","steam_id":76561198065241300,"connected_time":355000000000,"state":"active","ping":48},{"user_id":426,"name":"Im Not Playing From McDonalds","steam_id":76561198079113796,"connected_time":758000000000,"state":"active","ping":57},{"user_id":414,"name":"üÖ≤üÜÅüÖ∏üÜâ.üÖπ‚òπ","steam_id":76561198254337154,"connected_time":1119000000000,"state":"active","ping":118},{"user_id":384,"name":"Daksuki","steam_id":76561198084127751,"connected_time":3023000000000,"state":"active","ping":90},{"user_id":416,"name":"Gilbert","steam_id":76561198070903248,"connected_time":984000000000,"state":"active","ping":146},{"user_id":431,"name":"zy","steam_id":76561199339997328,"connected_time":231000000000,"state":"active","ping":77},{"user_id":383,"name":"las monta√±as","steam_id":76561198105065307,"connected_time":3103000000000,"state":"active","ping":41},{"user_id":404,"name":"ElElliot","steam_id":76561198842278840,"connected_time":1715000000000,"state":"active","ping":63},{"user_id":434,"name":"the creature","steam_id":76561199015635037,"connected_time":127000000000,"state":"active","ping":69},{"user_id":433,"name":"cringy","steam_id":76561198323000455,"connected_time":158000000000,"state":"active","ping":100},{"user_id":393,"name":"‚àö2","steam_id":76561198111283909,"connected_time":2426000000000,"state":"active","ping":79},{"user_id":417,"name":"Delta","steam_id":76561198158985472,"connected_time":982000000000,"state":"active","ping":110},{"user_id":435,"name":"Shrebbie","steam_id":76561198875230824,"connected_time":126000000000,"state":"active","ping":61},{"user_id":422,"name":"craig dishwasher","steam_id":76561198402235691,"connected_time":880000000000,"state":"active","ping":73},{"user_id":409,"name":"anfedimu13","steam_id":76561199495619400,"connected_time":1383000000000,"state":"active","ping":125},{"user_id":394,"name":"dietcokefan42","steam_id":76561198135307995,"connected_time":2317000000000,"state":"active","ping":62},{"user_id":420,"name":"WE JUST WANNA PARTY","steam_id":76561198026037217,"connected_time":897000000000,"state":"active","ping":145},{"user_id":424,"name":"per","steam_id":76561198124117349,"connected_time":866000000000,"state":"active","ping":61}]},{"server_id":401,"name":"Uncletopia | Atlanta | 4 | Community","name_short":"atl-4","host":"atl-1.us.uncletopia.com","port":27045,"enabled":true,"region":"us-east","cc":"us","latitude":33.753746,"longitude":-84.38633,"reserved":0,"last_update":"0001-01-01T00:00:00Z","name_a2s":"Uncletopia | Atlanta | 4 | Community","protocol":17,"map":"workshop/koth_jamram_rc1a.ugc2964065613","folder":"tf","game":"Team Fortress","app_id":440,"player_count":0,"max_players":24,"Bots":0,"server_type":"Dedicated","server_os":"Linux","password":true,"vac":true,"version":"7961495","steam_id":85568392924515188,"keywords":["cp","nocrits","nodmgspread","uncletopia"],"game_id":440,"stv_port":27046,"stv_name":"Uncletopia | Atlanta | 4 | Community | STV","players":null},{"server_id":2,"name":"Uncletopia | Chicago | 1 | All Maps","name_short":"chi-1","host":"chi-1.us.uncletopia.com","port":27015,"enabled":true,"region":"us-central","cc":"us","latitude":41.881832,"longitude":-87.62318,"reserved":0,"last_update":"0001-01-01T00:00:00Z","name_a2s":"Uncletopia | Chicago | 1 | All Maps","protocol":17,"map":"pl_borneo","folder":"tf","game":"Team Fortress","app_id":440,"player_count":23,"max_players":24,"Bots":0,"server_type":"Dedicated","server_os":"Linux","password":true,"vac":true,"version":"7961495","steam_id":85568392924469984,"keywords":["nocrits","nodmgspread","payload","uncletopia"],"game_id":440,"stv_port":27016,"stv_name":"Uncletopia | Chicago | 1 | All Maps | STV","players":[{"user_id":728,"name":"DolphinTime","steam_id":76561197999079405,"connected_time":208000000000,"state":"active","ping":103},{"user_id":670,"name":"Gaming","steam_id":76561198107080532,"connected_time":5147000000000,"state":"active","ping":62},{"user_id":727,"name":"confield","steam_id":76561198004322265,"connected_time":248000000000,"state":"active","ping":61},{"user_id":719,"name":"honked off the bobo","steam_id":76561198123287268,"connected_time":1277000000000,"state":"active","ping":45},{"user_id":717,"name":"debin","steam_id":76561198070711217,"connected_time":1439000000000,"state":"active","ping":47},{"user_id":702,"name":"a pan furry","steam_id":76561199445662628,"connected_time":2796000000000,"state":"active","ping":141},{"user_id":723,"name":"Rukks","steam_id":76561197993918954,"connected_time":538000000000,"state":"active","ping":87},{"user_id":729,"name":"Asrael","steam_id":76561197986044901,"connected_time":207000000000,"state":"active","ping":92},{"user_id":737,"name":"KATSURB","steam_id":76561199172118456,"connected_time":30000000000,"state":"active","ping":73},{"user_id":730,"name":"JakeOwlsky","steam_id":76561198139194230,"connected_time":206000000000,"state":"active","ping":101},{"user_id":731,"name":"williamgale387","steam_id":76561199142775406,"connected_time":199000000000,"state":"active","ping":151},{"user_id":726,"name":"lightcatnap","steam_id":76561199385584854,"connected_time":492000000000,"state":"active","ping":65},{"user_id":722,"name":"Weird Round","steam_id":76561197969205852,"connected_time":624000000000,"state":"active","ping":83},{"user_id":724,"name":"Blingo Bloingo","steam_id":76561198275250936,"connected_time":536000000000,"state":"active","ping":82},{"user_id":720,"name":"KingPin","steam_id":76561198087366176,"connected_time":1192000000000,"state":"active","ping":71},{"user_id":732,"name":"steven","steam_id":76561198173047169,"connected_time":191000000000,"state":"active","ping":61},{"user_id":733,"name":"conwald","steam_id":76561198034339940,"connected_time":183000000000,"state":"active","ping":60},{"user_id":713,"name":"NOLSEY","steam_id":76561198108959504,"connected_time":2052000000000,"state":"active","ping":45},{"user_id":721,"name":"Thatoneguybunchanumbers","steam_id":76561198028039160,"connected_time":633000000000,"state":"active","ping":78},{"user_id":709,"name":"NEBULA3LEM123","steam_id":76561198095433728,"connected_time":2596000000000,"state":"active","ping":86},{"user_id":735,"name":"Praise_to_the_Flashlight!","steam_id":76561199001728789,"connected_time":170000000000,"state":"active","ping":63},{"user_id":736,"name":"monsterkill4567","steam_id":76561198272986367,"connected_time":145000000000,"state":"active","ping":106},{"user_id":710,"name":"DARLIIIIIIIIIIIIIING","steam_id":76561198055082693,"connected_time":2497000000000,"state":"active","ping":84}]},{"server_id":106,"name":"Uncletopia | Chicago | 2 | All Maps","name_short":"chi-2","host":"chi-1.us.uncletopia.com","port":27025,"enabled":true,"region":"us-central","cc":"us","latitude":41.881832,"longitude":-87.62318,"reserved":0,"last_update":"0001-01-01T00:00:00Z","name_a2s":"Uncletopia | Chicago | 2 | All Maps","protocol":17,"map":"pl_badwater","folder":"tf","game":"Team Fortress","app_id":440,"player_count":20,"max_players":24,"Bots":0,"server_type":"Dedicated","server_os":"Linux","password":true,"vac":true,"version":"7961495","steam_id":85568392924469985,"keywords":["nocrits","nodmgspread","payload","uncletopia"],"game_id":440,"stv_port":27026,"stv_name":"Uncletopia | Chicago | 2 | All Maps | STV","players":[{"user_id":537,"name":"Tony","steam_id":76561198169799653,"connected_time":425000000000,"state":"active","ping":56},{"user_id":505,"name":"displace","steam_id":76561198068492903,"connected_time":3151000000000,"state":"active","ping":52},{"user_id":547,"name":"lvl 99 bastard","steam_id":76561198044761617,"connected_time":234000000000,"state":"active","ping":68},{"user_id":528,"name":"Gibus Man","steam_id":76561198257241062,"connected_time":1388000000000,"state":"active","ping":99},{"user_id":548,"name":"sheep","steam_id":76561198994761483,"connected_time":222000000000,"state":"active","ping":64},{"user_id":523,"name":"Toxic Mercenary","steam_id":76561197988501611,"connected_time":1561000000000,"state":"active","ping":72},{"user_id":526,"name":"Rambly Dambly","steam_id":76561198844496567,"connected_time":1498000000000,"state":"active","ping":50},{"user_id":549,"name":"Albino Jellyfish","steam_id":76561198208561097,"connected_time":134000000000,"state":"active","ping":59},{"user_id":529,"name":"Disco Fever","steam_id":76561198069532215,"connected_time":1385000000000,"state":"active","ping":68},{"user_id":540,"name":"Sweater-Fan","steam_id":76561199389567214,"connected_time":318000000000,"state":"active","ping":62},{"user_id":518,"name":"only a spoonful","steam_id":76561198113180616,"connected_time":1963000000000,"state":"active","ping":66},{"user_id":476,"name":"PickleHater13","steam_id":76561198259380127,"connected_time":4860000000000,"state":"active","ping":47},{"user_id":542,"name":"Gram Tokers Count Doinkula","steam_id":76561198112811565,"connected_time":297000000000,"state":"active","ping":66},{"user_id":543,"name":"Treeckogeek","steam_id":76561198453328078,"connected_time":296000000000,"state":"active","ping":53},{"user_id":534,"name":"portal robewrtson big fan","steam_id":76561198150428763,"connected_time":959000000000,"state":"active","ping":99},{"user_id":511,"name":"oh hi im a huge splooging guy","steam_id":76561198074678273,"connected_time":2354000000000,"state":"active","ping":46},{"user_id":550,"name":"I'm a Capricorn I was born goat","steam_id":76561198092135570,"connected_time":107000000000,"state":"active","ping":60},{"user_id":532,"name":"SN0W","steam_id":76561198153665468,"connected_time":1211000000000,"state":"active","ping":58},{"user_id":533,"name":"gas station tweaker","steam_id":76561198264288798,"connected_time":1194000000000,"state":"active","ping":91},{"user_id":535,"name":"People play engie?","steam_id":76561198260451626,"connected_time":629000000000,"state":"active","ping":65}]},{"server_id":402,"name":"Uncletopia | Chicago | 3 | All Maps","name_short":"chi-3","host":"chi-1.us.uncletopia.com","port":27035,"enabled":true,"region":"us-central","cc":"us","latitude":41.881832,"longitude":-87.62318,"reserved":0,"last_update":"0001-01-01T00:00:00Z","name_a2s":"Uncletopia | Chicago | 3 | All Maps","protocol":17,"map":"pl_barnblitz","folder":"tf","game":"Team Fortress","app_id":440,"player_count":24,"max_players":24,"Bots":0,"server_type":"Dedicated","server_os":"Linux","password":true,"vac":true,"version":"7961495","steam_id":85568392924515191,"keywords":["nocrits","nodmgspread","payload","uncletopia"],"game_id":440,"stv_port":27036,"stv_name":"Uncletopia | Chicago | 3 | All Maps | STV","players":[{"user_id":819,"name":"DropBear","steam_id":76561197964435496,"connected_time":645000000000,"state":"active","ping":67},{"user_id":801,"name":"Uwu Micster","steam_id":76561198843890616,"connected_time":1304000000000,"state":"active","ping":87},{"user_id":810,"name":"FuckActivision","steam_id":76561198130312064,"connected_time":1231000000000,"state":"active","ping":105},{"user_id":816,"name":"Trail","steam_id":76561198777107076,"connected_time":820000000000,"state":"active","ping":61},{"user_id":825,"name":"sat","steam_id":76561198084311006,"connected_time":144000000000,"state":"active","ping":85},{"user_id":817,"name":"Oviraptor Supreme","steam_id":76561198044262534,"connected_time":785000000000,"state":"active","ping":73},{"user_id":821,"name":"‚õß AlphaSatanOmega ‚õß","steam_id":76561198035125511,"connected_time":458000000000,"state":"active","ping":45},{"user_id":788,"name":"MaDeuce","steam_id":76561198110732835,"connected_time":3168000000000,"state":"active","ping":122},{"user_id":786,"name":"WeeajEw","steam_id":76561198142481010,"connected_time":3233000000000,"state":"active","ping":39},{"user_id":818,"name":"GooBer","steam_id":76561198402241505,"connected_time":773000000000,"state":"active","ping":94},{"user_id":802,"name":"The strongest ‚ë® ball","steam_id":76561198126760743,"connected_time":1303000000000,"state":"active","ping":75},{"user_id":750,"name":"SubliminalDolphinBullet","steam_id":76561198067716129,"connected_time":5067000000000,"state":"active","ping":61},{"user_id":820,"name":"Goob-A-Bue","steam_id":76561198050535135,"connected_time":557000000000,"state":"active","ping":64},{"user_id":804,"name":"imma let my nuts hang","steam_id":76561198097544038,"connected_time":1281000000000,"state":"active","ping":92},{"user_id":806,"name":"Captain Underbelly","steam_id":76561198811270935,"connected_time":1274000000000,"state":"active","ping":97},{"user_id":822,"name":"outplayed","steam_id":76561198260527412,"connected_time":451000000000,"state":"active","ping":92},{"user_id":808,"name":"Fractious Fraternizer","steam_id":76561198034380838,"connected_time":1272000000000,"state":"active","ping":56},{"user_id":809,"name":"sleebysyd","steam_id":76561198146749756,"connected_time":1270000000000,"state":"active","ping":92},{"user_id":823,"name":"Take the L","steam_id":76561198379223875,"connected_time":237000000000,"state":"active","ping":70},{"user_id":778,"name":"will","steam_id":76561198170080245,"connected_time":3807000000000,"state":"active","ping":80},{"user_id":731,"name":"Fuyutake","steam_id":76561199123206779,"connected_time":5951000000000,"state":"active","ping":66},{"user_id":774,"name":"Freedom","steam_id":76561197966732466,"connected_time":3956000000000,"state":"active","ping":71},{"user_id":800,"name":"RocketRabbit","steam_id":76561198803062131,"connected_time":1579000000000,"state":"active","ping":64},{"user_id":815,"name":"Cryo_Dave","steam_id":76561198796748347,"connected_time":966000000000,"state":"active","ping":127}]},{"server_id":403,"name":"Uncletopia | Chicago | 4 | All Maps","name_short":"chi-4","host":"chi-1.us.uncletopia.com","port":27045,"enabled":true,"region":"us-central","cc":"us","latitude":41.881832,"longitude":-87.62318,"reserved":0,"last_update":"0001-01-01T00:00:00Z","name_a2s":"Uncletopia | Chicago | 4 | All Maps","protocol":17,"map":"cp_sunshine","folder":"tf","game":"Team Fortress","app_id":440,"player_count":0,"max_players":24,"Bots":0,"server_type":"Dedicated","server_os":"Linux","password":true,"vac":true,"version":"7961495","steam_id":85568392924515193,"keywords":["cp","nocrits","nodmgspread","uncletopia"],"game_id":440,"stv_port":27046,"stv_name":"Uncletopia | Chicago | 4 | All Maps | STV","players":null},{"server_id":36,"name":"Uncletopia | Chicago | 5 | All Maps","name_short":"chi-5","host":"chi-2.us.uncletopia.com","port":27015,"enabled":true,"region":"us-central","cc":"us","latitude":41.881832,"longitude":-87.62318,"reserved":0,"last_update":"0001-01-01T00:00:00Z","name_a2s":"Uncletopia | Chicago | 5 | All Maps","protocol":17,"map":"pl_frontier_final","folder":"tf","game":"Team Fortress","app_id":440,"player_count":24,"max_players":24,"Bots":0,"server_type":"Dedicated","server_os":"Linux","password":true,"vac":true,"version":"7961495","steam_id":85568392924866362,"keywords":["nocrits","nodmgspread","payload","uncletopia"],"game_id":440,"stv_port":27016,"stv_name":"Uncletopia | Chicago | 5 | All Maps | STV","players":[{"user_id":333,"name":"Truly Cryo","steam_id":76561198347497484,"connected_time":530000000000,"state":"active","ping":91},{"user_id":313,"name":"·µê·µâ·µí ∑","steam_id":76561199200969139,"connected_time":1494000000000,"state":"active","ping":105},{"user_id":315,"name":"sesnsitive blu","steam_id":76561199204895539,"connected_time":1394000000000,"state":"active","ping":63},{"user_id":343,"name":"Rudy","steam_id":76561198013456828,"connected_time":190000000000,"state":"active","ping":66},{"user_id":340,"name":"Panic Opossum","steam_id":76561198043838227,"connected_time":399000000000,"state":"active","ping":45},{"user_id":318,"name":"Hithereeric","steam_id":76561199455086806,"connected_time":1176000000000,"state":"active","ping":88},{"user_id":316,"name":"ChimpusGaming","steam_id":76561198060954715,"connected_time":1387000000000,"state":"active","ping":77},{"user_id":274,"name":"Cat","steam_id":76561198890478360,"connected_time":4561000000000,"state":"active","ping":151},{"user_id":332,"name":"Lead Licker","steam_id":76561198162668339,"connected_time":813000000000,"state":"active","ping":85},{"user_id":335,"name":"TheChosenOne","steam_id":76561199087866267,"connected_time":514000000000,"state":"active","ping":110},{"user_id":334,"name":"Boxcars","steam_id":76561198120978767,"connected_time":518000000000,"state":"active","ping":101},{"user_id":295,"name":"TheBlue","steam_id":76561198363412851,"connected_time":3049000000000,"state":"active","ping":45},{"user_id":337,"name":"blackrain","steam_id":76561198054587825,"connected_time":488000000000,"state":"active","ping":80},{"user_id":193,"name":"Just Juanito","steam_id":76561198241446874,"connected_time":9368000000000,"state":"active","ping":121},{"user_id":345,"name":"Alloid","steam_id":76561198046444289,"connected_time":32000000000,"state":"active","ping":98},{"user_id":323,"name":"John Xina","steam_id":76561198350649871,"connected_time":1092000000000,"state":"active","ping":87},{"user_id":287,"name":"tunaa","steam_id":76561198362763159,"connected_time":3342000000000,"state":"active","ping":117},{"user_id":324,"name":"yair_1302","steam_id":76561199193064727,"connected_time":1078000000000,"state":"active","ping":45},{"user_id":325,"name":"Sprit ‚ô•","steam_id":76561198268780781,"connected_time":1072000000000,"state":"active","ping":50},{"user_id":326,"name":"Goldensliv","steam_id":76561198161673891,"connected_time":1063000000000,"state":"active","ping":93},{"user_id":327,"name":"NOBODY","steam_id":76561198094578887,"connected_time":1050000000000,"state":"active","ping":60},{"user_id":329,"name":"Lae","steam_id":76561198185527278,"connected_time":1042000000000,"state":"active","ping":82},{"user_id":330,"name":"voltageG","steam_id":76561198107165710,"connected_time":1038000000000,"state":"active","ping":82},{"user_id":331,"name":"Artic_Ryuu","steam_id":76561198182194918,"connected_time":1037000000000,"state":"active","ping":101}]},{"server_id":37,"name":"Uncletopia | Chicago | 6 | All Maps","name_short":"chi-6","host":"chi-2.us.uncletopia.com","port":27025,"enabled":true,"region":"us-central","cc":"us","latitude":41.881832,"longitude":-87.62318,"reserved":0,"last_update":"0001-01-01T00:00:00Z","name_a2s":"Uncletopia | Chicago | 6 | All Maps","protocol":17,"map":"cp_snakewater_final1","folder":"tf","game":"Team Fortress","app_id":440,"player_count":4,"max_players":24,"Bots":0,"server_type":"Dedicated","server_os":"Linux","password":true,"vac":true,"version":"7961495","steam_id":85568392924866363,"keywords":["cp","nocrits","nodmgspread","uncletopia"],"game_id":440,"stv_port":27026,"stv_name":"Uncletopia | Chicago | 6 | All Maps | STV","players":[{"user_id":453,"name":"XtraCrums","steam_id":76561199230212648,"connected_time":459000000000,"state":"active","ping":68},{"user_id":446,"name":"Windows Gangster Edition","steam_id":76561198166982558,"connected_time":3076000000000,"state":"active","ping":84},{"user_id":447,"name":"Tallboi","steam_id":76561198274286470,"connected_time":3069000000000,"state":"active","ping":108},{"user_id":454,"name":"GoroMajimaIsHot","steam_id":76561198365713042,"connected_time":431000000000,"state":"active","ping":95}]},{"server_id":38,"name":"Uncletopia | Chicago | 7 | Stopwatch","name_short":"chi-7","host":"chi-2.us.uncletopia.com","port":27035,"enabled":true,"region":"us-central","cc":"us","latitude":41.881832,"longitude":-87.62318,"reserved":0,"last_update":"0001-01-01T00:00:00Z","name_a2s":"Uncletopia | Chicago | 7 | Stopwatch","protocol":17,"map":"workshop/koth_ashville_final.ugc2130459942","folder":"tf","game":"Team Fortress","app_id":440,"player_count":0,"max_players":24,"Bots":0,"server_type":"Dedicated","server_os":"Linux","password":true,"vac":true,"version":"7961495","steam_id":85568392924866364,"keywords":["cp","nocrits","nodmgspread","uncletopia"],"game_id":440,"stv_port":27036,"stv_name":"Uncletopia | Chicago | 7 | Stopwatch | STV","players":null},{"server_id":39,"name":"Uncletopia | Chicago | 8 | Community","name_short":"chi-8","host":"chi-2.us.uncletopia.com","port":27045,"enabled":true,"region":"us-central","cc":"us","latitude":41.881832,"longitude":-87.62318,"reserved":0,"last_update":"0001-01-01T00:00:00Z","name_a2s":"Uncletopia | Chicago | 8 | Community","protocol":17,"map":"workshop/pl_stallberg_rc3.ugc1849111469","folder":"tf","game":"Team Fortress","app_id":440,"player_count":17,"max_players":24,"Bots":0,"server_type":"Dedicated","server_os":"Linux","password":true,"vac":true,"version":"7961495","steam_id":85568392924866365,"keywords":["nocrits","nodmgspread","payload","uncletopia"],"game_id":440,"stv_port":27046,"stv_name":"Uncletopia | Chicago | 8 | Community | STV","players":[{"user_id":42,"name":"MetalTao","steam_id":76561198189408110,"connected_time":875000000000,"state":"active","ping":86},{"user_id":43,"name":"/\\/Mr. Phoenix/\\/","steam_id":76561198258944941,"connected_time":849000000000,"state":"active","ping":73},{"user_id":40,"name":"Chaffy2125","steam_id":76561198232839260,"connected_time":1920000000000,"state":"active","ping":135},{"user_id":44,"name":"Zilgrin","steam_id":76561199192857010,"connected_time":760000000000,"state":"active","ping":89},{"user_id":25,"name":"CrŒªf227","steam_id":76561198196211121,"connected_time":4987000000000,"state":"active","ping":90},{"user_id":26,"name":"Mom","steam_id":76561198207936000,"connected_time":4655000000000,"state":"active","ping":87},{"user_id":45,"name":"Ritzy","steam_id":76561198173407358,"connected_time":757000000000,"state":"active","ping":72},{"user_id":57,"name":"Kazul","steam_id":76561198014925555,"connected_time":133000000000,"state":"active","ping":50},{"user_id":50,"name":"green bean","steam_id":76561198113099204,"connected_time":485000000000,"state":"active","ping":75},{"user_id":31,"name":"Ninjoth","steam_id":76561198038611753,"connected_time":3056000000000,"state":"active","ping":84},{"user_id":48,"name":"Orgasmo","steam_id":76561198213716931,"connected_time":687000000000,"state":"active","ping":92},{"user_id":56,"name":"Staz","steam_id":76561199016887235,"connected_time":159000000000,"state":"active","ping":68},{"user_id":51,"name":"Yongulo Franks","steam_id":76561198161398654,"connected_time":465000000000,"state":"active","ping":63},{"user_id":52,"name":"chester","steam_id":76561198952172376,"connected_time":453000000000,"state":"active","ping":61},{"user_id":53,"name":"McFunny","steam_id":76561199455753651,"connected_time":420000000000,"state":"active","ping":105},{"user_id":62,"name":"PRE.BEAN","steam_id":76561198101729934,"connected_time":51000000000,"state":"active","ping":141},{"user_id":61,"name":"celery man","steam_id":76561198030189097,"connected_time":60000000000,"state":"spawning","ping":282}]},{"server_id":8,"name":"Uncletopia | Dallas | 1 | All Maps","name_short":"dal-1","host":"dal-1.us.uncletopia.com","port":27015,"enabled":true,"region":"us-central","cc":"us","latitude":32.779167,"longitude":-96.80889,"reserved":0,"last_update":"0001-01-01T00:00:00Z","name_a2s":"Uncletopia | Dallas | 1 | All Maps","protocol":17,"map":"cp_sunshine","folder":"tf","game":"Team Fortress","app_id":440,"player_count":24,"max_players":24,"Bots":0,"server_type":"Dedicated","server_os":"Linux","password":true,"vac":true,"version":"7961495","steam_id":85568392924469986,"keywords":["cp","nocrits","nodmgspread","uncletopia"],"game_id":440,"stv_port":27016,"stv_name":"Uncletopia | Dallas | 1 | All Maps | STV","players":[{"user_id":1001,"name":"TheTalentlessChicken","steam_id":76561198148390834,"connected_time":58000000000,"state":"active","ping":104},{"user_id":979,"name":"prostate tickler (you are next)","steam_id":76561198095121758,"connected_time":1508000000000,"state":"active","ping":91},{"user_id":980,"name":"Nut Bustray","steam_id":76561198092403883,"connected_time":1499000000000,"state":"active","ping":87},{"user_id":958,"name":"Bread Makes you Fat","steam_id":76561198985126532,"connected_time":3462000000000,"state":"active","ping":51},{"user_id":964,"name":"Snivy64","steam_id":76561198423445376,"connected_time":2738000000000,"state":"active","ping":75},{"user_id":982,"name":"IcedSpecter","steam_id":76561198359725173,"connected_time":1438000000000,"state":"active","ping":110},{"user_id":959,"name":"AlecTheNefarious","steam_id":76561198035291230,"connected_time":3221000000000,"state":"active","ping":45},{"user_id":902,"name":"sithreis","steam_id":76561198000564263,"connected_time":7942000000000,"state":"active","ping":63},{"user_id":966,"name":"java","steam_id":76561198030276792,"connected_time":2695000000000,"state":"active","ping":74},{"user_id":983,"name":"hunrah","steam_id":76561198185509070,"connected_time":1354000000000,"state":"active","ping":80},{"user_id":903,"name":"Five Dollar Footschlong","steam_id":76561198010019214,"connected_time":7940000000000,"state":"active","ping":80},{"user_id":956,"name":"OverPowered64","steam_id":76561198291027287,"connected_time":3632000000000,"state":"active","ping":58},{"user_id":886,"name":"tack","steam_id":76561198408477421,"connected_time":9835000000000,"state":"active","ping":89},{"user_id":967,"name":"Dr Oshawott","steam_id":76561198042021629,"connected_time":2690000000000,"state":"active","ping":89},{"user_id":984,"name":"Vicho","steam_id":76561198254884873,"connected_time":1346000000000,"state":"active","ping":77},{"user_id":994,"name":"opa","steam_id":76561199025343494,"connected_time":670000000000,"state":"active","ping":87},{"user_id":996,"name":"Asanez3","steam_id":76561198037381436,"connected_time":560000000000,"state":"active","ping":101},{"user_id":1000,"name":"Gl√ºhbirne","steam_id":76561198189278869,"connected_time":334000000000,"state":"active","ping":76},{"user_id":972,"name":"Mocha Josie","steam_id":76561198066452726,"connected_time":2007000000000,"state":"active","ping":75},{"user_id":993,"name":"fish","steam_id":76561198111396488,"connected_time":856000000000,"state":"active","ping":51},{"user_id":999,"name":"anton ego","steam_id":76561198156336213,"connected_time":425000000000,"state":"active","ping":104},{"user_id":995,"name":"flame","steam_id":76561198079321914,"connected_time":670000000000,"state":"active","ping":103},{"user_id":965,"name":"lanoc","steam_id":76561198055415367,"connected_time":2717000000000,"state":"active","ping":63},{"user_id":998,"name":"Chen Gong","steam_id":76561199205885110,"connected_time":477000000000,"state":"active","ping":65}]},{"server_id":108,"name":"Uncletopia | Dallas | 2 | All Maps","name_short":"dal-2","host":"dal-1.us.uncletopia.com","port":27025,"enabled":true,"region":"us-central","cc":"us","latitude":32.779167,"longitude":-96.80889,"reserved":0,"last_update":"0001-01-01T00:00:00Z","name_a2s":"Uncletopia | Dallas | 2 | All Maps","protocol":17,"map":"koth_king","folder":"tf","game":"Team Fortress","app_id":440,"player_count":24,"max_players":24,"Bots":0,"server_type":"Dedicated","server_os":"Linux","password":true,"vac":true,"version":"7961495","steam_id":85568392924469988,"keywords":["cp","nocrits","nodmgspread","uncletopia"],"game_id":440,"stv_port":27026,"stv_name":"Uncletopia | Dallas | 2 | All Maps | STV","players":[{"user_id":645,"name":"pete_the_cat_2014","steam_id":76561198199266047,"connected_time":1008000000000,"state":"active","ping":73},{"user_id":600,"name":"9/11 Airlines","steam_id":76561198096306325,"connected_time":3381000000000,"state":"active","ping":87},{"user_id":654,"name":"Drakon","steam_id":76561198078210822,"connected_time":52000000000,"state":"active","ping":88},{"user_id":603,"name":"name","steam_id":76561199153026367,"connected_time":3252000000000,"state":"active","ping":97},{"user_id":638,"name":"stuffedidiot","steam_id":76561199181513019,"connected_time":1213000000000,"state":"active","ping":119},{"user_id":595,"name":"uncletopia dallas 2 player","steam_id":76561198412786186,"connected_time":3716000000000,"state":"active","ping":54},{"user_id":596,"name":"Luna","steam_id":76561198023352750,"connected_time":3686000000000,"state":"active","ping":90},{"user_id":639,"name":"jurt","steam_id":76561198966381490,"connected_time":1159000000000,"state":"active","ping":101},{"user_id":640,"name":"Domster536","steam_id":76561198152695768,"connected_time":1157000000000,"state":"active","ping":70},{"user_id":580,"name":"Casey","steam_id":76561198068810896,"connected_time":4990000000000,"state":"active","ping":69},{"user_id":641,"name":"slammin","steam_id":76561197965022076,"connected_time":1143000000000,"state":"active","ping":87},{"user_id":511,"name":"HoneyBadger","steam_id":76561198129202829,"connected_time":9381000000000,"state":"active","ping":73},{"user_id":651,"name":"Kantamoe","steam_id":76561198046661611,"connected_time":487000000000,"state":"active","ping":78},{"user_id":626,"name":"boboguguz","steam_id":76561198334924459,"connected_time":1922000000000,"state":"active","ping":84},{"user_id":633,"name":"ThePhantomR","steam_id":76561198154413333,"connected_time":1464000000000,"state":"active","ping":84},{"user_id":632,"name":"Rat Smacker","steam_id":76561198043629646,"connected_time":1737000000000,"state":"active","ping":61},{"user_id":631,"name":"Batso","steam_id":76561198106589452,"connected_time":1776000000000,"state":"active","ping":87},{"user_id":592,"name":"Froot Loops","steam_id":76561198253927199,"connected_time":4002000000000,"state":"active","ping":163},{"user_id":643,"name":"Wholesale Socks","steam_id":76561198169911945,"connected_time":1118000000000,"state":"active","ping":120},{"user_id":648,"name":"Goblin Mode","steam_id":76561198064870076,"connected_time":779000000000,"state":"active","ping":83},{"user_id":650,"name":"asdasdasdasdasd","steam_id":76561198129682583,"connected_time":583000000000,"state":"active","ping":48},{"user_id":647,"name":"DragonHunter994","steam_id":76561199076203907,"connected_time":808000000000,"state":"active","ping":61},{"user_id":649,"name":"pipeline","steam_id":76561198212263380,"connected_time":765000000000,"state":"active","ping":47},{"user_id":613,"name":"SnareString","steam_id":76561199082119457,"connected_time":2251000000000,"state":"active","ping":110}]},{"server_id":404,"name":"Uncletopia | Dallas | 3 | All Maps","name_short":"dal-3","host":"dal-1.us.uncletopia.com","port":27035,"enabled":true,"region":"us-central","cc":"us","latitude":32.779167,"longitude":-96.80889,"reserved":0,"last_update":"0001-01-01T00:00:00Z","name_a2s":"Uncletopia | Dallas | 3 | All Maps","protocol":17,"map":"pl_frontier_final","folder":"tf","game":"Team Fortress","app_id":440,"player_count":17,"max_players":24,"Bots":0,"server_type":"Dedicated","server_os":"Linux","password":true,"vac":true,"version":"7961495","steam_id":85568392924515219,"keywords":["nocrits","nodmgspread","payload","uncletopia"],"game_id":440,"stv_port":27036,"stv_name":"Uncletopia | Dallas | 3 | All Maps | STV","players":[{"user_id":173,"name":"Moofins","steam_id":76561198050291949,"connected_time":3904000000000,"state":"active","ping":80},{"user_id":183,"name":"Dr. Pepper","steam_id":76561198311249963,"connected_time":2638000000000,"state":"active","ping":101},{"user_id":198,"name":"Minin","steam_id":76561198018819047,"connected_time":881000000000,"state":"active","ping":68},{"user_id":205,"name":"XxChocola20xX","steam_id":76561199108579557,"connected_time":155000000000,"state":"active","ping":88},{"user_id":191,"name":"DethSQRL","steam_id":76561199149628610,"connected_time":1005000000000,"state":"active","ping":76},{"user_id":178,"name":"mr. big","steam_id":76561198007318337,"connected_time":2974000000000,"state":"active","ping":88},{"user_id":181,"name":"celestia ludenberg","steam_id":76561199196437823,"connected_time":2653000000000,"state":"active","ping":108},{"user_id":206,"name":"‡πá‡πá‡πá‡πá‡πá‡πá‡πá‡πá‡πá‡πá","steam_id":76561199093462178,"connected_time":86000000000,"state":"active","ping":64},{"user_id":203,"name":"paulos231","steam_id":76561198032533302,"connected_time":282000000000,"state":"active","ping":124},{"user_id":193,"name":"lilicopter1","steam_id":76561199109281757,"connected_time":972000000000,"state":"active","ping":82},{"user_id":194,"name":"ghostedquestions","steam_id":76561199510005408,"connected_time":951000000000,"state":"active","ping":62},{"user_id":174,"name":"Chirox","steam_id":76561198034516923,"connected_time":3758000000000,"state":"active","ping":76},{"user_id":201,"name":"Sarbanes-Oxley","steam_id":76561197975898479,"connected_time":470000000000,"state":"active","ping":53},{"user_id":143,"name":"M√°quina de Fuego","steam_id":76561198119445407,"connected_time":6032000000000,"state":"active","ping":64},{"user_id":197,"name":"Frediculous","steam_id":76561198055012905,"connected_time":901000000000,"state":"active","ping":102},{"user_id":157,"name":"Fands","steam_id":76561198122243735,"connected_time":5159000000000,"state":"active","ping":93},{"user_id":199,"name":"let him cook","steam_id":76561198364121077,"connected_time":761000000000,"state":"active","ping":203}]},{"server_id":405,"name":"Uncletopia | Dallas | 4 | Community","name_short":"dal-4","host":"dal-1.us.uncletopia.com","port":27045,"enabled":true,"region":"us-central","cc":"us","latitude":32.779167,"longitude":-96.80889,"reserved":0,"last_update":"0001-01-01T00:00:00Z","name_a2s":"Uncletopia | Dallas | 4 | Community","protocol":17,"map":"workshop/koth_product_final.ugc454272353","folder":"tf","game":"Team Fortress","app_id":440,"player_count":2,"max_players":24,"Bots":0,"server_type":"Dedicated","server_os":"Linux","password":true,"vac":true,"version":"7961495","steam_id":85568392924515220,"keywords":["cp","nocrits","nodmgspread","uncletopia"],"game_id":440,"stv_port":27046,"stv_name":"Uncletopia | Dallas | 4 | Community | STV","players":[{"user_id":17,"name":"RealGamingX","steam_id":76561199015857243,"connected_time":152000000000,"state":"active","ping":67},{"user_id":18,"name":"AceGalaxy217","steam_id":76561198366581946,"connected_time":117000000000,"state":"active","ping":68}]},{"server_id":5,"name":"Uncletopia | Frankfurt | 1 | All Maps","name_short":"frk-1","host":"frk-1.de.uncletopia.com","port":27015,"enabled":true,"region":"eu","cc":"de","latitude":50.110924,"longitude":8.682127,"reserved":0,"last_update":"0001-01-01T00:00:00Z","name_a2s":"Uncletopia | Frankfurt | 1 | All Maps","protocol":17,"map":"ctf_doublecross","folder":"tf","game":"Team Fortress","app_id":440,"player_count":0,"max_players":24,"Bots":0,"server_type":"Dedicated","server_os":"Linux","password":true,"vac":true,"version":"7961495","steam_id":85568392924469989,"keywords":["ctf","nocrits","nodmgspread","uncletopia"],"game_id":440,"stv_port":27016,"stv_name":"Uncletopia | Frankfurt | 1 | All Maps | STV","players":null},{"server_id":110,"name":"Uncletopia | Frankfurt | 2 | All Maps","name_short":"frk-2","host":"frk-1.de.uncletopia.com","port":27025,"enabled":true,"region":"eu","cc":"de","latitude":50.110924,"longitude":8.682127,"reserved":0,"last_update":"0001-01-01T00:00:00Z","name_a2s":"Uncletopia | Frankfurt | 2 | All Maps","protocol":17,"map":"cp_coldfront","folder":"tf","game":"Team Fortress","app_id":440,"player_count":0,"max_players":24,"Bots":0,"server_type":"Dedicated","server_os":"Linux","password":true,"vac":true,"version":"7961495","steam_id":85568392924469990,"keywords":["cp","nocrits","nodmgspread","uncletopia"],"game_id":440,"stv_port":27026,"stv_name":"Uncletopia | Frankfurt | 2 | All Maps | STV","players":null},{"server_id":308,"name":"Uncletopia | Frankfurt | 3 | All Maps","name_short":"frk-3","host":"frk-1.de.uncletopia.com","port":27035,"enabled":true,"region":"eu","cc":"de","latitude":50.110924,"longitude":8.682127,"reserved":0,"last_update":"0001-01-01T00:00:00Z","name_a2s":"Uncletopia | Frankfurt | 3 | All Maps","protocol":17,"map":"plr_pipeline","folder":"tf","game":"Team Fortress","app_id":440,"player_count":0,"max_players":24,"Bots":0,"server_type":"Dedicated","server_os":"Linux","password":true,"vac":true,"version":"7961495","steam_id":85568392924504274,"keywords":["nocrits","nodmgspread","payload","uncletopia"],"game_id":440,"stv_port":27036,"stv_name":"Uncletopia | Frankfurt | 3 | All Maps | STV","players":null},{"server_id":309,"name":"Uncletopia | Frankfurt | 4 | All Maps","name_short":"frk-4","host":"frk-1.de.uncletopia.com","port":27045,"enabled":true,"region":"eu","cc":"de","latitude":50.110924,"longitude":8.682127,"reserved":0,"last_update":"0001-01-01T00:00:00Z","name_a2s":"Uncletopia | Frankfurt | 4 | All Maps","protocol":17,"map":"koth_lakeside_final","folder":"tf","game":"Team Fortress","app_id":440,"player_count":0,"max_players":24,"Bots":0,"server_type":"Dedicated","server_os":"Linux","password":true,"vac":true,"version":"7961495","steam_id":85568392924504275,"keywords":["cp","nocrits","nodmgspread","uncletopia"],"game_id":440,"stv_port":27046,"stv_name":"Uncletopia | Frankfurt | 4 | All Maps | STV","players":null},{"server_id":310,"name":"Uncletopia | Frankfurt | 5 | All Maps","name_short":"frk-5","host":"frk-1.de.uncletopia.com","port":27055,"enabled":true,"region":"eu","cc":"de","latitude":50.110924,"longitude":8.682127,"reserved":0,"last_update":"0001-01-01T00:00:00Z","name_a2s":"Uncletopia | Frankfurt | 5 | All Maps","protocol":17,"map":"ctf_landfall","folder":"tf","game":"Team Fortress","app_id":440,"player_count":0,"max_players":24,"Bots":0,"server_type":"Dedicated","server_os":"Linux","password":true,"vac":true,"version":"7961495","steam_id":85568392924504277,"keywords":["ctf","nocrits","nodmgspread","uncletopia"],"game_id":440,"stv_port":27056,"stv_name":"Uncletopia | Frankfurt | 5 | All Maps | STV","players":null},{"server_id":311,"name":"Uncletopia | Frankfurt | 6 | All Maps","name_short":"frk-6","host":"frk-1.de.uncletopia.com","port":27065,"enabled":true,"region":"eu","cc":"de","latitude":50.110924,"longitude":8.682127,"reserved":0,"last_update":"0001-01-01T00:00:00Z","name_a2s":"Uncletopia | Frankfurt | 6 | All Maps","protocol":17,"map":"cp_steel","folder":"tf","game":"Team Fortress","app_id":440,"player_count":0,"max_players":24,"Bots":0,"server_type":"Dedicated","server_os":"Linux","password":true,"vac":true,"version":"7961495","steam_id":85568392924504278,"keywords":["cp","nocrits","nodmgspread","uncletopia"],"game_id":440,"stv_port":27066,"stv_name":"Uncletopia | Frankfurt | 6 | All Maps | STV","players":null},{"server_id":23,"name":"Uncletopia | Frankfurt | 7 | Stopwatch","name_short":"frk-7","host":"frk-1.de.uncletopia.com","port":27075,"enabled":true,"region":"eu","cc":"de","latitude":50.110924,"longitude":8.682127,"reserved":0,"last_update":"0001-01-01T00:00:00Z","name_a2s":"Uncletopia | Frankfurt | 7 | Stopwatch","protocol":17,"map":"koth_highpass","folder":"tf","game":"Team Fortress","app_id":440,"player_count":0,"max_players":24,"Bots":0,"server_type":"Dedicated","server_os":"Linux","password":true,"vac":true,"version":"7961495","steam_id":85568392924742827,"keywords":["cp","nocrits","nodmgspread","uncletopia"],"game_id":440,"stv_port":27076,"stv_name":"Uncletopia | Frankfurt | 7 | Stopwatch | STV","players":null},{"server_id":24,"name":"Uncletopia | Frankfurt | 8 | Community","name_short":"frk-8","host":"frk-1.de.uncletopia.com","port":27085,"enabled":true,"region":"eu","cc":"de","latitude":50.110924,"longitude":8.682127,"reserved":0,"last_update":"0001-01-01T00:00:00Z","name_a2s":"Uncletopia | Frankfurt | 8 | Community","protocol":17,"map":"workshop/pl_stallberg_rc3.ugc1849111469","folder":"tf","game":"Team Fortress","app_id":440,"player_count":0,"max_players":24,"Bots":0,"server_type":"Dedicated","server_os":"Linux","password":true,"vac":true,"version":"7961495","steam_id":85568392924742828,"keywords":["nocrits","nodmgspread","payload","uncletopia"],"game_id":440,"stv_port":27086,"stv_name":"Uncletopia | Frankfurt | 8 | Community | STV","players":null},{"server_id":202,"name":"Uncletopia | Hong Kong | 1 | All Maps","name_short":"hgk-1","host":"hgk-1.hk.uncletopia.com","port":27015,"enabled":true,"region":"asia","cc":"hk","latitude":22.302711,"longitude":114.177216,"reserved":0,"last_update":"0001-01-01T00:00:00Z","name_a2s":"Uncletopia | Hong Kong | 1 | All Maps","protocol":17,"map":"cp_gorge","folder":"tf","game":"Team Fortress","app_id":440,"player_count":9,"max_players":24,"Bots":0,"server_type":"Dedicated","server_os":"Linux","password":true,"vac":true,"version":"7961495","steam_id":85568392924494504,"keywords":["cp","nocrits","nodmgspread","uncletopia"],"game_id":440,"stv_port":27016,"stv_name":"Uncletopia | Hong Kong | 1 | All Maps | STV","players":[{"user_id":4,"name":"flying rocketeer","steam_id":76561199401766251,"connected_time":923000000000,"state":"active","ping":72},{"user_id":5,"name":"Joilee32","steam_id":76561199226255440,"connected_time":892000000000,"state":"active","ping":76},{"user_id":6,"name":"qingque","steam_id":76561198230213828,"connected_time":783000000000,"state":"active","ping":55},{"user_id":7,"name":"calm","steam_id":76561198360026912,"connected_time":737000000000,"state":"active","ping":86},{"user_id":11,"name":"Theducktube","steam_id":76561198137265224,"connected_time":551000000000,"state":"active","ping":115},{"user_id":12,"name":"Odyssey","steam_id":76561199184927159,"connected_time":419000000000,"state":"active","ping":132},{"user_id":13,"name":"ambutacume","steam_id":76561199389550606,"connected_time":351000000000,"state":"active","ping":91},{"user_id":14,"name":"jethmaruq","steam_id":76561199395186174,"connected_time":350000000000,"state":"active","ping":86},{"user_id":15,"name":"Hu Tao","steam_id":76561198885026194,"connected_time":35000000000,"state":"active","ping":64}]},{"server_id":1,"name":"Uncletopia | Los Angeles | 1 | All Maps","name_short":"lax-1","host":"lax-1.us.uncletopia.com","port":27015,"enabled":true,"region":"us-west","cc":"us","latitude":33.94279,"longitude":-118.41004,"reserved":0,"last_update":"0001-01-01T00:00:00Z","name_a2s":"Uncletopia | Los Angeles | 1 | All Maps","protocol":17,"map":"pl_frontier_final","folder":"tf","game":"Team Fortress","app_id":440,"player_count":24,"max_players":24,"Bots":0,"server_type":"Dedicated","server_os":"Linux","password":true,"vac":true,"version":"7961495","steam_id":85568392924469991,"keywords":["nocrits","nodmgspread","payload","uncletopia"],"game_id":440,"stv_port":27016,"stv_name":"Uncletopia | Los Angeles | 1 | All Maps | STV","players":[{"user_id":466,"name":"Timewaves","steam_id":76561198000186054,"connected_time":2023000000000,"state":"active","ping":53},{"user_id":478,"name":"Pez","steam_id":76561199197778137,"connected_time":937000000000,"state":"active","ping":68},{"user_id":471,"name":"Ethanol Buttchugger","steam_id":76561199127590316,"connected_time":1884000000000,"state":"active","ping":56},{"user_id":453,"name":"Kzjytsugn","steam_id":76561198130241974,"connected_time":2472000000000,"state":"active","ping":70},{"user_id":476,"name":"himbomccree","steam_id":76561198373330850,"connected_time":1512000000000,"state":"active","ping":45},{"user_id":400,"name":"chimplicity","steam_id":76561198012097062,"connected_time":5797000000000,"state":"active","ping":72},{"user_id":477,"name":"Chalupa Jones","steam_id":76561198335855588,"connected_time":958000000000,"state":"active","ping":54},{"user_id":416,"name":"Toast","steam_id":76561198046669362,"connected_time":3550000000000,"state":"active","ping":82},{"user_id":417,"name":"usedhalfcart","steam_id":76561198072621852,"connected_time":3537000000000,"state":"active","ping":124},{"user_id":485,"name":"Sasuri","steam_id":76561198404769732,"connected_time":69000000000,"state":"active","ping":60},{"user_id":456,"name":"`o2","steam_id":76561197992030936,"connected_time":2222000000000,"state":"active","ping":96},{"user_id":467,"name":"Satori Komeiji","steam_id":76561198158211423,"connected_time":1990000000000,"state":"active","ping":36},{"user_id":468,"name":"bay","steam_id":76561198151087213,"connected_time":1968000000000,"state":"active","ping":45},{"user_id":464,"name":"Junk","steam_id":76561198024382753,"connected_time":2067000000000,"state":"active","ping":89},{"user_id":473,"name":"Bitmap","steam_id":76561198285964424,"connected_time":1812000000000,"state":"active","ping":65},{"user_id":428,"name":"Jacasola","steam_id":76561198055460402,"connected_time":3266000000000,"state":"active","ping":62},{"user_id":479,"name":"ack.awesome676","steam_id":76561199109415958,"connected_time":930000000000,"state":"active","ping":43},{"user_id":483,"name":"Saiko","steam_id":76561198982717237,"connected_time":580000000000,"state":"active","ping":67},{"user_id":435,"name":"rf","steam_id":76561198195359229,"connected_time":3206000000000,"state":"active","ping":68},{"user_id":484,"name":"Camohno","steam_id":76561198283519918,"connected_time":527000000000,"state":"active","ping":68},{"user_id":474,"name":"UncleMuscles","steam_id":76561198032539981,"connected_time":1744000000000,"state":"active","ping":54},{"user_id":481,"name":"Future Tusk","steam_id":76561198199635217,"connected_time":910000000000,"state":"active","ping":46},{"user_id":452,"name":"countstinkdevil666","steam_id":76561198073914311,"connected_time":2475000000000,"state":"active","ping":46},{"user_id":482,"name":"clonewarslover24","steam_id":76561198144673121,"connected_time":856000000000,"state":"active","ping":119}]},{"server_id":112,"name":"Uncletopia | Los Angeles | 2 | All Maps","name_short":"lax-2","host":"lax-1.us.uncletopia.com","port":27025,"enabled":true,"region":"us-west","cc":"us","latitude":33.94279,"longitude":-118.41004,"reserved":0,"last_update":"0001-01-01T00:00:00Z","name_a2s":"Uncletopia | Los Angeles | 2 | All Maps","protocol":17,"map":"pl_barnblitz","folder":"tf","game":"Team Fortress","app_id":440,"player_count":15,"max_players":24,"Bots":0,"server_type":"Dedicated","server_os":"Linux","password":true,"vac":true,"version":"7961495","steam_id":85568392924469992,"keywords":["nocrits","nodmgspread","payload","uncletopia"],"game_id":440,"stv_port":27026,"stv_name":"Uncletopia | Los Angeles | 2 | All Maps | STV","players":[{"user_id":102,"name":"Neon1two","steam_id":76561199438197994,"connected_time":1025000000000,"state":"active","ping":50},{"user_id":94,"name":"zobo","steam_id":76561198974556198,"connected_time":1203000000000,"state":"active","ping":55},{"user_id":84,"name":"Spaghettiguy6","steam_id":76561198261692989,"connected_time":2146000000000,"state":"spawning","ping":46},{"user_id":95,"name":"Ian","steam_id":76561198159334435,"connected_time":1188000000000,"state":"spawning","ping":165},{"user_id":146,"name":"An00bis","steam_id":76561198044084508,"connected_time":13000000000,"state":"spawning","ping":50},{"user_id":98,"name":"skips","steam_id":76561198105075752,"connected_time":1074000000000,"state":"spawning","ping":49},{"user_id":141,"name":"HumbDoe","steam_id":76561198065556553,"connected_time":171000000000,"state":"active","ping":59},{"user_id":71,"name":"Azary56","steam_id":76561198321404617,"connected_time":2983000000000,"state":"spawning","ping":84},{"user_id":22,"name":"legalize nuclear bombs","steam_id":76561198072789439,"connected_time":6044000000000,"state":"active","ping":84},{"user_id":56,"name":"balls","steam_id":76561198058890821,"connected_time":5099000000000,"state":"spawning","ping":99},{"user_id":27,"name":"Omega\"Hell's Wall\"EXE","steam_id":76561198395291970,"connected_time":5799000000000,"state":"active","ping":85},{"user_id":104,"name":"Bobby Ray","steam_id":76561198044131188,"connected_time":1013000000000,"state":"active","ping":116},{"user_id":106,"name":"iggybones (girl with balls)","steam_id":76561198101610291,"connected_time":998000000000,"state":"active","ping":91},{"user_id":108,"name":"daveyf03","steam_id":76561198002970473,"connected_time":994000000000,"state":"spawning","ping":46},{"user_id":119,"name":"Genius Meme","steam_id":76561198162911254,"connected_time":761000000000,"state":"active","ping":122}]},{"server_id":324,"name":"Uncletopia | Los Angeles | 3 | All Maps","name_short":"lax-3","host":"lax-1.us.uncletopia.com","port":27035,"enabled":true,"region":"us-west","cc":"us","latitude":33.94279,"longitude":-118.41004,"reserved":0,"last_update":"0001-01-01T00:00:00Z","name_a2s":"Uncletopia | Los Angeles | 3 | All Maps","protocol":17,"map":"koth_cascade","folder":"tf","game":"Team Fortress","app_id":440,"player_count":0,"max_players":24,"Bots":0,"server_type":"Dedicated","server_os":"Linux","password":true,"vac":true,"version":"7961495","steam_id":85568392924510198,"keywords":["cp","nocrits","nodmgspread","uncletopia"],"game_id":440,"stv_port":27036,"stv_name":"Uncletopia | Los Angeles | 3 | All Maps | STV","players":null},{"server_id":25,"name":"Uncletopia | Los Angeles | 4 | Stopwatch","name_short":"lax-4","host":"lax-1.us.uncletopia.com","port":27045,"enabled":true,"region":"us-west","cc":"us","latitude":33.94279,"longitude":-118.41004,"reserved":0,"last_update":"0001-01-01T00:00:00Z","name_a2s":"Uncletopia | Los Angeles | 4 | Stopwatch","protocol":17,"map":"pl_swiftwater_final1","folder":"tf","game":"Team Fortress","app_id":440,"player_count":0,"max_players":24,"Bots":0,"server_type":"Dedicated","server_os":"Linux","password":true,"vac":true,"version":"7961495","steam_id":85568392924510199,"keywords":["nocrits","nodmgspread","payload","uncletopia"],"game_id":440,"stv_port":27046,"stv_name":"Uncletopia | Los Angeles | 4 | Stopwatch | STV","players":null},{"server_id":11,"name":"Uncletopia | London | 1 | All Maps","name_short":"lon-1","host":"lon-1.uk.uncletopia.com","port":27015,"enabled":true,"region":"eu","cc":"gb","latitude":51.509865,"longitude":-0.118092,"reserved":0,"last_update":"0001-01-01T00:00:00Z","name_a2s":"Uncletopia | London | 1 | All Maps","protocol":17,"map":"plr_hightower","folder":"tf","game":"Team Fortress","app_id":440,"player_count":0,"max_players":24,"Bots":0,"server_type":"Dedicated","server_os":"Linux","password":true,"vac":true,"version":"7961495","steam_id":85568392924367362,"keywords":["nocrits","nodmgspread","payload","uncletopia"],"game_id":440,"stv_port":27016,"stv_name":"Uncletopia | London | 1 | All Maps | STV","players":null},{"server_id":114,"name":"Uncletopia | London | 2 | All Maps","name_short":"lon-2","host":"lon-1.uk.uncletopia.com","port":27025,"enabled":true,"region":"eu","cc":"gb","latitude":51.509865,"longitude":-0.118092,"reserved":0,"last_update":"0001-01-01T00:00:00Z","name_a2s":"Uncletopia | London | 2 | All Maps","protocol":17,"map":"cp_mountainlab","folder":"tf","game":"Team Fortress","app_id":440,"player_count":0,"max_players":24,"Bots":0,"server_type":"Dedicated","server_os":"Linux","password":true,"vac":true,"version":"7961495","steam_id":85568392924470941,"keywords":["cp","nocrits","nodmgspread","uncletopia"],"game_id":440,"stv_port":27026,"stv_name":"Uncletopia | London | 2 | All Maps | STV","players":null},{"server_id":320,"name":"Uncletopia | London | 3 | All Maps","name_short":"lon-3","host":"lon-1.uk.uncletopia.com","port":27035,"enabled":true,"region":"eu","cc":"gb","latitude":51.509865,"longitude":-0.118092,"reserved":0,"last_update":"0001-01-01T00:00:00Z","name_a2s":"Uncletopia | London | 3 | All Maps","protocol":17,"map":"cp_mountainlab","folder":"tf","game":"Team Fortress","app_id":440,"player_count":0,"max_players":24,"Bots":0,"server_type":"Dedicated","server_os":"Linux","password":true,"vac":true,"version":"7961495","steam_id":85568392924510192,"keywords":["cp","nocrits","nodmgspread","uncletopia"],"game_id":440,"stv_port":27036,"stv_name":"Uncletopia | London | 3 | All Maps | STV","players":null},{"server_id":321,"name":"Uncletopia | London | 4 | All Maps","name_short":"lon-4","host":"lon-1.uk.uncletopia.com","port":27045,"enabled":true,"region":"eu","cc":"gb","latitude":51.509865,"longitude":-0.118092,"reserved":0,"last_update":"0001-01-01T00:00:00Z","name_a2s":"Uncletopia | London | 4 | All Maps","protocol":17,"map":"cp_gorge","folder":"tf","game":"Team Fortress","app_id":440,"player_count":0,"max_players":24,"Bots":0,"server_type":"Dedicated","server_os":"Linux","password":true,"vac":true,"version":"7961495","steam_id":85568392924510193,"keywords":["cp","nocrits","nodmgspread","uncletopia"],"game_id":440,"stv_port":27046,"stv_name":"Uncletopia | London | 4 | All Maps | STV","players":null},{"server_id":21,"name":"Uncletopia | London | 5 | All Maps","name_short":"lon-5","host":"lon-1.uk.uncletopia.com","port":27055,"enabled":true,"region":"eu","cc":"gb","latitude":51.509865,"longitude":-0.118092,"reserved":0,"last_update":"0001-01-01T00:00:00Z","name_a2s":"Uncletopia | London | 5 | All Maps","protocol":17,"map":"koth_harvest_final","folder":"tf","game":"Team Fortress","app_id":440,"player_count":0,"max_players":24,"Bots":0,"server_type":"Dedicated","server_os":"Linux","password":true,"vac":true,"version":"7961495","steam_id":85568392924742829,"keywords":["cp","nocrits","nodmgspread","uncletopia"],"game_id":440,"stv_port":27056,"stv_name":"Uncletopia | London | 5 | All Maps | STV","players":null},{"server_id":22,"name":"Uncletopia | London | 6 | All Maps","name_short":"lon-6","host":"lon-1.uk.uncletopia.com","port":27065,"enabled":true,"region":"eu","cc":"gb","latitude":51.509865,"longitude":-0.118092,"reserved":0,"last_update":"0001-01-01T00:00:00Z","name_a2s":"Uncletopia | London | 6 | All Maps","protocol":17,"map":"koth_cascade","folder":"tf","game":"Team Fortress","app_id":440,"player_count":0,"max_players":24,"Bots":0,"server_type":"Dedicated","server_os":"Linux","password":true,"vac":true,"version":"7961495","steam_id":85568392924742830,"keywords":["cp","nocrits","nodmgspread","uncletopia"],"game_id":440,"stv_port":27066,"stv_name":"Uncletopia | London | 6 | All Maps | STV","players":null},{"server_id":40,"name":"Uncletopia | London | 7 | Stopwatch","name_short":"lon-7","host":"lon-1.uk.uncletopia.com","port":27075,"enabled":true,"region":"eu","cc":"gb","latitude":51.509865,"longitude":-0.118092,"reserved":0,"last_update":"0001-01-01T00:00:00Z","name_a2s":"Uncletopia | London | 7 | Stopwatch","protocol":17,"map":"pl_swiftwater_final1","folder":"tf","game":"Team Fortress","app_id":440,"player_count":0,"max_players":24,"Bots":0,"server_type":"Dedicated","server_os":"Linux","password":true,"vac":true,"version":"7961495","steam_id":85568392924964314,"keywords":["nocrits","nodmgspread","payload","uncletopia"],"game_id":440,"stv_port":27076,"stv_name":"Uncletopia | London | 7 | Stopwatch | STV","players":null},{"server_id":41,"name":"Uncletopia | London | 8 | Community","name_short":"lon-8","host":"lon-1.uk.uncletopia.com","port":27085,"enabled":true,"region":"eu","cc":"gb","latitude":51.509865,"longitude":-0.118092,"reserved":0,"last_update":"0001-01-01T00:00:00Z","name_a2s":"Uncletopia | London | 8 | Community","protocol":17,"map":"workshop/koth_bagel_rc6.ugc2514036946","folder":"tf","game":"Team Fortress","app_id":440,"player_count":0,"max_players":24,"Bots":0,"server_type":"Dedicated","server_os":"Linux","password":true,"vac":true,"version":"7961495","steam_id":85568392924964315,"keywords":["cp","nocrits","nodmgspread","uncletopia"],"game_id":440,"stv_port":27086,"stv_name":"Uncletopia | London | 8 | Community | STV","players":null},{"server_id":300,"name":"Uncletopia | Montr√©al | 1 | One Thousand Uncles","name_short":"mtl-1","host":"mtl-1.ca.uncletopia.com","port":27015,"enabled":true,"region":"us-east","cc":"ca","latitude":45.50889,"longitude":-73.56167,"reserved":0,"last_update":"0001-01-01T00:00:00Z","name_a2s":"Uncletopia | Montr√©al | 1 | One Thousand Uncles","protocol":17,"map":"cp_dustbowl","folder":"tf","game":"Team Fortress","app_id":440,"player_count":0,"max_players":32,"Bots":0,"server_type":"Dedicated","server_os":"Linux","password":true,"vac":true,"version":"7961495","steam_id":85568392924500087,"keywords":["alltalk","cp","danepve","increased_maxplayers","norespawntime","uncletopia"],"game_id":440,"stv_port":0,"stv_name":"","players":null},{"server_id":301,"name":"Uncletopia | Montr√©al | 2 | One Thousand Uncles","name_short":"mtl-2","host":"mtl-1.ca.uncletopia.com","port":27025,"enabled":true,"region":"us-east","cc":"ca","latitude":45.50889,"longitude":-73.56167,"reserved":0,"last_update":"0001-01-01T00:00:00Z","name_a2s":"Uncletopia | Montr√©al | 2 | One Thousand Uncles","protocol":17,"map":"pl_thundermountain","folder":"tf","game":"Team Fortress","app_id":440,"player_count":27,"max_players":32,"Bots":20,"server_type":"Dedicated","server_os":"Linux","password":true,"vac":true,"version":"7961495","steam_id":85568392924500088,"keywords":["alltalk","bots","danepve","increased_maxplayers","norespawntime","payload","uncletopia"],"game_id":440,"stv_port":0,"stv_name":"","players":[{"user_id":235,"name":"Herman Bavinck","steam_id":76561197993190216,"connected_time":4576000000000,"state":"active","ping":59},{"user_id":238,"name":"ZenkoZSprite","steam_id":76561198190132250,"connected_time":3925000000000,"state":"active","ping":58},{"user_id":244,"name":"ryqset","steam_id":76561198349299874,"connected_time":331000000000,"state":"active","ping":106},{"user_id":240,"name":"Sgt. Pepper","steam_id":76561198063674627,"connected_time":2740000000000,"state":"active","ping":100},{"user_id":245,"name":"rjkahaunaele","steam_id":76561198964158520,"connected_time":95000000000,"state":"active","ping":129},{"user_id":209,"name":"poon","steam_id":76561198049740395,"connected_time":6658000000000,"state":"active","ping":57},{"user_id":211,"name":"the infamous ball grabber","steam_id":76561198075325837,"connected_time":5920000000000,"state":"active","ping":68}]},{"server_id":302,"name":"Uncletopia | Montr√©al | 3 | One Thousand Uncles","name_short":"mtl-3","host":"mtl-1.ca.uncletopia.com","port":27035,"enabled":true,"region":"us-east","cc":"ca","latitude":45.50889,"longitude":-73.56167,"reserved":0,"last_update":"0001-01-01T00:00:00Z","name_a2s":"Uncletopia | Montr√©al | 3 | One Thousand Uncles","protocol":17,"map":"pl_upward","folder":"tf","game":"Team Fortress","app_id":440,"player_count":0,"max_players":32,"Bots":0,"server_type":"Dedicated","server_os":"Linux","password":true,"vac":true,"version":"7961495","steam_id":85568392924500089,"keywords":["alltalk","danepve","increased_maxplayers","norespawntime","payload","uncletopia"],"game_id":440,"stv_port":0,"stv_name":"","players":null},{"server_id":13,"name":"Uncletopia | New York City | 1 | All Maps","name_short":"nyc-1","host":"nyc-1.us.uncletopia.com","port":27015,"enabled":true,"region":"us-east","cc":"us","latitude":40.73061,"longitude":-73.93524,"reserved":0,"last_update":"0001-01-01T00:00:00Z","name_a2s":"Uncletopia | New York City | 1 | All Maps","protocol":17,"map":"pl_snowycoast","folder":"tf","game":"Team Fortress","app_id":440,"player_count":0,"max_players":24,"Bots":0,"server_type":"Dedicated","server_os":"Linux","password":true,"vac":true,"version":"7961495","steam_id":85568392924469993,"keywords":["nocrits","nodmgspread","payload","uncletopia"],"game_id":440,"stv_port":27016,"stv_name":"Uncletopia | New York City | 1 | All Maps | STV","players":null},{"server_id":14,"name":"Uncletopia | New York City | 2 | All Maps","name_short":"nyc-2","host":"nyc-1.us.uncletopia.com","port":27025,"enabled":true,"region":"us-east","cc":"us","latitude":40.73061,"longitude":-73.93524,"reserved":0,"last_update":"0001-01-01T00:00:00Z","name_a2s":"Uncletopia | New York City | 2 | All Maps","protocol":17,"map":"cp_dustbowl","folder":"tf","game":"Team Fortress","app_id":440,"player_count":24,"max_players":24,"Bots":0,"server_type":"Dedicated","server_os":"Linux","password":true,"vac":true,"version":"7961495","steam_id":85568392924469994,"keywords":["cp","nocrits","nodmgspread","uncletopia"],"game_id":440,"stv_port":27026,"stv_name":"Uncletopia | New York City | 2 | All Maps | STV","players":[{"user_id":299,"name":"nagarjuna","steam_id":76561198013806060,"connected_time":804000000000,"state":"active","ping":63},{"user_id":297,"name":"Tommy","steam_id":76561198441903172,"connected_time":946000000000,"state":"active","ping":63},{"user_id":298,"name":"BPU","steam_id":76561198163365343,"connected_time":863000000000,"state":"active","ping":120},{"user_id":296,"name":"Arto","steam_id":76561198153359093,"connected_time":1011000000000,"state":"active","ping":69},{"user_id":282,"name":"Yoda Gaming","steam_id":76561198334707458,"connected_time":1393000000000,"state":"active","ping":60},{"user_id":300,"name":"Rick Strong","steam_id":76561198013474613,"connected_time":781000000000,"state":"active","ping":74},{"user_id":313,"name":"Bacchus","steam_id":76561198113244990,"connected_time":141000000000,"state":"active","ping":61},{"user_id":301,"name":"Ulysses","steam_id":76561198043830924,"connected_time":751000000000,"state":"active","ping":72},{"user_id":302,"name":"silverspark","steam_id":76561198277421732,"connected_time":746000000000,"state":"active","ping":119},{"user_id":303,"name":"HiddenEgg","steam_id":76561199045105518,"connected_time":745000000000,"state":"active","ping":119},{"user_id":287,"name":"BB Lorexav","steam_id":76561198207565988,"connected_time":1237000000000,"state":"active","ping":69},{"user_id":288,"name":"‚ô•Michelle‚ô•(She/Her)","steam_id":76561197969766746,"connected_time":1221000000000,"state":"active","ping":65},{"user_id":304,"name":"HikerDave's lil' budi","steam_id":76561198311156819,"connected_time":740000000000,"state":"active","ping":98},{"user_id":289,"name":"A Knight With The Mug","steam_id":76561198325350546,"connected_time":1205000000000,"state":"active","ping":81},{"user_id":315,"name":"shnowshner","steam_id":76561198066450438,"connected_time":67000000000,"state":"active","ping":60},{"user_id":305,"name":"The","steam_id":76561198151721997,"connected_time":680000000000,"state":"active","ping":95},{"user_id":314,"name":"alternative","steam_id":76561199089684702,"connected_time":132000000000,"state":"active","ping":142},{"user_id":316,"name":"THIRDPIERCE","steam_id":76561198405366314,"connected_time":46000000000,"state":"active","ping":100},{"user_id":307,"name":"Devine Prophet","steam_id":76561198886614052,"connected_time":637000000000,"state":"active","ping":102},{"user_id":308,"name":"HikerDave","steam_id":76561198261188516,"connected_time":611000000000,"state":"active","ping":106},{"user_id":309,"name":"Security Consultant Rin","steam_id":76561199431280503,"connected_time":598000000000,"state":"active","ping":57},{"user_id":312,"name":"Asuka Gaming","steam_id":76561199196282806,"connected_time":166000000000,"state":"active","ping":70},{"user_id":273,"name":"Jersey","steam_id":76561198445837011,"connected_time":2107000000000,"state":"active","ping":61},{"user_id":311,"name":"Dullahan","steam_id":76561198119668908,"connected_time":539000000000,"state":"active","ping":119}]},{"server_id":15,"name":"Uncletopia | New York City | 3 | Stopwatch","name_short":"nyc-3","host":"nyc-1.us.uncletopia.com","port":27035,"enabled":true,"region":"us-east","cc":"us","latitude":40.73061,"longitude":-73.93524,"reserved":0,"last_update":"0001-01-01T00:00:00Z","name_a2s":"Uncletopia | New York City | 3 | Stopwatch","protocol":17,"map":"workshop/koth_clearcut_b15.ugc2107050255","folder":"tf","game":"Team Fortress","app_id":440,"player_count":0,"max_players":24,"Bots":0,"server_type":"Dedicated","server_os":"Linux","password":true,"vac":true,"version":"7961495","steam_id":85568392924742820,"keywords":["cp","nocrits","nodmgspread","uncletopia"],"game_id":440,"stv_port":27036,"stv_name":"Uncletopia | New York City | 3 | Stopwatch | STV","players":null},{"server_id":16,"name":"Uncletopia | New York City | 4 | Community","name_short":"nyc-4","host":"nyc-1.us.uncletopia.com","port":27045,"enabled":true,"region":"us-east","cc":"us","latitude":40.73061,"longitude":-73.93524,"reserved":0,"last_update":"0001-01-01T00:00:00Z","name_a2s":"Uncletopia | New York City | 4 | Community","protocol":17,"map":"workshop/cp_overgrown_rc8.ugc503939302","folder":"tf","game":"Team Fortress","app_id":440,"player_count":0,"max_players":24,"Bots":0,"server_type":"Dedicated","server_os":"Linux","password":true,"vac":true,"version":"7961495","steam_id":85568392924742821,"keywords":["cp","nocrits","nodmgspread","uncletopia"],"game_id":440,"stv_port":27046,"stv_name":"Uncletopia | New York City | 4 | Community | STV","players":null},{"server_id":142,"name":"Uncletopia | S√£o Paulo | 1 | All Maps","name_short":"sao-1","host":"sao-1.br.uncletopia.com","port":27015,"enabled":true,"region":"sa","cc":"br","latitude":-23.533773,"longitude":-46.62529,"reserved":0,"last_update":"0001-01-01T00:00:00Z","name_a2s":"Uncletopia | S√£o Paulo | 1 | All Maps","protocol":17,"map":"cp_snakewater_final1","folder":"tf","game":"Team Fortress","app_id":440,"player_count":0,"max_players":24,"Bots":0,"server_type":"Dedicated","server_os":"Linux","password":true,"vac":true,"version":"7961495","steam_id":85568392924469996,"keywords":["cp","nocrits","nodmgspread","uncletopia"],"game_id":440,"stv_port":27016,"stv_name":"Uncletopia | S√£o Paulo | 1 | All Maps | STV","players":null},{"server_id":143,"name":"Uncletopia | S√£o Paulo | 2 | Community","name_short":"sao-2","host":"sao-2.br.uncletopia.com","port":27015,"enabled":true,"region":"sa","cc":"br","latitude":-23.533773,"longitude":-46.62529,"reserved":0,"last_update":"0001-01-01T00:00:00Z","name_a2s":"Uncletopia | S√£o Paulo | 2 | Community","protocol":17,"map":"workshop/koth_slaughter_rc1.ugc1712845210","folder":"tf","game":"Team Fortress","app_id":440,"player_count":0,"max_players":24,"Bots":0,"server_type":"Dedicated","server_os":"Linux","password":true,"vac":true,"version":"7961495","steam_id":85568392924485349,"keywords":["cp","nocrits","nodmgspread","uncletopia"],"game_id":440,"stv_port":27016,"stv_name":"Uncletopia | S√£o Paulo | 2 | Community | STV","players":null},{"server_id":7,"name":"Uncletopia | Seattle | 1 | All Maps","name_short":"sea-1","host":"sea-1.us.uncletopia.com","port":27015,"enabled":true,"region":"us-west","cc":"us","latitude":47.608013,"longitude":-122.33517,"reserved":0,"last_update":"0001-01-01T00:00:00Z","name_a2s":"Uncletopia | Seattle | 1 | All Maps","protocol":17,"map":"pl_pier","folder":"tf","game":"Team Fortress","app_id":440,"player_count":24,"max_players":24,"Bots":0,"server_type":"Dedicated","server_os":"Linux","password":true,"vac":true,"version":"7961495","steam_id":85568392924469997,"keywords":["nocrits","nodmgspread","payload","uncletopia"],"game_id":440,"stv_port":27016,"stv_name":"Uncletopia | Seattle | 1 | All Maps | STV","players":[{"user_id":484,"name":"self sufficient kitten ‚ô•","steam_id":76561197960592612,"connected_time":7516000000000,"state":"active","ping":45},{"user_id":533,"name":"ArchmageF (dont uber me)","steam_id":76561197992246851,"connected_time":3885000000000,"state":"active","ping":57},{"user_id":569,"name":"danongorf, prince of the dork","steam_id":76561198034122573,"connected_time":188000000000,"state":"active","ping":46},{"user_id":522,"name":"Nom Skirrett","steam_id":76561198014600788,"connected_time":4955000000000,"state":"active","ping":69},{"user_id":521,"name":"supcupman","steam_id":76561198051513866,"connected_time":4967000000000,"state":"active","ping":74},{"user_id":493,"name":"·¥ø·¥∫·¥≥ tofu","steam_id":76561198179138047,"connected_time":7008000000000,"state":"active","ping":71},{"user_id":566,"name":"AveragePhil","steam_id":76561199139836802,"connected_time":268000000000,"state":"active","ping":49},{"user_id":564,"name":"Sexy Kitten (toxic)","steam_id":76561197979056451,"connected_time":690000000000,"state":"active","ping":53},{"user_id":547,"name":"Scrumfel Nutz","steam_id":76561198123286409,"connected_time":2852000000000,"state":"active","ping":60},{"user_id":528,"name":"The King of Piss World","steam_id":76561198082806956,"connected_time":4790000000000,"state":"active","ping":125},{"user_id":562,"name":"Grill Skills","steam_id":76561198053575147,"connected_time":863000000000,"state":"active","ping":68},{"user_id":568,"name":"Smuck","steam_id":76561198342427583,"connected_time":240000000000,"state":"active","ping":81},{"user_id":563,"name":"Nina","steam_id":76561198875007138,"connected_time":731000000000,"state":"active","ping":45},{"user_id":524,"name":"Pyrrhic Evolution","steam_id":76561198122053439,"connected_time":4906000000000,"state":"active","ping":74},{"user_id":565,"name":"kenZino","steam_id":76561197967971192,"connected_time":514000000000,"state":"active","ping":46},{"user_id":525,"name":"TROY","steam_id":76561197983852176,"connected_time":4900000000000,"state":"active","ping":75},{"user_id":513,"name":"hazel","steam_id":76561198037292232,"connected_time":5542000000000,"state":"active","ping":131},{"user_id":550,"name":"trackpad gaming | f2p","steam_id":76561198840414371,"connected_time":1990000000000,"state":"active","ping":55},{"user_id":570,"name":"Petpac","steam_id":76561198326941396,"connected_time":152000000000,"state":"active","ping":67},{"user_id":552,"name":"gorlab","steam_id":76561198025089694,"connected_time":1632000000000,"state":"active","ping":62},{"user_id":480,"name":"‚ù§ Ashleyyy ‚ù§","steam_id":76561198056428303,"connected_time":7779000000000,"state":"active","ping":85},{"user_id":543,"name":"ocean Backwards","steam_id":76561199246614260,"connected_time":3320000000000,"state":"active","ping":60},{"user_id":549,"name":"cerious","steam_id":76561197994365894,"connected_time":2363000000000,"state":"active","ping":39},{"user_id":503,"name":"DaddyGalaxy","steam_id":76561198139697796,"connected_time":6240000000000,"state":"active","ping":59}]},{"server_id":119,"name":"Uncletopia | Seattle | 2 | All Maps","name_short":"sea-2","host":"sea-1.us.uncletopia.com","port":27025,"enabled":true,"region":"us-west","cc":"us","latitude":47.608013,"longitude":-122.33517,"reserved":0,"last_update":"0001-01-01T00:00:00Z","name_a2s":"Uncletopia | Seattle | 2 | All Maps","protocol":17,"map":"pl_upward","folder":"tf","game":"Team Fortress","app_id":440,"player_count":24,"max_players":24,"Bots":0,"server_type":"Dedicated","server_os":"Linux","password":true,"vac":true,"version":"7961495","steam_id":85568392924469998,"keywords":["nocrits","nodmgspread","payload","uncletopia"],"game_id":440,"stv_port":27026,"stv_name":"Uncletopia | Seattle | 2 | All Maps | STV","players":[{"user_id":294,"name":"fish (2:3)","steam_id":76561198134331073,"connected_time":4649000000000,"state":"active","ping":61},{"user_id":207,"name":"kiwi","steam_id":76561198052177917,"connected_time":9266000000000,"state":"active","ping":89},{"user_id":331,"name":"TinyGayGuitar","steam_id":76561198130737316,"connected_time":2342000000000,"state":"active","ping":58},{"user_id":258,"name":"ghor","steam_id":76561197994547132,"connected_time":6310000000000,"state":"active","ping":31},{"user_id":356,"name":"FalseAlliance","steam_id":76561198069118506,"connected_time":266000000000,"state":"active","ping":47},{"user_id":341,"name":"WaffleWithNoToppings","steam_id":76561199088280111,"connected_time":1485000000000,"state":"active","ping":45},{"user_id":333,"name":"tf2 to trans pipeline exists","steam_id":76561198017840333,"connected_time":2212000000000,"state":"active","ping":112},{"user_id":307,"name":"Moffein","steam_id":76561198016739296,"connected_time":3748000000000,"state":"active","ping":61},{"user_id":355,"name":"thisisSteve","steam_id":76561198420882318,"connected_time":513000000000,"state":"active","ping":63},{"user_id":346,"name":"üíÖ tickle tibson üíÖ","steam_id":76561199086139640,"connected_time":1373000000000,"state":"active","ping":54},{"user_id":363,"name":"folly","steam_id":76561198133933158,"connected_time":17000000000,"state":"active","ping":80},{"user_id":353,"name":"[Industrial] A_HUMBLEBUMBLED","steam_id":76561198064771878,"connected_time":650000000000,"state":"active","ping":36},{"user_id":343,"name":"Mii Guest C, From Wii Sports","steam_id":76561198197964803,"connected_time":1402000000000,"state":"active","ping":55},{"user_id":358,"name":"me when","steam_id":76561198256701755,"connected_time":252000000000,"state":"active","ping":60},{"user_id":330,"name":"pk;member delete","steam_id":76561198027321950,"connected_time":2368000000000,"state":"active","ping":89},{"user_id":344,"name":"Day Man","steam_id":76561198067154807,"connected_time":1399000000000,"state":"active","ping":47},{"user_id":321,"name":"Mia Foxx ‚ù§","steam_id":76561198044337051,"connected_time":3087000000000,"state":"active","ping":87},{"user_id":314,"name":"Ashanti Clan","steam_id":76561198032651105,"connected_time":3564000000000,"state":"active","ping":62},{"user_id":362,"name":"jello","steam_id":76561199274158922,"connected_time":99000000000,"state":"active","ping":47},{"user_id":347,"name":"Seaport Hime","steam_id":76561198055914224,"connected_time":1363000000000,"state":"active","ping":120},{"user_id":359,"name":"raphiehayes97","steam_id":76561199499106535,"connected_time":231000000000,"state":"active","ping":78},{"user_id":357,"name":"Kipper","steam_id":76561198008515450,"connected_time":265000000000,"state":"active","ping":70},{"user_id":351,"name":"Spare(8)Ball","steam_id":76561197982432995,"connected_time":841000000000,"state":"active","ping":72},{"user_id":338,"name":"bcizzo","steam_id":76561197994399953,"connected_time":1827000000000,"state":"active","ping":77}]},{"server_id":406,"name":"Uncletopia | Seattle | 3 | Stopwatch","name_short":"sea-3","host":"sea-1.us.uncletopia.com","port":27035,"enabled":true,"region":"us-west","cc":"us","latitude":47.608013,"longitude":-122.33517,"reserved":0,"last_update":"0001-01-01T00:00:00Z","name_a2s":"Uncletopia | Seattle | 3 | Stopwatch","protocol":17,"map":"cp_gullywash_final1","folder":"tf","game":"Team Fortress","app_id":440,"player_count":0,"max_players":24,"Bots":0,"server_type":"Dedicated","server_os":"Linux","password":true,"vac":true,"version":"7961495","steam_id":85568392924515217,"keywords":["cp","nocrits","nodmgspread","uncletopia"],"game_id":440,"stv_port":27036,"stv_name":"Uncletopia | Seattle | 3 | Stopwatch | STV","players":null},{"server_id":17,"name":"Uncletopia | San Francisco | 1 | All Maps","name_short":"sfo-1","host":"sfo-1.us.uncletopia.com","port":27015,"enabled":true,"region":"us-west","cc":"us","latitude":37.77397,"longitude":-122.4313,"reserved":0,"last_update":"0001-01-01T00:00:00Z","name_a2s":"Uncletopia | San Francisco | 1 | All Maps","protocol":17,"map":"pl_upward","folder":"tf","game":"Team Fortress","app_id":440,"player_count":24,"max_players":24,"Bots":0,"server_type":"Dedicated","server_os":"Linux","password":true,"vac":true,"version":"7961495","steam_id":85568392924469999,"keywords":["nocrits","nodmgspread","payload","uncletopia"],"game_id":440,"stv_port":27016,"stv_name":"Uncletopia | San Francisco | 1 | All Maps | STV","players":[{"user_id":237,"name":"bad spy player","steam_id":76561198873699671,"connected_time":4000000000,"state":"spawning","ping":56},{"user_id":232,"name":"Cheezbeargur","steam_id":76561198164702899,"connected_time":247000000000,"state":"active","ping":47},{"user_id":198,"name":"rebogabe1012","steam_id":76561198951543508,"connected_time":1916000000000,"state":"active","ping":65},{"user_id":223,"name":"Matches_                       ","steam_id":76561198048925904,"connected_time":663000000000,"state":"active","ping":74},{"user_id":199,"name":"Ignited","steam_id":76561199187126295,"connected_time":1860000000000,"state":"active","ping":75},{"user_id":226,"name":"Lambchop","steam_id":76561198043900363,"connected_time":452000000000,"state":"active","ping":63},{"user_id":234,"name":"lker","steam_id":76561197976975075,"connected_time":124000000000,"state":"active","ping":98},{"user_id":188,"name":"Iron Father Feirros","steam_id":76561198029262451,"connected_time":2182000000000,"state":"active","ping":129},{"user_id":205,"name":"The Communist Daughter","steam_id":76561198202458288,"connected_time":1383000000000,"state":"active","ping":73},{"user_id":190,"name":"Just washed","steam_id":76561199030160932,"connected_time":2176000000000,"state":"active","ping":114},{"user_id":225,"name":"Yaoi Boy Princess","steam_id":76561197997343746,"connected_time":528000000000,"state":"active","ping":45},{"user_id":231,"name":"Money Machine (So Clean)","steam_id":76561198210734407,"connected_time":269000000000,"state":"active","ping":105},{"user_id":207,"name":"poopshitter9000","steam_id":76561198074624639,"connected_time":1339000000000,"state":"active","ping":94},{"user_id":208,"name":"darkrogue","steam_id":76561198025824429,"connected_time":1328000000000,"state":"active","ping":32},{"user_id":233,"name":"mega","steam_id":76561198089520959,"connected_time":215000000000,"state":"active","ping":94},{"user_id":173,"name":"La()VaJ()86","steam_id":76561198247547042,"connected_time":3163000000000,"state":"active","ping":58},{"user_id":235,"name":"TeteMaster500","steam_id":76561199498485457,"connected_time":91000000000,"state":"active","ping":202},{"user_id":220,"name":"Short","steam_id":76561198369132688,"connected_time":1017000000000,"state":"active","ping":46},{"user_id":236,"name":"Brathic","steam_id":76561198966232163,"connected_time":35000000000,"state":"active","ping":82},{"user_id":211,"name":"bukshelf","steam_id":76561198314221897,"connected_time":1287000000000,"state":"active","ping":72},{"user_id":230,"name":"Clorox Chugger 69","steam_id":76561198049508548,"connected_time":388000000000,"state":"active","ping":73},{"user_id":214,"name":"StrangeMachine","steam_id":76561198046628064,"connected_time":1261000000000,"state":"active","ping":63},{"user_id":176,"name":"Foyold","steam_id":76561198121024729,"connected_time":3081000000000,"state":"active","ping":57},{"user_id":227,"name":"ognuker","steam_id":76561198044114346,"connected_time":446000000000,"state":"active","ping":62}]},{"server_id":18,"name":"Uncletopia | San Francisco | 2 | All Maps","name_short":"sfo-2","host":"sfo-1.us.uncletopia.com","port":27025,"enabled":true,"region":"us-west","cc":"us","latitude":37.77397,"longitude":-122.4313,"reserved":0,"last_update":"0001-01-01T00:00:00Z","name_a2s":"Uncletopia | San Francisco | 2 | All Maps","protocol":17,"map":"cp_snakewater_final1","folder":"tf","game":"Team Fortress","app_id":440,"player_count":0,"max_players":24,"Bots":0,"server_type":"Dedicated","server_os":"Linux","password":true,"vac":true,"version":"7961495","steam_id":85568392924470000,"keywords":["cp","nocrits","nodmgspread","uncletopia"],"game_id":440,"stv_port":27026,"stv_name":"Uncletopia | San Francisco | 2 | All Maps | STV","players":null},{"server_id":19,"name":"Uncletopia | San Francisco | 3 | Stopwatch","name_short":"sfo-3","host":"sfo-1.us.uncletopia.com","port":27035,"enabled":true,"region":"us-west","cc":"us","latitude":37.77397,"longitude":-122.4313,"reserved":0,"last_update":"0001-01-01T00:00:00Z","name_a2s":"Uncletopia | San Francisco | 3 | Stopwatch","protocol":17,"map":"workshop/koth_bagel_rc6.ugc2514036946","folder":"tf","game":"Team Fortress","app_id":440,"player_count":0,"max_players":24,"Bots":0,"server_type":"Dedicated","server_os":"Linux","password":true,"vac":true,"version":"7961495","steam_id":85568392924742824,"keywords":["cp","nocrits","nodmgspread","uncletopia"],"game_id":440,"stv_port":27036,"stv_name":"Uncletopia | San Francisco | 3 | Stopwatch | STV","players":null},{"server_id":20,"name":"Uncletopia | San Francisco | 4 | Community","name_short":"sfo-4","host":"sfo-1.us.uncletopia.com","port":27045,"enabled":true,"region":"us-west","cc":"us","latitude":37.77397,"longitude":-122.4313,"reserved":0,"last_update":"0001-01-01T00:00:00Z","name_a2s":"Uncletopia | San Francisco | 4 | Community","protocol":17,"map":"workshop/cp_hazyfort_rc6.ugc1365963729","folder":"tf","game":"Team Fortress","app_id":440,"player_count":0,"max_players":24,"Bots":0,"server_type":"Dedicated","server_os":"Linux","password":true,"vac":true,"version":"7961495","steam_id":85568392924742826,"keywords":["cp","nocrits","nodmgspread","uncletopia"],"game_id":440,"stv_port":27046,"stv_name":"Uncletopia | San Francisco | 4 | Community | STV","players":null},{"server_id":141,"name":"Uncletopia | Sydney | 1 | All Maps","name_short":"syd-1","host":"syd-1.au.uncletopia.com","port":27015,"enabled":true,"region":"au","cc":"au","latitude":-33.865143,"longitude":151.2099,"reserved":0,"last_update":"0001-01-01T00:00:00Z","name_a2s":"Uncletopia | Sydney | 1 | All Maps","protocol":17,"map":"pl_upward","folder":"tf","game":"Team Fortress","app_id":440,"player_count":0,"max_players":24,"Bots":0,"server_type":"Dedicated","server_os":"Linux","password":true,"vac":true,"version":"7961495","steam_id":85568392924470001,"keywords":["nocrits","nodmgspread","payload","uncletopia"],"game_id":440,"stv_port":27016,"stv_name":"Uncletopia | Sydney | 1 | All Maps | STV","players":null},{"server_id":123,"name":"Uncletopia | Sydney | 2 | All Maps","name_short":"syd-2","host":"syd-1.au.uncletopia.com","port":27025,"enabled":true,"region":"au","cc":"au","latitude":-33.865143,"longitude":151.2099,"reserved":0,"last_update":"0001-01-01T00:00:00Z","name_a2s":"Uncletopia | Sydney | 2 | All Maps","protocol":17,"map":"koth_highpass","folder":"tf","game":"Team Fortress","app_id":440,"player_count":0,"max_players":24,"Bots":0,"server_type":"Dedicated","server_os":"Linux","password":true,"vac":true,"version":"7961495","steam_id":85568392924470002,"keywords":["cp","nocrits","nodmgspread","uncletopia"],"game_id":440,"stv_port":27026,"stv_name":"Uncletopia | Sydney | 2 | All Maps | STV","players":null},{"server_id":395,"name":"Uncletopia | Sydney | 3 | All Maps","name_short":"syd-3","host":"syd-1.au.uncletopia.com","port":27035,"enabled":true,"region":"au","cc":"au","latitude":-33.865143,"longitude":151.2099,"reserved":0,"last_update":"0001-01-01T00:00:00Z","name_a2s":"Uncletopia | Sydney | 3 | All Maps","protocol":17,"map":"pl_upward","folder":"tf","game":"Team Fortress","app_id":440,"player_count":3,"max_players":24,"Bots":0,"server_type":"Dedicated","server_os":"Linux","password":true,"vac":true,"version":"7961495","steam_id":85568392925194467,"keywords":["nocrits","nodmgspread","payload","uncletopia"],"game_id":440,"stv_port":27036,"stv_name":"Uncletopia | Sydney | 3 | All Maps | STV","players":[{"user_id":13,"name":"CETERA .zap","steam_id":76561197986022470,"connected_time":4274000000000,"state":"spawning","ping":87},{"user_id":29,"name":"impish","steam_id":76561198103237216,"connected_time":2000000000,"state":"connecting","ping":124},{"user_id":21,"name":"Snuky","steam_id":76561198117902338,"connected_time":2787000000000,"state":"spawning","ping":60}]},{"server_id":396,"name":"Uncletopia | Sydney | 4 | All Maps","name_short":"syd-4","host":"syd-1.au.uncletopia.com","port":27045,"enabled":true,"region":"au","cc":"au","latitude":-33.865143,"longitude":151.2099,"reserved":0,"last_update":"0001-01-01T00:00:00Z","name_a2s":"Uncletopia | Sydney | 4 | All Maps","protocol":17,"map":"koth_lakeside_final","folder":"tf","game":"Team Fortress","app_id":440,"player_count":0,"max_players":24,"Bots":0,"server_type":"Dedicated","server_os":"Linux","password":true,"vac":true,"version":"7961495","steam_id":85568392925397958,"keywords":["cp","nocrits","nodmgspread","uncletopia"],"game_id":440,"stv_port":27046,"stv_name":"Uncletopia | Sydney | 4 | All Maps | STV","players":null},{"server_id":58,"name":"Uncletopia | Sydney | 5 | Stopwatch","name_short":"syd-5","host":"syd-1.au.uncletopia.com","port":27055,"enabled":true,"region":"au","cc":"au","latitude":-33.865143,"longitude":151.2099,"reserved":0,"last_update":"0001-01-01T00:00:00Z","name_a2s":"Uncletopia | Sydney | 5 | Stopwatch","protocol":17,"map":"koth_highpass","folder":"tf","game":"Team Fortress","app_id":440,"player_count":0,"max_players":24,"Bots":0,"server_type":"Dedicated","server_os":"Linux","password":true,"vac":true,"version":"7961495","steam_id":85568392925397959,"keywords":["cp","nocrits","nodmgspread","uncletopia"],"game_id":440,"stv_port":27056,"stv_name":"Uncletopia | Sydney | 5 | Stopwatch | STV","players":null},{"server_id":59,"name":"Uncletopia | Sydney | 6 | Community","name_short":"syd-6","host":"syd-1.au.uncletopia.com","port":27065,"enabled":true,"region":"au","cc":"au","latitude":-33.865143,"longitude":151.2099,"reserved":0,"last_update":"0001-01-01T00:00:00Z","name_a2s":"Uncletopia | Sydney | 6 | Community","protocol":17,"map":"workshop/koth_soot_final1.ugc2969540689","folder":"tf","game":"Team Fortress","app_id":440,"player_count":0,"max_players":24,"Bots":0,"server_type":"Dedicated","server_os":"Linux","password":true,"vac":true,"version":"7961495","steam_id":85568392925397960,"keywords":["cp","nocrits","nodmgspread","uncletopia"],"game_id":440,"stv_port":27066,"stv_name":"Uncletopia | Sydney | 6 | Community | STV","players":null},{"server_id":49,"name":"Uncletopia | Warsaw | 1 | One Thousand Uncles","name_short":"waw-1","host":"waw-1.pl.uncletopia.com","port":27015,"enabled":true,"region":"eu","cc":"pl","latitude":52.2297,"longitude":21.017532,"reserved":0,"last_update":"0001-01-01T00:00:00Z","name_a2s":"Uncletopia | Warsaw | 1 | One Thousand Uncles","protocol":17,"map":"cp_egypt_final","folder":"tf","game":"Team Fortress","app_id":440,"player_count":0,"max_players":32,"Bots":0,"server_type":"Dedicated","server_os":"Linux","password":true,"vac":true,"version":"7961495","steam_id":85568392925397850,"keywords":["alltalk","cp","danepve","increased_maxplayers","norespawntime","uncletopia"],"game_id":440,"stv_port":0,"stv_name":"","players":null},{"server_id":50,"name":"Uncletopia | Warsaw | 2 | One Thousand Uncles","name_short":"waw-2","host":"waw-1.pl.uncletopia.com","port":27025,"enabled":true,"region":"eu","cc":"pl","latitude":52.2297,"longitude":21.017532,"reserved":0,"last_update":"0001-01-01T00:00:00Z","name_a2s":"Uncletopia | Warsaw | 2 | One Thousand Uncles","protocol":17,"map":"pl_pier","folder":"tf","game":"Team Fortress","app_id":440,"player_count":0,"max_players":32,"Bots":0,"server_type":"Dedicated","server_os":"Linux","password":true,"vac":true,"version":"7961495","steam_id":85568392925397851,"keywords":["alltalk","danepve","increased_maxplayers","norespawntime","payload","uncletopia"],"game_id":440,"stv_port":0,"stv_name":"","players":null},{"server_id":51,"name":"Uncletopia | Warsaw | 3 | All Maps","name_short":"waw-3","host":"waw-1.pl.uncletopia.com","port":27035,"enabled":true,"region":"eu","cc":"pl","latitude":52.2297,"longitude":21.017532,"reserved":0,"last_update":"0001-01-01T00:00:00Z","name_a2s":"Uncletopia | Warsaw | 3 | All Maps","protocol":17,"map":"pl_frontier_final","folder":"tf","game":"Team Fortress","app_id":440,"player_count":0,"max_players":24,"Bots":0,"server_type":"Dedicated","server_os":"Linux","password":true,"vac":true,"version":"7961495","steam_id":85568392925397852,"keywords":["nocrits","nodmgspread","payload","uncletopia"],"game_id":440,"stv_port":27036,"stv_name":"Uncletopia | Warsaw | 3 | All Maps | STV","players":null},{"server_id":52,"name":"Uncletopia | Warsaw | 4 | All Maps","name_short":"waw-4","host":"waw-1.pl.uncletopia.com","port":27045,"enabled":true,"region":"eu","cc":"pl","latitude":52.2297,"longitude":21.017532,"reserved":0,"last_update":"0001-01-01T00:00:00Z","name_a2s":"Uncletopia | Warsaw | 4 | All Maps","protocol":17,"map":"ctf_turbine","folder":"tf","game":"Team Fortress","app_id":440,"player_count":0,"max_players":24,"Bots":0,"server_type":"Dedicated","server_os":"Linux","password":true,"vac":true,"version":"7961495","steam_id":85568392925397853,"keywords":["ctf","nocrits","nodmgspread","uncletopia"],"game_id":440,"stv_port":27046,"stv_name":"Uncletopia | Warsaw | 4 | All Maps | STV","players":null},{"server_id":53,"name":"Uncletopia | Warsaw | 5 | Stopwatch","name_short":"waw-5","host":"waw-1.pl.uncletopia.com","port":27055,"enabled":true,"region":"eu","cc":"pl","latitude":52.2297,"longitude":21.017532,"reserved":0,"last_update":"0001-01-01T00:00:00Z","name_a2s":"Uncletopia | Warsaw | 5 | Stopwatch","protocol":17,"map":"workshop/koth_clearcut_b15.ugc2107050255","folder":"tf","game":"Team Fortress","app_id":440,"player_count":0,"max_players":24,"Bots":0,"server_type":"Dedicated","server_os":"Linux","password":true,"vac":true,"version":"7961495","steam_id":85568392925397854,"keywords":["cp","nocrits","nodmgspread","uncletopia"],"game_id":440,"stv_port":27056,"stv_name":"Uncletopia | Warsaw | 5 | Stopwatch | STV","players":null},{"server_id":54,"name":"Uncletopia | Warsaw | 6 | Community","name_short":"waw-6","host":"waw-1.pl.uncletopia.com","port":27065,"enabled":true,"region":"eu","cc":"pl","latitude":52.2297,"longitude":21.017532,"reserved":0,"last_update":"0001-01-01T00:00:00Z","name_a2s":"Uncletopia | Warsaw | 6 | Community","protocol":17,"map":"workshop/pl_highwood_b19.ugc1769496557","folder":"tf","game":"Team Fortress","app_id":440,"player_count":0,"max_players":24,"Bots":0,"server_type":"Dedicated","server_os":"Linux","password":true,"vac":true,"version":"7961495","steam_id":85568392925397856,"keywords":["nocrits","nodmgspread","payload","uncletopia"],"game_id":440,"stv_port":27066,"stv_name":"Uncletopia | Warsaw | 6 | Community | STV","players":null}]}