{"status":true,"message":"","result":[{"server_id":9,"name":"Uncletopia | Atlanta | 1 | All Maps","name_short":"atl-1","host":"atl-1.us.uncletopia.com","port":27015,"enabled":true,"region":"us-east","cc":"us","latitude":33.753746,"longitude":-84.38633,"reserved":0,"last_update":"0001-01-01T00:00:00Z","name_a2s":"Uncletopia | Atlanta | 1 | All Maps","protocol":17,"map":"pl_pier","folder":"tf","game":"Team Fortress","app_id":440,"player_count":22,"max_players":24,"Bots":0,"server_type":"Dedicated","server_os":"Linux","password":true,"vac":true,"version":"7961495","steam_id":85568392924469982,"keywords":["nocrits","nodmgspread","payload","uncletopia"],"game_id":440,"stv_port":27016,"stv_name":"Uncletopia | Atlanta | 1 | All Maps | STV","players":null},{"server_id":104,"name":"Uncletopia | Atlanta | 2 | All Maps","name_short":"atl-2","host":"atl-1.us.uncletopia.com","port":27025,"enabled":true,"region":"us-east","cc":"us","latitude":33.753746,"longitude":-84.38633,"reserved":0,"last_update":"0001-01-01T00:00:00Z","name_a2s":"Uncletopia | Atlanta | 2 | All Maps","protocol":17,"map":"pl_barnblitz","folder":"tf","game":"Team Fortress","app_id":440,"player_count":0,"max_players":24,"Bots":0,"server_type":"Dedicated","server_os":"Linux","password":true,"vac":true,"version":"7961495","steam_id":85568392924469983,"keywords":["nocrits","nodmgspread","payload","uncletopia"],"game_id":440,"stv_port":27026,"stv_name":"Uncletopia | Atlanta | 2 | All Maps | STV","players":null},{"server_id":400,"name":"Uncletopia | Atlanta | 3 | Stopwatch","name_short":"atl-3","host":"atl-1.us.uncletopia.com","port":27035,"enabled":true,"region":"us-east","cc":"us","latitude":33.753746,"longitude":-84.38633,"reserved":0,"last_update":"0001-01-01T00:00:00Z","name_a2s":"Uncletopia | Atlanta | 3 | Stopwatch","protocol":17,"map":"koth_ramjam_rc1","folder":"tf","game":"Team Fortress","app_id":440,"player_count":3,"max_players":24,"Bots":0,"server_type":"Dedicated","server_os":"Linux","password":true,"vac":true,"version":"7961495","steam_id":85568392924515187,"keywords":["cp","nocrits","nodmgspread","uncletopia"],"game_id":440,"stv_port":27036,"stv_name":"Uncletopia | Atlanta | 3 | Stopwatch | STV","players":null},{"server_id":401,"name":"Uncletopia | Atlanta | 4 | Community","name_short":"atl-4","host":"atl-1.us.uncletopia.com","port":27045,"enabled":true,"region":"us-east","cc":"us","latitude":33.753746,"longitude":-84.38633,"reserved":0,"last_update":"0001-01-01T00:00:00Z","name_a2s":"Uncletopia | Atlanta | 4 | Community","protocol":17,"map":"koth_ashville_final","folder":"tf","game":"Team Fortress","app_id":440,"player_count":0,"max_players":24,"Bots":0,"server_type":"Dedicated","server_os":"Linux","password":true,"vac":true,"version":"7961495","steam_id":85568392924515188,"keywords":["cp","nocrits","nodmgspread","uncletopia"],"game_id":440,"stv_port":27046,"stv_name":"Uncletopia | Atlanta | 4 | Community | STV","players":null},{"server_id":2,"name":"Uncletopia | Chicago | 1 | All Maps","name_short":"chi-1","host":"chi-1.us.uncletopia.com","port":27015,"enabled":true,"region":"us-central","cc":"us","latitude":41.881832,"longitude":-87.62318,"reserved":0,"last_update":"0001-01-01T00:00:00Z","name_a2s":"Uncletopia | Chicago | 1 | All Maps","protocol":17,"map":"pl_swiftwater_final1","folder":"tf","game":"Team Fortress","app_id":440,"player_count":24,"max_players":24,"Bots":0,"server_type":"Dedicated","server_os":"Linux","password":true,"vac":true,"version":"7961495","steam_id":85568392924469984,"keywords":["nocrits","nodmgspread","payload","uncletopia"],"game_id":440,"stv_port":27016,"stv_name":"Uncletopia | Chicago | 1 | All Maps | STV","players":[{"user_id":872,"name":"The Great Degenerate","steam_id":76561198028617381,"connected_time":1678000000000,"state":"active","ping":67},{"user_id":832,"name":"Epicmullen","steam_id":76561198259850795,"connected_time":3951000000000,"state":"active","ping":74},{"user_id":811,"name":"loser","steam_id":76561198259380127,"connected_time":6255000000000,"state":"active","ping":56},{"user_id":884,"name":"Cooler Ye","steam_id":76561198068830312,"connected_time":156000000000,"state":"active","ping":46},{"user_id":878,"name":"Terror-Billy #SaveTF2","steam_id":76561198328141870,"connected_time":1395000000000,"state":"active","ping":68},{"user_id":856,"name":"Krabby","steam_id":76561198038002264,"connected_time":2626000000000,"state":"active","ping":73},{"user_id":837,"name":"mwee machine","steam_id":76561198047126327,"connected_time":3800000000000,"state":"active","ping":75},{"user_id":841,"name":"Buddybudman","steam_id":76561198144316911,"connected_time":3722000000000,"state":"active","ping":82},{"user_id":867,"name":"Praise_to_the_Flashlight!","steam_id":76561199001728789,"connected_time":2087000000000,"state":"active","ping":62},{"user_id":843,"name":"JoJoJo","steam_id":76561198067153390,"connected_time":3653000000000,"state":"active","ping":56},{"user_id":883,"name":"Cdesmondd","steam_id":76561198072774462,"connected_time":836000000000,"state":"active","ping":58},{"user_id":855,"name":"frank","steam_id":76561198137777483,"connected_time":2697000000000,"state":"active","ping":69},{"user_id":882,"name":"Toxic Ron","steam_id":76561198089302972,"connected_time":877000000000,"state":"active","ping":62},{"user_id":871,"name":"CumPieQueen(800x1.21=968)","steam_id":76561198062284145,"connected_time":1678000000000,"state":"active","ping":74},{"user_id":859,"name":"Smug Pug","steam_id":76561198059423334,"connected_time":2573000000000,"state":"active","ping":56},{"user_id":873,"name":"None of that $9.99 bullshit","steam_id":76561198116169903,"connected_time":1672000000000,"state":"active","ping":46},{"user_id":844,"name":"Juno","steam_id":76561198042417277,"connected_time":3649000000000,"state":"active","ping":59},{"user_id":877,"name":"Frosti","steam_id":76561198332850064,"connected_time":1649000000000,"state":"active","ping":74},{"user_id":870,"name":"LeBron James","steam_id":76561198086978424,"connected_time":1838000000000,"state":"active","ping":56},{"user_id":879,"name":"Steadman Slick","steam_id":76561198092633444,"connected_time":1333000000000,"state":"active","ping":45},{"user_id":876,"name":"hittign dabong","steam_id":76561198097588802,"connected_time":1652000000000,"state":"active","ping":52},{"user_id":852,"name":"stevie ape-shit","steam_id":76561198243965308,"connected_time":3218000000000,"state":"active","ping":70},{"user_id":830,"name":"HOMIE","steam_id":76561198057325155,"connected_time":4530000000000,"state":"active","ping":69},{"user_id":881,"name":"ward","steam_id":76561198134667434,"connected_time":1009000000000,"state":"active","ping":48}]},{"server_id":106,"name":"Uncletopia | Chicago | 2 | All Maps","name_short":"chi-2","host":"chi-1.us.uncletopia.com","port":27025,"enabled":true,"region":"us-central","cc":"us","latitude":41.881832,"longitude":-87.62318,"reserved":0,"last_update":"0001-01-01T00:00:00Z","name_a2s":"Uncletopia | Chicago | 2 | All Maps","protocol":17,"map":"pl_borneo","folder":"tf","game":"Team Fortress","app_id":440,"player_count":24,"max_players":24,"Bots":0,"server_type":"Dedicated","server_os":"Linux","password":true,"vac":true,"version":"7961495","steam_id":85568392924469985,"keywords":["nocrits","nodmgspread","payload","uncletopia"],"game_id":440,"stv_port":27026,"stv_name":"Uncletopia | Chicago | 2 | All Maps | STV","players":[{"user_id":688,"name":"Osteo-Oligarch","steam_id":76561198164731896,"connected_time":2425000000000,"state":"active","ping":71},{"user_id":701,"name":"Ringo x Seiran","steam_id":76561198357437908,"connected_time":1515000000000,"state":"active","ping":69},{"user_id":710,"name":"ZackPlayz","steam_id":76561198393823932,"connected_time":917000000000,"state":"active","ping":95},{"user_id":698,"name":"Chestnnut","steam_id":76561198077782729,"connected_time":1682000000000,"state":"active","ping":69},{"user_id":706,"name":"a table","steam_id":76561198158461279,"connected_time":969000000000,"state":"active","ping":70},{"user_id":718,"name":"Random","steam_id":76561198318879454,"connected_time":177000000000,"state":"active","ping":57},{"user_id":690,"name":"ghurt","steam_id":76561198110161551,"connected_time":2387000000000,"state":"active","ping":60},{"user_id":691,"name":"\"The Doctor\"","steam_id":76561197970838975,"connected_time":2386000000000,"state":"active","ping":74},{"user_id":708,"name":"cotton candy ghooost","steam_id":76561198058998371,"connected_time":955000000000,"state":"active","ping":62},{"user_id":704,"name":"Galactamarx","steam_id":76561198028065755,"connected_time":1236000000000,"state":"active","ping":103},{"user_id":676,"name":"BeautifulDeer","steam_id":76561198119588300,"connected_time":3891000000000,"state":"active","ping":76},{"user_id":693,"name":"Grasshopper506","steam_id":76561198111633418,"connected_time":2355000000000,"state":"active","ping":70},{"user_id":711,"name":"KBoneski ♡","steam_id":76561198307409065,"connected_time":909000000000,"state":"active","ping":85},{"user_id":651,"name":"Mr. Tickle","steam_id":76561198126684647,"connected_time":5316000000000,"state":"active","ping":60},{"user_id":712,"name":"austinsmith","steam_id":76561198167838540,"connected_time":833000000000,"state":"active","ping":84},{"user_id":674,"name":"uhooter","steam_id":76561198007829078,"connected_time":4170000000000,"state":"active","ping":48},{"user_id":681,"name":"Laventhey","steam_id":76561198977523626,"connected_time":3289000000000,"state":"active","ping":70},{"user_id":677,"name":"Person","steam_id":76561198093244204,"connected_time":3701000000000,"state":"active","ping":74},{"user_id":713,"name":"P.C. Baby","steam_id":76561198067011379,"connected_time":694000000000,"state":"active","ping":113},{"user_id":719,"name":"Resistance","steam_id":76561198146782074,"connected_time":141000000000,"state":"active","ping":59},{"user_id":714,"name":"TastyWheat","steam_id":76561198855061918,"connected_time":686000000000,"state":"active","ping":100},{"user_id":696,"name":"Ayylmao","steam_id":76561198104780147,"connected_time":2334000000000,"state":"active","ping":47},{"user_id":717,"name":"Kng","steam_id":76561198993248203,"connected_time":592000000000,"state":"active","ping":79},{"user_id":709,"name":"dunk","steam_id":76561198132476501,"connected_time":955000000000,"state":"active","ping":50}]},{"server_id":402,"name":"Uncletopia | Chicago | 3 | All Maps","name_short":"chi-3","host":"chi-1.us.uncletopia.com","port":27035,"enabled":true,"region":"us-central","cc":"us","latitude":41.881832,"longitude":-87.62318,"reserved":0,"last_update":"0001-01-01T00:00:00Z","name_a2s":"Uncletopia | Chicago | 3 | All Maps","protocol":17,"map":"cp_snakewater_final1","folder":"tf","game":"Team Fortress","app_id":440,"player_count":23,"max_players":24,"Bots":0,"server_type":"Dedicated","server_os":"Linux","password":true,"vac":true,"version":"7961495","steam_id":85568392924515191,"keywords":["cp","nocrits","nodmgspread","uncletopia"],"game_id":440,"stv_port":27036,"stv_name":"Uncletopia | Chicago | 3 | All Maps | STV","players":[{"user_id":487,"name":"Bombsgamer","steam_id":76561198350009050,"connected_time":9736000000000,"state":"active","ping":74},{"user_id":596,"name":"\u003e\u003c\u003e","steam_id":76561198152392309,"connected_time":647000000000,"state":"active","ping":137},{"user_id":577,"name":"DirtMannly2024","steam_id":76561198199662083,"connected_time":2539000000000,"state":"active","ping":107},{"user_id":573,"name":"The Bruce the Ship","steam_id":76561198271907916,"connected_time":2663000000000,"state":"active","ping":55},{"user_id":592,"name":"NUt","steam_id":76561198031007966,"connected_time":876000000000,"state":"active","ping":58},{"user_id":603,"name":"People's_Hero","steam_id":76561198103255788,"connected_time":438000000000,"state":"active","ping":71},{"user_id":604,"name":"Muselk","steam_id":76561199289676387,"connected_time":387000000000,"state":"active","ping":87},{"user_id":576,"name":"Kel","steam_id":76561198046283896,"connected_time":2595000000000,"state":"active","ping":75},{"user_id":580,"name":"Social_Credit_Investor","steam_id":76561198282283679,"connected_time":2485000000000,"state":"active","ping":81},{"user_id":587,"name":"I Am Alpharius","steam_id":76561198033100226,"connected_time":1379000000000,"state":"active","ping":70},{"user_id":578,"name":"Sariff","steam_id":76561198136446352,"connected_time":2511000000000,"state":"active","ping":51},{"user_id":539,"name":"Duke Skywalker","steam_id":76561199231296521,"connected_time":5287000000000,"state":"active","ping":73},{"user_id":606,"name":"shy-_-guy42069","steam_id":76561199484725265,"connected_time":316000000000,"state":"active","ping":76},{"user_id":601,"name":"Falcor","steam_id":76561198088330242,"connected_time":561000000000,"state":"active","ping":43},{"user_id":415,"name":"aisu","steam_id":76561198043768507,"connected_time":16305000000000,"state":"active","ping":66},{"user_id":572,"name":"KTB","steam_id":76561197990744614,"connected_time":3223000000000,"state":"active","ping":42},{"user_id":581,"name":"NekoArc Zeon","steam_id":76561198096274909,"connected_time":2484000000000,"state":"active","ping":80},{"user_id":607,"name":"CoconutRice","steam_id":76561198114909164,"connected_time":280000000000,"state":"active","ping":45},{"user_id":584,"name":"Julius Seizure","steam_id":76561198286838443,"connected_time":1656000000000,"state":"active","ping":60},{"user_id":589,"name":"SkyJett","steam_id":76561198040719249,"connected_time":1362000000000,"state":"active","ping":52},{"user_id":608,"name":"Disco Fever","steam_id":76561198069532215,"connected_time":232000000000,"state":"active","ping":77},{"user_id":600,"name":"gay luigi","steam_id":76561198024409325,"connected_time":568000000000,"state":"active","ping":75},{"user_id":602,"name":"YASAI JUICE","steam_id":76561198131971992,"connected_time":521000000000,"state":"active","ping":35}]},{"server_id":403,"name":"Uncletopia | Chicago | 4 | All Maps","name_short":"chi-4","host":"chi-1.us.uncletopia.com","port":27045,"enabled":true,"region":"us-central","cc":"us","latitude":41.881832,"longitude":-87.62318,"reserved":0,"last_update":"0001-01-01T00:00:00Z","name_a2s":"Uncletopia | Chicago | 4 | All Maps","protocol":17,"map":"pl_frontier_final","folder":"tf","game":"Team Fortress","app_id":440,"player_count":24,"max_players":24,"Bots":0,"server_type":"Dedicated","server_os":"Linux","password":true,"vac":true,"version":"7961495","steam_id":85568392924515193,"keywords":["nocrits","nodmgspread","payload","uncletopia"],"game_id":440,"stv_port":27046,"stv_name":"Uncletopia | Chicago | 4 | All Maps | STV","players":[{"user_id":499,"name":"move move move","steam_id":76561198224614084,"connected_time":1653000000000,"state":"active","ping":75},{"user_id":514,"name":"MDEEEEE","steam_id":76561198058460585,"connected_time":646000000000,"state":"active","ping":97},{"user_id":505,"name":"sfoster","steam_id":76561197993895857,"connected_time":1270000000000,"state":"active","ping":86},{"user_id":530,"name":"Mystikkal","steam_id":76561198003949147,"connected_time":301000000000,"state":"active","ping":115},{"user_id":448,"name":"Stosh on Jream","steam_id":76561198043256782,"connected_time":4056000000000,"state":"active","ping":76},{"user_id":531,"name":"nickyboy","steam_id":76561198055205332,"connected_time":270000000000,"state":"active","ping":86},{"user_id":512,"name":"An Erect Penis :)","steam_id":76561198086477485,"connected_time":694000000000,"state":"active","ping":50},{"user_id":532,"name":"Furious George","steam_id":76561198405111646,"connected_time":261000000000,"state":"active","ping":101},{"user_id":522,"name":"Engineer2650","steam_id":76561198121410799,"connected_time":463000000000,"state":"active","ping":82},{"user_id":456,"name":"IMM0RTAL","steam_id":76561198013747901,"connected_time":3051000000000,"state":"active","ping":76},{"user_id":464,"name":"feudal","steam_id":76561198057374871,"connected_time":2294000000000,"state":"active","ping":60},{"user_id":523,"name":"TheDwellerFrom13","steam_id":76561198269640574,"connected_time":453000000000,"state":"active","ping":82},{"user_id":508,"name":"Smooth, Refreshing Bleach™","steam_id":76561197981060504,"connected_time":1008000000000,"state":"active","ping":47},{"user_id":516,"name":"airport chili's","steam_id":76561198035704202,"connected_time":637000000000,"state":"active","ping":45},{"user_id":517,"name":"MCMXC","steam_id":76561199017754044,"connected_time":634000000000,"state":"active","ping":76},{"user_id":524,"name":"Potato Masher","steam_id":76561198056712845,"connected_time":423000000000,"state":"active","ping":62},{"user_id":410,"name":"Triple Lizard","steam_id":76561198188459654,"connected_time":5888000000000,"state":"active","ping":69},{"user_id":527,"name":"Flyinglab","steam_id":76561198042161408,"connected_time":369000000000,"state":"active","ping":72},{"user_id":502,"name":"-natalexei ♥","steam_id":76561198100477765,"connected_time":1423000000000,"state":"active","ping":90},{"user_id":520,"name":"for the king","steam_id":76561197973488858,"connected_time":588000000000,"state":"active","ping":60},{"user_id":292,"name":"wepry","steam_id":76561198114091417,"connected_time":13640000000000,"state":"active","ping":53},{"user_id":528,"name":"atlas","steam_id":76561198398383076,"connected_time":350000000000,"state":"active","ping":87},{"user_id":526,"name":"Demonic Gaming Dragon","steam_id":76561198796877105,"connected_time":415000000000,"state":"active","ping":89},{"user_id":501,"name":"Anthid","steam_id":76561198074493797,"connected_time":1538000000000,"state":"active","ping":61}]},{"server_id":36,"name":"Uncletopia | Chicago | 5 | All Maps","name_short":"chi-5","host":"chi-2.us.uncletopia.com","port":27015,"enabled":true,"region":"us-central","cc":"us","latitude":41.881832,"longitude":-87.62318,"reserved":0,"last_update":"0001-01-01T00:00:00Z","name_a2s":"Uncletopia | Chicago | 5 | All Maps","protocol":17,"map":"pl_swiftwater_final1","folder":"tf","game":"Team Fortress","app_id":440,"player_count":0,"max_players":24,"Bots":0,"server_type":"Dedicated","server_os":"Linux","password":true,"vac":true,"version":"7961495","steam_id":85568392924866362,"keywords":["nocrits","nodmgspread","payload","uncletopia"],"game_id":440,"stv_port":27016,"stv_name":"Uncletopia | Chicago | 5 | All Maps | STV","players":null},{"server_id":37,"name":"Uncletopia | Chicago | 6 | All Maps","name_short":"chi-6","host":"chi-2.us.uncletopia.com","port":27025,"enabled":true,"region":"us-central","cc":"us","latitude":41.881832,"longitude":-87.62318,"reserved":0,"last_update":"0001-01-01T00:00:00Z","name_a2s":"Uncletopia | Chicago | 6 | All Maps","protocol":17,"map":"pl_upward","folder":"tf","game":"Team Fortress","app_id":440,"player_count":24,"max_players":24,"Bots":0,"server_type":"Dedicated","server_os":"Linux","password":true,"vac":true,"version":"7961495","steam_id":85568392924866363,"keywords":["nocrits","nodmgspread","payload","uncletopia"],"game_id":440,"stv_port":27026,"stv_name":"Uncletopia | Chicago | 6 | All Maps | STV","players":[{"user_id":807,"name":"Pvt. Parts","steam_id":76561198228821544,"connected_time":841000000000,"state":"active","ping":70},{"user_id":794,"name":"goblin?","steam_id":76561198007192438,"connected_time":2380000000000,"state":"active","ping":67},{"user_id":786,"name":"The Sydney Sleeper Itself","steam_id":76561198180251763,"connected_time":2807000000000,"state":"active","ping":68},{"user_id":812,"name":"slowdance","steam_id":76561198097427947,"connected_time":646000000000,"state":"active","ping":172},{"user_id":808,"name":"DistantJragon","steam_id":76561198117563641,"connected_time":824000000000,"state":"active","ping":43},{"user_id":790,"name":"AnnieM","steam_id":76561199435467297,"connected_time":2531000000000,"state":"active","ping":76},{"user_id":779,"name":"Torensz64(But weezer)","steam_id":76561198239036482,"connected_time":2958000000000,"state":"active","ping":60},{"user_id":771,"name":"MR SKELTAL","steam_id":76561198031089598,"connected_time":3369000000000,"state":"active","ping":72},{"user_id":809,"name":"Antwan","steam_id":76561198246200638,"connected_time":789000000000,"state":"active","ping":70},{"user_id":798,"name":"Amoxicilina","steam_id":76561198168486429,"connected_time":1868000000000,"state":"active","ping":117},{"user_id":776,"name":"Ryoko","steam_id":76561198084725087,"connected_time":3047000000000,"state":"active","ping":74},{"user_id":806,"name":"coopcumber","steam_id":76561198289728181,"connected_time":1352000000000,"state":"active","ping":70},{"user_id":817,"name":"bengineer","steam_id":76561198171912174,"connected_time":37000000000,"state":"active","ping":90},{"user_id":810,"name":"Matthew Lewis MJ","steam_id":76561199014695287,"connected_time":760000000000,"state":"active","ping":142},{"user_id":813,"name":"Spagon","steam_id":76561198162374030,"connected_time":636000000000,"state":"active","ping":62},{"user_id":799,"name":"(TPT) Ghost","steam_id":76561198123262873,"connected_time":1850000000000,"state":"active","ping":123},{"user_id":814,"name":"DeftlyDyl","steam_id":76561198098986187,"connected_time":605000000000,"state":"active","ping":62},{"user_id":796,"name":"Gram Tokers Count Doinkula","steam_id":76561198112811565,"connected_time":2173000000000,"state":"active","ping":73},{"user_id":803,"name":"Liquid Oxycodone","steam_id":76561198154162664,"connected_time":1459000000000,"state":"active","ping":80},{"user_id":801,"name":"A Big Rat","steam_id":76561197990853987,"connected_time":1817000000000,"state":"active","ping":63},{"user_id":816,"name":"gooch_masta","steam_id":76561198151578423,"connected_time":483000000000,"state":"active","ping":106},{"user_id":715,"name":"Hindmost","steam_id":76561199081837220,"connected_time":6949000000000,"state":"active","ping":80},{"user_id":764,"name":"SiltyStar85","steam_id":76561198309175923,"connected_time":4542000000000,"state":"active","ping":94},{"user_id":761,"name":"RusticCarp42989","steam_id":76561198361151865,"connected_time":4804000000000,"state":"active","ping":128}]},{"server_id":38,"name":"Uncletopia | Chicago | 7 | Stopwatch","name_short":"chi-7","host":"chi-2.us.uncletopia.com","port":27035,"enabled":true,"region":"us-central","cc":"us","latitude":41.881832,"longitude":-87.62318,"reserved":0,"last_update":"0001-01-01T00:00:00Z","name_a2s":"Uncletopia | Chicago | 7 | Stopwatch","protocol":17,"map":"workshop/koth_ashville_final.ugc2130459942","folder":"tf","game":"Team Fortress","app_id":440,"player_count":0,"max_players":24,"Bots":0,"server_type":"Dedicated","server_os":"Linux","password":true,"vac":true,"version":"7961495","steam_id":85568392924866364,"keywords":["cp","nocrits","nodmgspread","uncletopia"],"game_id":440,"stv_port":27036,"stv_name":"Uncletopia | Chicago | 7 | Stopwatch | STV","players":null},{"server_id":39,"name":"Uncletopia | Chicago | 8 | Community","name_short":"chi-8","host":"chi-2.us.uncletopia.com","port":27045,"enabled":true,"region":"us-central","cc":"us","latitude":41.881832,"longitude":-87.62318,"reserved":0,"last_update":"0001-01-01T00:00:00Z","name_a2s":"Uncletopia | Chicago | 8 | Community","protocol":17,"map":"workshop/pl_badwater_pro_v12.ugc2142942074","folder":"tf","game":"Team Fortress","app_id":440,"player_count":23,"max_players":24,"Bots":0,"server_type":"Dedicated","server_os":"Linux","password":true,"vac":true,"version":"7961495","steam_id":85568392924866365,"keywords":["nocrits","nodmgspread","payload","uncletopia"],"game_id":440,"stv_port":27046,"stv_name":"Uncletopia | Chicago | 8 | Community | STV","players":[{"user_id":214,"name":"The fish of doom","steam_id":76561198049069677,"connected_time":1877000000000,"state":"active","ping":67},{"user_id":215,"name":"eepy kitty :3","steam_id":76561198106313563,"connected_time":1870000000000,"state":"active","ping":59},{"user_id":197,"name":"Ace Chromatica","steam_id":76561198042211131,"connected_time":3030000000000,"state":"active","ping":57},{"user_id":192,"name":"Blehnder","steam_id":76561198172097526,"connected_time":3110000000000,"state":"active","ping":85},{"user_id":204,"name":"derpysplosion","steam_id":76561198329465332,"connected_time":2285000000000,"state":"active","ping":80},{"user_id":238,"name":"Boggy","steam_id":76561198063905981,"connected_time":2000000000,"state":"spawning","ping":106},{"user_id":199,"name":"CabezaGrande","steam_id":76561197972555502,"connected_time":2921000000000,"state":"active","ping":59},{"user_id":203,"name":"roddy ricch - ballin","steam_id":76561198111290441,"connected_time":2302000000000,"state":"active","ping":56},{"user_id":209,"name":"Freeman15","steam_id":76561197970997742,"connected_time":1947000000000,"state":"active","ping":100},{"user_id":212,"name":"Noelle Deltarune","steam_id":76561198274242908,"connected_time":1913000000000,"state":"active","ping":68},{"user_id":186,"name":"Chicken","steam_id":76561198855273194,"connected_time":3460000000000,"state":"active","ping":57},{"user_id":216,"name":"Spy Muncher","steam_id":76561198348965524,"connected_time":1869000000000,"state":"active","ping":63},{"user_id":235,"name":"zpalmtree","steam_id":76561198134307620,"connected_time":88000000000,"state":"active","ping":46},{"user_id":234,"name":"Fredorando","steam_id":76561198242546842,"connected_time":135000000000,"state":"active","ping":67},{"user_id":162,"name":"❀Rami❀","steam_id":76561198993652475,"connected_time":6310000000000,"state":"active","ping":71},{"user_id":219,"name":"SuperEnderGuy","steam_id":76561198352732164,"connected_time":1753000000000,"state":"active","ping":106},{"user_id":187,"name":"membean_membean","steam_id":76561198973965925,"connected_time":3443000000000,"state":"active","ping":68},{"user_id":223,"name":"Dr. Marvello","steam_id":76561198107573800,"connected_time":1678000000000,"state":"spawning","ping":262},{"user_id":224,"name":"SilentFootba11","steam_id":76561199006570947,"connected_time":1615000000000,"state":"active","ping":70},{"user_id":225,"name":"IgnisGlasses","steam_id":76561198133064411,"connected_time":1612000000000,"state":"active","ping":58},{"user_id":236,"name":"Astronomical-Ravs","steam_id":76561197993919776,"connected_time":13000000000,"state":"active","ping":119},{"user_id":237,"name":"Breach","steam_id":76561198045060392,"connected_time":11000000000,"state":"active","ping":73},{"user_id":232,"name":"I am a mooshroom","steam_id":76561198104198295,"connected_time":1145000000000,"state":"active","ping":89}]},{"server_id":8,"name":"Uncletopia | Dallas | 1 | All Maps","name_short":"dal-1","host":"dal-1.us.uncletopia.com","port":27015,"enabled":true,"region":"us-central","cc":"us","latitude":32.779167,"longitude":-96.80889,"reserved":0,"last_update":"0001-01-01T00:00:00Z","name_a2s":"Uncletopia | Dallas | 1 | All Maps","protocol":17,"map":"cp_freight_final1","folder":"tf","game":"Team Fortress","app_id":440,"player_count":23,"max_players":24,"Bots":0,"server_type":"Dedicated","server_os":"Linux","password":true,"vac":true,"version":"7961495","steam_id":85568392924469986,"keywords":["cp","nocrits","nodmgspread","uncletopia"],"game_id":440,"stv_port":27016,"stv_name":"Uncletopia | Dallas | 1 | All Maps | STV","players":[{"user_id":560,"name":"Smug","steam_id":76561198448205229,"connected_time":2212000000000,"state":"active","ping":76},{"user_id":558,"name":"ShapedSilver","steam_id":76561199073305310,"connected_time":2282000000000,"state":"active","ping":67},{"user_id":549,"name":"Bcuz","steam_id":76561197981318027,"connected_time":3113000000000,"state":"active","ping":86},{"user_id":562,"name":"Jo","steam_id":76561198060447015,"connected_time":1612000000000,"state":"active","ping":75},{"user_id":523,"name":"OddSlaush","steam_id":76561198043898488,"connected_time":6064000000000,"state":"active","ping":63},{"user_id":587,"name":"[S]Mr. X [No Monitor]","steam_id":76561197963746035,"connected_time":421000000000,"state":"active","ping":121},{"user_id":591,"name":"mac_cheese","steam_id":76561198071334162,"connected_time":112000000000,"state":"active","ping":92},{"user_id":553,"name":"Baby gaming","steam_id":76561198867319323,"connected_time":2763000000000,"state":"active","ping":90},{"user_id":524,"name":"THRONGLER","steam_id":76561198198563466,"connected_time":5991000000000,"state":"active","ping":43},{"user_id":550,"name":"Sweet Tooth","steam_id":76561198830158092,"connected_time":2924000000000,"state":"active","ping":88},{"user_id":592,"name":"Just Chuck","steam_id":76561198121697504,"connected_time":109000000000,"state":"active","ping":75},{"user_id":565,"name":"dansal","steam_id":76561197997042510,"connected_time":1377000000000,"state":"active","ping":56},{"user_id":589,"name":"Gwando","steam_id":76561198294629124,"connected_time":346000000000,"state":"active","ping":50},{"user_id":567,"name":"FI LO","steam_id":76561198976530881,"connected_time":1302000000000,"state":"active","ping":70},{"user_id":579,"name":"elyk37","steam_id":76561198124135253,"connected_time":846000000000,"state":"active","ping":102},{"user_id":533,"name":"Narrlocke","steam_id":76561198040588362,"connected_time":4225000000000,"state":"active","ping":75},{"user_id":501,"name":"Ojen","steam_id":76561197998414482,"connected_time":8212000000000,"state":"active","ping":77},{"user_id":582,"name":"Samrizo el Chorizo","steam_id":76561198009838162,"connected_time":778000000000,"state":"active","ping":90},{"user_id":580,"name":"Importality","steam_id":76561198049943127,"connected_time":826000000000,"state":"active","ping":105},{"user_id":593,"name":"Milk T34","steam_id":76561198116115227,"connected_time":109000000000,"state":"active","ping":85},{"user_id":583,"name":"MeMyBongusAndTheGreatOutdoors","steam_id":76561198097708978,"connected_time":774000000000,"state":"active","ping":50},{"user_id":502,"name":"alextruckman97","steam_id":76561198066867150,"connected_time":8212000000000,"state":"active","ping":78},{"user_id":570,"name":"UNIT 220","steam_id":76561198042243497,"connected_time":1259000000000,"state":"active","ping":91}]},{"server_id":108,"name":"Uncletopia | Dallas | 2 | All Maps","name_short":"dal-2","host":"dal-1.us.uncletopia.com","port":27025,"enabled":true,"region":"us-central","cc":"us","latitude":32.779167,"longitude":-96.80889,"reserved":0,"last_update":"0001-01-01T00:00:00Z","name_a2s":"Uncletopia | Dallas | 2 | All Maps","protocol":17,"map":"koth_lakeside_final","folder":"tf","game":"Team Fortress","app_id":440,"player_count":19,"max_players":24,"Bots":0,"server_type":"Dedicated","server_os":"Linux","password":true,"vac":true,"version":"7961495","steam_id":85568392924469988,"keywords":["cp","nocrits","nodmgspread","uncletopia"],"game_id":440,"stv_port":27026,"stv_name":"Uncletopia | Dallas | 2 | All Maps | STV","players":[{"user_id":564,"name":"Killerfish360","steam_id":76561198115029584,"connected_time":148000000000,"state":"active","ping":71},{"user_id":565,"name":"Von Rotten","steam_id":76561198107693371,"connected_time":132000000000,"state":"active","ping":74},{"user_id":545,"name":"KhorneBread ︻デ 一","steam_id":76561198097069958,"connected_time":1044000000000,"state":"active","ping":95},{"user_id":566,"name":"TheNixedOne","steam_id":76561198119167278,"connected_time":129000000000,"state":"active","ping":90},{"user_id":531,"name":"Manic","steam_id":76561198128149670,"connected_time":2155000000000,"state":"active","ping":43},{"user_id":558,"name":"euphoricfilth","steam_id":76561198100160865,"connected_time":663000000000,"state":"active","ping":72},{"user_id":563,"name":"schmuck","steam_id":76561198143789773,"connected_time":174000000000,"state":"active","ping":85},{"user_id":567,"name":"zeplinnn","steam_id":76561198301300987,"connected_time":89000000000,"state":"active","ping":73},{"user_id":548,"name":"AFKaylee","steam_id":76561198218215220,"connected_time":936000000000,"state":"active","ping":58},{"user_id":540,"name":"dobby","steam_id":76561198012274834,"connected_time":1870000000000,"state":"active","ping":58},{"user_id":562,"name":"porz","steam_id":76561198195711453,"connected_time":308000000000,"state":"active","ping":45},{"user_id":559,"name":"dopadream","steam_id":76561198068383694,"connected_time":608000000000,"state":"active","ping":58},{"user_id":539,"name":"souljaboytellem.com","steam_id":76561198095824426,"connected_time":1972000000000,"state":"active","ping":67},{"user_id":568,"name":"ShadowBolt","steam_id":76561198061610985,"connected_time":83000000000,"state":"active","ping":118},{"user_id":549,"name":"Retrace","steam_id":76561198080620966,"connected_time":909000000000,"state":"active","ping":76},{"user_id":569,"name":"forklift circumcised","steam_id":76561198278756087,"connected_time":3000000000,"state":"spawning","ping":87},{"user_id":522,"name":"OniSlays","steam_id":76561198043875292,"connected_time":2880000000000,"state":"active","ping":75},{"user_id":552,"name":"Bishop","steam_id":76561198012706496,"connected_time":849000000000,"state":"active","ping":83},{"user_id":527,"name":"California Police Department","steam_id":76561199071151136,"connected_time":2774000000000,"state":"active","ping":76}]},{"server_id":404,"name":"Uncletopia | Dallas | 3 | All Maps","name_short":"dal-3","host":"dal-1.us.uncletopia.com","port":27035,"enabled":true,"region":"us-central","cc":"us","latitude":32.779167,"longitude":-96.80889,"reserved":0,"last_update":"0001-01-01T00:00:00Z","name_a2s":"Uncletopia | Dallas | 3 | All Maps","protocol":17,"map":"pl_hoodoo_final","folder":"tf","game":"Team Fortress","app_id":440,"player_count":23,"max_players":24,"Bots":0,"server_type":"Dedicated","server_os":"Linux","password":true,"vac":true,"version":"7961495","steam_id":85568392924515219,"keywords":["nocrits","nodmgspread","payload","uncletopia"],"game_id":440,"stv_port":27036,"stv_name":"Uncletopia | Dallas | 3 | All Maps | STV","players":[{"user_id":343,"name":"IgnitusDragon","steam_id":76561198350526201,"connected_time":2353000000000,"state":"active","ping":111},{"user_id":344,"name":"CatLike Pigeon","steam_id":76561198171716030,"connected_time":2143000000000,"state":"active","ping":100},{"user_id":350,"name":"softboy69","steam_id":76561198020120005,"connected_time":1103000000000,"state":"active","ping":82},{"user_id":363,"name":"Jesus","steam_id":76561198018890911,"connected_time":292000000000,"state":"active","ping":42},{"user_id":334,"name":"Fermenting Kiwi","steam_id":76561198253303497,"connected_time":2691000000000,"state":"active","ping":72},{"user_id":351,"name":"Mr. Lemons","steam_id":76561198441618104,"connected_time":1087000000000,"state":"active","ping":104},{"user_id":346,"name":"118 Voices","steam_id":76561198167583291,"connected_time":1956000000000,"state":"active","ping":119},{"user_id":341,"name":"SaaxoM","steam_id":76561198208256603,"connected_time":2406000000000,"state":"active","ping":79},{"user_id":345,"name":"Shima","steam_id":76561198996459518,"connected_time":1982000000000,"state":"active","ping":100},{"user_id":353,"name":"the pig","steam_id":76561198036753164,"connected_time":1007000000000,"state":"active","ping":74},{"user_id":354,"name":"non-euclydian swampfest geometr","steam_id":76561198070136627,"connected_time":997000000000,"state":"active","ping":75},{"user_id":364,"name":"Herdez Hot Salsa","steam_id":76561197991740906,"connected_time":286000000000,"state":"active","ping":86},{"user_id":355,"name":"BrightOrangeMango","steam_id":76561198023144607,"connected_time":950000000000,"state":"active","ping":81},{"user_id":368,"name":"werecat","steam_id":76561198005091213,"connected_time":89000000000,"state":"active","ping":82},{"user_id":365,"name":"NOBODY","steam_id":76561198094578887,"connected_time":220000000000,"state":"active","ping":85},{"user_id":361,"name":"EvilPi99let","steam_id":76561197987243470,"connected_time":698000000000,"state":"active","ping":76},{"user_id":357,"name":"Caboose","steam_id":76561198215451935,"connected_time":845000000000,"state":"active","ping":51},{"user_id":342,"name":"H2OBourne","steam_id":76561198396293109,"connected_time":2385000000000,"state":"active","ping":65},{"user_id":362,"name":"Pikemen","steam_id":76561198141338432,"connected_time":690000000000,"state":"active","ping":83},{"user_id":366,"name":"Target","steam_id":76561198113620105,"connected_time":215000000000,"state":"active","ping":83},{"user_id":367,"name":"BlazingWaters","steam_id":76561198136322660,"connected_time":157000000000,"state":"active","ping":90},{"user_id":358,"name":"Rukks","steam_id":76561197993918954,"connected_time":843000000000,"state":"active","ping":84},{"user_id":359,"name":"Irritated Duck","steam_id":76561198247792076,"connected_time":835000000000,"state":"active","ping":128}]},{"server_id":405,"name":"Uncletopia | Dallas | 4 | Community","name_short":"dal-4","host":"dal-1.us.uncletopia.com","port":27045,"enabled":true,"region":"us-central","cc":"us","latitude":32.779167,"longitude":-96.80889,"reserved":0,"last_update":"0001-01-01T00:00:00Z","name_a2s":"Uncletopia | Dallas | 4 | Community","protocol":17,"map":"workshop/koth_ashville_final.ugc2130459942","folder":"tf","game":"Team Fortress","app_id":440,"player_count":2,"max_players":24,"Bots":0,"server_type":"Dedicated","server_os":"Linux","password":true,"vac":true,"version":"7961495","steam_id":85568392924515220,"keywords":["cp","nocrits","nodmgspread","uncletopia"],"game_id":440,"stv_port":27046,"stv_name":"Uncletopia | Dallas | 4 | Community | STV","players":[{"user_id":96,"name":"Hypno_Kitty","steam_id":76561198978367946,"connected_time":2186000000000,"state":"active","ping":71},{"user_id":98,"name":"captainspatklz","steam_id":76561198432167270,"connected_time":1919000000000,"state":"active","ping":74}]},{"server_id":5,"name":"Uncletopia | Frankfurt | 1 | All Maps","name_short":"frk-1","host":"frk-1.de.uncletopia.com","port":27015,"enabled":true,"region":"eu","cc":"de","latitude":50.110924,"longitude":8.682127,"reserved":0,"last_update":"0001-01-01T00:00:00Z","name_a2s":"Uncletopia | Frankfurt | 1 | All Maps","protocol":17,"map":"koth_highpass","folder":"tf","game":"Team Fortress","app_id":440,"player_count":0,"max_players":24,"Bots":0,"server_type":"Dedicated","server_os":"Linux","password":true,"vac":true,"version":"7961495","steam_id":85568392924469989,"keywords":["cp","nocrits","nodmgspread","uncletopia"],"game_id":440,"stv_port":27016,"stv_name":"Uncletopia | Frankfurt | 1 | All Maps | STV","players":null},{"server_id":110,"name":"Uncletopia | Frankfurt | 2 | All Maps","name_short":"frk-2","host":"frk-1.de.uncletopia.com","port":27025,"enabled":true,"region":"eu","cc":"de","latitude":50.110924,"longitude":8.682127,"reserved":0,"last_update":"0001-01-01T00:00:00Z","name_a2s":"Uncletopia | Frankfurt | 2 | All Maps","protocol":17,"map":"cp_dustbowl","folder":"tf","game":"Team Fortress","app_id":440,"player_count":0,"max_players":24,"Bots":0,"server_type":"Dedicated","server_os":"Linux","password":true,"vac":true,"version":"7961495","steam_id":85568392924469990,"keywords":["cp","nocrits","nodmgspread","uncletopia"],"game_id":440,"stv_port":27026,"stv_name":"Uncletopia | Frankfurt | 2 | All Maps | STV","players":null},{"server_id":308,"name":"Uncletopia | Frankfurt | 3 | All Maps","name_short":"frk-3","host":"frk-1.de.uncletopia.com","port":27035,"enabled":true,"region":"eu","cc":"de","latitude":50.110924,"longitude":8.682127,"reserved":0,"last_update":"0001-01-01T00:00:00Z","name_a2s":"Uncletopia | Frankfurt | 3 | All Maps","protocol":17,"map":"pl_barnblitz","folder":"tf","game":"Team Fortress","app_id":440,"player_count":0,"max_players":24,"Bots":0,"server_type":"Dedicated","server_os":"Linux","password":true,"vac":true,"version":"7961495","steam_id":85568392924504274,"keywords":["nocrits","nodmgspread","payload","uncletopia"],"game_id":440,"stv_port":27036,"stv_name":"Uncletopia | Frankfurt | 3 | All Maps | STV","players":null},{"server_id":309,"name":"Uncletopia | Frankfurt | 4 | All Maps","name_short":"frk-4","host":"frk-1.de.uncletopia.com","port":27045,"enabled":true,"region":"eu","cc":"de","latitude":50.110924,"longitude":8.682127,"reserved":0,"last_update":"0001-01-01T00:00:00Z","name_a2s":"Uncletopia | Frankfurt | 4 | All Maps","protocol":17,"map":"koth_highpass","folder":"tf","game":"Team Fortress","app_id":440,"player_count":0,"max_players":24,"Bots":0,"server_type":"Dedicated","server_os":"Linux","password":true,"vac":true,"version":"7961495","steam_id":85568392924504275,"keywords":["cp","nocrits","nodmgspread","uncletopia"],"game_id":440,"stv_port":27046,"stv_name":"Uncletopia | Frankfurt | 4 | All Maps | STV","players":null},{"server_id":310,"name":"Uncletopia | Frankfurt | 5 | All Maps","name_short":"frk-5","host":"frk-1.de.uncletopia.com","port":27055,"enabled":true,"region":"eu","cc":"de","latitude":50.110924,"longitude":8.682127,"reserved":0,"last_update":"0001-01-01T00:00:00Z","name_a2s":"Uncletopia | Frankfurt | 5 | All Maps","protocol":17,"map":"pl_badwater","folder":"tf","game":"Team Fortress","app_id":440,"player_count":0,"max_players":24,"Bots":0,"server_type":"Dedicated","server_os":"Linux","password":true,"vac":true,"version":"7961495","steam_id":85568392924504277,"keywords":["nocrits","nodmgspread","payload","uncletopia"],"game_id":440,"stv_port":27056,"stv_name":"Uncletopia | Frankfurt | 5 | All Maps | STV","players":null},{"server_id":311,"name":"Uncletopia | Frankfurt | 6 | All Maps","name_short":"frk-6","host":"frk-1.de.uncletopia.com","port":27065,"enabled":true,"region":"eu","cc":"de","latitude":50.110924,"longitude":8.682127,"reserved":0,"last_update":"0001-01-01T00:00:00Z","name_a2s":"Uncletopia | Frankfurt | 6 | All Maps","protocol":17,"map":"cp_altitude","folder":"tf","game":"Team Fortress","app_id":440,"player_count":0,"max_players":24,"Bots":0,"server_type":"Dedicated","server_os":"Linux","password":true,"vac":true,"version":"7961495","steam_id":85568392924504278,"keywords":["cp","nocrits","nodmgspread","uncletopia"],"game_id":440,"stv_port":27066,"stv_name":"Uncletopia | Frankfurt | 6 | All Maps | STV","players":null},{"server_id":23,"name":"Uncletopia | Frankfurt | 7 | Stopwatch","name_short":"frk-7","host":"frk-1.de.uncletopia.com","port":27075,"enabled":true,"region":"eu","cc":"de","latitude":50.110924,"longitude":8.682127,"reserved":0,"last_update":"0001-01-01T00:00:00Z","name_a2s":"Uncletopia | Frankfurt | 7 | Stopwatch","protocol":17,"map":"pl_frontier_final","folder":"tf","game":"Team Fortress","app_id":440,"player_count":0,"max_players":24,"Bots":0,"server_type":"Dedicated","server_os":"Linux","password":true,"vac":true,"version":"7961495","steam_id":85568392924742827,"keywords":["nocrits","nodmgspread","payload","uncletopia"],"game_id":440,"stv_port":27076,"stv_name":"Uncletopia | Frankfurt | 7 | Stopwatch | STV","players":null},{"server_id":24,"name":"Uncletopia | Frankfurt | 8 | Community","name_short":"frk-8","host":"frk-1.de.uncletopia.com","port":27085,"enabled":true,"region":"eu","cc":"de","latitude":50.110924,"longitude":8.682127,"reserved":0,"last_update":"0001-01-01T00:00:00Z","name_a2s":"Uncletopia | Frankfurt | 8 | Community","protocol":17,"map":"cp_mountainlab","folder":"tf","game":"Team Fortress","app_id":440,"player_count":0,"max_players":24,"Bots":0,"server_type":"Dedicated","server_os":"Linux","password":true,"vac":true,"version":"7961495","steam_id":85568392924742828,"keywords":["cp","nocrits","nodmgspread","uncletopia"],"game_id":440,"stv_port":27086,"stv_name":"Uncletopia | Frankfurt | 8 | Community | STV","players":null},{"server_id":202,"name":"Uncletopia | Hong Kong | 1 | All Maps","name_short":"hgk-1","host":"hgk-1.hk.uncletopia.com","port":27015,"enabled":true,"region":"asia","cc":"hk","latitude":22.302711,"longitude":114.177216,"reserved":0,"last_update":"0001-01-01T00:00:00Z","name_a2s":"Uncletopia | Hong Kong | 1 | All Maps","protocol":17,"map":"koth_badlands","folder":"tf","game":"Team Fortress","app_id":440,"player_count":2,"max_players":24,"Bots":0,"server_type":"Dedicated","server_os":"Linux","password":true,"vac":true,"version":"7961495","steam_id":85568392924494504,"keywords":["cp","nocrits","nodmgspread","uncletopia"],"game_id":440,"stv_port":27016,"stv_name":"Uncletopia | Hong Kong | 1 | All Maps | STV","players":[{"user_id":49,"name":"timothylmao38","steam_id":76561199348861599,"connected_time":888000000000,"state":"active","ping":93},{"user_id":48,"name":"ArcticDolphin","steam_id":76561198203626319,"connected_time":1255000000000,"state":"active","ping":115}]},{"server_id":1,"name":"Uncletopia | Los Angeles | 1 | All Maps","name_short":"lax-1","host":"lax-1.us.uncletopia.com","port":27015,"enabled":true,"region":"us-west","cc":"us","latitude":33.94279,"longitude":-118.41004,"reserved":0,"last_update":"0001-01-01T00:00:00Z","name_a2s":"Uncletopia | Los Angeles | 1 | All Maps","protocol":17,"map":"cp_mountainlab","folder":"tf","game":"Team Fortress","app_id":440,"player_count":23,"max_players":24,"Bots":0,"server_type":"Dedicated","server_os":"Linux","password":true,"vac":true,"version":"7961495","steam_id":85568392924469991,"keywords":["cp","nocrits","nodmgspread","uncletopia"],"game_id":440,"stv_port":27016,"stv_name":"Uncletopia | Los Angeles | 1 | All Maps | STV","players":[{"user_id":322,"name":"Professional Scumbag","steam_id":76561198250903034,"connected_time":36000000000,"state":"spawning","ping":117},{"user_id":299,"name":"exx","steam_id":76561198090552145,"connected_time":2435000000000,"state":"active","ping":47},{"user_id":318,"name":"Stupid dumb orange idiot","steam_id":76561198046266326,"connected_time":183000000000,"state":"active","ping":49},{"user_id":297,"name":"schnedwob","steam_id":76561197999146588,"connected_time":2558000000000,"state":"active","ping":84},{"user_id":307,"name":"menta fresca","steam_id":76561198086666486,"connected_time":1424000000000,"state":"active","ping":61},{"user_id":323,"name":"Officer Gramps","steam_id":76561198070216300,"connected_time":28000000000,"state":"spawning","ping":119},{"user_id":300,"name":"Firedust19","steam_id":76561198153238631,"connected_time":2405000000000,"state":"active","ping":68},{"user_id":313,"name":"Lemonade Juice","steam_id":76561198402892608,"connected_time":308000000000,"state":"active","ping":41},{"user_id":324,"name":"heck","steam_id":76561198315694520,"connected_time":15000000000,"state":"spawning","ping":34},{"user_id":245,"name":"Igrium","steam_id":76561198119549811,"connected_time":7198000000000,"state":"active","ping":72},{"user_id":311,"name":"Looge","steam_id":76561198155483586,"connected_time":536000000000,"state":"active","ping":98},{"user_id":312,"name":"Mr. Noodle","steam_id":76561198025280658,"connected_time":364000000000,"state":"active","ping":59},{"user_id":282,"name":"Birby","steam_id":76561198884009768,"connected_time":4191000000000,"state":"active","ping":63},{"user_id":305,"name":"Jest","steam_id":76561198170173062,"connected_time":1618000000000,"state":"active","ping":53},{"user_id":252,"name":"Waltuh White","steam_id":76561198964210411,"connected_time":6968000000000,"state":"active","ping":45},{"user_id":320,"name":"Shook","steam_id":76561198054064995,"connected_time":118000000000,"state":"active","ping":101},{"user_id":306,"name":"ScoutBox","steam_id":76561198111539895,"connected_time":1426000000000,"state":"active","ping":47},{"user_id":316,"name":"philio2010","steam_id":76561199086384636,"connected_time":204000000000,"state":"active","ping":55},{"user_id":321,"name":"John16Mark","steam_id":76561198119445407,"connected_time":111000000000,"state":"active","ping":93},{"user_id":259,"name":"Duckpin","steam_id":76561198147503700,"connected_time":6846000000000,"state":"active","ping":54},{"user_id":263,"name":"cool beans","steam_id":76561198045758072,"connected_time":6572000000000,"state":"active","ping":48},{"user_id":295,"name":"Type Three Dabeetus","steam_id":76561198062710038,"connected_time":2926000000000,"state":"active","ping":57},{"user_id":303,"name":"FROYO b4nny","steam_id":76561197970669109,"connected_time":1827000000000,"state":"active","ping":53}]},{"server_id":112,"name":"Uncletopia | Los Angeles | 2 | All Maps","name_short":"lax-2","host":"lax-1.us.uncletopia.com","port":27025,"enabled":true,"region":"us-west","cc":"us","latitude":33.94279,"longitude":-118.41004,"reserved":0,"last_update":"0001-01-01T00:00:00Z","name_a2s":"Uncletopia | Los Angeles | 2 | All Maps","protocol":17,"map":"cp_snakewater_final1","folder":"tf","game":"Team Fortress","app_id":440,"player_count":24,"max_players":24,"Bots":0,"server_type":"Dedicated","server_os":"Linux","password":true,"vac":true,"version":"7961495","steam_id":85568392924469992,"keywords":["cp","nocrits","nodmgspread","uncletopia"],"game_id":440,"stv_port":27026,"stv_name":"Uncletopia | Los Angeles | 2 | All Maps | STV","players":[{"user_id":362,"name":"❤ Ashley ❤","steam_id":76561198056428303,"connected_time":6842000000000,"state":"active","ping":47},{"user_id":417,"name":"Owl_eyes","steam_id":76561198066199203,"connected_time":1728000000000,"state":"active","ping":55},{"user_id":432,"name":"Scampy","steam_id":76561198001506924,"connected_time":493000000000,"state":"active","ping":87},{"user_id":412,"name":"riSygneD","steam_id":76561198331618687,"connected_time":1873000000000,"state":"active","ping":39},{"user_id":433,"name":"Mr. Enforce","steam_id":76561198362168020,"connected_time":475000000000,"state":"active","ping":100},{"user_id":421,"name":"Chalupa Jones","steam_id":76561198335855588,"connected_time":1592000000000,"state":"active","ping":54},{"user_id":390,"name":"self sufficient kitten","steam_id":76561197960592612,"connected_time":4816000000000,"state":"active","ping":76},{"user_id":424,"name":"i cant aim","steam_id":76561198065873462,"connected_time":1107000000000,"state":"active","ping":47},{"user_id":434,"name":"Skarp129","steam_id":76561198108679057,"connected_time":448000000000,"state":"active","ping":46},{"user_id":435,"name":"♠Silver♠","steam_id":76561198206109224,"connected_time":432000000000,"state":"active","ping":123},{"user_id":395,"name":"sobaka","steam_id":76561198116008934,"connected_time":4416000000000,"state":"active","ping":63},{"user_id":425,"name":"Buswolley","steam_id":76561197995205571,"connected_time":1079000000000,"state":"active","ping":57},{"user_id":423,"name":"purple hatsune miku","steam_id":76561198108844158,"connected_time":1408000000000,"state":"active","ping":105},{"user_id":436,"name":"Maribel Hearn Gaming","steam_id":76561198063315650,"connected_time":431000000000,"state":"active","ping":42},{"user_id":437,"name":"Cunt Force Trauma","steam_id":76561198086121413,"connected_time":418000000000,"state":"active","ping":106},{"user_id":438,"name":"ttv/californjoe","steam_id":76561197965047795,"connected_time":417000000000,"state":"active","ping":56},{"user_id":414,"name":"whathashit69","steam_id":76561199013105760,"connected_time":1838000000000,"state":"active","ping":103},{"user_id":431,"name":"Wordly Eggplant","steam_id":76561198166704083,"connected_time":538000000000,"state":"active","ping":101},{"user_id":427,"name":"Ryanabss","steam_id":76561198326211765,"connected_time":876000000000,"state":"active","ping":95},{"user_id":440,"name":"stapled chunks","steam_id":76561199042656910,"connected_time":387000000000,"state":"active","ping":92},{"user_id":439,"name":"Wiggs is the Shiggs","steam_id":76561198078379719,"connected_time":402000000000,"state":"active","ping":60},{"user_id":441,"name":"elephant thumb","steam_id":76561198118859752,"connected_time":381000000000,"state":"active","ping":45},{"user_id":442,"name":"Hannah","steam_id":76561199142959128,"connected_time":366000000000,"state":"active","ping":83},{"user_id":415,"name":"ForAPessimistImPrettyOptimistic","steam_id":76561198170128009,"connected_time":1834000000000,"state":"active","ping":55}]},{"server_id":324,"name":"Uncletopia | Los Angeles | 3 | All Maps","name_short":"lax-3","host":"lax-1.us.uncletopia.com","port":27035,"enabled":true,"region":"us-west","cc":"us","latitude":33.94279,"longitude":-118.41004,"reserved":0,"last_update":"0001-01-01T00:00:00Z","name_a2s":"Uncletopia | Los Angeles | 3 | All Maps","protocol":17,"map":"pl_badwater","folder":"tf","game":"Team Fortress","app_id":440,"player_count":0,"max_players":24,"Bots":0,"server_type":"Dedicated","server_os":"Linux","password":true,"vac":true,"version":"7961495","steam_id":85568392924510198,"keywords":["nocrits","nodmgspread","payload","uncletopia"],"game_id":440,"stv_port":27036,"stv_name":"Uncletopia | Los Angeles | 3 | All Maps | STV","players":null},{"server_id":25,"name":"Uncletopia | Los Angeles | 4 | Stopwatch","name_short":"lax-4","host":"lax-1.us.uncletopia.com","port":27045,"enabled":true,"region":"us-west","cc":"us","latitude":33.94279,"longitude":-118.41004,"reserved":0,"last_update":"0001-01-01T00:00:00Z","name_a2s":"Uncletopia | Los Angeles | 4 | Stopwatch","protocol":17,"map":"workshop/koth_ramjam_rc1.ugc459778887","folder":"tf","game":"Team Fortress","app_id":440,"player_count":0,"max_players":24,"Bots":0,"server_type":"Dedicated","server_os":"Linux","password":true,"vac":true,"version":"7961495","steam_id":85568392924510199,"keywords":["cp","nocrits","nodmgspread","uncletopia"],"game_id":440,"stv_port":27046,"stv_name":"Uncletopia | Los Angeles | 4 | Stopwatch | STV","players":null},{"server_id":11,"name":"Uncletopia | London | 1 | All Maps","name_short":"lon-1","host":"lon-1.uk.uncletopia.com","port":27015,"enabled":true,"region":"eu","cc":"gb","latitude":51.509865,"longitude":-0.118092,"reserved":0,"last_update":"0001-01-01T00:00:00Z","name_a2s":"Uncletopia | London | 1 | All Maps","protocol":17,"map":"koth_cascade","folder":"tf","game":"Team Fortress","app_id":440,"player_count":19,"max_players":24,"Bots":0,"server_type":"Dedicated","server_os":"Linux","password":true,"vac":true,"version":"7961495","steam_id":85568392924367362,"keywords":["cp","nocrits","nodmgspread","uncletopia"],"game_id":440,"stv_port":27016,"stv_name":"Uncletopia | London | 1 | All Maps | STV","players":[{"user_id":942,"name":"GothVampire","steam_id":76561198323219832,"connected_time":917000000000,"state":"active","ping":164},{"user_id":937,"name":"SmolJak","steam_id":76561199057045168,"connected_time":1247000000000,"state":"active","ping":53},{"user_id":953,"name":"deloreg (playing scout)","steam_id":76561199487318962,"connected_time":95000000000,"state":"active","ping":75},{"user_id":948,"name":"Turbo","steam_id":76561197973697756,"connected_time":443000000000,"state":"active","ping":45},{"user_id":940,"name":"B52 stealth bomber","steam_id":76561198878274997,"connected_time":973000000000,"state":"active","ping":86},{"user_id":956,"name":"Topme","steam_id":76561198091734693,"connected_time":46000000000,"state":"active","ping":60},{"user_id":905,"name":"nug","steam_id":76561198055396568,"connected_time":3993000000000,"state":"active","ping":46},{"user_id":910,"name":"yodel","steam_id":76561198138777659,"connected_time":3487000000000,"state":"active","ping":56},{"user_id":943,"name":"Jotman","steam_id":76561198302202478,"connected_time":900000000000,"state":"active","ping":62},{"user_id":931,"name":"cheesy","steam_id":76561198967624862,"connected_time":1708000000000,"state":"active","ping":139},{"user_id":906,"name":"king k rool","steam_id":76561199179040672,"connected_time":3939000000000,"state":"active","ping":52},{"user_id":947,"name":"ashsbhop","steam_id":76561199155075476,"connected_time":591000000000,"state":"active","ping":90},{"user_id":952,"name":"Cesar","steam_id":76561199230635041,"connected_time":114000000000,"state":"active","ping":53},{"user_id":949,"name":"Dalm (She/Her)","steam_id":76561198010878552,"connected_time":403000000000,"state":"active","ping":47},{"user_id":878,"name":"lagzer","steam_id":76561198029295449,"connected_time":5837000000000,"state":"active","ping":80},{"user_id":950,"name":"Darim","steam_id":76561198097062529,"connected_time":391000000000,"state":"active","ping":122},{"user_id":954,"name":"grey","steam_id":76561199019327761,"connected_time":57000000000,"state":"active","ping":118},{"user_id":955,"name":"Oph","steam_id":76561199473424810,"connected_time":53000000000,"state":"active","ping":46},{"user_id":811,"name":"CHELOVEK_YAYCA","steam_id":76561198165428648,"connected_time":10990000000000,"state":"active","ping":121}]},{"server_id":114,"name":"Uncletopia | London | 2 | All Maps","name_short":"lon-2","host":"lon-1.uk.uncletopia.com","port":27025,"enabled":true,"region":"eu","cc":"gb","latitude":51.509865,"longitude":-0.118092,"reserved":0,"last_update":"0001-01-01T00:00:00Z","name_a2s":"Uncletopia | London | 2 | All Maps","protocol":17,"map":"koth_viaduct","folder":"tf","game":"Team Fortress","app_id":440,"player_count":0,"max_players":24,"Bots":0,"server_type":"Dedicated","server_os":"Linux","password":true,"vac":true,"version":"7961495","steam_id":85568392924470941,"keywords":["cp","nocrits","nodmgspread","uncletopia"],"game_id":440,"stv_port":27026,"stv_name":"Uncletopia | London | 2 | All Maps | STV","players":null},{"server_id":320,"name":"Uncletopia | London | 3 | All Maps","name_short":"lon-3","host":"lon-1.uk.uncletopia.com","port":27035,"enabled":true,"region":"eu","cc":"gb","latitude":51.509865,"longitude":-0.118092,"reserved":0,"last_update":"0001-01-01T00:00:00Z","name_a2s":"Uncletopia | London | 3 | All Maps","protocol":17,"map":"koth_highpass","folder":"tf","game":"Team Fortress","app_id":440,"player_count":0,"max_players":24,"Bots":0,"server_type":"Dedicated","server_os":"Linux","password":true,"vac":true,"version":"7961495","steam_id":85568392924510192,"keywords":["cp","nocrits","nodmgspread","uncletopia"],"game_id":440,"stv_port":27036,"stv_name":"Uncletopia | London | 3 | All Maps | STV","players":null},{"server_id":321,"name":"Uncletopia | London | 4 | All Maps","name_short":"lon-4","host":"lon-1.uk.uncletopia.com","port":27045,"enabled":true,"region":"eu","cc":"gb","latitude":51.509865,"longitude":-0.118092,"reserved":0,"last_update":"0001-01-01T00:00:00Z","name_a2s":"Uncletopia | London | 4 | All Maps","protocol":17,"map":"koth_highpass","folder":"tf","game":"Team Fortress","app_id":440,"player_count":0,"max_players":24,"Bots":0,"server_type":"Dedicated","server_os":"Linux","password":true,"vac":true,"version":"7961495","steam_id":85568392924510193,"keywords":["cp","nocrits","nodmgspread","uncletopia"],"game_id":440,"stv_port":27046,"stv_name":"Uncletopia | London | 4 | All Maps | STV","players":null},{"server_id":21,"name":"Uncletopia | London | 5 | All Maps","name_short":"lon-5","host":"lon-1.uk.uncletopia.com","port":27055,"enabled":true,"region":"eu","cc":"gb","latitude":51.509865,"longitude":-0.118092,"reserved":0,"last_update":"0001-01-01T00:00:00Z","name_a2s":"Uncletopia | London | 5 | All Maps","protocol":17,"map":"koth_lakeside_final","folder":"tf","game":"Team Fortress","app_id":440,"player_count":0,"max_players":24,"Bots":0,"server_type":"Dedicated","server_os":"Linux","password":true,"vac":true,"version":"7961495","steam_id":85568392924742829,"keywords":["cp","nocrits","nodmgspread","uncletopia"],"game_id":440,"stv_port":27056,"stv_name":"Uncletopia | London | 5 | All Maps | STV","players":null},{"server_id":22,"name":"Uncletopia | London | 6 | All Maps","name_short":"lon-6","host":"lon-1.uk.uncletopia.com","port":27065,"enabled":true,"region":"eu","cc":"gb","latitude":51.509865,"longitude":-0.118092,"reserved":0,"last_update":"0001-01-01T00:00:00Z","name_a2s":"Uncletopia | London | 6 | All Maps","protocol":17,"map":"pl_barnblitz","folder":"tf","game":"Team Fortress","app_id":440,"player_count":0,"max_players":24,"Bots":0,"server_type":"Dedicated","server_os":"Linux","password":true,"vac":true,"version":"7961495","steam_id":85568392924742830,"keywords":["nocrits","nodmgspread","payload","uncletopia"],"game_id":440,"stv_port":27066,"stv_name":"Uncletopia | London | 6 | All Maps | STV","players":null},{"server_id":40,"name":"Uncletopia | London | 7 | Stopwatch","name_short":"lon-7","host":"lon-1.uk.uncletopia.com","port":27075,"enabled":true,"region":"eu","cc":"gb","latitude":51.509865,"longitude":-0.118092,"reserved":0,"last_update":"0001-01-01T00:00:00Z","name_a2s":"Uncletopia | London | 7 | Stopwatch","protocol":17,"map":"workshop/koth_product_final.ugc454272353","folder":"tf","game":"Team Fortress","app_id":440,"player_count":0,"max_players":24,"Bots":0,"server_type":"Dedicated","server_os":"Linux","password":true,"vac":true,"version":"7961495","steam_id":85568392924964314,"keywords":["cp","nocrits","nodmgspread","uncletopia"],"game_id":440,"stv_port":27076,"stv_name":"Uncletopia | London | 7 | Stopwatch | STV","players":null},{"server_id":41,"name":"Uncletopia | London | 8 | Community","name_short":"lon-8","host":"lon-1.uk.uncletopia.com","port":27085,"enabled":true,"region":"eu","cc":"gb","latitude":51.509865,"longitude":-0.118092,"reserved":0,"last_update":"0001-01-01T00:00:00Z","name_a2s":"Uncletopia | London | 8 | Community","protocol":17,"map":"workshop/koth_trenchfoot_b1a.ugc731436616","folder":"tf","game":"Team Fortress","app_id":440,"player_count":0,"max_players":24,"Bots":0,"server_type":"Dedicated","server_os":"Linux","password":true,"vac":true,"version":"7961495","steam_id":85568392924964315,"keywords":["cp","nocrits","nodmgspread","uncletopia"],"game_id":440,"stv_port":27086,"stv_name":"Uncletopia | London | 8 | Community | STV","players":null},{"server_id":300,"name":"Uncletopia | Montréal | 1 | One Thousand Uncles","name_short":"mtl-1","host":"mtl-1.ca.uncletopia.com","port":27015,"enabled":true,"region":"us-east","cc":"ca","latitude":45.50889,"longitude":-73.56167,"reserved":0,"last_update":"0001-01-01T00:00:00Z","name_a2s":"","protocol":0,"map":"","folder":"","game":"","app_id":0,"player_count":0,"max_players":0,"Bots":0,"server_type":"","server_os":"","password":false,"vac":false,"version":"","steam_id":0,"keywords":null,"game_id":0,"stv_port":0,"stv_name":"","players":null},{"server_id":301,"name":"Uncletopia | Montréal | 2 | One Thousand Uncles","name_short":"mtl-2","host":"mtl-1.ca.uncletopia.com","port":27025,"enabled":true,"region":"us-east","cc":"ca","latitude":45.50889,"longitude":-73.56167,"reserved":0,"last_update":"0001-01-01T00:00:00Z","name_a2s":"","protocol":0,"map":"","folder":"","game":"","app_id":0,"player_count":0,"max_players":0,"Bots":0,"server_type":"","server_os":"","password":false,"vac":false,"version":"","steam_id":0,"keywords":null,"game_id":0,"stv_port":0,"stv_name":"","players":null},{"server_id":302,"name":"Uncletopia | Montréal | 3 | One Thousand Uncles","name_short":"mtl-3","host":"mtl-1.ca.uncletopia.com","port":27035,"enabled":true,"region":"us-east","cc":"ca","latitude":45.50889,"longitude":-73.56167,"reserved":0,"last_update":"0001-01-01T00:00:00Z","name_a2s":"","protocol":0,"map":"","folder":"","game":"","app_id":0,"player_count":0,"max_players":0,"Bots":0,"server_type":"","server_os":"","password":false,"vac":false,"version":"","steam_id":0,"keywords":null,"game_id":0,"stv_port":0,"stv_name":"","players":null},{"server_id":13,"name":"Uncletopia | New York City | 1 | All Maps","name_short":"nyc-1","host":"nyc-1.us.uncletopia.com","port":27015,"enabled":true,"region":"us-east","cc":"us","latitude":40.73061,"longitude":-73.93524,"reserved":0,"last_update":"0001-01-01T00:00:00Z","name_a2s":"Uncletopia | New York City | 1 | All Maps","protocol":17,"map":"plr_hightower","folder":"tf","game":"Team Fortress","app_id":440,"player_count":18,"max_players":24,"Bots":0,"server_type":"Dedicated","server_os":"Linux","password":true,"vac":true,"version":"7961495","steam_id":85568392924469993,"keywords":["nocrits","nodmgspread","payload","uncletopia"],"game_id":440,"stv_port":27016,"stv_name":"Uncletopia | New York City | 1 | All Maps | STV","players":[{"user_id":564,"name":"Bewen","steam_id":76561198325334261,"connected_time":330000000000,"state":"active","ping":40},{"user_id":527,"name":"Ripping Heads","steam_id":76561198006146062,"connected_time":2587000000000,"state":"active","ping":61},{"user_id":550,"name":"WibbyOne","steam_id":76561198052843846,"connected_time":1320000000000,"state":"active","ping":24},{"user_id":562,"name":"squid game","steam_id":76561199248960166,"connected_time":519000000000,"state":"active","ping":99},{"user_id":554,"name":"Isilawuli","steam_id":76561198084150503,"connected_time":1205000000000,"state":"active","ping":40},{"user_id":558,"name":"A Fruit","steam_id":76561198951830050,"connected_time":945000000000,"state":"active","ping":81},{"user_id":555,"name":"KnightMan","steam_id":76561198143531192,"connected_time":1181000000000,"state":"active","ping":83},{"user_id":556,"name":"St. Michael","steam_id":76561198037611052,"connected_time":1148000000000,"state":"active","ping":73},{"user_id":557,"name":"SoldMyKidneyForCollege","steam_id":76561198096329559,"connected_time":1091000000000,"state":"active","ping":115},{"user_id":517,"name":"ndvr","steam_id":76561199379200102,"connected_time":3058000000000,"state":"active","ping":51},{"user_id":563,"name":"theghazinator","steam_id":76561198188027695,"connected_time":472000000000,"state":"active","ping":67},{"user_id":569,"name":"Hydrocat21","steam_id":76561199104332626,"connected_time":50000000000,"state":"spawning","ping":45},{"user_id":525,"name":"𝒆𝒗𝒊𝒍ArnoldGamingﾠ","steam_id":76561198040140247,"connected_time":2668000000000,"state":"active","ping":91},{"user_id":567,"name":"MayKaye","steam_id":76561199016092265,"connected_time":268000000000,"state":"active","ping":115},{"user_id":489,"name":"Kraftlos","steam_id":76561198074350350,"connected_time":4747000000000,"state":"active","ping":57},{"user_id":465,"name":"Gentoo Linux Gaming","steam_id":76561197999657118,"connected_time":6915000000000,"state":"active","ping":64},{"user_id":502,"name":"Bee_Pirate","steam_id":76561199000599111,"connected_time":3989000000000,"state":"active","ping":55},{"user_id":543,"name":"Ashton","steam_id":76561198300590302,"connected_time":1963000000000,"state":"active","ping":72}]},{"server_id":14,"name":"Uncletopia | New York City | 2 | All Maps","name_short":"nyc-2","host":"nyc-1.us.uncletopia.com","port":27025,"enabled":true,"region":"us-east","cc":"us","latitude":40.73061,"longitude":-73.93524,"reserved":0,"last_update":"0001-01-01T00:00:00Z","name_a2s":"Uncletopia | New York City | 2 | All Maps","protocol":17,"map":"pl_upward","folder":"tf","game":"Team Fortress","app_id":440,"player_count":22,"max_players":24,"Bots":0,"server_type":"Dedicated","server_os":"Linux","password":true,"vac":true,"version":"7961495","steam_id":85568392924469994,"keywords":["nocrits","nodmgspread","payload","uncletopia"],"game_id":440,"stv_port":27026,"stv_name":"Uncletopia | New York City | 2 | All Maps | STV","players":[{"user_id":342,"name":"UNAWARE","steam_id":76561198180951431,"connected_time":4177000000000,"state":"active","ping":39},{"user_id":341,"name":"Jmciano24","steam_id":76561198050723212,"connected_time":4198000000000,"state":"active","ping":50},{"user_id":365,"name":"lilac brooch...","steam_id":76561198333718916,"connected_time":1551000000000,"state":"active","ping":75},{"user_id":362,"name":"THE SHERIFF INDEED","steam_id":76561197972628051,"connected_time":2023000000000,"state":"active","ping":47},{"user_id":382,"name":"Sea Raider","steam_id":76561198055654064,"connected_time":414000000000,"state":"active","ping":84},{"user_id":385,"name":"shnowshner","steam_id":76561198066450438,"connected_time":14000000000,"state":"active","ping":74},{"user_id":366,"name":"Zesty Zucchini Ziti","steam_id":76561198092494136,"connected_time":1548000000000,"state":"active","ping":68},{"user_id":383,"name":"oppenheimer style","steam_id":76561198026664629,"connected_time":299000000000,"state":"active","ping":44},{"user_id":350,"name":"Hammoidis","steam_id":76561198222776116,"connected_time":3354000000000,"state":"active","ping":65},{"user_id":368,"name":"Sableye","steam_id":76561198061247147,"connected_time":1510000000000,"state":"active","ping":69},{"user_id":375,"name":"dum","steam_id":76561198053386482,"connected_time":1386000000000,"state":"active","ping":61},{"user_id":378,"name":"Fy","steam_id":76561199073450888,"connected_time":889000000000,"state":"active","ping":108},{"user_id":264,"name":"flappyflap2","steam_id":76561198285048973,"connected_time":11321000000000,"state":"active","ping":37},{"user_id":353,"name":"kikikikoboy","steam_id":76561198073380271,"connected_time":3310000000000,"state":"active","ping":64},{"user_id":371,"name":"YelloGoat","steam_id":76561198367174421,"connected_time":1490000000000,"state":"active","ping":44},{"user_id":363,"name":"dave","steam_id":76561198135961731,"connected_time":2017000000000,"state":"active","ping":88},{"user_id":360,"name":"wise","steam_id":76561198030066204,"connected_time":2087000000000,"state":"active","ping":40},{"user_id":379,"name":"Aesede","steam_id":76561198002024762,"connected_time":806000000000,"state":"active","ping":115},{"user_id":381,"name":"Sammy Slamma Jamma","steam_id":76561198079430934,"connected_time":477000000000,"state":"active","ping":45},{"user_id":345,"name":"Flower Boy","steam_id":76561199128786637,"connected_time":3709000000000,"state":"active","ping":88},{"user_id":377,"name":"Cl(here)?","steam_id":76561198069735882,"connected_time":1351000000000,"state":"active","ping":76},{"user_id":384,"name":"Stressmelo","steam_id":76561199204445185,"connected_time":138000000000,"state":"active","ping":85}]},{"server_id":15,"name":"Uncletopia | New York City | 3 | Stopwatch","name_short":"nyc-3","host":"nyc-1.us.uncletopia.com","port":27035,"enabled":true,"region":"us-east","cc":"us","latitude":40.73061,"longitude":-73.93524,"reserved":0,"last_update":"0001-01-01T00:00:00Z","name_a2s":"Uncletopia | New York City | 3 | Stopwatch","protocol":17,"map":"workshop/cp_process_f12.ugc2302948105","folder":"tf","game":"Team Fortress","app_id":440,"player_count":0,"max_players":24,"Bots":0,"server_type":"Dedicated","server_os":"Linux","password":true,"vac":true,"version":"7961495","steam_id":85568392924742820,"keywords":["cp","nocrits","nodmgspread","uncletopia"],"game_id":440,"stv_port":27036,"stv_name":"Uncletopia | New York City | 3 | Stopwatch | STV","players":null},{"server_id":16,"name":"Uncletopia | New York City | 4 | Community","name_short":"nyc-4","host":"nyc-1.us.uncletopia.com","port":27045,"enabled":true,"region":"us-east","cc":"us","latitude":40.73061,"longitude":-73.93524,"reserved":0,"last_update":"0001-01-01T00:00:00Z","name_a2s":"Uncletopia | New York City | 4 | Community","protocol":17,"map":"workshop/koth_product_final.ugc454272353","folder":"tf","game":"Team Fortress","app_id":440,"player_count":0,"max_players":24,"Bots":0,"server_type":"Dedicated","server_os":"Linux","password":true,"vac":true,"version":"7961495","steam_id":85568392924742821,"keywords":["cp","nocrits","nodmgspread","uncletopia"],"game_id":440,"stv_port":27046,"stv_name":"Uncletopia | New York City | 4 | Community | STV","players":null},{"server_id":142,"name":"Uncletopia | São Paulo | 1 | All Maps","name_short":"sao-1","host":"sao-1.br.uncletopia.com","port":27015,"enabled":true,"region":"sa","cc":"br","latitude":-23.533773,"longitude":-46.62529,"reserved":0,"last_update":"0001-01-01T00:00:00Z","name_a2s":"Uncletopia | São Paulo | 1 | All Maps","protocol":17,"map":"koth_viaduct","folder":"tf","game":"Team Fortress","app_id":440,"player_count":0,"max_players":24,"Bots":0,"server_type":"Dedicated","server_os":"Linux","password":true,"vac":true,"version":"7961495","steam_id":85568392924469996,"keywords":["cp","nocrits","nodmgspread","uncletopia"],"game_id":440,"stv_port":27016,"stv_name":"Uncletopia | São Paulo | 1 | All Maps | STV","players":null},{"server_id":143,"name":"Uncletopia | São Paulo | 2 | Community","name_short":"sao-2","host":"sao-2.br.uncletopia.com","port":27015,"enabled":true,"region":"sa","cc":"br","latitude":-23.533773,"longitude":-46.62529,"reserved":0,"last_update":"0001-01-01T00:00:00Z","name_a2s":"Uncletopia | São Paulo | 2 | Community","protocol":17,"map":"workshop/koth_product_final.ugc454272353","folder":"tf","game":"Team Fortress","app_id":440,"player_count":0,"max_players":24,"Bots":0,"server_type":"Dedicated","server_os":"Linux","password":true,"vac":true,"version":"7961495","steam_id":85568392924485349,"keywords":["cp","nocrits","nodmgspread","uncletopia"],"game_id":440,"stv_port":27016,"stv_name":"Uncletopia | São Paulo | 2 | Community | STV","players":null},{"server_id":7,"name":"Uncletopia | Seattle | 1 | All Maps","name_short":"sea-1","host":"sea-1.us.uncletopia.com","port":27015,"enabled":true,"region":"us-west","cc":"us","latitude":47.608013,"longitude":-122.33517,"reserved":0,"last_update":"0001-01-01T00:00:00Z","name_a2s":"Uncletopia | Seattle | 1 | All Maps","protocol":17,"map":"pl_upward","folder":"tf","game":"Team Fortress","app_id":440,"player_count":25,"max_players":24,"Bots":0,"server_type":"Dedicated","server_os":"Linux","password":true,"vac":true,"version":"7961495","steam_id":85568392924469997,"keywords":["nocrits","nodmgspread","payload","uncletopia"],"game_id":440,"stv_port":27016,"stv_name":"Uncletopia | Seattle | 1 | All Maps | STV","players":[{"user_id":606,"name":"Juuichi11","steam_id":76561198141955085,"connected_time":5998000000000,"state":"active","ping":48},{"user_id":671,"name":"BoxCann0n","steam_id":76561199153390130,"connected_time":422000000000,"state":"active","ping":183},{"user_id":640,"name":"Subaru Outback","steam_id":76561197992007399,"connected_time":3479000000000,"state":"active","ping":55},{"user_id":653,"name":"NEBULA","steam_id":76561198086878595,"connected_time":2601000000000,"state":"active","ping":74},{"user_id":668,"name":"mmmBoyo","steam_id":76561198821360261,"connected_time":637000000000,"state":"active","ping":36},{"user_id":657,"name":"toes","steam_id":76561198221151676,"connected_time":1770000000000,"state":"active","ping":59},{"user_id":670,"name":"Lily Thorn","steam_id":76561198305488625,"connected_time":482000000000,"state":"active","ping":58},{"user_id":630,"name":"lavender","steam_id":76561199069518286,"connected_time":3846000000000,"state":"active","ping":73},{"user_id":620,"name":"Doofenshmirtz Evil Inc.","steam_id":76561198439793697,"connected_time":4978000000000,"state":"active","ping":95},{"user_id":648,"name":"Daz","steam_id":76561198041431938,"connected_time":2899000000000,"state":"active","ping":51},{"user_id":667,"name":"Pneumo.","steam_id":76561197987911883,"connected_time":641000000000,"state":"active","ping":50},{"user_id":669,"name":"soup","steam_id":76561198043209046,"connected_time":636000000000,"state":"active","ping":68},{"user_id":655,"name":"ShiningForce","steam_id":76561198026039048,"connected_time":1796000000000,"state":"active","ping":74},{"user_id":614,"name":"Athena","steam_id":76561198249736590,"connected_time":5396000000000,"state":"active","ping":49},{"user_id":661,"name":"ismellgood","steam_id":76561199005142939,"connected_time":1612000000000,"state":"active","ping":53},{"user_id":663,"name":"Cheezbeargur","steam_id":76561198164702899,"connected_time":1386000000000,"state":"active","ping":64},{"user_id":612,"name":"Sweets","steam_id":76561198998446307,"connected_time":5523000000000,"state":"active","ping":65},{"user_id":656,"name":"MyMonkeyBaby","steam_id":76561198046896670,"connected_time":1791000000000,"state":"active","ping":48},{"user_id":658,"name":"FlamingManiac","steam_id":76561198361996837,"connected_time":1706000000000,"state":"active","ping":108},{"user_id":644,"name":"SadFapping","steam_id":76561198076651049,"connected_time":2956000000000,"state":"active","ping":49},{"user_id":664,"name":"milkshake","steam_id":76561197997469207,"connected_time":1366000000000,"state":"active","ping":158},{"user_id":652,"name":"M1ko","steam_id":76561199091191812,"connected_time":2685000000000,"state":"active","ping":70},{"user_id":672,"name":"Dog","steam_id":76561198041841128,"connected_time":84000000000,"state":"active","ping":82},{"user_id":651,"name":"Vv","steam_id":76561199052196750,"connected_time":2829000000000,"state":"active","ping":93},{"user_id":665,"name":"rushy :))","steam_id":76561198065825165,"connected_time":1310000000000,"state":"active","ping":122}]},{"server_id":119,"name":"Uncletopia | Seattle | 2 | All Maps","name_short":"sea-2","host":"sea-1.us.uncletopia.com","port":27025,"enabled":true,"region":"us-west","cc":"us","latitude":47.608013,"longitude":-122.33517,"reserved":0,"last_update":"0001-01-01T00:00:00Z","name_a2s":"Uncletopia | Seattle | 2 | All Maps","protocol":17,"map":"pl_borneo","folder":"tf","game":"Team Fortress","app_id":440,"player_count":24,"max_players":24,"Bots":0,"server_type":"Dedicated","server_os":"Linux","password":true,"vac":true,"version":"7961495","steam_id":85568392924469998,"keywords":["nocrits","nodmgspread","payload","uncletopia"],"game_id":440,"stv_port":27026,"stv_name":"Uncletopia | Seattle | 2 | All Maps | STV","players":[{"user_id":223,"name":"TriazicideChugger","steam_id":76561198093883448,"connected_time":281000000000,"state":"active","ping":53},{"user_id":34,"name":"ilun","steam_id":76561198042913843,"connected_time":15486000000000,"state":"active","ping":60},{"user_id":192,"name":"goofy goober","steam_id":76561199024079388,"connected_time":2878000000000,"state":"active","ping":47},{"user_id":215,"name":"Poundcake","steam_id":76561198042196918,"connected_time":1142000000000,"state":"active","ping":50},{"user_id":209,"name":"im mr war","steam_id":76561198131467867,"connected_time":2056000000000,"state":"active","ping":57},{"user_id":146,"name":"a familiar cat","steam_id":76561198080046542,"connected_time":7717000000000,"state":"active","ping":46},{"user_id":219,"name":"David Hubert Nutz III","steam_id":76561198799297598,"connected_time":883000000000,"state":"active","ping":66},{"user_id":138,"name":"wmjledger","steam_id":76561198443046861,"connected_time":7971000000000,"state":"active","ping":46},{"user_id":206,"name":"joe rippa","steam_id":76561198170402666,"connected_time":2350000000000,"state":"active","ping":68},{"user_id":224,"name":"WillowWisp","steam_id":76561198049104842,"connected_time":166000000000,"state":"active","ping":45},{"user_id":221,"name":"PLATNUMHANNYA","steam_id":76561198451426311,"connected_time":608000000000,"state":"active","ping":49},{"user_id":201,"name":"hamletespacial","steam_id":76561199084414649,"connected_time":2549000000000,"state":"active","ping":84},{"user_id":225,"name":"Tinnitus Enjoyer","steam_id":76561198046526036,"connected_time":164000000000,"state":"active","ping":76},{"user_id":228,"name":"vacachimuela","steam_id":76561198297332421,"connected_time":2000000000,"state":"spawning","ping":82},{"user_id":208,"name":"Obersteuermann","steam_id":76561198044468707,"connected_time":2099000000000,"state":"active","ping":53},{"user_id":185,"name":"netoc6","steam_id":76561199065312168,"connected_time":3483000000000,"state":"active","ping":103},{"user_id":220,"name":"Branta","steam_id":76561199103842843,"connected_time":848000000000,"state":"active","ping":43},{"user_id":207,"name":"Hongy","steam_id":76561198012448846,"connected_time":2250000000000,"state":"active","ping":47},{"user_id":211,"name":"Most Honest Bosnian","steam_id":76561198805618709,"connected_time":1717000000000,"state":"active","ping":37},{"user_id":203,"name":"Chicago Shoplifter","steam_id":76561197986530028,"connected_time":2515000000000,"state":"active","ping":101},{"user_id":170,"name":"5oc","steam_id":76561199196300397,"connected_time":5228000000000,"state":"active","ping":80},{"user_id":227,"name":"BitPieStudios","steam_id":76561198059216393,"connected_time":155000000000,"state":"active","ping":72},{"user_id":204,"name":"IRUMBLERI","steam_id":76561198285541599,"connected_time":2492000000000,"state":"active","ping":58},{"user_id":190,"name":"McSpazatron","steam_id":76561198955942148,"connected_time":3068000000000,"state":"active","ping":52}]},{"server_id":406,"name":"Uncletopia | Seattle | 3 | Stopwatch","name_short":"sea-3","host":"sea-1.us.uncletopia.com","port":27035,"enabled":true,"region":"us-west","cc":"us","latitude":47.608013,"longitude":-122.33517,"reserved":0,"last_update":"0001-01-01T00:00:00Z","name_a2s":"Uncletopia | Seattle | 3 | Stopwatch","protocol":17,"map":"workshop/cp_process_f12.ugc2302948105","folder":"tf","game":"Team Fortress","app_id":440,"player_count":0,"max_players":24,"Bots":0,"server_type":"Dedicated","server_os":"Linux","password":true,"vac":true,"version":"7961495","steam_id":85568392924515217,"keywords":["cp","nocrits","nodmgspread","uncletopia"],"game_id":440,"stv_port":27036,"stv_name":"Uncletopia | Seattle | 3 | Stopwatch | STV","players":null},{"server_id":17,"name":"Uncletopia | San Francisco | 1 | All Maps","name_short":"sfo-1","host":"sfo-1.us.uncletopia.com","port":27015,"enabled":true,"region":"us-west","cc":"us","latitude":37.77397,"longitude":-122.4313,"reserved":0,"last_update":"0001-01-01T00:00:00Z","name_a2s":"Uncletopia | San Francisco | 1 | All Maps","protocol":17,"map":"pl_pier","folder":"tf","game":"Team Fortress","app_id":440,"player_count":17,"max_players":24,"Bots":0,"server_type":"Dedicated","server_os":"Linux","password":true,"vac":true,"version":"7961495","steam_id":85568392924469999,"keywords":["nocrits","nodmgspread","payload","uncletopia"],"game_id":440,"stv_port":27016,"stv_name":"Uncletopia | San Francisco | 1 | All Maps | STV","players":[{"user_id":204,"name":"fart","steam_id":76561198046073848,"connected_time":243000000000,"state":"active","ping":63},{"user_id":149,"name":"hog cranker","steam_id":76561198073587145,"connected_time":5427000000000,"state":"active","ping":92},{"user_id":125,"name":"Satori Komeiji","steam_id":76561198158211423,"connected_time":8002000000000,"state":"active","ping":58},{"user_id":164,"name":"Megatron G","steam_id":76561198168864083,"connected_time":4430000000000,"state":"active","ping":63},{"user_id":202,"name":"Kitsunio","steam_id":76561199090151571,"connected_time":359000000000,"state":"active","ping":71},{"user_id":197,"name":"Tiparium","steam_id":76561198060021230,"connected_time":835000000000,"state":"active","ping":48},{"user_id":206,"name":"crowe","steam_id":76561198142185527,"connected_time":87000000000,"state":"active","ping":44},{"user_id":187,"name":"Charles","steam_id":76561198155322277,"connected_time":1664000000000,"state":"active","ping":54},{"user_id":191,"name":"BigBubble42","steam_id":76561198136286123,"connected_time":1602000000000,"state":"active","ping":70},{"user_id":207,"name":"Evelyn!","steam_id":76561198881145760,"connected_time":82000000000,"state":"active","ping":60},{"user_id":188,"name":"scrapheap","steam_id":76561198202407087,"connected_time":1655000000000,"state":"active","ping":120},{"user_id":196,"name":"GarbbCan","steam_id":76561198927509821,"connected_time":1191000000000,"state":"active","ping":77},{"user_id":177,"name":"ZeeKThe3rd","steam_id":76561198190156546,"connected_time":3383000000000,"state":"active","ping":45},{"user_id":139,"name":"Toasterduds","steam_id":76561198163477584,"connected_time":6510000000000,"state":"active","ping":55},{"user_id":203,"name":"H.","steam_id":76561198074951179,"connected_time":346000000000,"state":"active","ping":72},{"user_id":192,"name":"Spookley23640","steam_id":76561198258620646,"connected_time":1592000000000,"state":"active","ping":65},{"user_id":193,"name":"BlancaLamb","steam_id":76561198025646073,"connected_time":1578000000000,"state":"active","ping":86}]},{"server_id":18,"name":"Uncletopia | San Francisco | 2 | All Maps","name_short":"sfo-2","host":"sfo-1.us.uncletopia.com","port":27025,"enabled":true,"region":"us-west","cc":"us","latitude":37.77397,"longitude":-122.4313,"reserved":0,"last_update":"0001-01-01T00:00:00Z","name_a2s":"Uncletopia | San Francisco | 2 | All Maps","protocol":17,"map":"koth_lakeside_final","folder":"tf","game":"Team Fortress","app_id":440,"player_count":24,"max_players":24,"Bots":0,"server_type":"Dedicated","server_os":"Linux","password":true,"vac":true,"version":"7961495","steam_id":85568392924470000,"keywords":["cp","nocrits","nodmgspread","uncletopia"],"game_id":440,"stv_port":27026,"stv_name":"Uncletopia | San Francisco | 2 | All Maps | STV","players":[{"user_id":80,"name":"MR MODE","steam_id":76561198046775352,"connected_time":107000000000,"state":"active","ping":45},{"user_id":63,"name":"1 Cleaner's Carbine Fan","steam_id":76561199098901078,"connected_time":947000000000,"state":"active","ping":57},{"user_id":79,"name":"cool, low-key kinda guy","steam_id":76561198123475433,"connected_time":275000000000,"state":"active","ping":84},{"user_id":71,"name":"_D_I_S_P_E_N_S_E_R_","steam_id":76561199383097700,"connected_time":718000000000,"state":"active","ping":78},{"user_id":47,"name":"keffers","steam_id":76561198202338796,"connected_time":1396000000000,"state":"active","ping":109},{"user_id":66,"name":"Chaptain","steam_id":76561198452725739,"connected_time":828000000000,"state":"active","ping":78},{"user_id":31,"name":"aBigPoo","steam_id":76561198425027856,"connected_time":2007000000000,"state":"active","ping":37},{"user_id":67,"name":"Sinn","steam_id":76561199013434543,"connected_time":815000000000,"state":"active","ping":55},{"user_id":69,"name":"g0nk","steam_id":76561198838309024,"connected_time":747000000000,"state":"active","ping":84},{"user_id":81,"name":"Rocky","steam_id":76561198215254655,"connected_time":102000000000,"state":"active","ping":48},{"user_id":70,"name":"Bravo","steam_id":76561198985135308,"connected_time":746000000000,"state":"active","ping":44},{"user_id":72,"name":"Szaint","steam_id":76561198165050614,"connected_time":702000000000,"state":"active","ping":59},{"user_id":82,"name":"Pancakes","steam_id":76561198055409760,"connected_time":93000000000,"state":"active","ping":61},{"user_id":85,"name":"thisisSteve","steam_id":76561198420882318,"connected_time":20000000000,"state":"active","ping":50},{"user_id":39,"name":"mentos14","steam_id":76561198097993629,"connected_time":1673000000000,"state":"active","ping":70},{"user_id":73,"name":"Fungal","steam_id":76561198078973439,"connected_time":695000000000,"state":"active","ping":60},{"user_id":49,"name":"The","steam_id":76561198016479886,"connected_time":1392000000000,"state":"active","ping":45},{"user_id":84,"name":"rockywockhardn1gga","steam_id":76561199094481148,"connected_time":56000000000,"state":"active","ping":71},{"user_id":74,"name":"Haven","steam_id":76561198087584756,"connected_time":527000000000,"state":"active","ping":69},{"user_id":86,"name":"AT✪MIC","steam_id":76561198100385184,"connected_time":17000000000,"state":"spawning","ping":60},{"user_id":87,"name":"GreatGrindGod","steam_id":76561199015813798,"connected_time":14000000000,"state":"spawning","ping":59},{"user_id":76,"name":"firestabber","steam_id":76561198057055577,"connected_time":489000000000,"state":"active","ping":62},{"user_id":58,"name":"da beast","steam_id":76561199030240993,"connected_time":1260000000000,"state":"active","ping":79},{"user_id":59,"name":"greentop_","steam_id":76561198209650964,"connected_time":1240000000000,"state":"active","ping":57}]},{"server_id":19,"name":"Uncletopia | San Francisco | 3 | Stopwatch","name_short":"sfo-3","host":"sfo-1.us.uncletopia.com","port":27035,"enabled":true,"region":"us-west","cc":"us","latitude":37.77397,"longitude":-122.4313,"reserved":0,"last_update":"0001-01-01T00:00:00Z","name_a2s":"Uncletopia | San Francisco | 3 | Stopwatch","protocol":17,"map":"workshop/koth_ramjam_rc1.ugc459778887","folder":"tf","game":"Team Fortress","app_id":440,"player_count":8,"max_players":24,"Bots":0,"server_type":"Dedicated","server_os":"Linux","password":true,"vac":true,"version":"7961495","steam_id":85568392924742824,"keywords":["cp","nocrits","nodmgspread","uncletopia"],"game_id":440,"stv_port":27036,"stv_name":"Uncletopia | San Francisco | 3 | Stopwatch | STV","players":[{"user_id":24,"name":"Pyrolimited","steam_id":76561198195455657,"connected_time":712000000000,"state":"active","ping":63},{"user_id":6,"name":"azureglxy","steam_id":76561198861388315,"connected_time":2616000000000,"state":"active","ping":43},{"user_id":18,"name":"Pimastr","steam_id":76561198230996464,"connected_time":1704000000000,"state":"active","ping":119},{"user_id":25,"name":"Trips","steam_id":76561198054581597,"connected_time":514000000000,"state":"active","ping":43},{"user_id":26,"name":"Kamin","steam_id":76561198255299559,"connected_time":166000000000,"state":"active","ping":110},{"user_id":19,"name":"Thequirka","steam_id":76561198968058652,"connected_time":1671000000000,"state":"active","ping":66},{"user_id":27,"name":"Mr. Wilson","steam_id":76561198162289380,"connected_time":31000000000,"state":"active","ping":120},{"user_id":13,"name":"Villchip","steam_id":76561198198599982,"connected_time":2316000000000,"state":"active","ping":62}]},{"server_id":20,"name":"Uncletopia | San Francisco | 4 | Community","name_short":"sfo-4","host":"sfo-1.us.uncletopia.com","port":27045,"enabled":true,"region":"us-west","cc":"us","latitude":37.77397,"longitude":-122.4313,"reserved":0,"last_update":"0001-01-01T00:00:00Z","name_a2s":"Uncletopia | San Francisco | 4 | Community","protocol":17,"map":"workshop/rd_asteroid_redux_b1.ugc2154902912","folder":"tf","game":"Team Fortress","app_id":440,"player_count":0,"max_players":24,"Bots":0,"server_type":"Dedicated","server_os":"Linux","password":true,"vac":true,"version":"7961495","steam_id":85568392924742826,"keywords":["beta","nocrits","nodmgspread","rd","uncletopia"],"game_id":440,"stv_port":27046,"stv_name":"Uncletopia | San Francisco | 4 | Community | STV","players":null},{"server_id":141,"name":"Uncletopia | Sydney | 1 | All Maps","name_short":"syd-1","host":"syd-1.au.uncletopia.com","port":27015,"enabled":true,"region":"au","cc":"au","latitude":-33.865143,"longitude":151.2099,"reserved":0,"last_update":"0001-01-01T00:00:00Z","name_a2s":"Uncletopia | Sydney | 1 | All Maps","protocol":17,"map":"koth_cascade","folder":"tf","game":"Team Fortress","app_id":440,"player_count":17,"max_players":24,"Bots":0,"server_type":"Dedicated","server_os":"Linux","password":true,"vac":true,"version":"7961495","steam_id":85568392924470001,"keywords":["cp","nocrits","nodmgspread","uncletopia"],"game_id":440,"stv_port":27016,"stv_name":"Uncletopia | Sydney | 1 | All Maps | STV","players":[{"user_id":33,"name":"cibo","steam_id":76561198798929932,"connected_time":512000000000,"state":"active","ping":90},{"user_id":14,"name":"Aquila","steam_id":76561198042520637,"connected_time":2601000000000,"state":"active","ping":34},{"user_id":10,"name":"Chez","steam_id":76561198089925051,"connected_time":3417000000000,"state":"active","ping":122},{"user_id":24,"name":"Mikey","steam_id":76561198438203131,"connected_time":1610000000000,"state":"active","ping":59},{"user_id":25,"name":"4LOW","steam_id":76561199156942316,"connected_time":1103000000000,"state":"active","ping":78},{"user_id":26,"name":"mickenpox","steam_id":76561198095840327,"connected_time":1017000000000,"state":"active","ping":42},{"user_id":28,"name":"SIRROM12 (SIRR)","steam_id":76561198116738329,"connected_time":782000000000,"state":"active","ping":65},{"user_id":18,"name":"{Azura Sarah}","steam_id":76561197989210208,"connected_time":2192000000000,"state":"active","ping":45},{"user_id":29,"name":"saudi ambassador messi","steam_id":76561198031293430,"connected_time":655000000000,"state":"active","ping":91},{"user_id":30,"name":"Walter under the bridge","steam_id":76561198301282416,"connected_time":573000000000,"state":"active","ping":59},{"user_id":40,"name":"slimbro_","steam_id":76561198044147026,"connected_time":107000000000,"state":"active","ping":45},{"user_id":36,"name":"wire1ess","steam_id":76561199084431995,"connected_time":414000000000,"state":"active","ping":59},{"user_id":37,"name":"DidjTerminator","steam_id":76561199152306885,"connected_time":410000000000,"state":"active","ping":54},{"user_id":38,"name":"JP","steam_id":76561198026221737,"connected_time":292000000000,"state":"active","ping":52},{"user_id":41,"name":"fuzz","steam_id":76561198156872898,"connected_time":93000000000,"state":"active","ping":39},{"user_id":42,"name":"XXXFortnite_Beast_420_GamerXXX","steam_id":76561199216085230,"connected_time":60000000000,"state":"active","ping":66},{"user_id":43,"name":"Tetch","steam_id":76561198259803540,"connected_time":14000000000,"state":"spawning","ping":76}]},{"server_id":123,"name":"Uncletopia | Sydney | 2 | All Maps","name_short":"syd-2","host":"syd-1.au.uncletopia.com","port":27025,"enabled":true,"region":"au","cc":"au","latitude":-33.865143,"longitude":151.2099,"reserved":0,"last_update":"0001-01-01T00:00:00Z","name_a2s":"Uncletopia | Sydney | 2 | All Maps","protocol":17,"map":"koth_lakeside_final","folder":"tf","game":"Team Fortress","app_id":440,"player_count":0,"max_players":24,"Bots":0,"server_type":"Dedicated","server_os":"Linux","password":true,"vac":true,"version":"7961495","steam_id":85568392924470002,"keywords":["cp","nocrits","nodmgspread","uncletopia"],"game_id":440,"stv_port":27026,"stv_name":"Uncletopia | Sydney | 2 | All Maps | STV","players":null},{"server_id":395,"name":"Uncletopia | Sydney | 3 | All Maps","name_short":"syd-3","host":"syd-1.au.uncletopia.com","port":27035,"enabled":true,"region":"au","cc":"au","latitude":-33.865143,"longitude":151.2099,"reserved":0,"last_update":"0001-01-01T00:00:00Z","name_a2s":"Uncletopia | Sydney | 3 | All Maps","protocol":17,"map":"pl_barnblitz","folder":"tf","game":"Team Fortress","app_id":440,"player_count":0,"max_players":24,"Bots":0,"server_type":"Dedicated","server_os":"Linux","password":true,"vac":true,"version":"7961495","steam_id":85568392925194467,"keywords":["nocrits","nodmgspread","payload","uncletopia"],"game_id":440,"stv_port":27036,"stv_name":"Uncletopia | Sydney | 3 | All Maps | STV","players":null},{"server_id":396,"name":"Uncletopia | Sydney | 4 | All Maps","name_short":"syd-4","host":"syd-1.au.uncletopia.com","port":27045,"enabled":true,"region":"au","cc":"au","latitude":-33.865143,"longitude":151.2099,"reserved":0,"last_update":"0001-01-01T00:00:00Z","name_a2s":"Uncletopia | Sydney | 4 | All Maps","protocol":17,"map":"cp_process_final","folder":"tf","game":"Team Fortress","app_id":440,"player_count":0,"max_players":24,"Bots":0,"server_type":"Dedicated","server_os":"Linux","password":true,"vac":true,"version":"7961495","steam_id":85568392925397958,"keywords":["cp","nocrits","nodmgspread","uncletopia"],"game_id":440,"stv_port":27046,"stv_name":"Uncletopia | Sydney | 4 | All Maps | STV","players":null},{"server_id":58,"name":"Uncletopia | Sydney | 5 | Stopwatch","name_short":"syd-5","host":"syd-1.au.uncletopia.com","port":27055,"enabled":true,"region":"au","cc":"au","latitude":-33.865143,"longitude":151.2099,"reserved":0,"last_update":"0001-01-01T00:00:00Z","name_a2s":"Uncletopia | Sydney | 5 | Stopwatch","protocol":17,"map":"pl_frontier_final","folder":"tf","game":"Team Fortress","app_id":440,"player_count":0,"max_players":24,"Bots":0,"server_type":"Dedicated","server_os":"Linux","password":true,"vac":true,"version":"7961495","steam_id":85568392925397959,"keywords":["nocrits","nodmgspread","payload","uncletopia"],"game_id":440,"stv_port":27056,"stv_name":"Uncletopia | Sydney | 5 | Stopwatch | STV","players":null},{"server_id":59,"name":"Uncletopia | Sydney | 6 | Community","name_short":"syd-6","host":"syd-1.au.uncletopia.com","port":27065,"enabled":true,"region":"au","cc":"au","latitude":-33.865143,"longitude":151.2099,"reserved":0,"last_update":"0001-01-01T00:00:00Z","name_a2s":"Uncletopia | Sydney | 6 | Community","protocol":17,"map":"workshop/rd_asteroid_redux_b1.ugc2154902912","folder":"tf","game":"Team Fortress","app_id":440,"player_count":0,"max_players":24,"Bots":0,"server_type":"Dedicated","server_os":"Linux","password":true,"vac":true,"version":"7961495","steam_id":85568392925397960,"keywords":["beta","nocrits","nodmgspread","rd","uncletopia"],"game_id":440,"stv_port":27066,"stv_name":"Uncletopia | Sydney | 6 | Community | STV","players":null},{"server_id":49,"name":"Uncletopia | Warsaw | 1 | One Thousand Uncles","name_short":"waw-1","host":"waw-1.pl.uncletopia.com","port":27015,"enabled":true,"region":"eu","cc":"pl","latitude":52.2297,"longitude":21.017532,"reserved":0,"last_update":"0001-01-01T00:00:00Z","name_a2s":"Uncletopia | Warsaw | 1 | One Thousand Uncles","protocol":17,"map":"koth_highpass","folder":"tf","game":"Team Fortress","app_id":440,"player_count":0,"max_players":32,"Bots":0,"server_type":"Dedicated","server_os":"Linux","password":true,"vac":true,"version":"7961495","steam_id":85568392925397850,"keywords":["alltalk","cp","danepve","increased_maxplayers","nocrits","norespawntime","uncletopia"],"game_id":440,"stv_port":0,"stv_name":"","players":null},{"server_id":50,"name":"Uncletopia | Warsaw | 2 | One Thousand Uncles","name_short":"waw-2","host":"waw-1.pl.uncletopia.com","port":27025,"enabled":true,"region":"eu","cc":"pl","latitude":52.2297,"longitude":21.017532,"reserved":0,"last_update":"0001-01-01T00:00:00Z","name_a2s":"Uncletopia | Warsaw | 2 | One Thousand Uncles","protocol":17,"map":"pl_goldrush","folder":"tf","game":"Team Fortress","app_id":440,"player_count":0,"max_players":32,"Bots":0,"server_type":"Dedicated","server_os":"Linux","password":true,"vac":true,"version":"7961495","steam_id":85568392925397851,"keywords":["alltalk","danepve","increased_maxplayers","nocrits","norespawntime","payload","uncletopia"],"game_id":440,"stv_port":0,"stv_name":"","players":null},{"server_id":51,"name":"Uncletopia | Warsaw | 3 | All Maps","name_short":"waw-3","host":"waw-1.pl.uncletopia.com","port":27035,"enabled":true,"region":"eu","cc":"pl","latitude":52.2297,"longitude":21.017532,"reserved":0,"last_update":"0001-01-01T00:00:00Z","name_a2s":"Uncletopia | Warsaw | 3 | All Maps","protocol":17,"map":"plr_pipeline","folder":"tf","game":"Team Fortress","app_id":440,"player_count":0,"max_players":24,"Bots":0,"server_type":"Dedicated","server_os":"Linux","password":true,"vac":true,"version":"7961495","steam_id":85568392925397852,"keywords":["nocrits","nodmgspread","payload","uncletopia"],"game_id":440,"stv_port":27036,"stv_name":"Uncletopia | Warsaw | 3 | All Maps | STV","players":null},{"server_id":52,"name":"Uncletopia | Warsaw | 4 | All Maps","name_short":"waw-4","host":"waw-1.pl.uncletopia.com","port":27045,"enabled":true,"region":"eu","cc":"pl","latitude":52.2297,"longitude":21.017532,"reserved":0,"last_update":"0001-01-01T00:00:00Z","name_a2s":"Uncletopia | Warsaw | 4 | All Maps","protocol":17,"map":"cp_coldfront","folder":"tf","game":"Team Fortress","app_id":440,"player_count":0,"max_players":24,"Bots":0,"server_type":"Dedicated","server_os":"Linux","password":true,"vac":true,"version":"7961495","steam_id":85568392925397853,"keywords":["cp","nocrits","nodmgspread","uncletopia"],"game_id":440,"stv_port":27046,"stv_name":"Uncletopia | Warsaw | 4 | All Maps | STV","players":null},{"server_id":53,"name":"Uncletopia | Warsaw | 5 | Stopwatch","name_short":"waw-5","host":"waw-1.pl.uncletopia.com","port":27055,"enabled":true,"region":"eu","cc":"pl","latitude":52.2297,"longitude":21.017532,"reserved":0,"last_update":"0001-01-01T00:00:00Z","name_a2s":"Uncletopia | Warsaw | 5 | Stopwatch","protocol":17,"map":"workshop/koth_bagel_rc6.ugc2514036946","folder":"tf","game":"Team Fortress","app_id":440,"player_count":0,"max_players":24,"Bots":0,"server_type":"Dedicated","server_os":"Linux","password":true,"vac":true,"version":"7961495","steam_id":85568392925397854,"keywords":["cp","nocrits","nodmgspread","uncletopia"],"game_id":440,"stv_port":27056,"stv_name":"Uncletopia | Warsaw | 5 | Stopwatch | STV","players":null},{"server_id":54,"name":"Uncletopia | Warsaw | 6 | Community","name_short":"waw-6","host":"waw-1.pl.uncletopia.com","port":27065,"enabled":true,"region":"eu","cc":"pl","latitude":52.2297,"longitude":21.017532,"reserved":0,"last_update":"0001-01-01T00:00:00Z","name_a2s":"Uncletopia | Warsaw | 6 | Community","protocol":17,"map":"workshop/pl_badwater_pro_v12.ugc2142942074","folder":"tf","game":"Team Fortress","app_id":440,"player_count":0,"max_players":24,"Bots":0,"server_type":"Dedicated","server_os":"Linux","password":true,"vac":true,"version":"7961495","steam_id":85568392925397856,"keywords":["nocrits","nodmgspread","payload","uncletopia"],"game_id":440,"stv_port":27066,"stv_name":"Uncletopia | Warsaw | 6 | Community | STV","players":null}]}