{"status":true,"message":"","result":[{"server_id":9,"name":"Uncletopia | Atlanta | 1 | All Maps","name_short":"atl-1","host":"atl-1.us.uncletopia.com","port":27015,"enabled":true,"region":"us-east","cc":"us","latitude":33.753746,"longitude":-84.38633,"reserved":0,"last_update":"0001-01-01T00:00:00Z","name_a2s":"Uncletopia | Atlanta | 1 | All Maps","protocol":17,"map":"pl_pier","folder":"tf","game":"Team Fortress","app_id":440,"player_count":22,"max_players":24,"Bots":0,"server_type":"Dedicated","server_os":"Linux","password":true,"vac":true,"version":"7757534","steam_id":85568392924469982,"keywords":["nocrits","nodmgspread","payload","uncletopia"],"game_id":440,"stv_port":27016,"stv_name":"Uncletopia | Atlanta | 1 | All Maps | STV","players":[{"user_id":596,"name":"TheGameGuy","steam_id":76561198039321143,"connected_time":469000000000,"state":"active","ping":64},{"user_id":498,"name":"BLU1 | Flint","steam_id":76561198066547582,"connected_time":8482000000000,"state":"active","ping":102},{"user_id":597,"name":"Nate Dogg","steam_id":76561198118760077,"connected_time":365000000000,"state":"active","ping":49},{"user_id":592,"name":"Outlander","steam_id":76561197998995746,"connected_time":1068000000000,"state":"active","ping":85},{"user_id":572,"name":"Mr. Hankey","steam_id":76561198872852200,"connected_time":1935000000000,"state":"active","ping":118},{"user_id":594,"name":"Mickey","steam_id":76561197976868960,"connected_time":907000000000,"state":"active","ping":164},{"user_id":590,"name":"nerfington","steam_id":76561198062785419,"connected_time":1525000000000,"state":"active","ping":67},{"user_id":607,"name":"harry gooch","steam_id":76561198024817457,"connected_time":119000000000,"state":"active","ping":60},{"user_id":576,"name":"BLU1 l Epifiny","steam_id":76561198027958086,"connected_time":1915000000000,"state":"active","ping":90},{"user_id":595,"name":"BIG HOG","steam_id":76561198079923652,"connected_time":495000000000,"state":"active","ping":69},{"user_id":588,"name":"Greasy Gamer","steam_id":76561198800062145,"connected_time":1578000000000,"state":"active","ping":73},{"user_id":608,"name":"Gron","steam_id":76561198236787290,"connected_time":107000000000,"state":"active","ping":77},{"user_id":603,"name":"sex","steam_id":76561198198787713,"connected_time":284000000000,"state":"active","ping":64},{"user_id":610,"name":"Albino Jellyfish","steam_id":76561198208561097,"connected_time":44000000000,"state":"spawning","ping":52},{"user_id":600,"name":"klevin","steam_id":76561198799106535,"connected_time":327000000000,"state":"active","ping":119},{"user_id":543,"name":"Dr.Zarann","steam_id":76561198163952958,"connected_time":4403000000000,"state":"active","ping":57},{"user_id":611,"name":"^5HCDefies","steam_id":76561198068749260,"connected_time":33000000000,"state":"active","ping":74},{"user_id":561,"name":"Admiral Catradora","steam_id":76561198017271944,"connected_time":2433000000000,"state":"active","ping":86},{"user_id":601,"name":"Karma","steam_id":76561198030565234,"connected_time":318000000000,"state":"active","ping":73},{"user_id":609,"name":"Hunto","steam_id":76561198328052562,"connected_time":96000000000,"state":"active","ping":67},{"user_id":606,"name":"Giggler","steam_id":76561198053046161,"connected_time":168000000000,"state":"active","ping":68},{"user_id":537,"name":"lil hog","steam_id":76561199230929836,"connected_time":5647000000000,"state":"active","ping":87}]},{"server_id":400,"name":"Uncletopia | Atlanta | 3 | Community","name_short":"atl-3","host":"atl-1.us.uncletopia.com","port":27035,"enabled":true,"region":"us-east","cc":"us","latitude":33.753746,"longitude":-84.38633,"reserved":0,"last_update":"0001-01-01T00:00:00Z","name_a2s":"Uncletopia | Atlanta | 3 | Community","protocol":17,"map":"workshop/koth_trenchfoot_b1a.ugc731436616","folder":"tf","game":"Team Fortress","app_id":440,"player_count":4,"max_players":32,"Bots":0,"server_type":"Dedicated","server_os":"Linux","password":true,"vac":true,"version":"7757534","steam_id":85568392924515187,"keywords":["cp","increased_maxplayers","nocrits","nodmgspread","uncletopia"],"game_id":440,"stv_port":27036,"stv_name":"Uncletopia | Atlanta | 3 | Community | STV","players":[{"user_id":616,"name":"Godfinger","steam_id":76561198426346549,"connected_time":631000000000,"state":"active","ping":35},{"user_id":612,"name":"Unc4nny","steam_id":76561198131507408,"connected_time":948000000000,"state":"active","ping":74},{"user_id":553,"name":"robot with human hair","steam_id":76561198018691308,"connected_time":4434000000000,"state":"active","ping":75},{"user_id":595,"name":"J O S H³²","steam_id":76561198122603779,"connected_time":2276000000000,"state":"active","ping":116}]},{"server_id":401,"name":"Uncletopia | Atlanta | 4 | No Payload","name_short":"atl-4","host":"atl-1.us.uncletopia.com","port":27045,"enabled":true,"region":"us-east","cc":"us","latitude":33.753746,"longitude":-84.38633,"reserved":0,"last_update":"0001-01-01T00:00:00Z","name_a2s":"","protocol":0,"map":"","folder":"","game":"","app_id":0,"player_count":0,"max_players":0,"Bots":0,"server_type":"","server_os":"","password":false,"vac":false,"version":"","steam_id":0,"keywords":null,"game_id":0,"stv_port":0,"stv_name":"","players":null},{"server_id":2,"name":"Uncletopia | Chicago | 1 | All Maps","name_short":"chi-1","host":"chi-1.us.uncletopia.com","port":27015,"enabled":true,"region":"us-central","cc":"us","latitude":41.881832,"longitude":-87.62318,"reserved":0,"last_update":"0001-01-01T00:00:00Z","name_a2s":"Uncletopia | Chicago | 1 | All Maps","protocol":17,"map":"pl_upward","folder":"tf","game":"Team Fortress","app_id":440,"player_count":24,"max_players":24,"Bots":0,"server_type":"Dedicated","server_os":"Linux","password":true,"vac":true,"version":"7757534","steam_id":85568392924469984,"keywords":["nocrits","nodmgspread","payload","uncletopia"],"game_id":440,"stv_port":27016,"stv_name":"Uncletopia | Chicago | 1 | All Maps | STV","players":[{"user_id":765,"name":"♥dumb bimbo♥","steam_id":76561198054925421,"connected_time":1354000000000,"state":"active","ping":51},{"user_id":782,"name":"leumas","steam_id":76561198240408540,"connected_time":405000000000,"state":"active","ping":74},{"user_id":750,"name":"illegal (victim)","steam_id":76561198871530383,"connected_time":3614000000000,"state":"active","ping":49},{"user_id":749,"name":"Micheal Jackson (He/he)","steam_id":76561198045887994,"connected_time":3706000000000,"state":"active","ping":45},{"user_id":768,"name":"Kaluka","steam_id":76561198036861445,"connected_time":1294000000000,"state":"active","ping":69},{"user_id":767,"name":"iCarly Lore Expert","steam_id":76561198111902910,"connected_time":1310000000000,"state":"active","ping":63},{"user_id":779,"name":"Arrythmia","steam_id":76561198093748123,"connected_time":885000000000,"state":"active","ping":102},{"user_id":786,"name":"fallguy49","steam_id":76561198293094802,"connected_time":15000000000,"state":"spawning","ping":70},{"user_id":783,"name":"Streetwise","steam_id":76561197971684268,"connected_time":338000000000,"state":"active","ping":92},{"user_id":770,"name":"Dot.","steam_id":76561198149463984,"connected_time":1253000000000,"state":"active","ping":57},{"user_id":771,"name":"granola","steam_id":76561198392844061,"connected_time":1222000000000,"state":"active","ping":76},{"user_id":772,"name":"Dilo","steam_id":76561198799078414,"connected_time":1218000000000,"state":"active","ping":63},{"user_id":787,"name":"Delta_4K","steam_id":76561198878343222,"connected_time":5000000000,"state":"spawning","ping":42},{"user_id":773,"name":"Karma's Camera","steam_id":76561198059385185,"connected_time":1217000000000,"state":"active","ping":73},{"user_id":774,"name":"Mr poop","steam_id":76561198040631206,"connected_time":1217000000000,"state":"active","ping":76},{"user_id":745,"name":"sara, boylady","steam_id":76561198283462369,"connected_time":3993000000000,"state":"active","ping":99},{"user_id":751,"name":"adil (victim)","steam_id":76561198197047443,"connected_time":3444000000000,"state":"active","ping":75},{"user_id":781,"name":"cuyler100","steam_id":76561198061880997,"connected_time":687000000000,"state":"active","ping":106},{"user_id":784,"name":"SMHTMFTTF","steam_id":76561199079614516,"connected_time":336000000000,"state":"active","ping":45},{"user_id":752,"name":"cyro","steam_id":76561198146241989,"connected_time":3120000000000,"state":"active","ping":83},{"user_id":756,"name":"narwool (victum)","steam_id":76561198175955138,"connected_time":2576000000000,"state":"active","ping":105},{"user_id":785,"name":"ROGUE-PLANET","steam_id":76561198116023052,"connected_time":244000000000,"state":"active","ping":66},{"user_id":780,"name":"Dzhoshua","steam_id":76561198071915251,"connected_time":878000000000,"state":"active","ping":58},{"user_id":777,"name":"The Announcer's Feet","steam_id":76561199443456893,"connected_time":1165000000000,"state":"active","ping":74}]},{"server_id":106,"name":"Uncletopia | Chicago | 2 | All Maps","name_short":"chi-2","host":"chi-1.us.uncletopia.com","port":27025,"enabled":true,"region":"us-central","cc":"us","latitude":41.881832,"longitude":-87.62318,"reserved":0,"last_update":"0001-01-01T00:00:00Z","name_a2s":"Uncletopia | Chicago | 2 | All Maps","protocol":17,"map":"pl_upward","folder":"tf","game":"Team Fortress","app_id":440,"player_count":24,"max_players":24,"Bots":0,"server_type":"Dedicated","server_os":"Linux","password":true,"vac":true,"version":"7757534","steam_id":85568392924469985,"keywords":["nocrits","nodmgspread","payload","uncletopia"],"game_id":440,"stv_port":27026,"stv_name":"Uncletopia | Chicago | 2 | All Maps | STV","players":[{"user_id":877,"name":"Skullypoo","steam_id":76561198067912022,"connected_time":1876000000000,"state":"active","ping":68},{"user_id":847,"name":"donatello ツ","steam_id":76561198091157081,"connected_time":3716000000000,"state":"active","ping":45},{"user_id":886,"name":"Kedata","steam_id":76561198047750050,"connected_time":828000000000,"state":"active","ping":44},{"user_id":891,"name":"keffers","steam_id":76561198202338796,"connected_time":783000000000,"state":"active","ping":73},{"user_id":888,"name":"Tinnitus Enjoyer","steam_id":76561198046526036,"connected_time":826000000000,"state":"active","ping":99},{"user_id":889,"name":"Manly Emerald","steam_id":76561198245838476,"connected_time":814000000000,"state":"active","ping":53},{"user_id":880,"name":"crayonnipple","steam_id":76561198070253331,"connected_time":1521000000000,"state":"active","ping":53},{"user_id":901,"name":"skittle ducks jr.","steam_id":76561198309823950,"connected_time":83000000000,"state":"active","ping":89},{"user_id":899,"name":"Brian","steam_id":76561198144650969,"connected_time":171000000000,"state":"active","ping":75},{"user_id":883,"name":"Peter","steam_id":76561199024880478,"connected_time":1004000000000,"state":"active","ping":45},{"user_id":871,"name":"Tohubohu","steam_id":76561198077838448,"connected_time":2112000000000,"state":"active","ping":111},{"user_id":892,"name":"SouperBad","steam_id":76561198116690686,"connected_time":731000000000,"state":"active","ping":49},{"user_id":876,"name":"Nephs","steam_id":76561198136763403,"connected_time":1964000000000,"state":"active","ping":73},{"user_id":893,"name":"MenLover2006","steam_id":76561198093439770,"connected_time":685000000000,"state":"active","ping":59},{"user_id":894,"name":"Maxwell5123","steam_id":76561198025959510,"connected_time":666000000000,"state":"active","ping":126},{"user_id":895,"name":"Jesus Kush","steam_id":76561199099329667,"connected_time":659000000000,"state":"active","ping":96},{"user_id":902,"name":"ChickenTenders","steam_id":76561199216000968,"connected_time":25000000000,"state":"active","ping":65},{"user_id":863,"name":"trinqette","steam_id":76561198119543621,"connected_time":3023000000000,"state":"active","ping":66},{"user_id":896,"name":"Inevitable","steam_id":76561198210050169,"connected_time":612000000000,"state":"active","ping":60},{"user_id":884,"name":"leopardo123atl","steam_id":76561198872648238,"connected_time":947000000000,"state":"active","ping":114},{"user_id":879,"name":"B)","steam_id":76561198093921290,"connected_time":1543000000000,"state":"active","ping":47},{"user_id":897,"name":"pat fusty","steam_id":76561198117181511,"connected_time":559000000000,"state":"active","ping":47},{"user_id":875,"name":"Please take me seriously","steam_id":76561198156746320,"connected_time":2053000000000,"state":"active","ping":44},{"user_id":898,"name":"Kip","steam_id":76561197998180212,"connected_time":463000000000,"state":"active","ping":59}]},{"server_id":402,"name":"Uncletopia | Chicago | 3 | All Maps","name_short":"chi-3","host":"chi-1.us.uncletopia.com","port":27035,"enabled":true,"region":"us-central","cc":"us","latitude":41.881832,"longitude":-87.62318,"reserved":0,"last_update":"0001-01-01T00:00:00Z","name_a2s":"Uncletopia | Chicago | 3 | All Maps","protocol":17,"map":"pl_upward","folder":"tf","game":"Team Fortress","app_id":440,"player_count":24,"max_players":24,"Bots":0,"server_type":"Dedicated","server_os":"Linux","password":true,"vac":true,"version":"7757534","steam_id":85568392924515191,"keywords":["nocrits","nodmgspread","payload","uncletopia"],"game_id":440,"stv_port":27036,"stv_name":"Uncletopia | Chicago | 3 | All Maps | STV","players":[{"user_id":599,"name":"Cricket Girl!","steam_id":76561198838054669,"connected_time":430000000000,"state":"active","ping":57},{"user_id":591,"name":"Elizabeth truss","steam_id":76561198058250979,"connected_time":1325000000000,"state":"active","ping":85},{"user_id":588,"name":"Internal Screaming","steam_id":76561198272327629,"connected_time":1351000000000,"state":"active","ping":104},{"user_id":576,"name":"Queen Frau the Round","steam_id":76561197999942134,"connected_time":2684000000000,"state":"active","ping":44},{"user_id":547,"name":"Windex","steam_id":76561198105561395,"connected_time":4732000000000,"state":"active","ping":86},{"user_id":523,"name":"$200 Shirt","steam_id":76561197977329534,"connected_time":6353000000000,"state":"active","ping":60},{"user_id":600,"name":"FitzyBear","steam_id":76561198409189585,"connected_time":417000000000,"state":"active","ping":78},{"user_id":525,"name":"Krellah","steam_id":76561198287045069,"connected_time":6332000000000,"state":"active","ping":58},{"user_id":519,"name":"gyroFSnoob","steam_id":76561198158404683,"connected_time":6655000000000,"state":"active","ping":80},{"user_id":585,"name":"Whorse","steam_id":76561198114141445,"connected_time":1394000000000,"state":"active","ping":73},{"user_id":605,"name":"Harold Manshaft, CEO","steam_id":76561198046563712,"connected_time":222000000000,"state":"active","ping":83},{"user_id":578,"name":"bash -lc ./asshat.sh","steam_id":76561198004584315,"connected_time":2532000000000,"state":"active","ping":64},{"user_id":596,"name":"Aristotle Voulton","steam_id":76561198100174923,"connected_time":957000000000,"state":"active","ping":87},{"user_id":573,"name":"JHLO","steam_id":76561198074359967,"connected_time":2878000000000,"state":"active","ping":75},{"user_id":510,"name":"c00kie","steam_id":76561198418178297,"connected_time":7778000000000,"state":"active","ping":45},{"user_id":597,"name":"godtierJack.jpeg","steam_id":76561198089827454,"connected_time":949000000000,"state":"active","ping":66},{"user_id":604,"name":"bubbles","steam_id":76561198040940902,"connected_time":310000000000,"state":"active","ping":89},{"user_id":603,"name":"Bees","steam_id":76561198131522256,"connected_time":342000000000,"state":"active","ping":110},{"user_id":598,"name":"The Trash Man","steam_id":76561198071375772,"connected_time":946000000000,"state":"active","ping":53},{"user_id":584,"name":"Tyth","steam_id":76561198062543298,"connected_time":1760000000000,"state":"active","ping":89},{"user_id":511,"name":"kent C Straight","steam_id":76561198056190259,"connected_time":7770000000000,"state":"active","ping":62},{"user_id":592,"name":"Toasty Gyro","steam_id":76561198001026643,"connected_time":1320000000000,"state":"active","ping":52},{"user_id":571,"name":"Lore","steam_id":76561198098407538,"connected_time":3202000000000,"state":"active","ping":59},{"user_id":595,"name":"CoconutRice","steam_id":76561198114909164,"connected_time":1075000000000,"state":"active","ping":55}]},{"server_id":403,"name":"Uncletopia | Chicago | 4 | All Maps","name_short":"chi-4","host":"chi-1.us.uncletopia.com","port":27045,"enabled":true,"region":"us-central","cc":"us","latitude":41.881832,"longitude":-87.62318,"reserved":0,"last_update":"0001-01-01T00:00:00Z","name_a2s":"Uncletopia | Chicago | 4 | All Maps","protocol":17,"map":"pl_badwater","folder":"tf","game":"Team Fortress","app_id":440,"player_count":22,"max_players":24,"Bots":0,"server_type":"Dedicated","server_os":"Linux","password":true,"vac":true,"version":"7757534","steam_id":85568392924515193,"keywords":["nocrits","nodmgspread","payload","uncletopia"],"game_id":440,"stv_port":27046,"stv_name":"Uncletopia | Chicago | 4 | All Maps | STV","players":[{"user_id":716,"name":"Mr.Pwng3","steam_id":76561198139469530,"connected_time":459000000000,"state":"active","ping":75},{"user_id":719,"name":"old slimey ichabod","steam_id":76561198043900518,"connected_time":385000000000,"state":"active","ping":60},{"user_id":700,"name":"psy","steam_id":76561198013195018,"connected_time":1541000000000,"state":"active","ping":76},{"user_id":670,"name":"Bliztank | RGL.gg","steam_id":76561198019252798,"connected_time":3752000000000,"state":"active","ping":59},{"user_id":721,"name":"ac3mel","steam_id":76561198877344998,"connected_time":347000000000,"state":"active","ping":70},{"user_id":724,"name":"tempu","steam_id":76561198155486118,"connected_time":238000000000,"state":"active","ping":43},{"user_id":714,"name":"Pizza","steam_id":76561198118748364,"connected_time":501000000000,"state":"active","ping":73},{"user_id":715,"name":"Autogyro","steam_id":76561198047943679,"connected_time":488000000000,"state":"active","ping":56},{"user_id":679,"name":"NovaSc6ut","steam_id":76561198277163301,"connected_time":2881000000000,"state":"active","ping":64},{"user_id":723,"name":"The Bravest of Warriors","steam_id":76561198048289242,"connected_time":332000000000,"state":"active","ping":122},{"user_id":718,"name":"Bombat","steam_id":76561198083096946,"connected_time":453000000000,"state":"active","ping":107},{"user_id":676,"name":"C papi","steam_id":76561198027779564,"connected_time":3241000000000,"state":"active","ping":57},{"user_id":690,"name":"Shmebulock","steam_id":76561198046941925,"connected_time":2320000000000,"state":"active","ping":58},{"user_id":680,"name":"noah","steam_id":76561198173310157,"connected_time":2852000000000,"state":"active","ping":50},{"user_id":682,"name":"BigDeac","steam_id":76561198091237274,"connected_time":2806000000000,"state":"active","ping":56},{"user_id":681,"name":"shmeenus","steam_id":76561198201086569,"connected_time":2811000000000,"state":"active","ping":56},{"user_id":691,"name":"TheTruthOfTheCessationOfDukkha","steam_id":76561198214370515,"connected_time":2263000000000,"state":"active","ping":71},{"user_id":684,"name":"trappy (showered)","steam_id":76561198402801140,"connected_time":2673000000000,"state":"active","ping":65},{"user_id":692,"name":"Ghoulish in Nature","steam_id":76561198058840585,"connected_time":2252000000000,"state":"active","ping":75},{"user_id":661,"name":"Horrizan","steam_id":76561197965028480,"connected_time":4680000000000,"state":"active","ping":79},{"user_id":693,"name":"Ducter","steam_id":76561198085369908,"connected_time":2238000000000,"state":"active","ping":64},{"user_id":674,"name":"Vladikr1","steam_id":76561198401495362,"connected_time":3695000000000,"state":"active","ping":75}]},{"server_id":36,"name":"Uncletopia | Chicago | 5 | All Maps","name_short":"chi-5","host":"chi-2.us.uncletopia.com","port":27015,"enabled":true,"region":"us-central","cc":"us","latitude":41.881832,"longitude":-87.62318,"reserved":0,"last_update":"0001-01-01T00:00:00Z","name_a2s":"Uncletopia | Chicago | 5 | All Maps","protocol":17,"map":"pl_goldrush","folder":"tf","game":"Team Fortress","app_id":440,"player_count":20,"max_players":24,"Bots":0,"server_type":"Dedicated","server_os":"Linux","password":true,"vac":true,"version":"7757534","steam_id":85568392924866362,"keywords":["nocrits","nodmgspread","payload","uncletopia"],"game_id":440,"stv_port":27016,"stv_name":"Uncletopia | Chicago | 5 | All Maps | STV","players":[{"user_id":451,"name":"META.exe","steam_id":76561199067098696,"connected_time":3145000000000,"state":"active","ping":87},{"user_id":459,"name":"¡El Rubber Bandito!","steam_id":76561198013727123,"connected_time":1563000000000,"state":"active","ping":67},{"user_id":464,"name":"Medic gaming","steam_id":76561199053687718,"connected_time":902000000000,"state":"active","ping":145},{"user_id":465,"name":"Skeleton Hotel","steam_id":76561198041704727,"connected_time":885000000000,"state":"active","ping":62},{"user_id":435,"name":"SuperFresh","steam_id":76561198200723198,"connected_time":5112000000000,"state":"active","ping":39},{"user_id":466,"name":"Darghul the Skeleton Lord","steam_id":76561198004140161,"connected_time":799000000000,"state":"active","ping":41},{"user_id":467,"name":"Monsterjessy","steam_id":76561198035630985,"connected_time":798000000000,"state":"active","ping":64},{"user_id":468,"name":"Mr.Silver","steam_id":76561198156382508,"connected_time":681000000000,"state":"active","ping":57},{"user_id":470,"name":"Nbone31","steam_id":76561197978186593,"connected_time":445000000000,"state":"active","ping":69},{"user_id":471,"name":"biofio","steam_id":76561198019094571,"connected_time":427000000000,"state":"active","ping":107},{"user_id":472,"name":"Creyon","steam_id":76561198812104058,"connected_time":277000000000,"state":"active","ping":57},{"user_id":473,"name":"CJDGuy","steam_id":76561198213009545,"connected_time":207000000000,"state":"active","ping":78},{"user_id":474,"name":"RURU","steam_id":76561198039758987,"connected_time":196000000000,"state":"active","ping":164},{"user_id":475,"name":"trashbro","steam_id":76561199417993197,"connected_time":174000000000,"state":"active","ping":100},{"user_id":479,"name":"Lenny","steam_id":76561198183943137,"connected_time":44000000000,"state":"active","ping":76},{"user_id":477,"name":"WanderingGenji","steam_id":76561198965812987,"connected_time":118000000000,"state":"active","ping":89},{"user_id":480,"name":"saucy jack","steam_id":76561198307012859,"connected_time":0,"state":"spawning","ping":18},{"user_id":316,"name":"inventor1214","steam_id":76561198062317696,"connected_time":13976000000000,"state":"active","ping":125},{"user_id":426,"name":"Redrock442","steam_id":76561198178085142,"connected_time":5632000000000,"state":"active","ping":102}]},{"server_id":37,"name":"Uncletopia | Chicago | 6 | All Maps","name_short":"chi-6","host":"chi-2.us.uncletopia.com","port":27025,"enabled":true,"region":"us-central","cc":"us","latitude":41.881832,"longitude":-87.62318,"reserved":0,"last_update":"0001-01-01T00:00:00Z","name_a2s":"Uncletopia | Chicago | 6 | All Maps","protocol":17,"map":"koth_viaduct","folder":"tf","game":"Team Fortress","app_id":440,"player_count":0,"max_players":24,"Bots":0,"server_type":"Dedicated","server_os":"Linux","password":true,"vac":true,"version":"7757534","steam_id":85568392924866363,"keywords":["cp","nocrits","nodmgspread","uncletopia"],"game_id":440,"stv_port":27026,"stv_name":"Uncletopia | Chicago | 6 | All Maps | STV","players":null},{"server_id":38,"name":"Uncletopia | Chicago | 7 | Stopwatch Beta","name_short":"chi-7","host":"chi-2.us.uncletopia.com","port":27035,"enabled":true,"region":"us-central","cc":"us","latitude":41.881832,"longitude":-87.62318,"reserved":0,"last_update":"0001-01-01T00:00:00Z","name_a2s":"Uncletopia | Chicago | 7 | Stopwatch Beta","protocol":17,"map":"workshop/koth_ashville_final.ugc2130459942","folder":"tf","game":"Team Fortress","app_id":440,"player_count":0,"max_players":24,"Bots":0,"server_type":"Dedicated","server_os":"Linux","password":true,"vac":true,"version":"7757534","steam_id":85568392924866364,"keywords":["cp","nocrits","nodmgspread","uncletopia"],"game_id":440,"stv_port":27036,"stv_name":"Uncletopia | Chicago | 7 | Stopwatch Beta | STV","players":null},{"server_id":39,"name":"Uncletopia | Chicago | 8 | Community","name_short":"chi-8","host":"chi-2.us.uncletopia.com","port":27045,"enabled":true,"region":"us-central","cc":"us","latitude":41.881832,"longitude":-87.62318,"reserved":0,"last_update":"0001-01-01T00:00:00Z","name_a2s":"Uncletopia | Chicago | 8 | Community","protocol":17,"map":"workshop/koth_ramjam_rc1.ugc459778887","folder":"tf","game":"Team Fortress","app_id":440,"player_count":0,"max_players":24,"Bots":0,"server_type":"Dedicated","server_os":"Linux","password":true,"vac":true,"version":"7757534","steam_id":85568392924866365,"keywords":["cp","nocrits","nodmgspread","uncletopia"],"game_id":440,"stv_port":27046,"stv_name":"Uncletopia | Chicago | 8 | Community | STV","players":null},{"server_id":8,"name":"Uncletopia | Dallas | 1 | All Maps","name_short":"dal-1","host":"dal-1.us.uncletopia.com","port":27015,"enabled":true,"region":"us-central","cc":"us","latitude":32.779167,"longitude":-96.80889,"reserved":0,"last_update":"0001-01-01T00:00:00Z","name_a2s":"Uncletopia | Dallas | 1 | All Maps","protocol":17,"map":"cp_dustbowl","folder":"tf","game":"Team Fortress","app_id":440,"player_count":17,"max_players":24,"Bots":0,"server_type":"Dedicated","server_os":"Linux","password":true,"vac":true,"version":"7757534","steam_id":85568392924469986,"keywords":["cp","nocrits","nodmgspread","uncletopia"],"game_id":440,"stv_port":27016,"stv_name":"Uncletopia | Dallas | 1 | All Maps | STV","players":[{"user_id":621,"name":"Alchemist","steam_id":76561198094238189,"connected_time":2362000000000,"state":"active","ping":69},{"user_id":633,"name":"Faust main","steam_id":76561198971799149,"connected_time":1606000000000,"state":"active","ping":68},{"user_id":625,"name":"purply-ghost","steam_id":76561199204779865,"connected_time":1845000000000,"state":"active","ping":38},{"user_id":527,"name":"arachnidsGrip","steam_id":76561198118320073,"connected_time":8863000000000,"state":"active","ping":95},{"user_id":532,"name":"gallowsCalibrator","steam_id":76561198404707578,"connected_time":8723000000000,"state":"active","ping":78},{"user_id":648,"name":"billy big balls","steam_id":76561198206922028,"connected_time":91000000000,"state":"active","ping":80},{"user_id":639,"name":"Charlie.","steam_id":76561199014543640,"connected_time":1184000000000,"state":"active","ping":132},{"user_id":634,"name":"Keg","steam_id":76561198242688458,"connected_time":1546000000000,"state":"active","ping":63},{"user_id":649,"name":"MerlinTheWizard","steam_id":76561198171472393,"connected_time":82000000000,"state":"active","ping":68},{"user_id":535,"name":"GarretGood","steam_id":76561198071881495,"connected_time":8710000000000,"state":"active","ping":84},{"user_id":650,"name":"Thequirka","steam_id":76561198968058652,"connected_time":80000000000,"state":"active","ping":93},{"user_id":644,"name":"merge without looking","steam_id":76561198056702628,"connected_time":1098000000000,"state":"active","ping":31},{"user_id":651,"name":"CakeCadaver","steam_id":76561198080388883,"connected_time":18000000000,"state":"spawning","ping":113},{"user_id":645,"name":"Mr. Dick™","steam_id":76561198047309044,"connected_time":1081000000000,"state":"active","ping":63},{"user_id":619,"name":"Pope","steam_id":76561198053768137,"connected_time":2984000000000,"state":"active","ping":46},{"user_id":581,"name":"jturner1nm","steam_id":76561198344493652,"connected_time":5102000000000,"state":"active","ping":92},{"user_id":637,"name":"quek","steam_id":76561198181048813,"connected_time":1265000000000,"state":"active","ping":54}]},{"server_id":108,"name":"Uncletopia | Dallas | 2 | All Maps","name_short":"dal-2","host":"dal-1.us.uncletopia.com","port":27025,"enabled":true,"region":"us-central","cc":"us","latitude":32.779167,"longitude":-96.80889,"reserved":0,"last_update":"0001-01-01T00:00:00Z","name_a2s":"Uncletopia | Dallas | 2 | All Maps","protocol":17,"map":"cp_dustbowl","folder":"tf","game":"Team Fortress","app_id":440,"player_count":20,"max_players":24,"Bots":0,"server_type":"Dedicated","server_os":"Linux","password":true,"vac":true,"version":"7757534","steam_id":85568392924469988,"keywords":["cp","nocrits","nodmgspread","uncletopia"],"game_id":440,"stv_port":27026,"stv_name":"Uncletopia | Dallas | 2 | All Maps | STV","players":[{"user_id":847,"name":"Randy \"the Man\" Johnson","steam_id":76561198039124445,"connected_time":1654000000000,"state":"active","ping":100},{"user_id":814,"name":"GodKillerMatthew","steam_id":76561198073480898,"connected_time":2598000000000,"state":"active","ping":107},{"user_id":892,"name":"Alex","steam_id":76561198098800540,"connected_time":22000000000,"state":"spawning","ping":61},{"user_id":811,"name":"Batso","steam_id":76561198106589452,"connected_time":2935000000000,"state":"active","ping":77},{"user_id":774,"name":"Burny Sanders","steam_id":76561197961879048,"connected_time":4781000000000,"state":"active","ping":44},{"user_id":831,"name":"Sad Sapling","steam_id":76561198075612150,"connected_time":1898000000000,"state":"active","ping":86},{"user_id":864,"name":"Matt.jpg","steam_id":76561198132469465,"connected_time":1340000000000,"state":"active","ping":50},{"user_id":778,"name":"SlippyPunk","steam_id":76561198048551455,"connected_time":4599000000000,"state":"active","ping":92},{"user_id":805,"name":"Drakon","steam_id":76561198078210822,"connected_time":3301000000000,"state":"active","ping":105},{"user_id":859,"name":"xhouls","steam_id":76561198128809755,"connected_time":1559000000000,"state":"active","ping":70},{"user_id":832,"name":"Sol Goodman","steam_id":76561198112388117,"connected_time":1896000000000,"state":"active","ping":77},{"user_id":833,"name":"Markz","steam_id":76561197996278159,"connected_time":1891000000000,"state":"active","ping":95},{"user_id":799,"name":"SmiggleGiggle","steam_id":76561198171810677,"connected_time":3463000000000,"state":"active","ping":130},{"user_id":819,"name":"Aldinach","steam_id":76561198079912615,"connected_time":2448000000000,"state":"active","ping":74},{"user_id":849,"name":"Homewrecker Bill","steam_id":76561198120379171,"connected_time":1649000000000,"state":"active","ping":509},{"user_id":835,"name":"shnowshner","steam_id":76561198066450438,"connected_time":1846000000000,"state":"active","ping":97},{"user_id":850,"name":"Chica","steam_id":76561198381832158,"connected_time":1641000000000,"state":"active","ping":45},{"user_id":884,"name":"nUwUb","steam_id":76561198164984099,"connected_time":345000000000,"state":"active","ping":63},{"user_id":838,"name":"I bomb atomically","steam_id":76561198009818412,"connected_time":1815000000000,"state":"active","ping":69},{"user_id":839,"name":"c.c.","steam_id":76561198018564445,"connected_time":1804000000000,"state":"active","ping":60}]},{"server_id":5,"name":"Uncletopia | Frankfurt | 1 | All Maps","name_short":"frk-1","host":"frk-1.de.uncletopia.com","port":27015,"enabled":true,"region":"eu","cc":"de","latitude":50.110924,"longitude":8.682127,"reserved":0,"last_update":"0001-01-01T00:00:00Z","name_a2s":"Uncletopia | Frankfurt | 1 | All Maps","protocol":17,"map":"pl_snowycoast","folder":"tf","game":"Team Fortress","app_id":440,"player_count":0,"max_players":24,"Bots":0,"server_type":"Dedicated","server_os":"Linux","password":true,"vac":true,"version":"7757534","steam_id":85568392924469989,"keywords":["nocrits","nodmgspread","payload","uncletopia"],"game_id":440,"stv_port":27016,"stv_name":"Uncletopia | Frankfurt | 1 | All Maps | STV","players":null},{"server_id":110,"name":"Uncletopia | Frankfurt | 2 | All Maps","name_short":"frk-2","host":"frk-1.de.uncletopia.com","port":27025,"enabled":true,"region":"eu","cc":"de","latitude":50.110924,"longitude":8.682127,"reserved":0,"last_update":"0001-01-01T00:00:00Z","name_a2s":"Uncletopia | Frankfurt | 2 | All Maps","protocol":17,"map":"pl_snowycoast","folder":"tf","game":"Team Fortress","app_id":440,"player_count":0,"max_players":24,"Bots":0,"server_type":"Dedicated","server_os":"Linux","password":true,"vac":true,"version":"7757534","steam_id":85568392924469990,"keywords":["nocrits","nodmgspread","payload","uncletopia"],"game_id":440,"stv_port":27026,"stv_name":"Uncletopia | Frankfurt | 2 | All Maps | STV","players":null},{"server_id":308,"name":"Uncletopia | Frankfurt | 3 | All Maps","name_short":"frk-3","host":"frk-1.de.uncletopia.com","port":27035,"enabled":true,"region":"eu","cc":"de","latitude":50.110924,"longitude":8.682127,"reserved":0,"last_update":"0001-01-01T00:00:00Z","name_a2s":"Uncletopia | Frankfurt | 3 | All Maps","protocol":17,"map":"cp_altitude","folder":"tf","game":"Team Fortress","app_id":440,"player_count":0,"max_players":24,"Bots":0,"server_type":"Dedicated","server_os":"Linux","password":true,"vac":true,"version":"7757534","steam_id":85568392924504274,"keywords":["cp","nocrits","nodmgspread","uncletopia"],"game_id":440,"stv_port":27036,"stv_name":"Uncletopia | Frankfurt | 3 | All Maps | STV","players":null},{"server_id":309,"name":"Uncletopia | Frankfurt | 4 | All Maps","name_short":"frk-4","host":"frk-1.de.uncletopia.com","port":27045,"enabled":true,"region":"eu","cc":"de","latitude":50.110924,"longitude":8.682127,"reserved":0,"last_update":"0001-01-01T00:00:00Z","name_a2s":"Uncletopia | Frankfurt | 4 | All Maps","protocol":17,"map":"cp_altitude","folder":"tf","game":"Team Fortress","app_id":440,"player_count":0,"max_players":24,"Bots":0,"server_type":"Dedicated","server_os":"Linux","password":true,"vac":true,"version":"7757534","steam_id":85568392924504275,"keywords":["cp","nocrits","nodmgspread","uncletopia"],"game_id":440,"stv_port":27046,"stv_name":"Uncletopia | Frankfurt | 4 | All Maps | STV","players":null},{"server_id":310,"name":"Uncletopia | Frankfurt | 5 | All Maps","name_short":"frk-5","host":"frk-1.de.uncletopia.com","port":27055,"enabled":true,"region":"eu","cc":"de","latitude":50.110924,"longitude":8.682127,"reserved":0,"last_update":"0001-01-01T00:00:00Z","name_a2s":"Uncletopia | Frankfurt | 5 | All Maps","protocol":17,"map":"cp_altitude","folder":"tf","game":"Team Fortress","app_id":440,"player_count":0,"max_players":24,"Bots":0,"server_type":"Dedicated","server_os":"Linux","password":true,"vac":true,"version":"7757534","steam_id":85568392924504277,"keywords":["cp","nocrits","nodmgspread","uncletopia"],"game_id":440,"stv_port":27056,"stv_name":"Uncletopia | Frankfurt | 5 | All Maps | STV","players":null},{"server_id":311,"name":"Uncletopia | Frankfurt | 6 | All Maps","name_short":"frk-6","host":"frk-1.de.uncletopia.com","port":27065,"enabled":true,"region":"eu","cc":"de","latitude":50.110924,"longitude":8.682127,"reserved":0,"last_update":"0001-01-01T00:00:00Z","name_a2s":"Uncletopia | Frankfurt | 6 | All Maps","protocol":17,"map":"koth_highpass","folder":"tf","game":"Team Fortress","app_id":440,"player_count":0,"max_players":24,"Bots":0,"server_type":"Dedicated","server_os":"Linux","password":true,"vac":true,"version":"7757534","steam_id":85568392924504278,"keywords":["cp","nocrits","nodmgspread","uncletopia"],"game_id":440,"stv_port":27066,"stv_name":"Uncletopia | Frankfurt | 6 | All Maps | STV","players":null},{"server_id":23,"name":"Uncletopia | Frankfurt | 7 | Stopwatch Beta","name_short":"frk-7","host":"frk-1.de.uncletopia.com","port":27075,"enabled":true,"region":"eu","cc":"de","latitude":50.110924,"longitude":8.682127,"reserved":0,"last_update":"0001-01-01T00:00:00Z","name_a2s":"Uncletopia | Frankfurt | 7 | Stopwatch Beta","protocol":17,"map":"pl_frontier_final","folder":"tf","game":"Team Fortress","app_id":440,"player_count":0,"max_players":24,"Bots":0,"server_type":"Dedicated","server_os":"Linux","password":true,"vac":true,"version":"7757534","steam_id":85568392924742827,"keywords":["nocrits","nodmgspread","payload","uncletopia"],"game_id":440,"stv_port":27076,"stv_name":"Uncletopia | Frankfurt | 7 | Stopwatch Beta | STV","players":null},{"server_id":24,"name":"Uncletopia | Frankfurt | 8 | Community","name_short":"frk-8","host":"frk-1.de.uncletopia.com","port":27085,"enabled":true,"region":"eu","cc":"de","latitude":50.110924,"longitude":8.682127,"reserved":0,"last_update":"0001-01-01T00:00:00Z","name_a2s":"Uncletopia | Frankfurt | 8 | Community","protocol":17,"map":"pl_badwater","folder":"tf","game":"Team Fortress","app_id":440,"player_count":0,"max_players":24,"Bots":0,"server_type":"Dedicated","server_os":"Linux","password":true,"vac":true,"version":"7757534","steam_id":85568392924742828,"keywords":["nocrits","nodmgspread","payload","uncletopia"],"game_id":440,"stv_port":27086,"stv_name":"Uncletopia | Frankfurt | 8 | Community | STV","players":null},{"server_id":202,"name":"Uncletopia | Hong Kong | 1 | All Maps","name_short":"hgk-1","host":"hgk-1.hk.uncletopia.com","port":27015,"enabled":true,"region":"asia","cc":"hk","latitude":22.302711,"longitude":114.177216,"reserved":0,"last_update":"0001-01-01T00:00:00Z","name_a2s":"Uncletopia | Hong Kong | 1 | All Maps","protocol":17,"map":"pl_frontier_final","folder":"tf","game":"Team Fortress","app_id":440,"player_count":18,"max_players":24,"Bots":0,"server_type":"Dedicated","server_os":"Linux","password":true,"vac":true,"version":"7757534","steam_id":85568392924494504,"keywords":["nocrits","nodmgspread","payload","uncletopia"],"game_id":440,"stv_port":27016,"stv_name":"Uncletopia | Hong Kong | 1 | All Maps | STV","players":[{"user_id":26,"name":"ironhelmet8","steam_id":76561198354900426,"connected_time":3344000000000,"state":"active","ping":76},{"user_id":27,"name":"yw","steam_id":76561199382726488,"connected_time":3218000000000,"state":"active","ping":45},{"user_id":28,"name":"an idiot","steam_id":76561199245124028,"connected_time":3090000000000,"state":"active","ping":106},{"user_id":31,"name":"Violezine The Luckiest Archer","steam_id":76561199000502615,"connected_time":2809000000000,"state":"active","ping":84},{"user_id":54,"name":"FakeLoop","steam_id":76561198984335440,"connected_time":874000000000,"state":"active","ping":142},{"user_id":32,"name":"Miles Per'Hour","steam_id":76561199000630075,"connected_time":2803000000000,"state":"active","ping":117},{"user_id":33,"name":"sáu thiện nhân","steam_id":76561199373637717,"connected_time":2783000000000,"state":"active","ping":76},{"user_id":34,"name":"killman47","steam_id":76561198348487408,"connected_time":2375000000000,"state":"active","ping":39},{"user_id":44,"name":"Humpty Alexander Dumpty","steam_id":76561199116459368,"connected_time":1413000000000,"state":"active","ping":118},{"user_id":61,"name":"哇袄","steam_id":76561198128534265,"connected_time":68000000000,"state":"spawning","ping":329},{"user_id":50,"name":"Juju Shortbow","steam_id":76561198349807521,"connected_time":961000000000,"state":"active","ping":97},{"user_id":56,"name":"DEKii","steam_id":76561198195344561,"connected_time":740000000000,"state":"active","ping":109},{"user_id":62,"name":"AshaAnime","steam_id":76561199237432540,"connected_time":42000000000,"state":"active","ping":73},{"user_id":51,"name":"Enzyine","steam_id":76561198873841462,"connected_time":942000000000,"state":"active","ping":138},{"user_id":59,"name":"mmhhr2009","steam_id":76561199222486715,"connected_time":341000000000,"state":"active","ping":133},{"user_id":46,"name":"let cook","steam_id":76561198055553140,"connected_time":1302000000000,"state":"active","ping":84},{"user_id":63,"name":"4real","steam_id":76561199044555397,"connected_time":23000000000,"state":"spawning","ping":95},{"user_id":64,"name":"rtgod","steam_id":76561198125363469,"connected_time":7000000000,"state":"spawning","ping":83}]},{"server_id":1,"name":"Uncletopia | Los Angeles | 1 | All Maps","name_short":"lax-1","host":"lax-1.us.uncletopia.com","port":27015,"enabled":true,"region":"us-west","cc":"us","latitude":33.94279,"longitude":-118.41004,"reserved":0,"last_update":"0001-01-01T00:00:00Z","name_a2s":"Uncletopia | Los Angeles | 1 | All Maps","protocol":17,"map":"pl_badwater","folder":"tf","game":"Team Fortress","app_id":440,"player_count":24,"max_players":24,"Bots":0,"server_type":"Dedicated","server_os":"Linux","password":true,"vac":true,"version":"7757534","steam_id":85568392924469991,"keywords":["nocrits","nodmgspread","payload","uncletopia"],"game_id":440,"stv_port":27016,"stv_name":"Uncletopia | Los Angeles | 1 | All Maps | STV","players":[{"user_id":453,"name":"buhn","steam_id":76561198106117196,"connected_time":789000000000,"state":"active","ping":55},{"user_id":431,"name":"GAST Texas","steam_id":76561198053276976,"connected_time":2767000000000,"state":"active","ping":72},{"user_id":445,"name":"ChefMike","steam_id":76561198414034069,"connected_time":2174000000000,"state":"active","ping":122},{"user_id":454,"name":"K4le","steam_id":76561198747668363,"connected_time":710000000000,"state":"active","ping":56},{"user_id":455,"name":"Crazy Hungarian","steam_id":76561198025498172,"connected_time":681000000000,"state":"active","ping":71},{"user_id":463,"name":"SpringIvan","steam_id":76561199133179509,"connected_time":399000000000,"state":"active","ping":53},{"user_id":432,"name":"wait no stop dont do that","steam_id":76561199117157198,"connected_time":2766000000000,"state":"active","ping":74},{"user_id":416,"name":"zozo","steam_id":76561198031297359,"connected_time":3659000000000,"state":"active","ping":55},{"user_id":456,"name":"Black Mesa Scientist","steam_id":76561198064466577,"connected_time":667000000000,"state":"active","ping":75},{"user_id":460,"name":"golia","steam_id":76561198000264266,"connected_time":510000000000,"state":"active","ping":64},{"user_id":451,"name":"SyntheticCereal","steam_id":76561198208048093,"connected_time":1574000000000,"state":"active","ping":116},{"user_id":426,"name":"Beeveelution","steam_id":76561198331526301,"connected_time":3028000000000,"state":"active","ping":61},{"user_id":446,"name":"Joey The Goat","steam_id":76561198864691307,"connected_time":1704000000000,"state":"active","ping":107},{"user_id":465,"name":"MinusSoup918","steam_id":76561198060902773,"connected_time":97000000000,"state":"active","ping":68},{"user_id":398,"name":"shrimpboi783","steam_id":76561199091069924,"connected_time":4833000000000,"state":"active","ping":64},{"user_id":441,"name":"Pluto","steam_id":76561198012630802,"connected_time":2367000000000,"state":"active","ping":63},{"user_id":458,"name":"DistantJragon","steam_id":76561198117563641,"connected_time":579000000000,"state":"active","ping":112},{"user_id":464,"name":"party chip","steam_id":76561198277153335,"connected_time":384000000000,"state":"active","ping":60},{"user_id":461,"name":"Uncle rain(uncle dane ripoff)","steam_id":76561199307816655,"connected_time":494000000000,"state":"active","ping":45},{"user_id":452,"name":"TF2_Class.mp4","steam_id":76561198362954269,"connected_time":796000000000,"state":"active","ping":48},{"user_id":448,"name":"Tanky","steam_id":76561198118732946,"connected_time":1685000000000,"state":"active","ping":54},{"user_id":443,"name":"M.L.JEW","steam_id":76561198997375055,"connected_time":2295000000000,"state":"active","ping":105},{"user_id":450,"name":"Sarbanes-Oxley","steam_id":76561197975898479,"connected_time":1646000000000,"state":"active","ping":82},{"user_id":435,"name":"StrangeMachine","steam_id":76561198046628064,"connected_time":2729000000000,"state":"active","ping":84}]},{"server_id":112,"name":"Uncletopia | Los Angeles | 2 | All Maps","name_short":"lax-2","host":"lax-1.us.uncletopia.com","port":27025,"enabled":true,"region":"us-west","cc":"us","latitude":33.94279,"longitude":-118.41004,"reserved":0,"last_update":"0001-01-01T00:00:00Z","name_a2s":"Uncletopia | Los Angeles | 2 | All Maps","protocol":17,"map":"koth_highpass","folder":"tf","game":"Team Fortress","app_id":440,"player_count":0,"max_players":24,"Bots":0,"server_type":"Dedicated","server_os":"Linux","password":true,"vac":true,"version":"7757534","steam_id":85568392924469992,"keywords":["cp","nocrits","nodmgspread","uncletopia"],"game_id":440,"stv_port":27026,"stv_name":"Uncletopia | Los Angeles | 2 | All Maps | STV","players":null},{"server_id":324,"name":"Uncletopia | Los Angeles | 3 | All Maps","name_short":"lax-3","host":"lax-1.us.uncletopia.com","port":27035,"enabled":true,"region":"us-west","cc":"us","latitude":33.94279,"longitude":-118.41004,"reserved":0,"last_update":"0001-01-01T00:00:00Z","name_a2s":"Uncletopia | Los Angeles | 3 | All Maps","protocol":17,"map":"pl_borneo","folder":"tf","game":"Team Fortress","app_id":440,"player_count":24,"max_players":24,"Bots":0,"server_type":"Dedicated","server_os":"Linux","password":true,"vac":true,"version":"7757534","steam_id":85568392924510198,"keywords":["nocrits","nodmgspread","payload","uncletopia"],"game_id":440,"stv_port":27036,"stv_name":"Uncletopia | Los Angeles | 3 | All Maps | STV","players":[{"user_id":217,"name":"A UsedNom","steam_id":76561198402832756,"connected_time":1077000000000,"state":"active","ping":47},{"user_id":233,"name":"greens beans","steam_id":76561198153611491,"connected_time":562000000000,"state":"active","ping":72},{"user_id":235,"name":"Isaac","steam_id":76561198015727013,"connected_time":455000000000,"state":"active","ping":69},{"user_id":241,"name":"NachoLbr","steam_id":76561198156842073,"connected_time":206000000000,"state":"active","ping":45},{"user_id":232,"name":"Flubby","steam_id":76561198356273263,"connected_time":706000000000,"state":"active","ping":42},{"user_id":242,"name":"Kylex","steam_id":76561198131504296,"connected_time":190000000000,"state":"active","ping":56},{"user_id":239,"name":"CandorDanceFloor","steam_id":76561198062980511,"connected_time":401000000000,"state":"active","ping":123},{"user_id":220,"name":"Feel the bern","steam_id":76561198078824519,"connected_time":1046000000000,"state":"active","ping":55},{"user_id":163,"name":"Dentivent","steam_id":76561197971953043,"connected_time":3006000000000,"state":"active","ping":59},{"user_id":243,"name":"BruhMoment","steam_id":76561199213415134,"connected_time":133000000000,"state":"active","ping":64},{"user_id":209,"name":"Captain anus fiddle","steam_id":76561198100777371,"connected_time":1554000000000,"state":"active","ping":104},{"user_id":193,"name":"monsterkill4567","steam_id":76561198272986367,"connected_time":2019000000000,"state":"active","ping":54},{"user_id":195,"name":"Lambchop","steam_id":76561198043900363,"connected_time":1934000000000,"state":"active","ping":68},{"user_id":167,"name":"Wallewii","steam_id":76561198312178063,"connected_time":2904000000000,"state":"active","ping":46},{"user_id":222,"name":"borzier","steam_id":76561198069190432,"connected_time":927000000000,"state":"active","ping":112},{"user_id":178,"name":"Sirbeary","steam_id":76561198276948399,"connected_time":2627000000000,"state":"active","ping":56},{"user_id":223,"name":"bruxing and boggling","steam_id":76561198204169516,"connected_time":921000000000,"state":"active","ping":82},{"user_id":227,"name":"ty","steam_id":76561198045333395,"connected_time":874000000000,"state":"active","ping":91},{"user_id":201,"name":"Tintin's Hair","steam_id":76561198049006007,"connected_time":1798000000000,"state":"active","ping":67},{"user_id":240,"name":"GGN","steam_id":76561198233603808,"connected_time":233000000000,"state":"active","ping":51},{"user_id":212,"name":"Goldy","steam_id":76561198386274766,"connected_time":1292000000000,"state":"active","ping":97},{"user_id":229,"name":"Less Than Stupid","steam_id":76561198873150234,"connected_time":844000000000,"state":"active","ping":135},{"user_id":234,"name":"Deno! 간부","steam_id":76561198041113335,"connected_time":510000000000,"state":"active","ping":84},{"user_id":231,"name":"El Gato Paranoico","steam_id":76561198116567116,"connected_time":810000000000,"state":"active","ping":93}]},{"server_id":25,"name":"Uncletopia | Los Angeles | 4 | Stopwatch Beta","name_short":"lax-4","host":"lax-1.us.uncletopia.com","port":27045,"enabled":true,"region":"us-west","cc":"us","latitude":33.94279,"longitude":-118.41004,"reserved":0,"last_update":"0001-01-01T00:00:00Z","name_a2s":"Uncletopia | Los Angeles | 4 | Stopwatch Beta","protocol":17,"map":"pl_frontier_final","folder":"tf","game":"Team Fortress","app_id":440,"player_count":0,"max_players":24,"Bots":0,"server_type":"Dedicated","server_os":"Linux","password":true,"vac":true,"version":"7757534","steam_id":85568392924510199,"keywords":["nocrits","nodmgspread","payload","uncletopia"],"game_id":440,"stv_port":27046,"stv_name":"Uncletopia | Los Angeles | 4 | Stopwatch Beta | STV","players":null},{"server_id":11,"name":"Uncletopia | London | 1 | All Maps","name_short":"lon-1","host":"lon-1.uk.uncletopia.com","port":27015,"enabled":true,"region":"eu","cc":"gb","latitude":51.509865,"longitude":-0.118092,"reserved":0,"last_update":"0001-01-01T00:00:00Z","name_a2s":"Uncletopia | London | 1 | All Maps","protocol":17,"map":"pl_snowycoast","folder":"tf","game":"Team Fortress","app_id":440,"player_count":12,"max_players":24,"Bots":0,"server_type":"Dedicated","server_os":"Linux","password":true,"vac":true,"version":"7757534","steam_id":85568392924367362,"keywords":["nocrits","nodmgspread","payload","uncletopia"],"game_id":440,"stv_port":27016,"stv_name":"Uncletopia | London | 1 | All Maps | STV","players":[{"user_id":997,"name":"K.V. #RemoveRandomCrits","steam_id":76561197994832993,"connected_time":1275000000000,"state":"active","ping":75},{"user_id":1004,"name":"cloud","steam_id":76561198179768931,"connected_time":104000000000,"state":"active","ping":62},{"user_id":1003,"name":"killbind irl","steam_id":76561198180637374,"connected_time":554000000000,"state":"active","ping":94},{"user_id":1000,"name":"DocTwoEight","steam_id":76561198153488940,"connected_time":971000000000,"state":"active","ping":87},{"user_id":1001,"name":"josie","steam_id":76561198170848553,"connected_time":878000000000,"state":"active","ping":179},{"user_id":966,"name":"Autumnsky","steam_id":76561198055161203,"connected_time":4881000000000,"state":"active","ping":73},{"user_id":1002,"name":"Yakub","steam_id":76561198014279521,"connected_time":843000000000,"state":"active","ping":95},{"user_id":992,"name":".jekeb","steam_id":76561198073126202,"connected_time":1918000000000,"state":"active","ping":63},{"user_id":958,"name":"Economic crisis","steam_id":76561198063562843,"connected_time":5400000000000,"state":"active","ping":64},{"user_id":986,"name":"dorak","steam_id":76561198818037965,"connected_time":2971000000000,"state":"active","ping":109},{"user_id":955,"name":"kbbq","steam_id":76561198346638308,"connected_time":5970000000000,"state":"active","ping":53},{"user_id":990,"name":"{dogs}კობა77koba77[ASS]","steam_id":76561198154218182,"connected_time":2231000000000,"state":"active","ping":46}]},{"server_id":114,"name":"Uncletopia | London | 2 | All Maps","name_short":"lon-2","host":"lon-1.uk.uncletopia.com","port":27025,"enabled":true,"region":"eu","cc":"gb","latitude":51.509865,"longitude":-0.118092,"reserved":0,"last_update":"0001-01-01T00:00:00Z","name_a2s":"Uncletopia | London | 2 | All Maps","protocol":17,"map":"koth_cascade","folder":"tf","game":"Team Fortress","app_id":440,"player_count":0,"max_players":24,"Bots":0,"server_type":"Dedicated","server_os":"Linux","password":true,"vac":true,"version":"7757534","steam_id":85568392924470941,"keywords":["cp","nocrits","nodmgspread","uncletopia"],"game_id":440,"stv_port":27026,"stv_name":"Uncletopia | London | 2 | All Maps | STV","players":null},{"server_id":320,"name":"Uncletopia | London | 3 | All Maps","name_short":"lon-3","host":"lon-1.uk.uncletopia.com","port":27035,"enabled":true,"region":"eu","cc":"gb","latitude":51.509865,"longitude":-0.118092,"reserved":0,"last_update":"0001-01-01T00:00:00Z","name_a2s":"Uncletopia | London | 3 | All Maps","protocol":17,"map":"koth_highpass","folder":"tf","game":"Team Fortress","app_id":440,"player_count":0,"max_players":24,"Bots":0,"server_type":"Dedicated","server_os":"Linux","password":true,"vac":true,"version":"7757534","steam_id":85568392924510192,"keywords":["cp","nocrits","nodmgspread","uncletopia"],"game_id":440,"stv_port":27036,"stv_name":"Uncletopia | London | 3 | All Maps | STV","players":null},{"server_id":321,"name":"Uncletopia | London | 4 | All Maps","name_short":"lon-4","host":"lon-1.uk.uncletopia.com","port":27045,"enabled":true,"region":"eu","cc":"gb","latitude":51.509865,"longitude":-0.118092,"reserved":0,"last_update":"0001-01-01T00:00:00Z","name_a2s":"Uncletopia | London | 4 | All Maps","protocol":17,"map":"koth_lakeside_final","folder":"tf","game":"Team Fortress","app_id":440,"player_count":0,"max_players":24,"Bots":0,"server_type":"Dedicated","server_os":"Linux","password":true,"vac":true,"version":"7757534","steam_id":85568392924510193,"keywords":["cp","nocrits","nodmgspread","uncletopia"],"game_id":440,"stv_port":27046,"stv_name":"Uncletopia | London | 4 | All Maps | STV","players":null},{"server_id":21,"name":"Uncletopia | London | 5 | All Maps","name_short":"lon-5","host":"lon-1.uk.uncletopia.com","port":27055,"enabled":true,"region":"eu","cc":"gb","latitude":51.509865,"longitude":-0.118092,"reserved":0,"last_update":"0001-01-01T00:00:00Z","name_a2s":"Uncletopia | London | 5 | All Maps","protocol":17,"map":"koth_cascade","folder":"tf","game":"Team Fortress","app_id":440,"player_count":2,"max_players":24,"Bots":0,"server_type":"Dedicated","server_os":"Linux","password":true,"vac":true,"version":"7757534","steam_id":85568392924742829,"keywords":["cp","nocrits","nodmgspread","uncletopia"],"game_id":440,"stv_port":27056,"stv_name":"Uncletopia | London | 5 | All Maps | STV","players":[{"user_id":526,"name":"i fuckin hate spies","steam_id":76561199440272639,"connected_time":4855000000000,"state":"active","ping":164},{"user_id":529,"name":"monkey","steam_id":76561199001982443,"connected_time":3608000000000,"state":"active","ping":161}]},{"server_id":22,"name":"Uncletopia | London | 6 | All Maps","name_short":"lon-6","host":"lon-1.uk.uncletopia.com","port":27065,"enabled":true,"region":"eu","cc":"gb","latitude":51.509865,"longitude":-0.118092,"reserved":0,"last_update":"0001-01-01T00:00:00Z","name_a2s":"Uncletopia | London | 6 | All Maps","protocol":17,"map":"pl_swiftwater_final1","folder":"tf","game":"Team Fortress","app_id":440,"player_count":0,"max_players":24,"Bots":0,"server_type":"Dedicated","server_os":"Linux","password":true,"vac":true,"version":"7757534","steam_id":85568392924742830,"keywords":["nocrits","nodmgspread","payload","uncletopia"],"game_id":440,"stv_port":27066,"stv_name":"Uncletopia | London | 6 | All Maps | STV","players":null},{"server_id":40,"name":"Uncletopia | London | 7 | No Payload","name_short":"lon-7","host":"lon-1.uk.uncletopia.com","port":27075,"enabled":true,"region":"eu","cc":"gb","latitude":51.509865,"longitude":-0.118092,"reserved":0,"last_update":"0001-01-01T00:00:00Z","name_a2s":"Uncletopia | London | 7 | No Payload","protocol":17,"map":"koth_cascade","folder":"tf","game":"Team Fortress","app_id":440,"player_count":0,"max_players":24,"Bots":0,"server_type":"Dedicated","server_os":"Linux","password":true,"vac":true,"version":"7757534","steam_id":85568392924964314,"keywords":["cp","nocrits","nodmgspread","uncletopia"],"game_id":440,"stv_port":27076,"stv_name":"Uncletopia | London | 7 | No Payload | STV","players":null},{"server_id":41,"name":"Uncletopia | London | 8 | Community","name_short":"lon-8","host":"lon-1.uk.uncletopia.com","port":27085,"enabled":true,"region":"eu","cc":"gb","latitude":51.509865,"longitude":-0.118092,"reserved":0,"last_update":"0001-01-01T00:00:00Z","name_a2s":"Uncletopia | London | 8 | Community","protocol":17,"map":"workshop/koth_slaughter_rc1.ugc1712845210","folder":"tf","game":"Team Fortress","app_id":440,"player_count":0,"max_players":24,"Bots":0,"server_type":"Dedicated","server_os":"Linux","password":true,"vac":true,"version":"7757534","steam_id":85568392924964315,"keywords":["cp","nocrits","nodmgspread","uncletopia"],"game_id":440,"stv_port":27086,"stv_name":"Uncletopia | London | 8 | Community | STV","players":null},{"server_id":300,"name":"Uncletopia | Montréal | 1 | All Maps","name_short":"mtl-1","host":"mtl-1.ca.uncletopia.com","port":27015,"enabled":true,"region":"us-east","cc":"ca","latitude":45.50889,"longitude":-73.56167,"reserved":0,"last_update":"0001-01-01T00:00:00Z","name_a2s":"Uncletopia | Montréal | 1 | All Maps","protocol":17,"map":"cp_snakewater_final1","folder":"tf","game":"Team Fortress","app_id":440,"player_count":0,"max_players":24,"Bots":0,"server_type":"Dedicated","server_os":"Linux","password":true,"vac":true,"version":"7757534","steam_id":85568392924500087,"keywords":["cp","nocrits","nodmgspread","uncletopia"],"game_id":440,"stv_port":27016,"stv_name":"Uncletopia | Montréal | 1 | All Maps | STV","players":null},{"server_id":301,"name":"Uncletopia | Montréal | 2 | All Maps","name_short":"mtl-2","host":"mtl-1.ca.uncletopia.com","port":27025,"enabled":true,"region":"us-east","cc":"ca","latitude":45.50889,"longitude":-73.56167,"reserved":0,"last_update":"0001-01-01T00:00:00Z","name_a2s":"Uncletopia | Montréal | 2 | All Maps","protocol":17,"map":"cp_dustbowl","folder":"tf","game":"Team Fortress","app_id":440,"player_count":0,"max_players":24,"Bots":0,"server_type":"Dedicated","server_os":"Linux","password":true,"vac":true,"version":"7757534","steam_id":85568392924500088,"keywords":["cp","nocrits","nodmgspread","uncletopia"],"game_id":440,"stv_port":27026,"stv_name":"Uncletopia | Montréal | 2 | All Maps | STV","players":null},{"server_id":302,"name":"Uncletopia | Montréal | 3 | All Maps","name_short":"mtl-3","host":"mtl-1.ca.uncletopia.com","port":27035,"enabled":true,"region":"us-east","cc":"ca","latitude":45.50889,"longitude":-73.56167,"reserved":0,"last_update":"0001-01-01T00:00:00Z","name_a2s":"Uncletopia | Montréal | 3 | All Maps","protocol":17,"map":"cp_mountainlab","folder":"tf","game":"Team Fortress","app_id":440,"player_count":0,"max_players":24,"Bots":0,"server_type":"Dedicated","server_os":"Linux","password":true,"vac":true,"version":"7757534","steam_id":85568392924500089,"keywords":["cp","nocrits","nodmgspread","uncletopia"],"game_id":440,"stv_port":27036,"stv_name":"Uncletopia | Montréal | 3 | All Maps | STV","players":null},{"server_id":303,"name":"Uncletopia | Montréal | 4 | No Payload","name_short":"mtl-4","host":"mtl-1.ca.uncletopia.com","port":27045,"enabled":true,"region":"us-east","cc":"ca","latitude":45.50889,"longitude":-73.56167,"reserved":0,"last_update":"0001-01-01T00:00:00Z","name_a2s":"Uncletopia | Montréal | 4 | No Payload","protocol":17,"map":"koth_nucleus","folder":"tf","game":"Team Fortress","app_id":440,"player_count":0,"max_players":24,"Bots":0,"server_type":"Dedicated","server_os":"Linux","password":true,"vac":true,"version":"7757534","steam_id":85568392924500090,"keywords":["cp","nocrits","nodmgspread","uncletopia"],"game_id":440,"stv_port":27046,"stv_name":"Uncletopia | Montréal | 4 | No Payload | STV","players":null},{"server_id":13,"name":"Uncletopia | New York City | 1 | All Maps","name_short":"nyc-1","host":"nyc-1.us.uncletopia.com","port":27015,"enabled":true,"region":"us-east","cc":"us","latitude":40.73061,"longitude":-73.93524,"reserved":0,"last_update":"0001-01-01T00:00:00Z","name_a2s":"Uncletopia | New York City | 1 | All Maps","protocol":17,"map":"pl_badwater","folder":"tf","game":"Team Fortress","app_id":440,"player_count":23,"max_players":24,"Bots":0,"server_type":"Dedicated","server_os":"Linux","password":true,"vac":true,"version":"7757534","steam_id":85568392924469993,"keywords":["nocrits","nodmgspread","payload","uncletopia"],"game_id":440,"stv_port":27016,"stv_name":"Uncletopia | New York City | 1 | All Maps | STV","players":[{"user_id":613,"name":"His \u003c3","steam_id":76561198340685758,"connected_time":316000000000,"state":"active","ping":131},{"user_id":614,"name":"das poopenfarten","steam_id":76561197989849073,"connected_time":259000000000,"state":"active","ping":89},{"user_id":541,"name":"Hebonky","steam_id":76561199014257873,"connected_time":5586000000000,"state":"active","ping":97},{"user_id":564,"name":"Glass Joe","steam_id":76561198317365741,"connected_time":4703000000000,"state":"active","ping":67},{"user_id":619,"name":"GiraffeMan","steam_id":76561198042104084,"connected_time":221000000000,"state":"active","ping":58},{"user_id":615,"name":"Dr. Bong Ripper, MD","steam_id":76561198028893790,"connected_time":256000000000,"state":"active","ping":77},{"user_id":596,"name":"lil Spanksta","steam_id":76561198072735798,"connected_time":1069000000000,"state":"active","ping":70},{"user_id":597,"name":"The Kritical","steam_id":76561198071664978,"connected_time":1064000000000,"state":"active","ping":51},{"user_id":609,"name":"Uhonlapjontetzika","steam_id":76561199431280503,"connected_time":512000000000,"state":"active","ping":68},{"user_id":606,"name":"Dr.Long","steam_id":76561198930316713,"connected_time":566000000000,"state":"active","ping":85},{"user_id":616,"name":"sky.to16","steam_id":76561199211313763,"connected_time":249000000000,"state":"active","ping":46},{"user_id":625,"name":"horny eyelander femboy","steam_id":76561198164986938,"connected_time":108000000000,"state":"active","ping":61},{"user_id":599,"name":"bikerkid207","steam_id":76561198390782783,"connected_time":1035000000000,"state":"active","ping":57},{"user_id":429,"name":"FrumpyGoldsmith","steam_id":76561199036534127,"connected_time":17430000000000,"state":"active","ping":83},{"user_id":618,"name":"Jojoba 🐹","steam_id":76561198262218456,"connected_time":235000000000,"state":"active","ping":59},{"user_id":611,"name":"British Rage","steam_id":76561198009585209,"connected_time":438000000000,"state":"active","ping":126},{"user_id":620,"name":"AmySuneku","steam_id":76561198205051269,"connected_time":220000000000,"state":"active","ping":105},{"user_id":622,"name":"A Puppy","steam_id":76561198828184456,"connected_time":160000000000,"state":"active","ping":46},{"user_id":589,"name":"gib b","steam_id":76561198048425690,"connected_time":1674000000000,"state":"active","ping":67},{"user_id":623,"name":"Johnny Esports","steam_id":76561198115812405,"connected_time":156000000000,"state":"active","ping":63},{"user_id":624,"name":"pest","steam_id":76561198052571208,"connected_time":129000000000,"state":"active","ping":45},{"user_id":612,"name":"Monkey","steam_id":76561198031015186,"connected_time":434000000000,"state":"active","ping":68},{"user_id":561,"name":"Dumb Fat Owl","steam_id":76561198298100939,"connected_time":5044000000000,"state":"active","ping":66}]},{"server_id":14,"name":"Uncletopia | New York City | 2 | All Maps","name_short":"nyc-2","host":"nyc-1.us.uncletopia.com","port":27025,"enabled":true,"region":"us-east","cc":"us","latitude":40.73061,"longitude":-73.93524,"reserved":0,"last_update":"0001-01-01T00:00:00Z","name_a2s":"Uncletopia | New York City | 2 | All Maps","protocol":17,"map":"pl_barnblitz","folder":"tf","game":"Team Fortress","app_id":440,"player_count":24,"max_players":24,"Bots":0,"server_type":"Dedicated","server_os":"Linux","password":true,"vac":true,"version":"7757534","steam_id":85568392924469994,"keywords":["nocrits","nodmgspread","payload","uncletopia"],"game_id":440,"stv_port":27026,"stv_name":"Uncletopia | New York City | 2 | All Maps | STV","players":[{"user_id":657,"name":"High Medic","steam_id":76561198082405984,"connected_time":7035000000000,"state":"active","ping":69},{"user_id":680,"name":"Deterrent","steam_id":76561198256763734,"connected_time":4003000000000,"state":"active","ping":60},{"user_id":678,"name":"2006 Chevy Cobalt","steam_id":76561198211257547,"connected_time":4285000000000,"state":"active","ping":71},{"user_id":622,"name":"natman_22","steam_id":76561198203353284,"connected_time":9553000000000,"state":"active","ping":85},{"user_id":720,"name":"xLIL GRYPHONx","steam_id":76561199053963536,"connected_time":328000000000,"state":"active","ping":90},{"user_id":623,"name":"YungChefMingus","steam_id":76561198087122048,"connected_time":9553000000000,"state":"active","ping":59},{"user_id":714,"name":"gromit","steam_id":76561198037746805,"connected_time":1546000000000,"state":"active","ping":69},{"user_id":710,"name":"James","steam_id":76561198055687973,"connected_time":1673000000000,"state":"active","ping":72},{"user_id":718,"name":"Orange Joe","steam_id":76561198082208637,"connected_time":812000000000,"state":"active","ping":71},{"user_id":685,"name":"Toxapex (Poisoning your pizza)","steam_id":76561198913572581,"connected_time":3280000000000,"state":"active","ping":46},{"user_id":682,"name":"speck","steam_id":76561198147107736,"connected_time":3876000000000,"state":"active","ping":57},{"user_id":700,"name":"Quaker Oats","steam_id":76561197992800293,"connected_time":2562000000000,"state":"active","ping":94},{"user_id":711,"name":"ClericsRose","steam_id":76561198011013806,"connected_time":1613000000000,"state":"active","ping":73},{"user_id":686,"name":"girlpeen supreme","steam_id":76561198031242903,"connected_time":3250000000000,"state":"active","ping":86},{"user_id":712,"name":"Candy Sparkles","steam_id":76561198126871264,"connected_time":1605000000000,"state":"active","ping":81},{"user_id":719,"name":"Maxley","steam_id":76561198148602225,"connected_time":812000000000,"state":"active","ping":83},{"user_id":716,"name":"3713biggest:bug:FEAR:IT","steam_id":76561198126386686,"connected_time":1416000000000,"state":"active","ping":71},{"user_id":704,"name":"God","steam_id":76561198148447846,"connected_time":2128000000000,"state":"active","ping":130},{"user_id":722,"name":"Grundle Thunder","steam_id":76561197960790338,"connected_time":101000000000,"state":"active","ping":60},{"user_id":715,"name":"baklava","steam_id":76561198124591302,"connected_time":1532000000000,"state":"active","ping":58},{"user_id":677,"name":"drdoofus123","steam_id":76561198016826181,"connected_time":4812000000000,"state":"active","ping":61},{"user_id":708,"name":"AndrewTatesBugatti","steam_id":76561198036162718,"connected_time":1900000000000,"state":"active","ping":41},{"user_id":709,"name":"Vidar","steam_id":76561198004357842,"connected_time":1804000000000,"state":"active","ping":87},{"user_id":632,"name":"Pennis the Menace","steam_id":76561198254878037,"connected_time":9373000000000,"state":"active","ping":119}]},{"server_id":15,"name":"Uncletopia | New York City | 3 | Stopwatch Beta","name_short":"nyc-3","host":"nyc-1.us.uncletopia.com","port":27035,"enabled":true,"region":"us-east","cc":"us","latitude":40.73061,"longitude":-73.93524,"reserved":0,"last_update":"0001-01-01T00:00:00Z","name_a2s":"Uncletopia | New York City | 3 | Stopwatch Beta","protocol":17,"map":"koth_highpass","folder":"tf","game":"Team Fortress","app_id":440,"player_count":0,"max_players":24,"Bots":0,"server_type":"Dedicated","server_os":"Linux","password":true,"vac":true,"version":"7757534","steam_id":85568392924742820,"keywords":["cp","nocrits","nodmgspread","uncletopia"],"game_id":440,"stv_port":27036,"stv_name":"Uncletopia | New York City | 3 | Stopwatch Beta | STV","players":null},{"server_id":16,"name":"Uncletopia | New York City | 4 | Community","name_short":"nyc-4","host":"nyc-1.us.uncletopia.com","port":27045,"enabled":true,"region":"us-east","cc":"us","latitude":40.73061,"longitude":-73.93524,"reserved":0,"last_update":"0001-01-01T00:00:00Z","name_a2s":"Uncletopia | New York City | 4 | Community","protocol":17,"map":"workshop/pl_cashworks_final1.ugc2904065412","folder":"tf","game":"Team Fortress","app_id":440,"player_count":0,"max_players":24,"Bots":0,"server_type":"Dedicated","server_os":"Linux","password":true,"vac":true,"version":"7757534","steam_id":85568392924742821,"keywords":["nocrits","nodmgspread","payload","uncletopia"],"game_id":440,"stv_port":27046,"stv_name":"Uncletopia | New York City | 4 | Community | STV","players":null},{"server_id":142,"name":"Uncletopia | São Paulo | 1 | All Maps","name_short":"sao-1","host":"sao-1.br.uncletopia.com","port":27015,"enabled":true,"region":"sa","cc":"br","latitude":-23.533773,"longitude":-46.62529,"reserved":0,"last_update":"0001-01-01T00:00:00Z","name_a2s":"Uncletopia | São Paulo | 1 | All Maps","protocol":17,"map":"pl_barnblitz","folder":"tf","game":"Team Fortress","app_id":440,"player_count":0,"max_players":24,"Bots":0,"server_type":"Dedicated","server_os":"Linux","password":true,"vac":true,"version":"7757534","steam_id":85568392924469996,"keywords":["nocrits","nodmgspread","payload","uncletopia"],"game_id":440,"stv_port":27016,"stv_name":"Uncletopia | São Paulo | 1 | All Maps | STV","players":null},{"server_id":143,"name":"Uncletopia | São Paulo | 2 | All Maps","name_short":"sao-2","host":"sao-2.br.uncletopia.com","port":27015,"enabled":true,"region":"sa","cc":"br","latitude":-23.533773,"longitude":-46.62529,"reserved":0,"last_update":"0001-01-01T00:00:00Z","name_a2s":"Uncletopia | São Paulo | 2 | All Maps","protocol":17,"map":"pl_badwater","folder":"tf","game":"Team Fortress","app_id":440,"player_count":0,"max_players":24,"Bots":0,"server_type":"Dedicated","server_os":"Linux","password":true,"vac":true,"version":"7757534","steam_id":85568392924485349,"keywords":["nocrits","nodmgspread","payload","uncletopia"],"game_id":440,"stv_port":27016,"stv_name":"Uncletopia | São Paulo | 2 | All Maps | STV","players":null},{"server_id":7,"name":"Uncletopia | Seattle | 1 | All Maps","name_short":"sea-1","host":"sea-1.us.uncletopia.com","port":27015,"enabled":true,"region":"us-west","cc":"us","latitude":47.608013,"longitude":-122.33517,"reserved":0,"last_update":"0001-01-01T00:00:00Z","name_a2s":"Uncletopia | Seattle | 1 | All Maps","protocol":17,"map":"pl_frontier_final","folder":"tf","game":"Team Fortress","app_id":440,"player_count":24,"max_players":24,"Bots":0,"server_type":"Dedicated","server_os":"Linux","password":true,"vac":true,"version":"7757534","steam_id":85568392924469997,"keywords":["nocrits","nodmgspread","payload","uncletopia"],"game_id":440,"stv_port":27016,"stv_name":"Uncletopia | Seattle | 1 | All Maps | STV","players":[{"user_id":610,"name":"🎄AndreaJingling🎄","steam_id":76561198198658783,"connected_time":3844000000000,"state":"active","ping":68},{"user_id":643,"name":"blizz","steam_id":76561199139715539,"connected_time":1094000000000,"state":"active","ping":57},{"user_id":624,"name":"strange","steam_id":76561198396870470,"connected_time":3574000000000,"state":"active","ping":62},{"user_id":635,"name":"Reindmoz","steam_id":76561199102502069,"connected_time":2068000000000,"state":"active","ping":648},{"user_id":606,"name":"Gary, 40, soul sucking 9-5","steam_id":76561198073812888,"connected_time":4681000000000,"state":"active","ping":53},{"user_id":641,"name":"Bendidy","steam_id":76561198041964300,"connected_time":1205000000000,"state":"active","ping":84},{"user_id":640,"name":"Steve","steam_id":76561198352805460,"connected_time":1517000000000,"state":"active","ping":68},{"user_id":604,"name":"Strikerbolt","steam_id":76561199095622897,"connected_time":5577000000000,"state":"active","ping":87},{"user_id":651,"name":"48","steam_id":76561198894676484,"connected_time":741000000000,"state":"active","ping":82},{"user_id":605,"name":"eldin","steam_id":76561198292352586,"connected_time":5393000000000,"state":"active","ping":54},{"user_id":631,"name":"s0da","steam_id":76561198882033703,"connected_time":2248000000000,"state":"active","ping":130},{"user_id":659,"name":"Qas","steam_id":76561198067564482,"connected_time":287000000000,"state":"active","ping":84},{"user_id":633,"name":"BasedGod","steam_id":76561198061177973,"connected_time":2238000000000,"state":"active","ping":61},{"user_id":552,"name":"rat gets the cheese","steam_id":76561198031234032,"connected_time":11372000000000,"state":"active","ping":101},{"user_id":560,"name":"〣dust〣 -she/her-","steam_id":76561198045218909,"connected_time":10485000000000,"state":"active","ping":43},{"user_id":591,"name":"Jarvendis","steam_id":76561198056583581,"connected_time":6827000000000,"state":"active","ping":86},{"user_id":658,"name":"SAP","steam_id":76561198005186905,"connected_time":290000000000,"state":"active","ping":57},{"user_id":566,"name":"jacix3 [gay wolfgirl]{she/it}","steam_id":76561198205004165,"connected_time":9530000000000,"state":"active","ping":68},{"user_id":603,"name":"Tom Skirrett","steam_id":76561198014600788,"connected_time":5628000000000,"state":"active","ping":87},{"user_id":611,"name":"bbbbb","steam_id":76561198095480838,"connected_time":3840000000000,"state":"active","ping":48},{"user_id":654,"name":"blinkerton city","steam_id":76561198054270410,"connected_time":596000000000,"state":"active","ping":55},{"user_id":621,"name":"KingTinkerer","steam_id":76561198226856548,"connected_time":3768000000000,"state":"active","ping":78},{"user_id":663,"name":"p9 Doctor™","steam_id":76561198134309750,"connected_time":35000000000,"state":"spawning","ping":538},{"user_id":645,"name":"Vile","steam_id":76561198085615710,"connected_time":984000000000,"state":"active","ping":93}]},{"server_id":119,"name":"Uncletopia | Seattle | 2 | All Maps","name_short":"sea-2","host":"sea-1.us.uncletopia.com","port":27025,"enabled":true,"region":"us-west","cc":"us","latitude":47.608013,"longitude":-122.33517,"reserved":0,"last_update":"0001-01-01T00:00:00Z","name_a2s":"Uncletopia | Seattle | 2 | All Maps","protocol":17,"map":"pl_upward","folder":"tf","game":"Team Fortress","app_id":440,"player_count":24,"max_players":24,"Bots":0,"server_type":"Dedicated","server_os":"Linux","password":true,"vac":true,"version":"7757534","steam_id":85568392924469998,"keywords":["nocrits","nodmgspread","payload","uncletopia"],"game_id":440,"stv_port":27026,"stv_name":"Uncletopia | Seattle | 2 | All Maps | STV","players":[{"user_id":792,"name":"The Muffin Man","steam_id":76561199088286427,"connected_time":147000000000,"state":"active","ping":54},{"user_id":776,"name":"autumnal.messenger","steam_id":76561199345816635,"connected_time":1016000000000,"state":"active","ping":54},{"user_id":772,"name":"mommy","steam_id":76561198129195009,"connected_time":1064000000000,"state":"active","ping":66},{"user_id":783,"name":"Mom","steam_id":76561198207936000,"connected_time":916000000000,"state":"active","ping":58},{"user_id":721,"name":"Sir Galahad","steam_id":76561198195999859,"connected_time":3861000000000,"state":"active","ping":53},{"user_id":794,"name":"Immunized","steam_id":76561197985889870,"connected_time":51000000000,"state":"active","ping":39},{"user_id":779,"name":"Toastedtoast222","steam_id":76561198120756409,"connected_time":982000000000,"state":"active","ping":61},{"user_id":784,"name":"ikola","steam_id":76561198841721149,"connected_time":875000000000,"state":"active","ping":74},{"user_id":724,"name":"Hindmost","steam_id":76561199081837220,"connected_time":3734000000000,"state":"active","ping":114},{"user_id":789,"name":"LazyRat","steam_id":76561198014066794,"connected_time":438000000000,"state":"active","ping":90},{"user_id":777,"name":"BurningPride","steam_id":76561198080592800,"connected_time":1013000000000,"state":"active","ping":100},{"user_id":785,"name":"Ivy","steam_id":76561198047758442,"connected_time":857000000000,"state":"active","ping":115},{"user_id":786,"name":"R33se","steam_id":76561198296531992,"connected_time":835000000000,"state":"active","ping":101},{"user_id":767,"name":"em","steam_id":76561198000208873,"connected_time":1108000000000,"state":"active","ping":55},{"user_id":790,"name":"Jkbh1","steam_id":76561198093449670,"connected_time":425000000000,"state":"active","ping":111},{"user_id":774,"name":"Waylavon","steam_id":76561198383701590,"connected_time":1021000000000,"state":"active","ping":55},{"user_id":788,"name":"Lonestar827","steam_id":76561198035533639,"connected_time":448000000000,"state":"active","ping":56},{"user_id":775,"name":"enolteiii","steam_id":76561198140843225,"connected_time":1020000000000,"state":"active","ping":104},{"user_id":793,"name":"Akira","steam_id":76561198294601519,"connected_time":135000000000,"state":"active","ping":39},{"user_id":795,"name":"Scut","steam_id":76561198973734291,"connected_time":13000000000,"state":"active","ping":115},{"user_id":778,"name":"jameson(Noot Noot)","steam_id":76561198232209124,"connected_time":1007000000000,"state":"active","ping":57},{"user_id":781,"name":"goldhed","steam_id":76561198051751133,"connected_time":956000000000,"state":"active","ping":58},{"user_id":782,"name":"The dreaded jar","steam_id":76561199087010656,"connected_time":946000000000,"state":"active","ping":63},{"user_id":701,"name":"mooney","steam_id":76561199110622484,"connected_time":6765000000000,"state":"active","ping":60}]},{"server_id":406,"name":"Uncletopia | Seattle | 3 | Stopwatch Beta","name_short":"sea-3","host":"sea-1.us.uncletopia.com","port":27035,"enabled":true,"region":"us-west","cc":"us","latitude":47.608013,"longitude":-122.33517,"reserved":0,"last_update":"0001-01-01T00:00:00Z","name_a2s":"Uncletopia | Seattle | 3 | Stopwatch Beta","protocol":17,"map":"workshop/koth_product_final.ugc454272353","folder":"tf","game":"Team Fortress","app_id":440,"player_count":6,"max_players":24,"Bots":0,"server_type":"Dedicated","server_os":"Linux","password":true,"vac":true,"version":"7757534","steam_id":85568392924515217,"keywords":["cp","nocrits","nodmgspread","uncletopia"],"game_id":440,"stv_port":27036,"stv_name":"Uncletopia | Seattle | 3 | Stopwatch Beta | STV","players":[{"user_id":208,"name":"Lil' Urban Achiever","steam_id":76561197970450546,"connected_time":109000000000,"state":"active","ping":55},{"user_id":206,"name":"marky","steam_id":76561198424145528,"connected_time":557000000000,"state":"active","ping":114},{"user_id":209,"name":"OH JIMMY I'M HOME #SaveTf2","steam_id":76561198396658806,"connected_time":91000000000,"state":"active","ping":86},{"user_id":203,"name":"eryn 🗺","steam_id":76561198004433070,"connected_time":696000000000,"state":"active","ping":104},{"user_id":205,"name":"gavingamer1776","steam_id":76561198448059707,"connected_time":603000000000,"state":"active","ping":123},{"user_id":188,"name":"barrack omama","steam_id":76561199180441047,"connected_time":1930000000000,"state":"active","ping":45}]},{"server_id":17,"name":"Uncletopia | San Francisco | 1 | All Maps","name_short":"sfo-1","host":"sfo-1.us.uncletopia.com","port":27015,"enabled":true,"region":"us-west","cc":"us","latitude":37.77397,"longitude":-122.4313,"reserved":0,"last_update":"0001-01-01T00:00:00Z","name_a2s":"Uncletopia | San Francisco | 1 | All Maps","protocol":17,"map":"koth_lakeside_final","folder":"tf","game":"Team Fortress","app_id":440,"player_count":0,"max_players":24,"Bots":0,"server_type":"Dedicated","server_os":"Linux","password":true,"vac":true,"version":"7757534","steam_id":85568392924469999,"keywords":["cp","nocrits","nodmgspread","uncletopia"],"game_id":440,"stv_port":27016,"stv_name":"Uncletopia | San Francisco | 1 | All Maps | STV","players":null},{"server_id":18,"name":"Uncletopia | San Francisco | 2 | All Maps","name_short":"sfo-2","host":"sfo-1.us.uncletopia.com","port":27025,"enabled":true,"region":"us-west","cc":"us","latitude":37.77397,"longitude":-122.4313,"reserved":0,"last_update":"0001-01-01T00:00:00Z","name_a2s":"Uncletopia | San Francisco | 2 | All Maps","protocol":17,"map":"cp_steel","folder":"tf","game":"Team Fortress","app_id":440,"player_count":0,"max_players":24,"Bots":0,"server_type":"Dedicated","server_os":"Linux","password":true,"vac":true,"version":"7757534","steam_id":85568392924470000,"keywords":["cp","nocrits","nodmgspread","uncletopia"],"game_id":440,"stv_port":27026,"stv_name":"Uncletopia | San Francisco | 2 | All Maps | STV","players":null},{"server_id":19,"name":"Uncletopia | San Francisco | 3 | Stopwatch Beta","name_short":"sfo-3","host":"sfo-1.us.uncletopia.com","port":27035,"enabled":true,"region":"us-west","cc":"us","latitude":37.77397,"longitude":-122.4313,"reserved":0,"last_update":"0001-01-01T00:00:00Z","name_a2s":"Uncletopia | San Francisco | 3 | Stopwatch Beta","protocol":17,"map":"pl_borneo","folder":"tf","game":"Team Fortress","app_id":440,"player_count":0,"max_players":24,"Bots":0,"server_type":"Dedicated","server_os":"Linux","password":true,"vac":true,"version":"7757534","steam_id":85568392924742824,"keywords":["nocrits","nodmgspread","payload","uncletopia"],"game_id":440,"stv_port":27036,"stv_name":"Uncletopia | San Francisco | 3 | Stopwatch Beta | STV","players":null},{"server_id":20,"name":"Uncletopia | San Francisco | 4 | Community","name_short":"sfo-4","host":"sfo-1.us.uncletopia.com","port":27045,"enabled":true,"region":"us-west","cc":"us","latitude":37.77397,"longitude":-122.4313,"reserved":0,"last_update":"0001-01-01T00:00:00Z","name_a2s":"Uncletopia | San Francisco | 4 | Community","protocol":17,"map":"workshop/koth_kemptown_rc1.ugc767410655","folder":"tf","game":"Team Fortress","app_id":440,"player_count":5,"max_players":24,"Bots":0,"server_type":"Dedicated","server_os":"Linux","password":true,"vac":true,"version":"7757534","steam_id":85568392924742826,"keywords":["cp","nocrits","nodmgspread","uncletopia"],"game_id":440,"stv_port":27046,"stv_name":"Uncletopia | San Francisco | 4 | Community | STV","players":[{"user_id":290,"name":"p9 jorts","steam_id":76561199041179985,"connected_time":629000000000,"state":"active","ping":74},{"user_id":291,"name":"rorywashere /ᐠ - ˕ -マ Ⳋ","steam_id":76561198065825165,"connected_time":628000000000,"state":"active","ping":103},{"user_id":292,"name":"wallet wont fold","steam_id":76561198169755734,"connected_time":592000000000,"state":"active","ping":45},{"user_id":296,"name":"elixir mixer","steam_id":76561198131166135,"connected_time":13000000000,"state":"active","ping":58},{"user_id":294,"name":"NEBULA","steam_id":76561198086878595,"connected_time":568000000000,"state":"active","ping":54}]},{"server_id":141,"name":"Uncletopia | Sydney | 1 | All Maps","name_short":"syd-1","host":"syd-1.au.uncletopia.com","port":27015,"enabled":true,"region":"au","cc":"au","latitude":-33.865143,"longitude":151.2099,"reserved":0,"last_update":"0001-01-01T00:00:00Z","name_a2s":"Uncletopia | Sydney | 1 | All Maps","protocol":17,"map":"pl_barnblitz","folder":"tf","game":"Team Fortress","app_id":440,"player_count":10,"max_players":24,"Bots":0,"server_type":"Dedicated","server_os":"Linux","password":true,"vac":true,"version":"7757534","steam_id":85568392924470001,"keywords":["nocrits","nodmgspread","payload","uncletopia"],"game_id":440,"stv_port":27016,"stv_name":"Uncletopia | Sydney | 1 | All Maps | STV","players":[{"user_id":302,"name":"Peteydog","steam_id":76561198376474981,"connected_time":1317000000000,"state":"active","ping":31},{"user_id":304,"name":"( ͡° ͜ʖ ͡°)","steam_id":76561199262196710,"connected_time":975000000000,"state":"active","ping":43},{"user_id":305,"name":"Sinister80s","steam_id":76561198343540472,"connected_time":655000000000,"state":"active","ping":69},{"user_id":306,"name":"coopズ彡し","steam_id":76561199015946981,"connected_time":518000000000,"state":"active","ping":45},{"user_id":307,"name":"france gaming","steam_id":76561199221851578,"connected_time":514000000000,"state":"active","ping":54},{"user_id":308,"name":"The Bisoneer TF2","steam_id":76561199446773766,"connected_time":484000000000,"state":"active","ping":88},{"user_id":309,"name":"Weaponized Toaster","steam_id":76561199258618831,"connected_time":411000000000,"state":"active","ping":60},{"user_id":312,"name":"Empr","steam_id":76561198024387396,"connected_time":216000000000,"state":"active","ping":65},{"user_id":313,"name":"mush","steam_id":76561198446126519,"connected_time":178000000000,"state":"active","ping":46},{"user_id":314,"name":"cimpact","steam_id":76561198452258917,"connected_time":166000000000,"state":"active","ping":101}]},{"server_id":123,"name":"Uncletopia | Sydney | 2 | All Maps","name_short":"syd-2","host":"syd-1.au.uncletopia.com","port":27025,"enabled":true,"region":"au","cc":"au","latitude":-33.865143,"longitude":151.2099,"reserved":0,"last_update":"0001-01-01T00:00:00Z","name_a2s":"Uncletopia | Sydney | 2 | All Maps","protocol":17,"map":"pl_badwater","folder":"tf","game":"Team Fortress","app_id":440,"player_count":23,"max_players":24,"Bots":0,"server_type":"Dedicated","server_os":"Linux","password":true,"vac":true,"version":"7757534","steam_id":85568392924470002,"keywords":["nocrits","nodmgspread","payload","uncletopia"],"game_id":440,"stv_port":27026,"stv_name":"Uncletopia | Sydney | 2 | All Maps | STV","players":[{"user_id":51,"name":"blortzoing","steam_id":76561198063481761,"connected_time":3102000000000,"state":"active","ping":43},{"user_id":42,"name":"SUSHIMAN","steam_id":76561199089989428,"connected_time":4090000000000,"state":"active","ping":88},{"user_id":82,"name":"中国eshay沉迷于可卡因 :","steam_id":76561198442198135,"connected_time":342000000000,"state":"active","ping":52},{"user_id":44,"name":"vile creature","steam_id":76561198048064049,"connected_time":4009000000000,"state":"active","ping":83},{"user_id":16,"name":"steame17","steam_id":76561199387872784,"connected_time":5244000000000,"state":"active","ping":173},{"user_id":58,"name":"CouldBeKarlos","steam_id":76561198956180767,"connected_time":2383000000000,"state":"active","ping":50},{"user_id":83,"name":"Zeron","steam_id":76561198125778202,"connected_time":335000000000,"state":"active","ping":51},{"user_id":84,"name":"Noble Chernobyl","steam_id":76561198011803825,"connected_time":335000000000,"state":"active","ping":55},{"user_id":85,"name":"JohnJohnVonJohn","steam_id":76561199037714979,"connected_time":311000000000,"state":"active","ping":60},{"user_id":81,"name":"rastaFROG730","steam_id":76561198058812647,"connected_time":356000000000,"state":"active","ping":45},{"user_id":22,"name":"SinisterMagnus","steam_id":76561198133867907,"connected_time":5066000000000,"state":"active","ping":103},{"user_id":77,"name":"Not A F2P","steam_id":76561198376756608,"connected_time":995000000000,"state":"active","ping":59},{"user_id":87,"name":"Owlenstein™","steam_id":76561198093983826,"connected_time":193000000000,"state":"active","ping":118},{"user_id":56,"name":"Ponderosa","steam_id":76561199436707447,"connected_time":2582000000000,"state":"active","ping":52},{"user_id":60,"name":"primal","steam_id":76561198257852006,"connected_time":2378000000000,"state":"active","ping":64},{"user_id":69,"name":"TW_light2022","steam_id":76561199393566784,"connected_time":1610000000000,"state":"active","ping":61},{"user_id":32,"name":"Mud","steam_id":76561198025524712,"connected_time":4367000000000,"state":"active","ping":46},{"user_id":33,"name":"soupy","steam_id":76561198073734936,"connected_time":4352000000000,"state":"active","ping":90},{"user_id":80,"name":"yarbinator","steam_id":76561198204678828,"connected_time":366000000000,"state":"active","ping":51},{"user_id":88,"name":"hendog","steam_id":76561198063477445,"connected_time":152000000000,"state":"active","ping":71},{"user_id":86,"name":"Reedy","steam_id":76561198155994395,"connected_time":269000000000,"state":"active","ping":71},{"user_id":49,"name":"Rhysand4rch","steam_id":76561199065212827,"connected_time":3454000000000,"state":"active","ping":106},{"user_id":53,"name":"Breakfast","steam_id":76561197971620881,"connected_time":2989000000000,"state":"active","ping":64}]},{"server_id":395,"name":"Uncletopia | Sydney | 3 | All Maps","name_short":"syd-3","host":"syd-1.au.uncletopia.com","port":27035,"enabled":true,"region":"au","cc":"au","latitude":-33.865143,"longitude":151.2099,"reserved":0,"last_update":"0001-01-01T00:00:00Z","name_a2s":"Uncletopia | Sydney | 3 | All Maps","protocol":17,"map":"cp_snakewater_final1","folder":"tf","game":"Team Fortress","app_id":440,"player_count":0,"max_players":24,"Bots":0,"server_type":"Dedicated","server_os":"Linux","password":true,"vac":true,"version":"7757534","steam_id":85568392925194467,"keywords":["cp","nocrits","nodmgspread","uncletopia"],"game_id":440,"stv_port":27036,"stv_name":"Uncletopia | Sydney | 3 | All Maps | STV","players":null},{"server_id":396,"name":"Uncletopia | Sydney | 4 | All Maps","name_short":"syd-4","host":"syd-1.au.uncletopia.com","port":27045,"enabled":true,"region":"au","cc":"au","latitude":-33.865143,"longitude":151.2099,"reserved":0,"last_update":"0001-01-01T00:00:00Z","name_a2s":"Uncletopia | Sydney | 4 | All Maps","protocol":17,"map":"koth_lakeside_final","folder":"tf","game":"Team Fortress","app_id":440,"player_count":0,"max_players":24,"Bots":0,"server_type":"Dedicated","server_os":"Linux","password":true,"vac":true,"version":"7757534","steam_id":85568392925397958,"keywords":["cp","nocrits","nodmgspread","uncletopia"],"game_id":440,"stv_port":27046,"stv_name":"Uncletopia | Sydney | 4 | All Maps | STV","players":null},{"server_id":58,"name":"Uncletopia | Sydney | 5 | Stopwatch Beta","name_short":"syd-5","host":"syd-1.au.uncletopia.com","port":27055,"enabled":true,"region":"au","cc":"au","latitude":-33.865143,"longitude":151.2099,"reserved":0,"last_update":"0001-01-01T00:00:00Z","name_a2s":"Uncletopia | Sydney | 5 | Stopwatch Beta","protocol":17,"map":"koth_lakeside_final","folder":"tf","game":"Team Fortress","app_id":440,"player_count":0,"max_players":24,"Bots":0,"server_type":"Dedicated","server_os":"Linux","password":true,"vac":true,"version":"7757534","steam_id":85568392925397959,"keywords":["cp","nocrits","nodmgspread","uncletopia"],"game_id":440,"stv_port":27056,"stv_name":"Uncletopia | Sydney | 5 | Stopwatch Beta | STV","players":null},{"server_id":59,"name":"Uncletopia | Sydney | 6 | Community","name_short":"syd-6","host":"syd-1.au.uncletopia.com","port":27065,"enabled":true,"region":"au","cc":"au","latitude":-33.865143,"longitude":151.2099,"reserved":0,"last_update":"0001-01-01T00:00:00Z","name_a2s":"Uncletopia | Sydney | 6 | Community","protocol":17,"map":"cp_sunshine","folder":"tf","game":"Team Fortress","app_id":440,"player_count":0,"max_players":24,"Bots":0,"server_type":"Dedicated","server_os":"Linux","password":true,"vac":true,"version":"7757534","steam_id":85568392925397960,"keywords":["cp","nocrits","nodmgspread","uncletopia"],"game_id":440,"stv_port":27066,"stv_name":"Uncletopia | Sydney | 6 | Community | STV","players":null},{"server_id":49,"name":"Uncletopia | Warsaw | 1 | All Maps","name_short":"waw-1","host":"waw-1.pl.uncletopia.com","port":27015,"enabled":true,"region":"eu","cc":"pl","latitude":52.2297,"longitude":21.017532,"reserved":0,"last_update":"0001-01-01T00:00:00Z","name_a2s":"","protocol":0,"map":"","folder":"","game":"","app_id":0,"player_count":0,"max_players":0,"Bots":0,"server_type":"","server_os":"","password":false,"vac":false,"version":"","steam_id":0,"keywords":null,"game_id":0,"stv_port":0,"stv_name":"","players":null},{"server_id":50,"name":"Uncletopia | Warsaw | 2 | All Maps","name_short":"waw-2","host":"waw-1.pl.uncletopia.com","port":27025,"enabled":true,"region":"eu","cc":"pl","latitude":52.2297,"longitude":21.017532,"reserved":0,"last_update":"0001-01-01T00:00:00Z","name_a2s":"Uncletopia | Warsaw | 2 | All Maps","protocol":17,"map":"cp_process_final","folder":"tf","game":"Team Fortress","app_id":440,"player_count":0,"max_players":24,"Bots":0,"server_type":"Dedicated","server_os":"Linux","password":true,"vac":true,"version":"7757534","steam_id":85568392925397851,"keywords":["cp","nocrits","nodmgspread","uncletopia"],"game_id":440,"stv_port":27026,"stv_name":"Uncletopia | Warsaw | 2 | All Maps | STV","players":null},{"server_id":51,"name":"Uncletopia | Warsaw | 3 | All Maps","name_short":"waw-3","host":"waw-1.pl.uncletopia.com","port":27035,"enabled":true,"region":"eu","cc":"pl","latitude":52.2297,"longitude":21.017532,"reserved":0,"last_update":"0001-01-01T00:00:00Z","name_a2s":"Uncletopia | Warsaw | 3 | All Maps","protocol":17,"map":"pl_barnblitz","folder":"tf","game":"Team Fortress","app_id":440,"player_count":0,"max_players":24,"Bots":0,"server_type":"Dedicated","server_os":"Linux","password":true,"vac":true,"version":"7757534","steam_id":85568392925397852,"keywords":["nocrits","nodmgspread","payload","uncletopia"],"game_id":440,"stv_port":27036,"stv_name":"Uncletopia | Warsaw | 3 | All Maps | STV","players":null},{"server_id":52,"name":"Uncletopia | Warsaw | 4 | All Maps","name_short":"waw-4","host":"waw-1.pl.uncletopia.com","port":27045,"enabled":true,"region":"eu","cc":"pl","latitude":52.2297,"longitude":21.017532,"reserved":0,"last_update":"0001-01-01T00:00:00Z","name_a2s":"Uncletopia | Warsaw | 4 | All Maps","protocol":17,"map":"pl_snowycoast","folder":"tf","game":"Team Fortress","app_id":440,"player_count":0,"max_players":24,"Bots":0,"server_type":"Dedicated","server_os":"Linux","password":true,"vac":true,"version":"7757534","steam_id":85568392925397853,"keywords":["nocrits","nodmgspread","payload","uncletopia"],"game_id":440,"stv_port":27046,"stv_name":"Uncletopia | Warsaw | 4 | All Maps | STV","players":null},{"server_id":53,"name":"Uncletopia | Warsaw | 5 | Stopwatch Beta","name_short":"waw-5","host":"waw-1.pl.uncletopia.com","port":27055,"enabled":true,"region":"eu","cc":"pl","latitude":52.2297,"longitude":21.017532,"reserved":0,"last_update":"0001-01-01T00:00:00Z","name_a2s":"Uncletopia | Warsaw | 5 | Stopwatch Beta","protocol":17,"map":"pl_barnblitz","folder":"tf","game":"Team Fortress","app_id":440,"player_count":0,"max_players":24,"Bots":0,"server_type":"Dedicated","server_os":"Linux","password":true,"vac":true,"version":"7757534","steam_id":85568392925397854,"keywords":["nocrits","nodmgspread","payload","uncletopia"],"game_id":440,"stv_port":27056,"stv_name":"Uncletopia | Warsaw | 5 | Stopwatch Beta | STV","players":null},{"server_id":54,"name":"Uncletopia | Warsaw | 6 | Community","name_short":"waw-6","host":"waw-1.pl.uncletopia.com","port":27065,"enabled":true,"region":"eu","cc":"pl","latitude":52.2297,"longitude":21.017532,"reserved":0,"last_update":"0001-01-01T00:00:00Z","name_a2s":"Uncletopia | Warsaw | 6 | Community","protocol":17,"map":"pl_swiftwater_final1","folder":"tf","game":"Team Fortress","app_id":440,"player_count":0,"max_players":24,"Bots":0,"server_type":"Dedicated","server_os":"Linux","password":true,"vac":true,"version":"7757534","steam_id":85568392925397856,"keywords":["nocrits","nodmgspread","payload","uncletopia"],"game_id":440,"stv_port":27066,"stv_name":"Uncletopia | Warsaw | 6 | Community | STV","players":null}]}