{"status":true,"message":"","result":[{"server_id":2,"name":"Uncletopia | Chicago | 1 | All Maps","name_short":"chi-1","host":"chi-1.us.uncletopia.com","port":27015,"enabled":true,"region":"us-central","cc":"us","latitude":41.881832,"longitude":-87.62318,"reserved":0,"last_update":"0001-01-01T00:00:00Z","name_a2s":"Uncletopia | Chicago | 1 | All Maps","protocol":17,"map":"koth_viaduct","folder":"tf","game":"Team Fortress","app_id":440,"player_count":12,"max_players":24,"Bots":0,"server_type":"Dedicated","server_os":"Linux","password":true,"vac":true,"version":"7961495","steam_id":85568392924469984,"keywords":["cp","nocrits","nodmgspread","uncletopia"],"game_id":440,"stv_port":27016,"stv_name":"Uncletopia | Chicago | 1 | All Maps | STV","players":[{"user_id":3,"name":"winHAHAHAHAHHAHAHA","steam_id":76561198274491536,"connected_time":710000000000,"state":"active","ping":155},{"user_id":4,"name":"joe","steam_id":76561198045781320,"connected_time":709000000000,"state":"active","ping":70},{"user_id":11,"name":"Dingolf","steam_id":76561198010127454,"connected_time":596000000000,"state":"active","ping":85},{"user_id":8,"name":"Jroticus","steam_id":76561198139511958,"connected_time":654000000000,"state":"active","ping":61},{"user_id":9,"name":"Damiro","steam_id":76561198936412406,"connected_time":624000000000,"state":"active","ping":82},{"user_id":13,"name":"Slimeboy Enthusiast","steam_id":76561199200969139,"connected_time":295000000000,"state":"active","ping":104},{"user_id":14,"name":"mother coconuts","steam_id":76561198124679073,"connected_time":276000000000,"state":"active","ping":76},{"user_id":15,"name":"Griffin","steam_id":76561198159339442,"connected_time":141000000000,"state":"active","ping":62},{"user_id":16,"name":"zzzPoison","steam_id":76561198302928116,"connected_time":54000000000,"state":"active","ping":45},{"user_id":17,"name":"Navs","steam_id":76561199414749444,"connected_time":48000000000,"state":"active","ping":152},{"user_id":18,"name":"Yummy Kabobz","steam_id":76561198067661705,"connected_time":20000000000,"state":"active","ping":60},{"user_id":19,"name":"Kamin","steam_id":76561198255299559,"connected_time":19000000000,"state":"spawning","ping":91}]},{"server_id":106,"name":"Uncletopia | Chicago | 2 | All Maps","name_short":"chi-2","host":"chi-1.us.uncletopia.com","port":27025,"enabled":true,"region":"us-central","cc":"us","latitude":41.881832,"longitude":-87.62318,"reserved":0,"last_update":"0001-01-01T00:00:00Z","name_a2s":"Uncletopia | Chicago | 2 | All Maps","protocol":17,"map":"cp_mountainlab","folder":"tf","game":"Team Fortress","app_id":440,"player_count":0,"max_players":24,"Bots":0,"server_type":"Dedicated","server_os":"Linux","password":true,"vac":true,"version":"7961495","steam_id":85568392924469985,"keywords":["cp","nocrits","nodmgspread","uncletopia"],"game_id":440,"stv_port":27026,"stv_name":"Uncletopia | Chicago | 2 | All Maps | STV","players":null},{"server_id":402,"name":"Uncletopia | Chicago | 3 | All Maps","name_short":"chi-3","host":"chi-1.us.uncletopia.com","port":27035,"enabled":true,"region":"us-central","cc":"us","latitude":41.881832,"longitude":-87.62318,"reserved":0,"last_update":"0001-01-01T00:00:00Z","name_a2s":"Uncletopia | Chicago | 3 | All Maps","protocol":17,"map":"koth_cascade","folder":"tf","game":"Team Fortress","app_id":440,"player_count":0,"max_players":24,"Bots":0,"server_type":"Dedicated","server_os":"Linux","password":true,"vac":true,"version":"7961495","steam_id":85568392924515191,"keywords":["cp","nocrits","nodmgspread","uncletopia"],"game_id":440,"stv_port":27036,"stv_name":"Uncletopia | Chicago | 3 | All Maps | STV","players":null},{"server_id":403,"name":"Uncletopia | Chicago | 4 | All Maps","name_short":"chi-4","host":"chi-1.us.uncletopia.com","port":27045,"enabled":true,"region":"us-central","cc":"us","latitude":41.881832,"longitude":-87.62318,"reserved":0,"last_update":"0001-01-01T00:00:00Z","name_a2s":"Uncletopia | Chicago | 4 | All Maps","protocol":17,"map":"koth_lakeside_final","folder":"tf","game":"Team Fortress","app_id":440,"player_count":0,"max_players":24,"Bots":0,"server_type":"Dedicated","server_os":"Linux","password":true,"vac":true,"version":"7961495","steam_id":85568392924515193,"keywords":["cp","nocrits","nodmgspread","uncletopia"],"game_id":440,"stv_port":27046,"stv_name":"Uncletopia | Chicago | 4 | All Maps | STV","players":null},{"server_id":36,"name":"Uncletopia | Chicago | 5 | All Maps","name_short":"chi-5","host":"chi-2.us.uncletopia.com","port":27015,"enabled":true,"region":"us-central","cc":"us","latitude":41.881832,"longitude":-87.62318,"reserved":0,"last_update":"0001-01-01T00:00:00Z","name_a2s":"Uncletopia | Chicago | 5 | All Maps","protocol":17,"map":"pl_frontier_final","folder":"tf","game":"Team Fortress","app_id":440,"player_count":0,"max_players":24,"Bots":0,"server_type":"Dedicated","server_os":"Linux","password":true,"vac":true,"version":"7961495","steam_id":85568392924866362,"keywords":["nocrits","nodmgspread","payload","uncletopia"],"game_id":440,"stv_port":27016,"stv_name":"Uncletopia | Chicago | 5 | All Maps | STV","players":null},{"server_id":37,"name":"Uncletopia | Chicago | 6 | All Maps","name_short":"chi-6","host":"chi-2.us.uncletopia.com","port":27025,"enabled":true,"region":"us-central","cc":"us","latitude":41.881832,"longitude":-87.62318,"reserved":0,"last_update":"0001-01-01T00:00:00Z","name_a2s":"Uncletopia | Chicago | 6 | All Maps","protocol":17,"map":"cp_snakewater_final1","folder":"tf","game":"Team Fortress","app_id":440,"player_count":1,"max_players":24,"Bots":0,"server_type":"Dedicated","server_os":"Linux","password":true,"vac":true,"version":"7961495","steam_id":85568392924866363,"keywords":["cp","nocrits","nodmgspread","uncletopia"],"game_id":440,"stv_port":27026,"stv_name":"Uncletopia | Chicago | 6 | All Maps | STV","players":[{"user_id":3,"name":"Max The Dumass","steam_id":76561199480209254,"connected_time":18000000000,"state":"spawning","ping":277}]},{"server_id":38,"name":"Uncletopia | Chicago | 7 | Stopwatch Beta","name_short":"chi-7","host":"chi-2.us.uncletopia.com","port":27035,"enabled":true,"region":"us-central","cc":"us","latitude":41.881832,"longitude":-87.62318,"reserved":0,"last_update":"0001-01-01T00:00:00Z","name_a2s":"Uncletopia | Chicago | 7 | Stopwatch Beta","protocol":17,"map":"cp_process_final","folder":"tf","game":"Team Fortress","app_id":440,"player_count":0,"max_players":24,"Bots":0,"server_type":"Dedicated","server_os":"Linux","password":true,"vac":true,"version":"7961495","steam_id":85568392924866364,"keywords":["cp","nocrits","nodmgspread","uncletopia"],"game_id":440,"stv_port":27036,"stv_name":"Uncletopia | Chicago | 7 | Stopwatch Beta | STV","players":null},{"server_id":39,"name":"Uncletopia | Chicago | 8 | Community","name_short":"chi-8","host":"chi-2.us.uncletopia.com","port":27045,"enabled":true,"region":"us-central","cc":"us","latitude":41.881832,"longitude":-87.62318,"reserved":0,"last_update":"0001-01-01T00:00:00Z","name_a2s":"Uncletopia | Chicago | 8 | Community","protocol":17,"map":"cp_snakewater_final1","folder":"tf","game":"Team Fortress","app_id":440,"player_count":0,"max_players":24,"Bots":0,"server_type":"Dedicated","server_os":"Linux","password":true,"vac":true,"version":"7961495","steam_id":85568392924866365,"keywords":["cp","nocrits","nodmgspread","uncletopia"],"game_id":440,"stv_port":27046,"stv_name":"Uncletopia | Chicago | 8 | Community | STV","players":null},{"server_id":8,"name":"Uncletopia | Dallas | 1 | All Maps","name_short":"dal-1","host":"dal-1.us.uncletopia.com","port":27015,"enabled":true,"region":"us-central","cc":"us","latitude":32.779167,"longitude":-96.80889,"reserved":0,"last_update":"0001-01-01T00:00:00Z","name_a2s":"Uncletopia | Dallas | 1 | All Maps","protocol":17,"map":"koth_highpass","folder":"tf","game":"Team Fortress","app_id":440,"player_count":0,"max_players":24,"Bots":0,"server_type":"Dedicated","server_os":"Linux","password":true,"vac":true,"version":"7961495","steam_id":85568392924469986,"keywords":["cp","nocrits","nodmgspread","uncletopia"],"game_id":440,"stv_port":27016,"stv_name":"Uncletopia | Dallas | 1 | All Maps | STV","players":null},{"server_id":108,"name":"Uncletopia | Dallas | 2 | All Maps","name_short":"dal-2","host":"dal-1.us.uncletopia.com","port":27025,"enabled":true,"region":"us-central","cc":"us","latitude":32.779167,"longitude":-96.80889,"reserved":0,"last_update":"0001-01-01T00:00:00Z","name_a2s":"Uncletopia | Dallas | 2 | All Maps","protocol":17,"map":"cp_mountainlab","folder":"tf","game":"Team Fortress","app_id":440,"player_count":0,"max_players":24,"Bots":0,"server_type":"Dedicated","server_os":"Linux","password":true,"vac":true,"version":"7961495","steam_id":85568392924469988,"keywords":["cp","nocrits","nodmgspread","uncletopia"],"game_id":440,"stv_port":27026,"stv_name":"Uncletopia | Dallas | 2 | All Maps | STV","players":null},{"server_id":5,"name":"Uncletopia | Frankfurt | 1 | All Maps","name_short":"frk-1","host":"frk-1.de.uncletopia.com","port":27015,"enabled":true,"region":"eu","cc":"de","latitude":50.110924,"longitude":8.682127,"reserved":0,"last_update":"0001-01-01T00:00:00Z","name_a2s":"Uncletopia | Frankfurt | 1 | All Maps","protocol":17,"map":"pl_barnblitz","folder":"tf","game":"Team Fortress","app_id":440,"player_count":24,"max_players":24,"Bots":0,"server_type":"Dedicated","server_os":"Linux","password":true,"vac":true,"version":"7961495","steam_id":85568392924469989,"keywords":["nocrits","nodmgspread","payload","uncletopia"],"game_id":440,"stv_port":27016,"stv_name":"Uncletopia | Frankfurt | 1 | All Maps | STV","players":[{"user_id":117,"name":"gingus bobing IV","steam_id":76561198197851753,"connected_time":1786000000000,"state":"active","ping":70},{"user_id":132,"name":"Spectral Sloth","steam_id":76561198170083139,"connected_time":407000000000,"state":"active","ping":82},{"user_id":60,"name":"Sunchouse","steam_id":76561198453479806,"connected_time":6063000000000,"state":"active","ping":78},{"user_id":128,"name":"Greg","steam_id":76561198014131702,"connected_time":739000000000,"state":"active","ping":118},{"user_id":86,"name":"AWP Bodyshot :) ❤","steam_id":76561198029928533,"connected_time":3988000000000,"state":"active","ping":42},{"user_id":95,"name":"VampiuS","steam_id":76561197998827007,"connected_time":3286000000000,"state":"active","ping":55},{"user_id":76,"name":"tequila sunset","steam_id":76561198315969106,"connected_time":4693000000000,"state":"active","ping":92},{"user_id":123,"name":"TylowStar","steam_id":76561198357107806,"connected_time":1567000000000,"state":"active","ping":64},{"user_id":129,"name":"MemeLord","steam_id":76561198135115524,"connected_time":697000000000,"state":"active","ping":50},{"user_id":141,"name":"CCure TheBeerMan 613 852-6693","steam_id":76561198325714743,"connected_time":143000000000,"state":"active","ping":81},{"user_id":54,"name":"hasansaeedifar","steam_id":76561198974563618,"connected_time":6274000000000,"state":"active","ping":157},{"user_id":142,"name":"ttv/cosmeticall","steam_id":76561198444036574,"connected_time":132000000000,"state":"active","ping":65},{"user_id":102,"name":"Will - no sound","steam_id":76561198173329977,"connected_time":2395000000000,"state":"active","ping":64},{"user_id":122,"name":"modavak","steam_id":76561198946290908,"connected_time":1666000000000,"state":"active","ping":107},{"user_id":130,"name":"two","steam_id":76561199067334982,"connected_time":635000000000,"state":"active","ping":85},{"user_id":98,"name":"Niko","steam_id":76561199006295285,"connected_time":3206000000000,"state":"active","ping":72},{"user_id":109,"name":"cargo_conductor_754","steam_id":76561198165604007,"connected_time":2035000000000,"state":"active","ping":60},{"user_id":140,"name":"THE Grosser","steam_id":76561197995530666,"connected_time":187000000000,"state":"active","ping":49},{"user_id":111,"name":"Larry Penus","steam_id":76561198207546233,"connected_time":2032000000000,"state":"active","ping":57},{"user_id":126,"name":"realness","steam_id":76561199129226935,"connected_time":754000000000,"state":"active","ping":97},{"user_id":144,"name":"swueuws","steam_id":76561198020716743,"connected_time":83000000000,"state":"active","ping":50},{"user_id":114,"name":"Kestrel","steam_id":76561198144033005,"connected_time":1878000000000,"state":"active","ping":65},{"user_id":119,"name":"Bottle O' Scrumpy","steam_id":76561199244250562,"connected_time":1739000000000,"state":"active","ping":89},{"user_id":127,"name":"ForeskinFarmer Esinahkaaja 420","steam_id":76561198297104239,"connected_time":754000000000,"state":"active","ping":91}]},{"server_id":110,"name":"Uncletopia | Frankfurt | 2 | All Maps","name_short":"frk-2","host":"frk-1.de.uncletopia.com","port":27025,"enabled":true,"region":"eu","cc":"de","latitude":50.110924,"longitude":8.682127,"reserved":0,"last_update":"0001-01-01T00:00:00Z","name_a2s":"Uncletopia | Frankfurt | 2 | All Maps","protocol":17,"map":"pl_borneo","folder":"tf","game":"Team Fortress","app_id":440,"player_count":24,"max_players":24,"Bots":0,"server_type":"Dedicated","server_os":"Linux","password":true,"vac":true,"version":"7961495","steam_id":85568392924469990,"keywords":["nocrits","nodmgspread","payload","uncletopia"],"game_id":440,"stv_port":27026,"stv_name":"Uncletopia | Frankfurt | 2 | All Maps | STV","players":[{"user_id":64,"name":"Mr.J","steam_id":76561199127439080,"connected_time":1921000000000,"state":"active","ping":74},{"user_id":8,"name":"Nyhde","steam_id":76561198012771416,"connected_time":5070000000000,"state":"active","ping":89},{"user_id":61,"name":"glyph","steam_id":76561197980736364,"connected_time":2023000000000,"state":"active","ping":76},{"user_id":75,"name":"tf2","steam_id":76561198149202416,"connected_time":870000000000,"state":"active","ping":86},{"user_id":82,"name":"Sch","steam_id":76561198071341689,"connected_time":604000000000,"state":"active","ping":52},{"user_id":85,"name":"bruh","steam_id":76561198109262927,"connected_time":541000000000,"state":"active","ping":74},{"user_id":80,"name":"Storm's Foreshadow","steam_id":76561198098462526,"connected_time":725000000000,"state":"active","ping":71},{"user_id":74,"name":"aww yeah","steam_id":76561197992978878,"connected_time":925000000000,"state":"active","ping":62},{"user_id":32,"name":"john fortress","steam_id":76561198013237629,"connected_time":3676000000000,"state":"active","ping":107},{"user_id":65,"name":"Oxitocin","steam_id":76561198119542899,"connected_time":1908000000000,"state":"active","ping":78},{"user_id":54,"name":"Doriian","steam_id":76561198071438810,"connected_time":2507000000000,"state":"active","ping":75},{"user_id":24,"name":"Genesis","steam_id":76561198999652040,"connected_time":3949000000000,"state":"active","ping":46},{"user_id":76,"name":"LOBZIK","steam_id":76561198114830120,"connected_time":825000000000,"state":"active","ping":76},{"user_id":72,"name":"Frenchie","steam_id":76561198178298931,"connected_time":1048000000000,"state":"active","ping":53},{"user_id":36,"name":"Mussolini","steam_id":76561198218384865,"connected_time":3596000000000,"state":"active","ping":92},{"user_id":29,"name":"Dominus Di Spiritus","steam_id":76561198200488383,"connected_time":3813000000000,"state":"active","ping":75},{"user_id":86,"name":"TonTon","steam_id":76561198145468895,"connected_time":345000000000,"state":"active","ping":51},{"user_id":55,"name":"Thors","steam_id":76561197968739075,"connected_time":2505000000000,"state":"active","ping":59},{"user_id":70,"name":"generic alias","steam_id":76561198271607226,"connected_time":1091000000000,"state":"active","ping":103},{"user_id":38,"name":"Dogfighter","steam_id":76561198798793898,"connected_time":3429000000000,"state":"active","ping":71},{"user_id":84,"name":"ash","steam_id":76561198004728744,"connected_time":593000000000,"state":"active","ping":47},{"user_id":56,"name":"mindas tf2.LT","steam_id":76561198056839438,"connected_time":2446000000000,"state":"active","ping":60},{"user_id":57,"name":"nevim","steam_id":76561199120843402,"connected_time":2343000000000,"state":"active","ping":59},{"user_id":68,"name":"Slushy_","steam_id":76561198148649945,"connected_time":1475000000000,"state":"active","ping":82}]},{"server_id":308,"name":"Uncletopia | Frankfurt | 3 | All Maps","name_short":"frk-3","host":"frk-1.de.uncletopia.com","port":27035,"enabled":true,"region":"eu","cc":"de","latitude":50.110924,"longitude":8.682127,"reserved":0,"last_update":"0001-01-01T00:00:00Z","name_a2s":"Uncletopia | Frankfurt | 3 | All Maps","protocol":17,"map":"cp_process_final","folder":"tf","game":"Team Fortress","app_id":440,"player_count":24,"max_players":24,"Bots":0,"server_type":"Dedicated","server_os":"Linux","password":true,"vac":true,"version":"7961495","steam_id":85568392924504274,"keywords":["cp","nocrits","nodmgspread","uncletopia"],"game_id":440,"stv_port":27036,"stv_name":"Uncletopia | Frankfurt | 3 | All Maps | STV","players":[{"user_id":53,"name":"Pixie","steam_id":76561198044038797,"connected_time":222000000000,"state":"active","ping":80},{"user_id":8,"name":"ArNiDzE","steam_id":76561199105148383,"connected_time":3994000000000,"state":"active","ping":113},{"user_id":42,"name":"I like trans girls","steam_id":76561198371467431,"connected_time":1381000000000,"state":"active","ping":75},{"user_id":13,"name":"Anadddest","steam_id":76561198992528373,"connected_time":2920000000000,"state":"active","ping":66},{"user_id":44,"name":"Klaun","steam_id":76561198077827849,"connected_time":1190000000000,"state":"active","ping":81},{"user_id":49,"name":"disposablesuperbread","steam_id":76561199074703607,"connected_time":432000000000,"state":"active","ping":72},{"user_id":16,"name":"AwterSix","steam_id":76561198042561678,"connected_time":2846000000000,"state":"active","ping":59},{"user_id":48,"name":"Tengen","steam_id":76561199356990346,"connected_time":752000000000,"state":"active","ping":103},{"user_id":31,"name":"Mr.Potato","steam_id":76561198347183872,"connected_time":2171000000000,"state":"active","ping":68},{"user_id":19,"name":"LocalNoob","steam_id":76561199059920084,"connected_time":2764000000000,"state":"active","ping":78},{"user_id":20,"name":"catto","steam_id":76561199470147761,"connected_time":2638000000000,"state":"active","ping":135},{"user_id":21,"name":"Tfuj Stary","steam_id":76561198126681452,"connected_time":2582000000000,"state":"active","ping":90},{"user_id":50,"name":"LEGEND FUMO.","steam_id":76561198061033903,"connected_time":343000000000,"state":"active","ping":45},{"user_id":23,"name":"Ms7657","steam_id":76561199132377084,"connected_time":2537000000000,"state":"active","ping":76},{"user_id":25,"name":"Mingo","steam_id":76561199191245650,"connected_time":2521000000000,"state":"active","ping":87},{"user_id":46,"name":"midnight gaming empy","steam_id":76561198188016161,"connected_time":1102000000000,"state":"active","ping":92},{"user_id":54,"name":"loading...","steam_id":76561199153812702,"connected_time":220000000000,"state":"active","ping":122},{"user_id":29,"name":"a chair","steam_id":76561199085472085,"connected_time":2260000000000,"state":"active","ping":73},{"user_id":55,"name":"Fran","steam_id":76561199070516960,"connected_time":190000000000,"state":"active","ping":62},{"user_id":57,"name":"Covetousix","steam_id":76561198293936824,"connected_time":26000000000,"state":"spawning","ping":75},{"user_id":37,"name":"Welder","steam_id":76561198355300561,"connected_time":2057000000000,"state":"active","ping":68},{"user_id":51,"name":"KnugenIV","steam_id":76561198127091993,"connected_time":305000000000,"state":"active","ping":54},{"user_id":56,"name":"Matteo Il Biondo","steam_id":76561198315389475,"connected_time":183000000000,"state":"active","ping":84},{"user_id":43,"name":"jawA","steam_id":76561198070341774,"connected_time":1381000000000,"state":"active","ping":76}]},{"server_id":309,"name":"Uncletopia | Frankfurt | 4 | All Maps","name_short":"frk-4","host":"frk-1.de.uncletopia.com","port":27045,"enabled":true,"region":"eu","cc":"de","latitude":50.110924,"longitude":8.682127,"reserved":0,"last_update":"0001-01-01T00:00:00Z","name_a2s":"Uncletopia | Frankfurt | 4 | All Maps","protocol":17,"map":"pl_snowycoast","folder":"tf","game":"Team Fortress","app_id":440,"player_count":0,"max_players":24,"Bots":0,"server_type":"Dedicated","server_os":"Linux","password":true,"vac":true,"version":"7961495","steam_id":85568392924504275,"keywords":["nocrits","nodmgspread","payload","uncletopia"],"game_id":440,"stv_port":27046,"stv_name":"Uncletopia | Frankfurt | 4 | All Maps | STV","players":null},{"server_id":310,"name":"Uncletopia | Frankfurt | 5 | All Maps","name_short":"frk-5","host":"frk-1.de.uncletopia.com","port":27055,"enabled":true,"region":"eu","cc":"de","latitude":50.110924,"longitude":8.682127,"reserved":0,"last_update":"0001-01-01T00:00:00Z","name_a2s":"Uncletopia | Frankfurt | 5 | All Maps","protocol":17,"map":"koth_viaduct","folder":"tf","game":"Team Fortress","app_id":440,"player_count":0,"max_players":24,"Bots":0,"server_type":"Dedicated","server_os":"Linux","password":true,"vac":true,"version":"7961495","steam_id":85568392924504277,"keywords":["cp","nocrits","nodmgspread","uncletopia"],"game_id":440,"stv_port":27056,"stv_name":"Uncletopia | Frankfurt | 5 | All Maps | STV","players":null},{"server_id":311,"name":"Uncletopia | Frankfurt | 6 | All Maps","name_short":"frk-6","host":"frk-1.de.uncletopia.com","port":27065,"enabled":true,"region":"eu","cc":"de","latitude":50.110924,"longitude":8.682127,"reserved":0,"last_update":"0001-01-01T00:00:00Z","name_a2s":"Uncletopia | Frankfurt | 6 | All Maps","protocol":17,"map":"pl_swiftwater_final1","folder":"tf","game":"Team Fortress","app_id":440,"player_count":7,"max_players":24,"Bots":0,"server_type":"Dedicated","server_os":"Linux","password":true,"vac":true,"version":"7961495","steam_id":85568392924504278,"keywords":["nocrits","nodmgspread","payload","uncletopia"],"game_id":440,"stv_port":27066,"stv_name":"Uncletopia | Frankfurt | 6 | All Maps | STV","players":[{"user_id":48,"name":"Potrik_pro","steam_id":76561199003405089,"connected_time":728000000000,"state":"active","ping":73},{"user_id":38,"name":"SpaceBoxxer","steam_id":76561198798211513,"connected_time":809000000000,"state":"active","ping":72},{"user_id":49,"name":"Synthro","steam_id":76561198144181109,"connected_time":590000000000,"state":"active","ping":160},{"user_id":50,"name":"marfull89","steam_id":76561199059363362,"connected_time":444000000000,"state":"active","ping":72},{"user_id":51,"name":"roblan11","steam_id":76561198066839258,"connected_time":151000000000,"state":"active","ping":44},{"user_id":52,"name":"I.C. Wiener","steam_id":76561197999912254,"connected_time":56000000000,"state":"active","ping":85},{"user_id":53,"name":"Piquesque","steam_id":76561198286763046,"connected_time":46000000000,"state":"active","ping":105}]},{"server_id":23,"name":"Uncletopia | Frankfurt | 7 | Stopwatch Beta","name_short":"frk-7","host":"frk-1.de.uncletopia.com","port":27075,"enabled":true,"region":"eu","cc":"de","latitude":50.110924,"longitude":8.682127,"reserved":0,"last_update":"0001-01-01T00:00:00Z","name_a2s":"Uncletopia | Frankfurt | 7 | Stopwatch Beta","protocol":17,"map":"workshop/koth_ashville_final.ugc2130459942","folder":"tf","game":"Team Fortress","app_id":440,"player_count":0,"max_players":24,"Bots":0,"server_type":"Dedicated","server_os":"Linux","password":true,"vac":true,"version":"7961495","steam_id":85568392924742827,"keywords":["cp","nocrits","nodmgspread","uncletopia"],"game_id":440,"stv_port":27076,"stv_name":"Uncletopia | Frankfurt | 7 | Stopwatch Beta | STV","players":null},{"server_id":24,"name":"Uncletopia | Frankfurt | 8 | Community","name_short":"frk-8","host":"frk-1.de.uncletopia.com","port":27085,"enabled":true,"region":"eu","cc":"de","latitude":50.110924,"longitude":8.682127,"reserved":0,"last_update":"0001-01-01T00:00:00Z","name_a2s":"Uncletopia | Frankfurt | 8 | Community","protocol":17,"map":"cp_process_final","folder":"tf","game":"Team Fortress","app_id":440,"player_count":0,"max_players":24,"Bots":0,"server_type":"Dedicated","server_os":"Linux","password":true,"vac":true,"version":"7961495","steam_id":85568392924742828,"keywords":["cp","nocrits","nodmgspread","uncletopia"],"game_id":440,"stv_port":27086,"stv_name":"Uncletopia | Frankfurt | 8 | Community | STV","players":null},{"server_id":202,"name":"Uncletopia | Hong Kong | 1 | All Maps","name_short":"hgk-1","host":"hgk-1.hk.uncletopia.com","port":27015,"enabled":true,"region":"asia","cc":"hk","latitude":22.302711,"longitude":114.177216,"reserved":0,"last_update":"0001-01-01T00:00:00Z","name_a2s":"Uncletopia | Hong Kong | 1 | All Maps","protocol":17,"map":"pl_borneo","folder":"tf","game":"Team Fortress","app_id":440,"player_count":21,"max_players":24,"Bots":0,"server_type":"Dedicated","server_os":"Linux","password":true,"vac":true,"version":"7961495","steam_id":85568392924494504,"keywords":["nocrits","nodmgspread","payload","uncletopia"],"game_id":440,"stv_port":27016,"stv_name":"Uncletopia | Hong Kong | 1 | All Maps | STV","players":[{"user_id":212,"name":"bored s.","steam_id":76561199010718657,"connected_time":1164000000000,"state":"active","ping":75},{"user_id":159,"name":"Pillboi","steam_id":76561198011172886,"connected_time":5648000000000,"state":"active","ping":38},{"user_id":231,"name":"Engineer Gaming","steam_id":76561199015521820,"connected_time":43000000000,"state":"active","ping":118},{"user_id":201,"name":"PootMann","steam_id":76561198123376937,"connected_time":1948000000000,"state":"active","ping":88},{"user_id":213,"name":"Headmouth","steam_id":76561198019789855,"connected_time":1152000000000,"state":"active","ping":131},{"user_id":225,"name":"Streety","steam_id":76561199098969003,"connected_time":637000000000,"state":"active","ping":62},{"user_id":156,"name":"becquerel","steam_id":76561198230213828,"connected_time":5662000000000,"state":"active","ping":58},{"user_id":217,"name":"spinach (old mouse)","steam_id":76561198042539541,"connected_time":1135000000000,"state":"active","ping":79},{"user_id":219,"name":"Gun Llama","steam_id":76561198968465482,"connected_time":1090000000000,"state":"active","ping":132},{"user_id":220,"name":"Him Him Ung","steam_id":76561198204789021,"connected_time":892000000000,"state":"active","ping":53},{"user_id":205,"name":"Hobbit_","steam_id":76561199105754261,"connected_time":1609000000000,"state":"active","ping":149},{"user_id":192,"name":"NeutralM4sk","steam_id":76561199034346807,"connected_time":2787000000000,"state":"active","ping":114},{"user_id":139,"name":"drexe","steam_id":76561198015877517,"connected_time":8059000000000,"state":"active","ping":74},{"user_id":224,"name":"Stupid Player","steam_id":76561198813103989,"connected_time":725000000000,"state":"active","ping":76},{"user_id":199,"name":"﴾ Cuisine ﴿","steam_id":76561199047931970,"connected_time":2273000000000,"state":"active","ping":80},{"user_id":227,"name":"Nice","steam_id":76561199180653046,"connected_time":360000000000,"state":"active","ping":131},{"user_id":228,"name":"lesonkim2222","steam_id":76561198980570856,"connected_time":157000000000,"state":"active","ping":166},{"user_id":94,"name":"meowdy","steam_id":76561198337154745,"connected_time":12349000000000,"state":"active","ping":135},{"user_id":229,"name":"Marii","steam_id":76561199034546642,"connected_time":152000000000,"state":"active","ping":99},{"user_id":197,"name":"Cock Gobbler [F2P]","steam_id":76561199205335227,"connected_time":2525000000000,"state":"active","ping":64},{"user_id":164,"name":"MS PowerPoint","steam_id":76561198369523192,"connected_time":5446000000000,"state":"active","ping":65}]},{"server_id":1,"name":"Uncletopia | Los Angeles | 1 | All Maps","name_short":"lax-1","host":"lax-1.us.uncletopia.com","port":27015,"enabled":true,"region":"us-west","cc":"us","latitude":33.94279,"longitude":-118.41004,"reserved":0,"last_update":"0001-01-01T00:00:00Z","name_a2s":"Uncletopia | Los Angeles | 1 | All Maps","protocol":17,"map":"cp_altitude","folder":"tf","game":"Team Fortress","app_id":440,"player_count":0,"max_players":24,"Bots":0,"server_type":"Dedicated","server_os":"Linux","password":true,"vac":true,"version":"7961495","steam_id":85568392924469991,"keywords":["cp","nocrits","nodmgspread","uncletopia"],"game_id":440,"stv_port":27016,"stv_name":"Uncletopia | Los Angeles | 1 | All Maps | STV","players":null},{"server_id":112,"name":"Uncletopia | Los Angeles | 2 | All Maps","name_short":"lax-2","host":"lax-1.us.uncletopia.com","port":27025,"enabled":true,"region":"us-west","cc":"us","latitude":33.94279,"longitude":-118.41004,"reserved":0,"last_update":"0001-01-01T00:00:00Z","name_a2s":"Uncletopia | Los Angeles | 2 | All Maps","protocol":17,"map":"pl_badwater","folder":"tf","game":"Team Fortress","app_id":440,"player_count":0,"max_players":24,"Bots":0,"server_type":"Dedicated","server_os":"Linux","password":true,"vac":true,"version":"7961495","steam_id":85568392924469992,"keywords":["nocrits","nodmgspread","payload","uncletopia"],"game_id":440,"stv_port":27026,"stv_name":"Uncletopia | Los Angeles | 2 | All Maps | STV","players":null},{"server_id":324,"name":"Uncletopia | Los Angeles | 3 | All Maps","name_short":"lax-3","host":"lax-1.us.uncletopia.com","port":27035,"enabled":true,"region":"us-west","cc":"us","latitude":33.94279,"longitude":-118.41004,"reserved":0,"last_update":"0001-01-01T00:00:00Z","name_a2s":"Uncletopia | Los Angeles | 3 | All Maps","protocol":17,"map":"cp_yukon_final","folder":"tf","game":"Team Fortress","app_id":440,"player_count":0,"max_players":24,"Bots":0,"server_type":"Dedicated","server_os":"Linux","password":true,"vac":true,"version":"7961495","steam_id":85568392924510198,"keywords":["cp","nocrits","nodmgspread","uncletopia"],"game_id":440,"stv_port":27036,"stv_name":"Uncletopia | Los Angeles | 3 | All Maps | STV","players":null},{"server_id":25,"name":"Uncletopia | Los Angeles | 4 | Stopwatch Beta","name_short":"lax-4","host":"lax-1.us.uncletopia.com","port":27045,"enabled":true,"region":"us-west","cc":"us","latitude":33.94279,"longitude":-118.41004,"reserved":0,"last_update":"0001-01-01T00:00:00Z","name_a2s":"Uncletopia | Los Angeles | 4 | Stopwatch Beta","protocol":17,"map":"koth_lakeside_final","folder":"tf","game":"Team Fortress","app_id":440,"player_count":0,"max_players":24,"Bots":0,"server_type":"Dedicated","server_os":"Linux","password":true,"vac":true,"version":"7961495","steam_id":85568392924510199,"keywords":["cp","nocrits","nodmgspread","uncletopia"],"game_id":440,"stv_port":27046,"stv_name":"Uncletopia | Los Angeles | 4 | Stopwatch Beta | STV","players":null},{"server_id":11,"name":"Uncletopia | London | 1 | All Maps","name_short":"lon-1","host":"lon-1.uk.uncletopia.com","port":27015,"enabled":true,"region":"eu","cc":"gb","latitude":51.509865,"longitude":-0.118092,"reserved":0,"last_update":"0001-01-01T00:00:00Z","name_a2s":"Uncletopia | London | 1 | All Maps","protocol":17,"map":"pl_snowycoast","folder":"tf","game":"Team Fortress","app_id":440,"player_count":22,"max_players":24,"Bots":0,"server_type":"Dedicated","server_os":"Linux","password":true,"vac":true,"version":"7961495","steam_id":85568392924367362,"keywords":["nocrits","nodmgspread","payload","uncletopia"],"game_id":440,"stv_port":27016,"stv_name":"Uncletopia | London | 1 | All Maps | STV","players":[{"user_id":259,"name":"Pineappleman","steam_id":76561199074651648,"connected_time":163000000000,"state":"active","ping":49},{"user_id":252,"name":"Gloomis","steam_id":76561197969131548,"connected_time":370000000000,"state":"active","ping":87},{"user_id":250,"name":"Relia Noski","steam_id":76561198100586456,"connected_time":458000000000,"state":"active","ping":101},{"user_id":263,"name":"greg's mom","steam_id":76561198050525471,"connected_time":29000000000,"state":"active","ping":80},{"user_id":244,"name":"KAZAM | Tervez","steam_id":76561198045459068,"connected_time":914000000000,"state":"active","ping":85},{"user_id":186,"name":"Frog_Meme_Laugh.mp4","steam_id":76561198798803845,"connected_time":3188000000000,"state":"active","ping":45},{"user_id":221,"name":"puffy","steam_id":76561198411347037,"connected_time":1931000000000,"state":"active","ping":119},{"user_id":204,"name":"Skipikip","steam_id":76561198125019458,"connected_time":2400000000000,"state":"active","ping":115},{"user_id":264,"name":"C.H.E.R.E.P.","steam_id":76561198026938595,"connected_time":3000000000,"state":"spawning","ping":88},{"user_id":176,"name":"Lilypadio","steam_id":76561198090146457,"connected_time":4108000000000,"state":"active","ping":44},{"user_id":223,"name":"mogwaihudson","steam_id":76561199486770715,"connected_time":1605000000000,"state":"active","ping":41},{"user_id":254,"name":"Jimmi Amareno","steam_id":76561198327750625,"connected_time":364000000000,"state":"active","ping":34},{"user_id":237,"name":"notrealman70","steam_id":76561198326351449,"connected_time":1123000000000,"state":"active","ping":75},{"user_id":248,"name":"NoPfizer","steam_id":76561198307914381,"connected_time":688000000000,"state":"active","ping":61},{"user_id":255,"name":"cuddle","steam_id":76561198805181599,"connected_time":362000000000,"state":"active","ping":45},{"user_id":256,"name":"Zwoz","steam_id":76561198221841968,"connected_time":337000000000,"state":"active","ping":78},{"user_id":208,"name":"Joy","steam_id":76561198155314925,"connected_time":2344000000000,"state":"active","ping":51},{"user_id":251,"name":"dakotztda","steam_id":76561198044189114,"connected_time":442000000000,"state":"active","ping":63},{"user_id":209,"name":"Labomarcelo","steam_id":76561198211186473,"connected_time":2340000000000,"state":"active","ping":90},{"user_id":231,"name":"Stunner (John Gaming)","steam_id":76561199085822219,"connected_time":1339000000000,"state":"active","ping":84},{"user_id":260,"name":"e9","steam_id":76561198890193313,"connected_time":156000000000,"state":"active","ping":53},{"user_id":214,"name":"[Sigilmare] SheepyMcBum","steam_id":76561198027187109,"connected_time":2223000000000,"state":"active","ping":61}]},{"server_id":114,"name":"Uncletopia | London | 2 | All Maps","name_short":"lon-2","host":"lon-1.uk.uncletopia.com","port":27025,"enabled":true,"region":"eu","cc":"gb","latitude":51.509865,"longitude":-0.118092,"reserved":0,"last_update":"0001-01-01T00:00:00Z","name_a2s":"Uncletopia | London | 2 | All Maps","protocol":17,"map":"pl_borneo","folder":"tf","game":"Team Fortress","app_id":440,"player_count":24,"max_players":24,"Bots":0,"server_type":"Dedicated","server_os":"Linux","password":true,"vac":true,"version":"7961495","steam_id":85568392924470941,"keywords":["nocrits","nodmgspread","payload","uncletopia"],"game_id":440,"stv_port":27026,"stv_name":"Uncletopia | London | 2 | All Maps | STV","players":[{"user_id":329,"name":"dafydd","steam_id":76561198052200325,"connected_time":332000000000,"state":"active","ping":78},{"user_id":330,"name":"mud","steam_id":76561198141497461,"connected_time":262000000000,"state":"active","ping":71},{"user_id":314,"name":"♔ Churaq Semi ♔","steam_id":76561198952002985,"connected_time":796000000000,"state":"active","ping":73},{"user_id":328,"name":"summer","steam_id":76561198170056395,"connected_time":431000000000,"state":"active","ping":51},{"user_id":242,"name":"Mr_Pulse_","steam_id":76561198095001602,"connected_time":5729000000000,"state":"active","ping":99},{"user_id":324,"name":"DarthPaul8181","steam_id":76561198373050455,"connected_time":524000000000,"state":"active","ping":53},{"user_id":275,"name":"RLCrazyCat3","steam_id":76561197983757878,"connected_time":2746000000000,"state":"active","ping":65},{"user_id":300,"name":"toe mold","steam_id":76561199013457963,"connected_time":1555000000000,"state":"active","ping":45},{"user_id":245,"name":"Master Of Noob","steam_id":76561198217926783,"connected_time":5537000000000,"state":"active","ping":75},{"user_id":301,"name":"I.AM.THE.BOOP.WHICH.IS.APROACHI","steam_id":76561198049342507,"connected_time":1501000000000,"state":"active","ping":93},{"user_id":279,"name":"blonde furry femboy","steam_id":76561198273361428,"connected_time":2537000000000,"state":"active","ping":78},{"user_id":331,"name":"Stroll","steam_id":76561197992803267,"connected_time":214000000000,"state":"active","ping":119},{"user_id":323,"name":"BonesJohnson","steam_id":76561198799169951,"connected_time":552000000000,"state":"active","ping":54},{"user_id":273,"name":"Sir Cauterize","steam_id":76561198047079422,"connected_time":3165000000000,"state":"active","ping":50},{"user_id":332,"name":"L0g1c","steam_id":76561198134085329,"connected_time":201000000000,"state":"active","ping":103},{"user_id":295,"name":"Dolcelatte","steam_id":76561198038501770,"connected_time":2086000000000,"state":"active","ping":60},{"user_id":307,"name":"Nonok","steam_id":76561199480685498,"connected_time":1216000000000,"state":"active","ping":67},{"user_id":321,"name":"pardner","steam_id":76561198451471161,"connected_time":593000000000,"state":"active","ping":53},{"user_id":333,"name":"andreaswack","steam_id":76561199050454503,"connected_time":171000000000,"state":"active","ping":61},{"user_id":308,"name":"J21","steam_id":76561198066590783,"connected_time":1205000000000,"state":"active","ping":121},{"user_id":315,"name":"TheBeardedM1G","steam_id":76561198040208946,"connected_time":710000000000,"state":"active","ping":42},{"user_id":214,"name":"Rocket Queen's consort","steam_id":76561198092995429,"connected_time":7619000000000,"state":"active","ping":135},{"user_id":334,"name":"UNDORA","steam_id":76561198852456692,"connected_time":165000000000,"state":"active","ping":80},{"user_id":335,"name":"El-boba 13","steam_id":76561199062121199,"connected_time":126000000000,"state":"active","ping":87}]},{"server_id":320,"name":"Uncletopia | London | 3 | All Maps","name_short":"lon-3","host":"lon-1.uk.uncletopia.com","port":27035,"enabled":true,"region":"eu","cc":"gb","latitude":51.509865,"longitude":-0.118092,"reserved":0,"last_update":"0001-01-01T00:00:00Z","name_a2s":"Uncletopia | London | 3 | All Maps","protocol":17,"map":"pl_pier","folder":"tf","game":"Team Fortress","app_id":440,"player_count":23,"max_players":24,"Bots":0,"server_type":"Dedicated","server_os":"Linux","password":true,"vac":true,"version":"7961495","steam_id":85568392924510192,"keywords":["nocrits","nodmgspread","payload","uncletopia"],"game_id":440,"stv_port":27036,"stv_name":"Uncletopia | London | 3 | All Maps | STV","players":[{"user_id":94,"name":"Rengii76","steam_id":76561198869802076,"connected_time":2086000000000,"state":"active","ping":85},{"user_id":133,"name":"Rat King","steam_id":76561198256783599,"connected_time":241000000000,"state":"active","ping":52},{"user_id":123,"name":"vurtun","steam_id":76561198857395274,"connected_time":1044000000000,"state":"active","ping":57},{"user_id":122,"name":"dotdotdot","steam_id":76561198057628751,"connected_time":1109000000000,"state":"active","ping":60},{"user_id":139,"name":"erik_jjj","steam_id":76561198215788857,"connected_time":11000000000,"state":"active","ping":173},{"user_id":105,"name":"Vouri","steam_id":76561198106656127,"connected_time":1378000000000,"state":"active","ping":45},{"user_id":106,"name":"fregaropa","steam_id":76561198150806166,"connected_time":1374000000000,"state":"active","ping":73},{"user_id":124,"name":"Purpurea","steam_id":76561198075376419,"connected_time":1041000000000,"state":"active","ping":58},{"user_id":134,"name":"Some_Random_guy","steam_id":76561199045314458,"connected_time":208000000000,"state":"active","ping":78},{"user_id":100,"name":"Dr ADHD MD","steam_id":76561198025252995,"connected_time":1417000000000,"state":"active","ping":48},{"user_id":107,"name":"Kurt Kurtenkurter","steam_id":76561198394221491,"connected_time":1350000000000,"state":"active","ping":72},{"user_id":138,"name":"znunney","steam_id":76561199438501613,"connected_time":35000000000,"state":"active","ping":51},{"user_id":137,"name":"lunaire","steam_id":76561198163344452,"connected_time":84000000000,"state":"active","ping":101},{"user_id":102,"name":"thisistheworstusernametbh1","steam_id":76561199491194532,"connected_time":1412000000000,"state":"active","ping":77},{"user_id":125,"name":"♥ Cirno ♥","steam_id":76561198834982738,"connected_time":983000000000,"state":"active","ping":77},{"user_id":95,"name":"Francis","steam_id":76561199486493777,"connected_time":2081000000000,"state":"active","ping":57},{"user_id":48,"name":"Barry Bee Benson","steam_id":76561198115199225,"connected_time":5436000000000,"state":"active","ping":57},{"user_id":121,"name":"After8","steam_id":76561198090750865,"connected_time":1144000000000,"state":"active","ping":68},{"user_id":131,"name":"Michael","steam_id":76561198003146906,"connected_time":706000000000,"state":"active","ping":45},{"user_id":130,"name":"NLSAM","steam_id":76561199111154916,"connected_time":800000000000,"state":"active","ping":55},{"user_id":132,"name":"MajorKlebstoff","steam_id":76561198035489363,"connected_time":623000000000,"state":"active","ping":59},{"user_id":113,"name":"LimeLord\u003c3","steam_id":76561199064058171,"connected_time":1306000000000,"state":"active","ping":61},{"user_id":128,"name":"Suspicious Viktor","steam_id":76561198136496249,"connected_time":930000000000,"state":"active","ping":66}]},{"server_id":321,"name":"Uncletopia | London | 4 | All Maps","name_short":"lon-4","host":"lon-1.uk.uncletopia.com","port":27045,"enabled":true,"region":"eu","cc":"gb","latitude":51.509865,"longitude":-0.118092,"reserved":0,"last_update":"0001-01-01T00:00:00Z","name_a2s":"Uncletopia | London | 4 | All Maps","protocol":17,"map":"koth_cascade","folder":"tf","game":"Team Fortress","app_id":440,"player_count":0,"max_players":24,"Bots":0,"server_type":"Dedicated","server_os":"Linux","password":true,"vac":true,"version":"7961495","steam_id":85568392924510193,"keywords":["cp","nocrits","nodmgspread","uncletopia"],"game_id":440,"stv_port":27046,"stv_name":"Uncletopia | London | 4 | All Maps | STV","players":null},{"server_id":21,"name":"Uncletopia | London | 5 | All Maps","name_short":"lon-5","host":"lon-1.uk.uncletopia.com","port":27055,"enabled":true,"region":"eu","cc":"gb","latitude":51.509865,"longitude":-0.118092,"reserved":0,"last_update":"0001-01-01T00:00:00Z","name_a2s":"Uncletopia | London | 5 | All Maps","protocol":17,"map":"pl_frontier_final","folder":"tf","game":"Team Fortress","app_id":440,"player_count":0,"max_players":24,"Bots":0,"server_type":"Dedicated","server_os":"Linux","password":true,"vac":true,"version":"7961495","steam_id":85568392924742829,"keywords":["nocrits","nodmgspread","payload","uncletopia"],"game_id":440,"stv_port":27056,"stv_name":"Uncletopia | London | 5 | All Maps | STV","players":null},{"server_id":22,"name":"Uncletopia | London | 6 | All Maps","name_short":"lon-6","host":"lon-1.uk.uncletopia.com","port":27065,"enabled":true,"region":"eu","cc":"gb","latitude":51.509865,"longitude":-0.118092,"reserved":0,"last_update":"0001-01-01T00:00:00Z","name_a2s":"Uncletopia | London | 6 | All Maps","protocol":17,"map":"koth_lakeside_final","folder":"tf","game":"Team Fortress","app_id":440,"player_count":0,"max_players":24,"Bots":0,"server_type":"Dedicated","server_os":"Linux","password":true,"vac":true,"version":"7961495","steam_id":85568392924742830,"keywords":["cp","nocrits","nodmgspread","uncletopia"],"game_id":440,"stv_port":27066,"stv_name":"Uncletopia | London | 6 | All Maps | STV","players":null},{"server_id":40,"name":"Uncletopia | London | 7 | No Payload","name_short":"lon-7","host":"lon-1.uk.uncletopia.com","port":27075,"enabled":true,"region":"eu","cc":"gb","latitude":51.509865,"longitude":-0.118092,"reserved":0,"last_update":"0001-01-01T00:00:00Z","name_a2s":"Uncletopia | London | 7 | No Payload","protocol":17,"map":"pl_snowycoast","folder":"tf","game":"Team Fortress","app_id":440,"player_count":0,"max_players":24,"Bots":0,"server_type":"Dedicated","server_os":"Linux","password":true,"vac":true,"version":"7961495","steam_id":85568392924964314,"keywords":["nocrits","nodmgspread","payload","uncletopia"],"game_id":440,"stv_port":27076,"stv_name":"Uncletopia | London | 7 | No Payload | STV","players":null},{"server_id":41,"name":"Uncletopia | London | 8 | Community","name_short":"lon-8","host":"lon-1.uk.uncletopia.com","port":27085,"enabled":true,"region":"eu","cc":"gb","latitude":51.509865,"longitude":-0.118092,"reserved":0,"last_update":"0001-01-01T00:00:00Z","name_a2s":"Uncletopia | London | 8 | Community","protocol":17,"map":"koth_viaduct","folder":"tf","game":"Team Fortress","app_id":440,"player_count":0,"max_players":24,"Bots":0,"server_type":"Dedicated","server_os":"Linux","password":true,"vac":true,"version":"7961495","steam_id":85568392924964315,"keywords":["cp","nocrits","nodmgspread","uncletopia"],"game_id":440,"stv_port":27086,"stv_name":"Uncletopia | London | 8 | Community | STV","players":null},{"server_id":300,"name":"Uncletopia | Montréal | 1 | All Maps","name_short":"mtl-1","host":"mtl-1.ca.uncletopia.com","port":27015,"enabled":true,"region":"us-east","cc":"ca","latitude":45.50889,"longitude":-73.56167,"reserved":0,"last_update":"0001-01-01T00:00:00Z","name_a2s":"Uncletopia | Montréal | 1 | All Maps","protocol":17,"map":"koth_cascade","folder":"tf","game":"Team Fortress","app_id":440,"player_count":0,"max_players":24,"Bots":0,"server_type":"Dedicated","server_os":"Linux","password":true,"vac":true,"version":"7961495","steam_id":85568392924500087,"keywords":["cp","nocrits","nodmgspread","uncletopia"],"game_id":440,"stv_port":27016,"stv_name":"Uncletopia | Montréal | 1 | All Maps | STV","players":null},{"server_id":301,"name":"Uncletopia | Montréal | 2 | All Maps","name_short":"mtl-2","host":"mtl-1.ca.uncletopia.com","port":27025,"enabled":true,"region":"us-east","cc":"ca","latitude":45.50889,"longitude":-73.56167,"reserved":0,"last_update":"0001-01-01T00:00:00Z","name_a2s":"Uncletopia | Montréal | 2 | All Maps","protocol":17,"map":"pl_frontier_final","folder":"tf","game":"Team Fortress","app_id":440,"player_count":0,"max_players":24,"Bots":0,"server_type":"Dedicated","server_os":"Linux","password":true,"vac":true,"version":"7961495","steam_id":85568392924500088,"keywords":["nocrits","nodmgspread","payload","uncletopia"],"game_id":440,"stv_port":27026,"stv_name":"Uncletopia | Montréal | 2 | All Maps | STV","players":null},{"server_id":302,"name":"Uncletopia | Montréal | 3 | All Maps","name_short":"mtl-3","host":"mtl-1.ca.uncletopia.com","port":27035,"enabled":true,"region":"us-east","cc":"ca","latitude":45.50889,"longitude":-73.56167,"reserved":0,"last_update":"0001-01-01T00:00:00Z","name_a2s":"Uncletopia | Montréal | 3 | All Maps","protocol":17,"map":"pl_upward","folder":"tf","game":"Team Fortress","app_id":440,"player_count":0,"max_players":24,"Bots":0,"server_type":"Dedicated","server_os":"Linux","password":true,"vac":true,"version":"7961495","steam_id":85568392924500089,"keywords":["nocrits","nodmgspread","payload","uncletopia"],"game_id":440,"stv_port":27036,"stv_name":"Uncletopia | Montréal | 3 | All Maps | STV","players":null},{"server_id":303,"name":"Uncletopia | Montréal | 4 | No Payload","name_short":"mtl-4","host":"mtl-1.ca.uncletopia.com","port":27045,"enabled":true,"region":"us-east","cc":"ca","latitude":45.50889,"longitude":-73.56167,"reserved":0,"last_update":"0001-01-01T00:00:00Z","name_a2s":"Uncletopia | Montréal | 4 | No Payload","protocol":17,"map":"cp_mountainlab","folder":"tf","game":"Team Fortress","app_id":440,"player_count":0,"max_players":24,"Bots":0,"server_type":"Dedicated","server_os":"Linux","password":true,"vac":true,"version":"7961495","steam_id":85568392924500090,"keywords":["cp","nocrits","nodmgspread","uncletopia"],"game_id":440,"stv_port":27046,"stv_name":"Uncletopia | Montréal | 4 | No Payload | STV","players":null},{"server_id":13,"name":"Uncletopia | New York City | 1 | All Maps","name_short":"nyc-1","host":"nyc-1.us.uncletopia.com","port":27015,"enabled":true,"region":"us-east","cc":"us","latitude":40.73061,"longitude":-73.93524,"reserved":0,"last_update":"0001-01-01T00:00:00Z","name_a2s":"Uncletopia | New York City | 1 | All Maps","protocol":17,"map":"cp_sunshine","folder":"tf","game":"Team Fortress","app_id":440,"player_count":0,"max_players":24,"Bots":0,"server_type":"Dedicated","server_os":"Linux","password":true,"vac":true,"version":"7961495","steam_id":85568392924469993,"keywords":["cp","nocrits","nodmgspread","uncletopia"],"game_id":440,"stv_port":27016,"stv_name":"Uncletopia | New York City | 1 | All Maps | STV","players":null},{"server_id":14,"name":"Uncletopia | New York City | 2 | All Maps","name_short":"nyc-2","host":"nyc-1.us.uncletopia.com","port":27025,"enabled":true,"region":"us-east","cc":"us","latitude":40.73061,"longitude":-73.93524,"reserved":0,"last_update":"0001-01-01T00:00:00Z","name_a2s":"Uncletopia | New York City | 2 | All Maps","protocol":17,"map":"pl_snowycoast","folder":"tf","game":"Team Fortress","app_id":440,"player_count":0,"max_players":24,"Bots":0,"server_type":"Dedicated","server_os":"Linux","password":true,"vac":true,"version":"7961495","steam_id":85568392924469994,"keywords":["nocrits","nodmgspread","payload","uncletopia"],"game_id":440,"stv_port":27026,"stv_name":"Uncletopia | New York City | 2 | All Maps | STV","players":null},{"server_id":15,"name":"Uncletopia | New York City | 3 | Stopwatch Beta","name_short":"nyc-3","host":"nyc-1.us.uncletopia.com","port":27035,"enabled":true,"region":"us-east","cc":"us","latitude":40.73061,"longitude":-73.93524,"reserved":0,"last_update":"0001-01-01T00:00:00Z","name_a2s":"Uncletopia | New York City | 3 | Stopwatch Beta","protocol":17,"map":"koth_lakeside_final","folder":"tf","game":"Team Fortress","app_id":440,"player_count":0,"max_players":24,"Bots":0,"server_type":"Dedicated","server_os":"Linux","password":true,"vac":true,"version":"7961495","steam_id":85568392924742820,"keywords":["cp","nocrits","nodmgspread","uncletopia"],"game_id":440,"stv_port":27036,"stv_name":"Uncletopia | New York City | 3 | Stopwatch Beta | STV","players":null},{"server_id":16,"name":"Uncletopia | New York City | 4 | Community","name_short":"nyc-4","host":"nyc-1.us.uncletopia.com","port":27045,"enabled":true,"region":"us-east","cc":"us","latitude":40.73061,"longitude":-73.93524,"reserved":0,"last_update":"0001-01-01T00:00:00Z","name_a2s":"Uncletopia | New York City | 4 | Community","protocol":17,"map":"pl_frontier_final","folder":"tf","game":"Team Fortress","app_id":440,"player_count":0,"max_players":24,"Bots":0,"server_type":"Dedicated","server_os":"Linux","password":true,"vac":true,"version":"7961495","steam_id":85568392924742821,"keywords":["nocrits","nodmgspread","payload","uncletopia"],"game_id":440,"stv_port":27046,"stv_name":"Uncletopia | New York City | 4 | Community | STV","players":null},{"server_id":142,"name":"Uncletopia | São Paulo | 1 | All Maps","name_short":"sao-1","host":"sao-1.br.uncletopia.com","port":27015,"enabled":true,"region":"sa","cc":"br","latitude":-23.533773,"longitude":-46.62529,"reserved":0,"last_update":"0001-01-01T00:00:00Z","name_a2s":"Uncletopia | São Paulo | 1 | All Maps","protocol":17,"map":"pl_upward","folder":"tf","game":"Team Fortress","app_id":440,"player_count":0,"max_players":24,"Bots":0,"server_type":"Dedicated","server_os":"Linux","password":true,"vac":true,"version":"7961495","steam_id":85568392924469996,"keywords":["nocrits","nodmgspread","payload","uncletopia"],"game_id":440,"stv_port":27016,"stv_name":"Uncletopia | São Paulo | 1 | All Maps | STV","players":null},{"server_id":143,"name":"Uncletopia | São Paulo | 2 | All Maps","name_short":"sao-2","host":"sao-2.br.uncletopia.com","port":27015,"enabled":true,"region":"sa","cc":"br","latitude":-23.533773,"longitude":-46.62529,"reserved":0,"last_update":"0001-01-01T00:00:00Z","name_a2s":"Uncletopia | São Paulo | 2 | All Maps","protocol":17,"map":"koth_cascade","folder":"tf","game":"Team Fortress","app_id":440,"player_count":0,"max_players":24,"Bots":0,"server_type":"Dedicated","server_os":"Linux","password":true,"vac":true,"version":"7961495","steam_id":85568392924485349,"keywords":["cp","nocrits","nodmgspread","uncletopia"],"game_id":440,"stv_port":27016,"stv_name":"Uncletopia | São Paulo | 2 | All Maps | STV","players":null},{"server_id":7,"name":"Uncletopia | Seattle | 1 | All Maps","name_short":"sea-1","host":"sea-1.us.uncletopia.com","port":27015,"enabled":true,"region":"us-west","cc":"us","latitude":47.608013,"longitude":-122.33517,"reserved":0,"last_update":"0001-01-01T00:00:00Z","name_a2s":"Uncletopia | Seattle | 1 | All Maps","protocol":17,"map":"cp_altitude","folder":"tf","game":"Team Fortress","app_id":440,"player_count":0,"max_players":24,"Bots":0,"server_type":"Dedicated","server_os":"Linux","password":true,"vac":true,"version":"7961495","steam_id":85568392924469997,"keywords":["cp","nocrits","nodmgspread","uncletopia"],"game_id":440,"stv_port":27016,"stv_name":"Uncletopia | Seattle | 1 | All Maps | STV","players":null},{"server_id":119,"name":"Uncletopia | Seattle | 2 | All Maps","name_short":"sea-2","host":"sea-1.us.uncletopia.com","port":27025,"enabled":true,"region":"us-west","cc":"us","latitude":47.608013,"longitude":-122.33517,"reserved":0,"last_update":"0001-01-01T00:00:00Z","name_a2s":"Uncletopia | Seattle | 2 | All Maps","protocol":17,"map":"cp_snakewater_final1","folder":"tf","game":"Team Fortress","app_id":440,"player_count":24,"max_players":24,"Bots":0,"server_type":"Dedicated","server_os":"Linux","password":true,"vac":true,"version":"7961495","steam_id":85568392924469998,"keywords":["cp","nocrits","nodmgspread","uncletopia"],"game_id":440,"stv_port":27026,"stv_name":"Uncletopia | Seattle | 2 | All Maps | STV","players":[{"user_id":571,"name":"małię","steam_id":76561198337705174,"connected_time":49000000000,"state":"active","ping":83},{"user_id":543,"name":"OctraSource","steam_id":76561198193630455,"connected_time":3183000000000,"state":"active","ping":73},{"user_id":545,"name":"Ex-PFC Wintergreen","steam_id":76561198203851303,"connected_time":3070000000000,"state":"active","ping":74},{"user_id":562,"name":"Poppet","steam_id":76561198012301951,"connected_time":1472000000000,"state":"active","ping":117},{"user_id":547,"name":"goopgrabber","steam_id":76561199029951083,"connected_time":3011000000000,"state":"active","ping":67},{"user_id":553,"name":"Mr defrost","steam_id":76561198322125657,"connected_time":2519000000000,"state":"active","ping":71},{"user_id":520,"name":"basilthenasa","steam_id":76561199388111764,"connected_time":4435000000000,"state":"active","ping":157},{"user_id":559,"name":"crispy","steam_id":76561198971106376,"connected_time":1709000000000,"state":"active","ping":90},{"user_id":566,"name":"porksoda","steam_id":76561198021451377,"connected_time":745000000000,"state":"active","ping":52},{"user_id":523,"name":"d","steam_id":76561198066114874,"connected_time":4137000000000,"state":"active","ping":52},{"user_id":498,"name":"Buffalo Gold","steam_id":76561198119693806,"connected_time":7087000000000,"state":"active","ping":77},{"user_id":561,"name":"Twisted4k","steam_id":76561198031237102,"connected_time":1493000000000,"state":"active","ping":87},{"user_id":558,"name":"Mighty","steam_id":76561198096569755,"connected_time":2179000000000,"state":"active","ping":90},{"user_id":541,"name":"Jimmy","steam_id":76561198857959855,"connected_time":3578000000000,"state":"active","ping":75},{"user_id":530,"name":"novacaine","steam_id":76561198149443710,"connected_time":4041000000000,"state":"active","ping":72},{"user_id":549,"name":"Puppeteer","steam_id":76561198159928108,"connected_time":2700000000000,"state":"active","ping":61},{"user_id":569,"name":"floofy","steam_id":76561198389769098,"connected_time":421000000000,"state":"active","ping":141},{"user_id":560,"name":"suzuya #meowment","steam_id":76561199207991492,"connected_time":1508000000000,"state":"active","ping":82},{"user_id":568,"name":"Peri","steam_id":76561198255311543,"connected_time":583000000000,"state":"active","ping":129},{"user_id":570,"name":"NeonBean","steam_id":76561198088335827,"connected_time":396000000000,"state":"active","ping":121},{"user_id":499,"name":"RmBLe","steam_id":76561198150137369,"connected_time":6901000000000,"state":"active","ping":85},{"user_id":556,"name":"dwight schrute","steam_id":76561198001237877,"connected_time":2375000000000,"state":"active","ping":92},{"user_id":529,"name":"Neo Kojiro","steam_id":76561198000967076,"connected_time":4054000000000,"state":"active","ping":134},{"user_id":567,"name":"knatspray","steam_id":76561198832507482,"connected_time":665000000000,"state":"active","ping":97}]},{"server_id":406,"name":"Uncletopia | Seattle | 3 | Stopwatch Beta","name_short":"sea-3","host":"sea-1.us.uncletopia.com","port":27035,"enabled":true,"region":"us-west","cc":"us","latitude":47.608013,"longitude":-122.33517,"reserved":0,"last_update":"0001-01-01T00:00:00Z","name_a2s":"Uncletopia | Seattle | 3 | Stopwatch Beta","protocol":17,"map":"koth_highpass","folder":"tf","game":"Team Fortress","app_id":440,"player_count":0,"max_players":24,"Bots":0,"server_type":"Dedicated","server_os":"Linux","password":true,"vac":true,"version":"7961495","steam_id":85568392924515217,"keywords":["cp","nocrits","nodmgspread","uncletopia"],"game_id":440,"stv_port":27036,"stv_name":"Uncletopia | Seattle | 3 | Stopwatch Beta | STV","players":null},{"server_id":17,"name":"Uncletopia | San Francisco | 1 | All Maps","name_short":"sfo-1","host":"sfo-1.us.uncletopia.com","port":27015,"enabled":true,"region":"us-west","cc":"us","latitude":37.77397,"longitude":-122.4313,"reserved":0,"last_update":"0001-01-01T00:00:00Z","name_a2s":"Uncletopia | San Francisco | 1 | All Maps","protocol":17,"map":"pl_frontier_final","folder":"tf","game":"Team Fortress","app_id":440,"player_count":0,"max_players":24,"Bots":0,"server_type":"Dedicated","server_os":"Linux","password":true,"vac":true,"version":"7932396","steam_id":85568392924469999,"keywords":["nocrits","nodmgspread","payload","uncletopia"],"game_id":440,"stv_port":27016,"stv_name":"Uncletopia | San Francisco | 1 | All Maps | STV","players":null},{"server_id":18,"name":"Uncletopia | San Francisco | 2 | All Maps","name_short":"sfo-2","host":"sfo-1.us.uncletopia.com","port":27025,"enabled":true,"region":"us-west","cc":"us","latitude":37.77397,"longitude":-122.4313,"reserved":0,"last_update":"0001-01-01T00:00:00Z","name_a2s":"Uncletopia | San Francisco | 2 | All Maps","protocol":17,"map":"cp_snakewater_final1","folder":"tf","game":"Team Fortress","app_id":440,"player_count":0,"max_players":24,"Bots":0,"server_type":"Dedicated","server_os":"Linux","password":true,"vac":true,"version":"7932396","steam_id":85568392924470000,"keywords":["cp","nocrits","nodmgspread","uncletopia"],"game_id":440,"stv_port":27026,"stv_name":"Uncletopia | San Francisco | 2 | All Maps | STV","players":null},{"server_id":19,"name":"Uncletopia | San Francisco | 3 | Stopwatch Beta","name_short":"sfo-3","host":"sfo-1.us.uncletopia.com","port":27035,"enabled":true,"region":"us-west","cc":"us","latitude":37.77397,"longitude":-122.4313,"reserved":0,"last_update":"0001-01-01T00:00:00Z","name_a2s":"Uncletopia | San Francisco | 3 | Stopwatch Beta","protocol":17,"map":"koth_lakeside_final","folder":"tf","game":"Team Fortress","app_id":440,"player_count":0,"max_players":24,"Bots":0,"server_type":"Dedicated","server_os":"Linux","password":true,"vac":true,"version":"7932396","steam_id":85568392924742824,"keywords":["cp","nocrits","nodmgspread","uncletopia"],"game_id":440,"stv_port":27036,"stv_name":"Uncletopia | San Francisco | 3 | Stopwatch Beta | STV","players":null},{"server_id":20,"name":"Uncletopia | San Francisco | 4 | Community","name_short":"sfo-4","host":"sfo-1.us.uncletopia.com","port":27045,"enabled":true,"region":"us-west","cc":"us","latitude":37.77397,"longitude":-122.4313,"reserved":0,"last_update":"0001-01-01T00:00:00Z","name_a2s":"Uncletopia | San Francisco | 4 | Community","protocol":17,"map":"pl_borneo","folder":"tf","game":"Team Fortress","app_id":440,"player_count":0,"max_players":24,"Bots":0,"server_type":"Dedicated","server_os":"Linux","password":true,"vac":true,"version":"7932396","steam_id":85568392924742826,"keywords":["nocrits","nodmgspread","payload","uncletopia"],"game_id":440,"stv_port":27046,"stv_name":"Uncletopia | San Francisco | 4 | Community | STV","players":null},{"server_id":141,"name":"Uncletopia | Sydney | 1 | All Maps","name_short":"syd-1","host":"syd-1.au.uncletopia.com","port":27015,"enabled":true,"region":"au","cc":"au","latitude":-33.865143,"longitude":151.2099,"reserved":0,"last_update":"0001-01-01T00:00:00Z","name_a2s":"Uncletopia | Sydney | 1 | All Maps","protocol":17,"map":"pl_swiftwater_final1","folder":"tf","game":"Team Fortress","app_id":440,"player_count":17,"max_players":24,"Bots":0,"server_type":"Dedicated","server_os":"Linux","password":true,"vac":true,"version":"7961495","steam_id":85568392924470001,"keywords":["nocrits","nodmgspread","payload","uncletopia"],"game_id":440,"stv_port":27016,"stv_name":"Uncletopia | Sydney | 1 | All Maps | STV","players":[{"user_id":357,"name":"voxii","steam_id":76561198099698281,"connected_time":102000000000,"state":"active","ping":76},{"user_id":358,"name":"dogᵈᵒᵍ","steam_id":76561198165399415,"connected_time":33000000000,"state":"active","ping":59},{"user_id":356,"name":"Corn's Flake","steam_id":76561198180080757,"connected_time":248000000000,"state":"active","ping":49},{"user_id":294,"name":"Penguin Wielder","steam_id":76561198169038889,"connected_time":5397000000000,"state":"active","ping":59},{"user_id":295,"name":"Zalovaid","steam_id":76561198238958998,"connected_time":5235000000000,"state":"active","ping":72},{"user_id":297,"name":"APG_Trickz","steam_id":76561198102269783,"connected_time":4932000000000,"state":"active","ping":69},{"user_id":354,"name":"milochi ♡","steam_id":76561198087506650,"connected_time":550000000000,"state":"active","ping":36},{"user_id":300,"name":"doctor morbin' (official)","steam_id":76561199365241695,"connected_time":4884000000000,"state":"active","ping":127},{"user_id":327,"name":"tim88435","steam_id":76561198089653987,"connected_time":2272000000000,"state":"active","ping":55},{"user_id":355,"name":"Wuzzle (Trans rights)","steam_id":76561198009868777,"connected_time":400000000000,"state":"active","ping":61},{"user_id":333,"name":"ibus","steam_id":76561199026701614,"connected_time":1756000000000,"state":"active","ping":59},{"user_id":341,"name":"ree boy","steam_id":76561199024189820,"connected_time":1003000000000,"state":"active","ping":95},{"user_id":342,"name":"Mr Doctor","steam_id":76561198081415999,"connected_time":1002000000000,"state":"active","ping":62},{"user_id":350,"name":"human lie detector","steam_id":76561197980015398,"connected_time":683000000000,"state":"active","ping":54},{"user_id":351,"name":"Clawwar","steam_id":76561199237452444,"connected_time":659000000000,"state":"active","ping":81},{"user_id":237,"name":"ItsSnakey","steam_id":76561199187623513,"connected_time":11190000000000,"state":"active","ping":73},{"user_id":352,"name":"Doodles ♛","steam_id":76561198023807247,"connected_time":630000000000,"state":"active","ping":60}]},{"server_id":123,"name":"Uncletopia | Sydney | 2 | All Maps","name_short":"syd-2","host":"syd-1.au.uncletopia.com","port":27025,"enabled":true,"region":"au","cc":"au","latitude":-33.865143,"longitude":151.2099,"reserved":0,"last_update":"0001-01-01T00:00:00Z","name_a2s":"Uncletopia | Sydney | 2 | All Maps","protocol":17,"map":"pl_frontier_final","folder":"tf","game":"Team Fortress","app_id":440,"player_count":22,"max_players":24,"Bots":0,"server_type":"Dedicated","server_os":"Linux","password":true,"vac":true,"version":"7961495","steam_id":85568392924470002,"keywords":["nocrits","nodmgspread","payload","uncletopia"],"game_id":440,"stv_port":27026,"stv_name":"Uncletopia | Sydney | 2 | All Maps | STV","players":[{"user_id":145,"name":"Louis","steam_id":76561198013395847,"connected_time":1074000000000,"state":"active","ping":55},{"user_id":149,"name":"Edgar's can't be choosers","steam_id":76561198301282416,"connected_time":314000000000,"state":"active","ping":50},{"user_id":119,"name":"Paul Hollywood","steam_id":76561198060024585,"connected_time":2265000000000,"state":"active","ping":39},{"user_id":151,"name":"kisses u","steam_id":76561198288970258,"connected_time":29000000000,"state":"active","ping":48},{"user_id":103,"name":"Selling Anti-Matter for $543","steam_id":76561198070708382,"connected_time":4347000000000,"state":"active","ping":46},{"user_id":121,"name":"El Chupacabra","steam_id":76561198070641651,"connected_time":2064000000000,"state":"active","ping":45},{"user_id":137,"name":"blondie","steam_id":76561198257286963,"connected_time":1430000000000,"state":"active","ping":74},{"user_id":143,"name":"theory haver","steam_id":76561198133867907,"connected_time":1190000000000,"state":"active","ping":66},{"user_id":150,"name":"Zeraki","steam_id":76561198004276062,"connected_time":301000000000,"state":"active","ping":73},{"user_id":130,"name":"Tнûи∂уяѕ∂.","steam_id":76561197992346511,"connected_time":1590000000000,"state":"active","ping":51},{"user_id":115,"name":"A fool of a Took","steam_id":76561198206346672,"connected_time":2799000000000,"state":"active","ping":68},{"user_id":116,"name":"slignorbus prongnobbler","steam_id":76561198063481761,"connected_time":2570000000000,"state":"active","ping":45},{"user_id":148,"name":"hired goon","steam_id":76561198048064049,"connected_time":318000000000,"state":"active","ping":84},{"user_id":132,"name":"beerus","steam_id":76561198067731912,"connected_time":1526000000000,"state":"active","ping":68},{"user_id":133,"name":"AutumnLeifs","steam_id":76561198150585969,"connected_time":1526000000000,"state":"active","ping":57},{"user_id":135,"name":"b4sedhk","steam_id":76561198831069486,"connected_time":1501000000000,"state":"active","ping":60},{"user_id":136,"name":"Ishanu","steam_id":76561198009397092,"connected_time":1478000000000,"state":"active","ping":74},{"user_id":138,"name":"Delief_","steam_id":76561198028535226,"connected_time":1421000000000,"state":"active","ping":83},{"user_id":139,"name":"chewy marmot","steam_id":76561198005340350,"connected_time":1420000000000,"state":"active","ping":74},{"user_id":140,"name":"whiteshaq","steam_id":76561198131988811,"connected_time":1333000000000,"state":"active","ping":49},{"user_id":146,"name":"Bigrichard","steam_id":76561198032092945,"connected_time":908000000000,"state":"active","ping":84},{"user_id":144,"name":"modus","steam_id":76561198025099660,"connected_time":1088000000000,"state":"active","ping":38}]},{"server_id":395,"name":"Uncletopia | Sydney | 3 | All Maps","name_short":"syd-3","host":"syd-1.au.uncletopia.com","port":27035,"enabled":true,"region":"au","cc":"au","latitude":-33.865143,"longitude":151.2099,"reserved":0,"last_update":"0001-01-01T00:00:00Z","name_a2s":"Uncletopia | Sydney | 3 | All Maps","protocol":17,"map":"koth_cascade","folder":"tf","game":"Team Fortress","app_id":440,"player_count":0,"max_players":24,"Bots":0,"server_type":"Dedicated","server_os":"Linux","password":true,"vac":true,"version":"7961495","steam_id":85568392925194467,"keywords":["cp","nocrits","nodmgspread","uncletopia"],"game_id":440,"stv_port":27036,"stv_name":"Uncletopia | Sydney | 3 | All Maps | STV","players":null},{"server_id":396,"name":"Uncletopia | Sydney | 4 | All Maps","name_short":"syd-4","host":"syd-1.au.uncletopia.com","port":27045,"enabled":true,"region":"au","cc":"au","latitude":-33.865143,"longitude":151.2099,"reserved":0,"last_update":"0001-01-01T00:00:00Z","name_a2s":"Uncletopia | Sydney | 4 | All Maps","protocol":17,"map":"koth_cascade","folder":"tf","game":"Team Fortress","app_id":440,"player_count":0,"max_players":24,"Bots":0,"server_type":"Dedicated","server_os":"Linux","password":true,"vac":true,"version":"7961495","steam_id":85568392925397958,"keywords":["cp","nocrits","nodmgspread","uncletopia"],"game_id":440,"stv_port":27046,"stv_name":"Uncletopia | Sydney | 4 | All Maps | STV","players":null},{"server_id":58,"name":"Uncletopia | Sydney | 5 | Stopwatch Beta","name_short":"syd-5","host":"syd-1.au.uncletopia.com","port":27055,"enabled":true,"region":"au","cc":"au","latitude":-33.865143,"longitude":151.2099,"reserved":0,"last_update":"0001-01-01T00:00:00Z","name_a2s":"Uncletopia | Sydney | 5 | Stopwatch Beta","protocol":17,"map":"koth_viaduct","folder":"tf","game":"Team Fortress","app_id":440,"player_count":0,"max_players":24,"Bots":0,"server_type":"Dedicated","server_os":"Linux","password":true,"vac":true,"version":"7961495","steam_id":85568392925397959,"keywords":["cp","nocrits","nodmgspread","uncletopia"],"game_id":440,"stv_port":27056,"stv_name":"Uncletopia | Sydney | 5 | Stopwatch Beta | STV","players":null},{"server_id":59,"name":"Uncletopia | Sydney | 6 | Community","name_short":"syd-6","host":"syd-1.au.uncletopia.com","port":27065,"enabled":true,"region":"au","cc":"au","latitude":-33.865143,"longitude":151.2099,"reserved":0,"last_update":"0001-01-01T00:00:00Z","name_a2s":"Uncletopia | Sydney | 6 | Community","protocol":17,"map":"workshop/koth_ramjam_rc1.ugc459778887","folder":"tf","game":"Team Fortress","app_id":440,"player_count":0,"max_players":24,"Bots":0,"server_type":"Dedicated","server_os":"Linux","password":true,"vac":true,"version":"7961495","steam_id":85568392925397960,"keywords":["cp","nocrits","nodmgspread","uncletopia"],"game_id":440,"stv_port":27066,"stv_name":"Uncletopia | Sydney | 6 | Community | STV","players":null},{"server_id":49,"name":"Uncletopia | Warsaw | 1 | All Maps","name_short":"waw-1","host":"waw-1.pl.uncletopia.com","port":27015,"enabled":true,"region":"eu","cc":"pl","latitude":52.2297,"longitude":21.017532,"reserved":0,"last_update":"0001-01-01T00:00:00Z","name_a2s":"","protocol":0,"map":"","folder":"","game":"","app_id":0,"player_count":0,"max_players":0,"Bots":0,"server_type":"","server_os":"","password":false,"vac":false,"version":"","steam_id":0,"keywords":null,"game_id":0,"stv_port":0,"stv_name":"","players":null},{"server_id":50,"name":"Uncletopia | Warsaw | 2 | All Maps","name_short":"waw-2","host":"waw-1.pl.uncletopia.com","port":27025,"enabled":true,"region":"eu","cc":"pl","latitude":52.2297,"longitude":21.017532,"reserved":0,"last_update":"0001-01-01T00:00:00Z","name_a2s":"Uncletopia | Warsaw | 2 | All Maps","protocol":17,"map":"cp_mountainlab","folder":"tf","game":"Team Fortress","app_id":440,"player_count":0,"max_players":24,"Bots":0,"server_type":"Dedicated","server_os":"Linux","password":true,"vac":true,"version":"7961495","steam_id":85568392925397851,"keywords":["cp","nocrits","nodmgspread","uncletopia"],"game_id":440,"stv_port":27026,"stv_name":"Uncletopia | Warsaw | 2 | All Maps | STV","players":null},{"server_id":51,"name":"Uncletopia | Warsaw | 3 | All Maps","name_short":"waw-3","host":"waw-1.pl.uncletopia.com","port":27035,"enabled":true,"region":"eu","cc":"pl","latitude":52.2297,"longitude":21.017532,"reserved":0,"last_update":"0001-01-01T00:00:00Z","name_a2s":"Uncletopia | Warsaw | 3 | All Maps","protocol":17,"map":"cp_mountainlab","folder":"tf","game":"Team Fortress","app_id":440,"player_count":0,"max_players":24,"Bots":0,"server_type":"Dedicated","server_os":"Linux","password":true,"vac":true,"version":"7961495","steam_id":85568392925397852,"keywords":["cp","nocrits","nodmgspread","uncletopia"],"game_id":440,"stv_port":27036,"stv_name":"Uncletopia | Warsaw | 3 | All Maps | STV","players":null},{"server_id":52,"name":"Uncletopia | Warsaw | 4 | All Maps","name_short":"waw-4","host":"waw-1.pl.uncletopia.com","port":27045,"enabled":true,"region":"eu","cc":"pl","latitude":52.2297,"longitude":21.017532,"reserved":0,"last_update":"0001-01-01T00:00:00Z","name_a2s":"Uncletopia | Warsaw | 4 | All Maps","protocol":17,"map":"cp_dustbowl","folder":"tf","game":"Team Fortress","app_id":440,"player_count":0,"max_players":24,"Bots":0,"server_type":"Dedicated","server_os":"Linux","password":true,"vac":true,"version":"7961495","steam_id":85568392925397853,"keywords":["cp","nocrits","nodmgspread","uncletopia"],"game_id":440,"stv_port":27046,"stv_name":"Uncletopia | Warsaw | 4 | All Maps | STV","players":null},{"server_id":53,"name":"Uncletopia | Warsaw | 5 | Stopwatch Beta","name_short":"waw-5","host":"waw-1.pl.uncletopia.com","port":27055,"enabled":true,"region":"eu","cc":"pl","latitude":52.2297,"longitude":21.017532,"reserved":0,"last_update":"0001-01-01T00:00:00Z","name_a2s":"Uncletopia | Warsaw | 5 | Stopwatch Beta","protocol":17,"map":"pl_snowycoast","folder":"tf","game":"Team Fortress","app_id":440,"player_count":0,"max_players":24,"Bots":0,"server_type":"Dedicated","server_os":"Linux","password":true,"vac":true,"version":"7961495","steam_id":85568392925397854,"keywords":["nocrits","nodmgspread","payload","uncletopia"],"game_id":440,"stv_port":27056,"stv_name":"Uncletopia | Warsaw | 5 | Stopwatch Beta | STV","players":null},{"server_id":54,"name":"Uncletopia | Warsaw | 6 | Community","name_short":"waw-6","host":"waw-1.pl.uncletopia.com","port":27065,"enabled":true,"region":"eu","cc":"pl","latitude":52.2297,"longitude":21.017532,"reserved":0,"last_update":"0001-01-01T00:00:00Z","name_a2s":"Uncletopia | Warsaw | 6 | Community","protocol":17,"map":"pl_borneo","folder":"tf","game":"Team Fortress","app_id":440,"player_count":0,"max_players":24,"Bots":0,"server_type":"Dedicated","server_os":"Linux","password":true,"vac":true,"version":"7961495","steam_id":85568392925397856,"keywords":["nocrits","nodmgspread","payload","uncletopia"],"game_id":440,"stv_port":27066,"stv_name":"Uncletopia | Warsaw | 6 | Community | STV","players":null}]}