{"status":true,"message":"","result":[{"server_id":9,"name":"Uncletopia | Atlanta | 1 | All Maps","name_short":"atl-1","host":"atl-1.us.uncletopia.com","port":27015,"enabled":true,"region":"us-east","cc":"us","latitude":33.753746,"longitude":-84.38633,"reserved":0,"last_update":"0001-01-01T00:00:00Z","name_a2s":"Uncletopia | Atlanta | 1 | All Maps","protocol":17,"map":"pl_borneo","folder":"tf","game":"Team Fortress","app_id":440,"player_count":0,"max_players":24,"Bots":0,"server_type":"Dedicated","server_os":"Linux","password":true,"vac":true,"version":"7742253","steam_id":85568392924469982,"keywords":["nocrits","nodmgspread","payload","uncletopia"],"game_id":440,"stv_port":27016,"stv_name":"Uncletopia | Atlanta | 1 | All Maps | STV","players":null},{"server_id":400,"name":"Uncletopia | Atlanta | 3 | Stopwatch Beta","name_short":"atl-3","host":"atl-1.us.uncletopia.com","port":27035,"enabled":true,"region":"us-east","cc":"us","latitude":33.753746,"longitude":-84.38633,"reserved":0,"last_update":"0001-01-01T00:00:00Z","name_a2s":"Uncletopia | Atlanta | 3 | Stopwatch Beta","protocol":17,"map":"pl_pier","folder":"tf","game":"Team Fortress","app_id":440,"player_count":0,"max_players":24,"Bots":0,"server_type":"Dedicated","server_os":"Linux","password":true,"vac":true,"version":"7742253","steam_id":85568392924515187,"keywords":["nocrits","nodmgspread","payload","uncletopia"],"game_id":440,"stv_port":27036,"stv_name":"Uncletopia | Atlanta | 3 | Stopwatch Beta | STV","players":null},{"server_id":401,"name":"Uncletopia | Atlanta | 4 | No Payload","name_short":"atl-4","host":"atl-1.us.uncletopia.com","port":27045,"enabled":true,"region":"us-east","cc":"us","latitude":33.753746,"longitude":-84.38633,"reserved":0,"last_update":"0001-01-01T00:00:00Z","name_a2s":"Uncletopia | Atlanta | 4 | No Payload","protocol":17,"map":"pl_pier","folder":"tf","game":"Team Fortress","app_id":440,"player_count":0,"max_players":24,"Bots":0,"server_type":"Dedicated","server_os":"Linux","password":true,"vac":true,"version":"7723704","steam_id":85568392924515188,"keywords":["nocrits","nodmgspread","payload","uncletopia"],"game_id":440,"stv_port":27046,"stv_name":"Uncletopia | Atlanta | 4 | No Payload | STV","players":null},{"server_id":2,"name":"Uncletopia | Chicago | 1 | All Maps","name_short":"chi-1","host":"chi-1.us.uncletopia.com","port":27015,"enabled":true,"region":"us-central","cc":"us","latitude":41.881832,"longitude":-87.62318,"reserved":0,"last_update":"0001-01-01T00:00:00Z","name_a2s":"Uncletopia | Chicago | 1 | All Maps","protocol":17,"map":"cp_dustbowl","folder":"tf","game":"Team Fortress","app_id":440,"player_count":24,"max_players":24,"Bots":0,"server_type":"Dedicated","server_os":"Linux","password":true,"vac":true,"version":"7742253","steam_id":85568392924469984,"keywords":["cp","nocrits","nodmgspread","uncletopia"],"game_id":440,"stv_port":27016,"stv_name":"Uncletopia | Chicago | 1 | All Maps | STV","players":[{"user_id":3,"name":"Tommy Pickles (Very Cool)","steam_id":76561198391261463,"connected_time":11710000000000,"state":"active","ping":71},{"user_id":139,"name":"Dexter","steam_id":76561198050149035,"connected_time":610000000000,"state":"active","ping":61},{"user_id":138,"name":"R{FITH}™Drunk Sensual Pop-tar","steam_id":76561198083999138,"connected_time":691000000000,"state":"active","ping":82},{"user_id":6,"name":"Lennu","steam_id":76561198060730154,"connected_time":11702000000000,"state":"active","ping":71},{"user_id":64,"name":"shokie","steam_id":76561197997961542,"connected_time":8767000000000,"state":"active","ping":83},{"user_id":115,"name":"luxin","steam_id":76561198399383047,"connected_time":4062000000000,"state":"active","ping":62},{"user_id":125,"name":"Zadok Allen","steam_id":76561198057374871,"connected_time":2260000000000,"state":"active","ping":59},{"user_id":131,"name":"Ta5K","steam_id":76561198939558155,"connected_time":1860000000000,"state":"active","ping":39},{"user_id":118,"name":"analytical therapist","steam_id":76561198081220016,"connected_time":3783000000000,"state":"active","ping":55},{"user_id":121,"name":"oopsboom24","steam_id":76561199105248648,"connected_time":3641000000000,"state":"active","ping":95},{"user_id":103,"name":"Elena Manetta","steam_id":76561197998344054,"connected_time":5276000000000,"state":"active","ping":59},{"user_id":105,"name":"SkyHiPie","steam_id":76561198152124919,"connected_time":5179000000000,"state":"active","ping":86},{"user_id":106,"name":"nomnom","steam_id":76561198152344988,"connected_time":5154000000000,"state":"active","ping":92},{"user_id":122,"name":"spinz","steam_id":76561198353098481,"connected_time":3627000000000,"state":"active","ping":68},{"user_id":137,"name":"nnobi","steam_id":76561198878729277,"connected_time":714000000000,"state":"active","ping":76},{"user_id":136,"name":"stockhack","steam_id":76561198050220225,"connected_time":1222000000000,"state":"active","ping":73},{"user_id":142,"name":"xyzKevin","steam_id":76561199042234301,"connected_time":68000000000,"state":"active","ping":62},{"user_id":89,"name":"Elias","steam_id":76561198106431732,"connected_time":7054000000000,"state":"active","ping":74},{"user_id":133,"name":"VioletSpecs","steam_id":76561198089366466,"connected_time":1803000000000,"state":"active","ping":71},{"user_id":127,"name":"hops_a_pops","steam_id":76561198210902109,"connected_time":2242000000000,"state":"active","ping":74},{"user_id":73,"name":"Tyler\u0026Fingers","steam_id":76561198085154485,"connected_time":8344000000000,"state":"active","ping":80},{"user_id":117,"name":"Lucy Lou!","steam_id":76561198078209088,"connected_time":3799000000000,"state":"active","ping":45},{"user_id":91,"name":"Stauxie","steam_id":76561198255030077,"connected_time":6839000000000,"state":"active","ping":84},{"user_id":97,"name":"trans rights","steam_id":76561198044183038,"connected_time":5564000000000,"state":"active","ping":60}]},{"server_id":106,"name":"Uncletopia | Chicago | 2 | All Maps","name_short":"chi-2","host":"chi-1.us.uncletopia.com","port":27025,"enabled":true,"region":"us-central","cc":"us","latitude":41.881832,"longitude":-87.62318,"reserved":0,"last_update":"0001-01-01T00:00:00Z","name_a2s":"Uncletopia | Chicago | 2 | All Maps","protocol":17,"map":"cp_mountainlab","folder":"tf","game":"Team Fortress","app_id":440,"player_count":8,"max_players":24,"Bots":0,"server_type":"Dedicated","server_os":"Linux","password":true,"vac":true,"version":"7742253","steam_id":85568392924469985,"keywords":["cp","nocrits","nodmgspread","uncletopia"],"game_id":440,"stv_port":27026,"stv_name":"Uncletopia | Chicago | 2 | All Maps | STV","players":[{"user_id":6,"name":"Juni Cortez","steam_id":76561198115552623,"connected_time":2593000000000,"state":"active","ping":47},{"user_id":10,"name":"ultra instinct cringe micheal","steam_id":76561198275625984,"connected_time":1916000000000,"state":"active","ping":72},{"user_id":20,"name":"William Wallace","steam_id":76561199343316814,"connected_time":518000000000,"state":"active","ping":52},{"user_id":15,"name":"[ LOUD INCORRECT BUZZER ]","steam_id":76561198112388117,"connected_time":1367000000000,"state":"active","ping":77},{"user_id":21,"name":"Karma","steam_id":76561198030565234,"connected_time":412000000000,"state":"active","ping":56},{"user_id":22,"name":"OreoAddict","steam_id":76561199057346351,"connected_time":320000000000,"state":"active","ping":37},{"user_id":24,"name":"Vapor","steam_id":76561198850475407,"connected_time":35000000000,"state":"active","ping":53},{"user_id":25,"name":"Cheez it hater","steam_id":76561199006014570,"connected_time":15000000000,"state":"active","ping":44}]},{"server_id":402,"name":"Uncletopia | Chicago | 3 | All Maps","name_short":"chi-3","host":"chi-1.us.uncletopia.com","port":27035,"enabled":true,"region":"us-central","cc":"us","latitude":41.881832,"longitude":-87.62318,"reserved":0,"last_update":"0001-01-01T00:00:00Z","name_a2s":"Uncletopia | Chicago | 3 | All Maps","protocol":17,"map":"koth_viaduct","folder":"tf","game":"Team Fortress","app_id":440,"player_count":0,"max_players":24,"Bots":0,"server_type":"Dedicated","server_os":"Linux","password":true,"vac":true,"version":"7742253","steam_id":85568392924515191,"keywords":["cp","nocrits","nodmgspread","uncletopia"],"game_id":440,"stv_port":27036,"stv_name":"Uncletopia | Chicago | 3 | All Maps | STV","players":null},{"server_id":403,"name":"Uncletopia | Chicago | 4 | All Maps","name_short":"chi-4","host":"chi-1.us.uncletopia.com","port":27045,"enabled":true,"region":"us-central","cc":"us","latitude":41.881832,"longitude":-87.62318,"reserved":0,"last_update":"0001-01-01T00:00:00Z","name_a2s":"Uncletopia | Chicago | 4 | All Maps","protocol":17,"map":"koth_lakeside_final","folder":"tf","game":"Team Fortress","app_id":440,"player_count":0,"max_players":24,"Bots":0,"server_type":"Dedicated","server_os":"Linux","password":true,"vac":true,"version":"7742253","steam_id":85568392924515193,"keywords":["cp","nocrits","nodmgspread","uncletopia"],"game_id":440,"stv_port":27046,"stv_name":"Uncletopia | Chicago | 4 | All Maps | STV","players":null},{"server_id":36,"name":"Uncletopia | Chicago | 5 | All Maps","name_short":"chi-5","host":"chi-2.us.uncletopia.com","port":27015,"enabled":true,"region":"us-central","cc":"us","latitude":41.881832,"longitude":-87.62318,"reserved":0,"last_update":"0001-01-01T00:00:00Z","name_a2s":"Uncletopia | Chicago | 5 | All Maps","protocol":17,"map":"pl_upward","folder":"tf","game":"Team Fortress","app_id":440,"player_count":0,"max_players":24,"Bots":0,"server_type":"Dedicated","server_os":"Linux","password":true,"vac":true,"version":"7742253","steam_id":85568392924866362,"keywords":["nocrits","nodmgspread","payload","uncletopia"],"game_id":440,"stv_port":27016,"stv_name":"Uncletopia | Chicago | 5 | All Maps | STV","players":null},{"server_id":37,"name":"Uncletopia | Chicago | 6 | All Maps","name_short":"chi-6","host":"chi-2.us.uncletopia.com","port":27025,"enabled":true,"region":"us-central","cc":"us","latitude":41.881832,"longitude":-87.62318,"reserved":0,"last_update":"0001-01-01T00:00:00Z","name_a2s":"Uncletopia | Chicago | 6 | All Maps","protocol":17,"map":"cp_sunshine","folder":"tf","game":"Team Fortress","app_id":440,"player_count":0,"max_players":24,"Bots":0,"server_type":"Dedicated","server_os":"Linux","password":true,"vac":true,"version":"7742253","steam_id":85568392924866363,"keywords":["cp","nocrits","nodmgspread","uncletopia"],"game_id":440,"stv_port":27026,"stv_name":"Uncletopia | Chicago | 6 | All Maps | STV","players":null},{"server_id":38,"name":"Uncletopia | Chicago | 7 | Stopwatch Beta","name_short":"chi-7","host":"chi-2.us.uncletopia.com","port":27035,"enabled":true,"region":"us-central","cc":"us","latitude":41.881832,"longitude":-87.62318,"reserved":0,"last_update":"0001-01-01T00:00:00Z","name_a2s":"Uncletopia | Chicago | 7 | Stopwatch Beta","protocol":17,"map":"koth_lakeside_final","folder":"tf","game":"Team Fortress","app_id":440,"player_count":0,"max_players":24,"Bots":0,"server_type":"Dedicated","server_os":"Linux","password":true,"vac":true,"version":"7742253","steam_id":85568392924866364,"keywords":["cp","nocrits","nodmgspread","uncletopia"],"game_id":440,"stv_port":27036,"stv_name":"Uncletopia | Chicago | 7 | Stopwatch Beta | STV","players":null},{"server_id":39,"name":"Uncletopia | Chicago | 8 | Community","name_short":"chi-8","host":"chi-2.us.uncletopia.com","port":27045,"enabled":true,"region":"us-central","cc":"us","latitude":41.881832,"longitude":-87.62318,"reserved":0,"last_update":"0001-01-01T00:00:00Z","name_a2s":"Uncletopia | Chicago | 8 | Community","protocol":17,"map":"koth_lakeside_final","folder":"tf","game":"Team Fortress","app_id":440,"player_count":0,"max_players":24,"Bots":0,"server_type":"Dedicated","server_os":"Linux","password":true,"vac":true,"version":"7742253","steam_id":85568392924866365,"keywords":["cp","nocrits","nodmgspread","uncletopia"],"game_id":440,"stv_port":27046,"stv_name":"Uncletopia | Chicago | 8 | Community | STV","players":null},{"server_id":8,"name":"Uncletopia | Dallas | 1 | All Maps","name_short":"dal-1","host":"dal-1.us.uncletopia.com","port":27015,"enabled":true,"region":"us-central","cc":"us","latitude":32.779167,"longitude":-96.80889,"reserved":0,"last_update":"0001-01-01T00:00:00Z","name_a2s":"Uncletopia | Dallas | 1 | All Maps","protocol":17,"map":"koth_viaduct","folder":"tf","game":"Team Fortress","app_id":440,"player_count":0,"max_players":24,"Bots":0,"server_type":"Dedicated","server_os":"Linux","password":true,"vac":true,"version":"7742253","steam_id":85568392924469986,"keywords":["cp","nocrits","nodmgspread","uncletopia"],"game_id":440,"stv_port":27016,"stv_name":"Uncletopia | Dallas | 1 | All Maps | STV","players":null},{"server_id":108,"name":"Uncletopia | Dallas | 2 | All Maps","name_short":"dal-2","host":"dal-1.us.uncletopia.com","port":27025,"enabled":true,"region":"us-central","cc":"us","latitude":32.779167,"longitude":-96.80889,"reserved":0,"last_update":"0001-01-01T00:00:00Z","name_a2s":"Uncletopia | Dallas | 2 | All Maps","protocol":17,"map":"pl_swiftwater_final1","folder":"tf","game":"Team Fortress","app_id":440,"player_count":0,"max_players":24,"Bots":0,"server_type":"Dedicated","server_os":"Linux","password":true,"vac":true,"version":"7742253","steam_id":85568392924469988,"keywords":["nocrits","nodmgspread","payload","uncletopia"],"game_id":440,"stv_port":27026,"stv_name":"Uncletopia | Dallas | 2 | All Maps | STV","players":null},{"server_id":5,"name":"Uncletopia | Frankfurt | 1 | All Maps","name_short":"frk-1","host":"frk-1.de.uncletopia.com","port":27015,"enabled":true,"region":"eu","cc":"de","latitude":50.110924,"longitude":8.682127,"reserved":0,"last_update":"0001-01-01T00:00:00Z","name_a2s":"Uncletopia | Frankfurt | 1 | All Maps","protocol":17,"map":"cp_process_final","folder":"tf","game":"Team Fortress","app_id":440,"player_count":0,"max_players":24,"Bots":0,"server_type":"Dedicated","server_os":"Linux","password":true,"vac":true,"version":"7742253","steam_id":85568392924469989,"keywords":["cp","nocrits","nodmgspread","uncletopia"],"game_id":440,"stv_port":27016,"stv_name":"Uncletopia | Frankfurt | 1 | All Maps | STV","players":null},{"server_id":110,"name":"Uncletopia | Frankfurt | 2 | All Maps","name_short":"frk-2","host":"frk-1.de.uncletopia.com","port":27025,"enabled":true,"region":"eu","cc":"de","latitude":50.110924,"longitude":8.682127,"reserved":0,"last_update":"0001-01-01T00:00:00Z","name_a2s":"Uncletopia | Frankfurt | 2 | All Maps","protocol":17,"map":"pl_pier","folder":"tf","game":"Team Fortress","app_id":440,"player_count":21,"max_players":24,"Bots":0,"server_type":"Dedicated","server_os":"Linux","password":true,"vac":true,"version":"7742253","steam_id":85568392924469990,"keywords":["nocrits","nodmgspread","payload","uncletopia"],"game_id":440,"stv_port":27026,"stv_name":"Uncletopia | Frankfurt | 2 | All Maps | STV","players":[{"user_id":334,"name":"Paranoob","steam_id":76561199093369711,"connected_time":2444000000000,"state":"active","ping":91},{"user_id":322,"name":"jankomit","steam_id":76561198043024857,"connected_time":3311000000000,"state":"active","ping":78},{"user_id":342,"name":"Stu_Strib","steam_id":76561197970588300,"connected_time":1969000000000,"state":"active","ping":165},{"user_id":350,"name":"Dionysos","steam_id":76561198022589417,"connected_time":996000000000,"state":"active","ping":49},{"user_id":321,"name":"Freeman","steam_id":76561198094288793,"connected_time":3599000000000,"state":"active","ping":69},{"user_id":337,"name":"Michał","steam_id":76561198320346362,"connected_time":2375000000000,"state":"active","ping":59},{"user_id":349,"name":"tommasobertoli45","steam_id":76561199338758373,"connected_time":1321000000000,"state":"active","ping":64},{"user_id":325,"name":"Lordware","steam_id":76561198022011299,"connected_time":3252000000000,"state":"active","ping":76},{"user_id":345,"name":"Loop_Cat","steam_id":76561199045902145,"connected_time":1779000000000,"state":"active","ping":118},{"user_id":338,"name":"Kresslib","steam_id":76561198121114105,"connected_time":2373000000000,"state":"active","ping":86},{"user_id":351,"name":":)","steam_id":76561198103988618,"connected_time":459000000000,"state":"active","ping":67},{"user_id":309,"name":"Nidja","steam_id":76561198258232615,"connected_time":4586000000000,"state":"active","ping":73},{"user_id":332,"name":"robbob","steam_id":76561198137375391,"connected_time":2594000000000,"state":"active","ping":75},{"user_id":333,"name":"Litsuw","steam_id":76561198081785898,"connected_time":2588000000000,"state":"active","ping":60},{"user_id":187,"name":"Rose-Marie","steam_id":76561198055611092,"connected_time":14316000000000,"state":"active","ping":61},{"user_id":348,"name":"VillCo","steam_id":76561198121897322,"connected_time":1380000000000,"state":"active","ping":94},{"user_id":352,"name":"3xample","steam_id":76561198805049375,"connected_time":437000000000,"state":"active","ping":73},{"user_id":330,"name":"YASHA LAVA","steam_id":76561198029925315,"connected_time":2737000000000,"state":"active","ping":68},{"user_id":328,"name":"Jack Dickfister","steam_id":76561198145145810,"connected_time":3152000000000,"state":"active","ping":59},{"user_id":340,"name":"Andy","steam_id":76561198136364381,"connected_time":2126000000000,"state":"active","ping":80},{"user_id":346,"name":"Hoxton","steam_id":76561198129209505,"connected_time":1653000000000,"state":"active","ping":65}]},{"server_id":308,"name":"Uncletopia | Frankfurt | 3 | All Maps","name_short":"frk-3","host":"frk-1.de.uncletopia.com","port":27035,"enabled":true,"region":"eu","cc":"de","latitude":50.110924,"longitude":8.682127,"reserved":0,"last_update":"0001-01-01T00:00:00Z","name_a2s":"Uncletopia | Frankfurt | 3 | All Maps","protocol":17,"map":"pl_borneo","folder":"tf","game":"Team Fortress","app_id":440,"player_count":23,"max_players":24,"Bots":0,"server_type":"Dedicated","server_os":"Linux","password":true,"vac":true,"version":"7742253","steam_id":85568392924504274,"keywords":["nocrits","nodmgspread","payload","uncletopia"],"game_id":440,"stv_port":27036,"stv_name":"Uncletopia | Frankfurt | 3 | All Maps | STV","players":[{"user_id":366,"name":"Hadshed","steam_id":76561198167733863,"connected_time":2128000000000,"state":"active","ping":118},{"user_id":378,"name":"Optimist 50","steam_id":76561198039631442,"connected_time":737000000000,"state":"active","ping":74},{"user_id":370,"name":"nebitan","steam_id":76561198879865374,"connected_time":1958000000000,"state":"active","ping":78},{"user_id":377,"name":"YuraGreek","steam_id":76561198050182252,"connected_time":870000000000,"state":"active","ping":79},{"user_id":359,"name":"Sylbar","steam_id":76561198065379590,"connected_time":2214000000000,"state":"active","ping":55},{"user_id":304,"name":"fogings","steam_id":76561198044165284,"connected_time":5861000000000,"state":"active","ping":45},{"user_id":360,"name":"Doggo","steam_id":76561198091909701,"connected_time":2205000000000,"state":"active","ping":97},{"user_id":379,"name":"Ardello","steam_id":76561198864484125,"connected_time":726000000000,"state":"active","ping":79},{"user_id":381,"name":"Dictatorial Karelian","steam_id":76561198196736457,"connected_time":705000000000,"state":"active","ping":74},{"user_id":380,"name":"Mankor","steam_id":76561198020439322,"connected_time":716000000000,"state":"active","ping":45},{"user_id":330,"name":"Zenos","steam_id":76561198058829310,"connected_time":4719000000000,"state":"active","ping":46},{"user_id":388,"name":"Octoblue64","steam_id":76561198388997283,"connected_time":445000000000,"state":"active","ping":61},{"user_id":383,"name":"Joe mama","steam_id":76561198806718750,"connected_time":700000000000,"state":"active","ping":61},{"user_id":375,"name":"Realist 40","steam_id":76561198052476979,"connected_time":1154000000000,"state":"active","ping":85},{"user_id":384,"name":"NhouBrane","steam_id":76561198293577735,"connected_time":694000000000,"state":"active","ping":61},{"user_id":376,"name":"It's clear that it's not ok","steam_id":76561198123064906,"connected_time":1102000000000,"state":"active","ping":76},{"user_id":372,"name":"USBug999","steam_id":76561199174677820,"connected_time":1837000000000,"state":"active","ping":131},{"user_id":352,"name":"CarbonPan","steam_id":76561198072169983,"connected_time":2599000000000,"state":"active","ping":107},{"user_id":385,"name":"0","steam_id":76561198047648913,"connected_time":692000000000,"state":"active","ping":56},{"user_id":371,"name":"naaaa","steam_id":76561198136259553,"connected_time":1938000000000,"state":"active","ping":98},{"user_id":387,"name":"HeloOo_per The Communist","steam_id":76561199099995357,"connected_time":479000000000,"state":"active","ping":66},{"user_id":358,"name":"M. Hulot","steam_id":76561197994284798,"connected_time":2250000000000,"state":"active","ping":47},{"user_id":386,"name":"better call selo","steam_id":76561198976793469,"connected_time":497000000000,"state":"active","ping":93}]},{"server_id":309,"name":"Uncletopia | Frankfurt | 4 | All Maps","name_short":"frk-4","host":"frk-1.de.uncletopia.com","port":27045,"enabled":true,"region":"eu","cc":"de","latitude":50.110924,"longitude":8.682127,"reserved":0,"last_update":"0001-01-01T00:00:00Z","name_a2s":"Uncletopia | Frankfurt | 4 | All Maps","protocol":17,"map":"pl_borneo","folder":"tf","game":"Team Fortress","app_id":440,"player_count":23,"max_players":24,"Bots":0,"server_type":"Dedicated","server_os":"Linux","password":true,"vac":true,"version":"7742253","steam_id":85568392924504275,"keywords":["nocrits","nodmgspread","payload","uncletopia"],"game_id":440,"stv_port":27046,"stv_name":"Uncletopia | Frankfurt | 4 | All Maps | STV","players":[{"user_id":69,"name":"Krismas","steam_id":76561198021772843,"connected_time":2866000000000,"state":"active","ping":56},{"user_id":87,"name":"HwK!","steam_id":76561198287835588,"connected_time":868000000000,"state":"active","ping":81},{"user_id":12,"name":"The Drybone","steam_id":76561199229123721,"connected_time":5549000000000,"state":"active","ping":50},{"user_id":107,"name":"the joy of recycling","steam_id":76561198415564349,"connected_time":185000000000,"state":"active","ping":62},{"user_id":76,"name":"ZOMBINΣ","steam_id":76561198151057964,"connected_time":2148000000000,"state":"active","ping":71},{"user_id":15,"name":"El Gato Volador","steam_id":76561198021296882,"connected_time":5287000000000,"state":"active","ping":75},{"user_id":89,"name":"Oxitocin","steam_id":76561198119542899,"connected_time":862000000000,"state":"active","ping":69},{"user_id":33,"name":"Rambi","steam_id":76561199058078505,"connected_time":4625000000000,"state":"active","ping":156},{"user_id":90,"name":"Borazilla","steam_id":76561198083626821,"connected_time":855000000000,"state":"active","ping":96},{"user_id":104,"name":"WX-78","steam_id":76561199117263527,"connected_time":308000000000,"state":"active","ping":143},{"user_id":108,"name":"already ubered","steam_id":76561198065009070,"connected_time":40000000000,"state":"active","ping":73},{"user_id":72,"name":"henoadam","steam_id":76561198151350377,"connected_time":2480000000000,"state":"active","ping":66},{"user_id":77,"name":"[G.E.W.P.] | Gr0t0s","steam_id":76561198157368331,"connected_time":2146000000000,"state":"active","ping":64},{"user_id":81,"name":"hshs","steam_id":76561198314562513,"connected_time":1566000000000,"state":"active","ping":64},{"user_id":85,"name":"Trollface [ᴙ-μ]","steam_id":76561198418538887,"connected_time":1102000000000,"state":"active","ping":92},{"user_id":109,"name":"DeleteTrickster","steam_id":76561198397120242,"connected_time":25000000000,"state":"active","ping":99},{"user_id":79,"name":"am baby","steam_id":76561198037550223,"connected_time":2021000000000,"state":"active","ping":105},{"user_id":94,"name":"tealoverr.190","steam_id":76561199028497703,"connected_time":801000000000,"state":"active","ping":105},{"user_id":101,"name":"just a cat","steam_id":76561198328023740,"connected_time":662000000000,"state":"active","ping":57},{"user_id":95,"name":"tekt","steam_id":76561198044554387,"connected_time":782000000000,"state":"active","ping":87},{"user_id":106,"name":"manKe","steam_id":76561198008564860,"connected_time":290000000000,"state":"active","ping":60},{"user_id":103,"name":"Huskehh  乡","steam_id":76561198132155482,"connected_time":332000000000,"state":"active","ping":73},{"user_id":97,"name":"glyph","steam_id":76561197980736364,"connected_time":760000000000,"state":"active","ping":74}]},{"server_id":310,"name":"Uncletopia | Frankfurt | 5 | All Maps","name_short":"frk-5","host":"frk-1.de.uncletopia.com","port":27055,"enabled":true,"region":"eu","cc":"de","latitude":50.110924,"longitude":8.682127,"reserved":0,"last_update":"0001-01-01T00:00:00Z","name_a2s":"Uncletopia | Frankfurt | 5 | All Maps","protocol":17,"map":"koth_viaduct","folder":"tf","game":"Team Fortress","app_id":440,"player_count":0,"max_players":24,"Bots":0,"server_type":"Dedicated","server_os":"Linux","password":true,"vac":true,"version":"7742253","steam_id":85568392924504277,"keywords":["cp","nocrits","nodmgspread","uncletopia"],"game_id":440,"stv_port":27056,"stv_name":"Uncletopia | Frankfurt | 5 | All Maps | STV","players":null},{"server_id":311,"name":"Uncletopia | Frankfurt | 6 | All Maps","name_short":"frk-6","host":"frk-1.de.uncletopia.com","port":27065,"enabled":true,"region":"eu","cc":"de","latitude":50.110924,"longitude":8.682127,"reserved":0,"last_update":"0001-01-01T00:00:00Z","name_a2s":"Uncletopia | Frankfurt | 6 | All Maps","protocol":17,"map":"pl_pier","folder":"tf","game":"Team Fortress","app_id":440,"player_count":24,"max_players":24,"Bots":0,"server_type":"Dedicated","server_os":"Linux","password":true,"vac":true,"version":"7742253","steam_id":85568392924504278,"keywords":["nocrits","nodmgspread","payload","uncletopia"],"game_id":440,"stv_port":27066,"stv_name":"Uncletopia | Frankfurt | 6 | All Maps | STV","players":[{"user_id":312,"name":"Umbro","steam_id":76561198087930438,"connected_time":741000000000,"state":"active","ping":75},{"user_id":318,"name":"hondjo","steam_id":76561198119324108,"connected_time":504000000000,"state":"active","ping":60},{"user_id":293,"name":"Estyle","steam_id":76561198157804700,"connected_time":2689000000000,"state":"active","ping":76},{"user_id":310,"name":"wit tijgerbrood","steam_id":76561198316462394,"connected_time":1124000000000,"state":"active","ping":66},{"user_id":315,"name":"--","steam_id":76561198365098582,"connected_time":629000000000,"state":"active","ping":147},{"user_id":319,"name":"Accident","steam_id":76561198115160396,"connected_time":494000000000,"state":"active","ping":60},{"user_id":299,"name":"Mr. Hunts","steam_id":76561197981910397,"connected_time":2403000000000,"state":"active","ping":72},{"user_id":269,"name":"After8","steam_id":76561198090750865,"connected_time":4718000000000,"state":"active","ping":72},{"user_id":317,"name":"Miatthew","steam_id":76561198034102895,"connected_time":510000000000,"state":"active","ping":59},{"user_id":320,"name":"Use The Finger","steam_id":76561198050203563,"connected_time":488000000000,"state":"active","ping":64},{"user_id":321,"name":"برهنه خوشحال","steam_id":76561198327135462,"connected_time":476000000000,"state":"active","ping":150},{"user_id":296,"name":"Julez","steam_id":76561198045505082,"connected_time":2568000000000,"state":"active","ping":71},{"user_id":325,"name":"epaggelmatic emprist","steam_id":76561198159393871,"connected_time":169000000000,"state":"active","ping":81},{"user_id":323,"name":"Fasj.","steam_id":76561198049975379,"connected_time":377000000000,"state":"active","ping":58},{"user_id":309,"name":"goktwoxd","steam_id":76561198065114415,"connected_time":1129000000000,"state":"active","ping":75},{"user_id":252,"name":"Goliath","steam_id":76561198088583638,"connected_time":5745000000000,"state":"active","ping":47},{"user_id":303,"name":"Minkuh","steam_id":76561198347379221,"connected_time":1986000000000,"state":"active","ping":60},{"user_id":306,"name":"Stepoface","steam_id":76561198091569863,"connected_time":1942000000000,"state":"active","ping":60},{"user_id":328,"name":"cockwater","steam_id":76561198209101861,"connected_time":34000000000,"state":"active","ping":68},{"user_id":324,"name":"jaime8D","steam_id":76561197980590671,"connected_time":255000000000,"state":"active","ping":93},{"user_id":326,"name":"monikka","steam_id":76561198297003397,"connected_time":70000000000,"state":"active","ping":75},{"user_id":305,"name":"♣Бредовый Месяц","steam_id":76561198796404149,"connected_time":1965000000000,"state":"active","ping":102},{"user_id":287,"name":"FaceShackle","steam_id":76561198038371397,"connected_time":3399000000000,"state":"active","ping":45},{"user_id":311,"name":"Skirlez","steam_id":76561198110662773,"connected_time":1104000000000,"state":"active","ping":99}]},{"server_id":23,"name":"Uncletopia | Frankfurt | 7 | Stopwatch Beta","name_short":"frk-7","host":"frk-1.de.uncletopia.com","port":27075,"enabled":true,"region":"eu","cc":"de","latitude":50.110924,"longitude":8.682127,"reserved":0,"last_update":"0001-01-01T00:00:00Z","name_a2s":"Uncletopia | Frankfurt | 7 | Stopwatch Beta","protocol":17,"map":"workshop/koth_bagel_rc5.ugc2514036946","folder":"tf","game":"Team Fortress","app_id":440,"player_count":5,"max_players":24,"Bots":0,"server_type":"Dedicated","server_os":"Linux","password":true,"vac":true,"version":"7742253","steam_id":85568392924742827,"keywords":["cp","nocrits","nodmgspread","uncletopia"],"game_id":440,"stv_port":27076,"stv_name":"Uncletopia | Frankfurt | 7 | Stopwatch Beta | STV","players":[{"user_id":270,"name":"F","steam_id":76561199149462792,"connected_time":118000000000,"state":"active","ping":58},{"user_id":267,"name":"im red","steam_id":76561199087284519,"connected_time":442000000000,"state":"active","ping":59},{"user_id":265,"name":"Mehrtelb","steam_id":76561198054162669,"connected_time":599000000000,"state":"active","ping":45},{"user_id":108,"name":"5 noches con alfredo","steam_id":76561198420349969,"connected_time":10951000000000,"state":"active","ping":88},{"user_id":261,"name":"Suleli","steam_id":76561199006199283,"connected_time":723000000000,"state":"active","ping":152}]},{"server_id":24,"name":"Uncletopia | Frankfurt | 8 | Community","name_short":"frk-8","host":"frk-1.de.uncletopia.com","port":27085,"enabled":true,"region":"eu","cc":"de","latitude":50.110924,"longitude":8.682127,"reserved":0,"last_update":"0001-01-01T00:00:00Z","name_a2s":"Uncletopia | Frankfurt | 8 | Community","protocol":17,"map":"koth_cascade","folder":"tf","game":"Team Fortress","app_id":440,"player_count":0,"max_players":24,"Bots":0,"server_type":"Dedicated","server_os":"Linux","password":true,"vac":true,"version":"7742253","steam_id":85568392924742828,"keywords":["cp","nocrits","nodmgspread","uncletopia"],"game_id":440,"stv_port":27086,"stv_name":"Uncletopia | Frankfurt | 8 | Community | STV","players":null},{"server_id":202,"name":"Uncletopia | Hong Kong | 1 | All Maps","name_short":"hgk-1","host":"hgk-1.hk.uncletopia.com","port":27015,"enabled":true,"region":"asia","cc":"hk","latitude":22.302711,"longitude":114.177216,"reserved":0,"last_update":"0001-01-01T00:00:00Z","name_a2s":"Uncletopia | Hong Kong | 1 | All Maps","protocol":17,"map":"cp_gorge","folder":"tf","game":"Team Fortress","app_id":440,"player_count":24,"max_players":24,"Bots":0,"server_type":"Dedicated","server_os":"Linux","password":true,"vac":true,"version":"7742253","steam_id":85568392924494504,"keywords":["cp","nocrits","nodmgspread","uncletopia"],"game_id":440,"stv_port":27016,"stv_name":"Uncletopia | Hong Kong | 1 | All Maps | STV","players":[{"user_id":815,"name":"Banana Milk","steam_id":76561198005156257,"connected_time":3162000000000,"state":"active","ping":125},{"user_id":777,"name":"bocchi the oppai","steam_id":76561198008307645,"connected_time":7145000000000,"state":"active","ping":125},{"user_id":800,"name":"Tyxant","steam_id":76561198091066056,"connected_time":5767000000000,"state":"active","ping":94},{"user_id":844,"name":"lettuce at 58p","steam_id":76561199401283123,"connected_time":979000000000,"state":"active","ping":88},{"user_id":842,"name":"Wankers.Hugh G. Rection","steam_id":76561198160314142,"connected_time":1000000000000,"state":"active","ping":78},{"user_id":805,"name":"쿠키","steam_id":76561197997220367,"connected_time":4989000000000,"state":"active","ping":45},{"user_id":787,"name":"Smarks123","steam_id":76561198132170503,"connected_time":6238000000000,"state":"active","ping":82},{"user_id":814,"name":"p1st0n","steam_id":76561198992723983,"connected_time":3728000000000,"state":"active","ping":110},{"user_id":846,"name":"PapaFranku69","steam_id":76561199446266814,"connected_time":947000000000,"state":"active","ping":94},{"user_id":849,"name":"gilsomnia","steam_id":76561198830813639,"connected_time":934000000000,"state":"active","ping":60},{"user_id":781,"name":"Drutzhfer","steam_id":76561198299948446,"connected_time":6414000000000,"state":"active","ping":104},{"user_id":848,"name":"Uranium Sanchez","steam_id":76561198129037091,"connected_time":941000000000,"state":"active","ping":76},{"user_id":850,"name":"Femboy Marcos Sr.","steam_id":76561198172020910,"connected_time":931000000000,"state":"active","ping":58},{"user_id":853,"name":"RW_HK","steam_id":76561198017340632,"connected_time":667000000000,"state":"active","ping":35},{"user_id":840,"name":"母の肉団子","steam_id":76561198069561896,"connected_time":1129000000000,"state":"active","ping":30},{"user_id":854,"name":"Pandemo","steam_id":76561198024666110,"connected_time":599000000000,"state":"active","ping":36},{"user_id":804,"name":"Duck with a knife (what he gonn","steam_id":76561199092409364,"connected_time":5002000000000,"state":"active","ping":119},{"user_id":852,"name":"Zacy","steam_id":76561198114841670,"connected_time":763000000000,"state":"active","ping":66},{"user_id":630,"name":"Bertengkar","steam_id":76561198213031155,"connected_time":14748000000000,"state":"active","ping":100},{"user_id":809,"name":"balls 2","steam_id":76561198024102244,"connected_time":4275000000000,"state":"active","ping":76},{"user_id":837,"name":"Batbob","steam_id":76561198999413123,"connected_time":1413000000000,"state":"active","ping":78},{"user_id":841,"name":"Vortex Morez","steam_id":76561198833527091,"connected_time":1007000000000,"state":"active","ping":93},{"user_id":855,"name":"Krayken","steam_id":76561197997933283,"connected_time":143000000000,"state":"active","ping":141},{"user_id":779,"name":"老兄","steam_id":76561197976647906,"connected_time":6427000000000,"state":"active","ping":86}]},{"server_id":1,"name":"Uncletopia | Los Angeles | 1 | All Maps","name_short":"lax-1","host":"lax-1.us.uncletopia.com","port":27015,"enabled":true,"region":"us-west","cc":"us","latitude":33.94279,"longitude":-118.41004,"reserved":0,"last_update":"0001-01-01T00:00:00Z","name_a2s":"Uncletopia | Los Angeles | 1 | All Maps","protocol":17,"map":"cp_dustbowl","folder":"tf","game":"Team Fortress","app_id":440,"player_count":0,"max_players":24,"Bots":0,"server_type":"Dedicated","server_os":"Linux","password":true,"vac":true,"version":"7742253","steam_id":85568392924469991,"keywords":["cp","nocrits","nodmgspread","uncletopia"],"game_id":440,"stv_port":27016,"stv_name":"Uncletopia | Los Angeles | 1 | All Maps | STV","players":null},{"server_id":112,"name":"Uncletopia | Los Angeles | 2 | All Maps","name_short":"lax-2","host":"lax-1.us.uncletopia.com","port":27025,"enabled":true,"region":"us-west","cc":"us","latitude":33.94279,"longitude":-118.41004,"reserved":0,"last_update":"0001-01-01T00:00:00Z","name_a2s":"Uncletopia | Los Angeles | 2 | All Maps","protocol":17,"map":"pl_frontier_final","folder":"tf","game":"Team Fortress","app_id":440,"player_count":0,"max_players":24,"Bots":0,"server_type":"Dedicated","server_os":"Linux","password":true,"vac":true,"version":"7742253","steam_id":85568392924469992,"keywords":["nocrits","nodmgspread","payload","uncletopia"],"game_id":440,"stv_port":27026,"stv_name":"Uncletopia | Los Angeles | 2 | All Maps | STV","players":null},{"server_id":324,"name":"Uncletopia | Los Angeles | 3 | All Maps","name_short":"lax-3","host":"lax-1.us.uncletopia.com","port":27035,"enabled":true,"region":"us-west","cc":"us","latitude":33.94279,"longitude":-118.41004,"reserved":0,"last_update":"0001-01-01T00:00:00Z","name_a2s":"Uncletopia | Los Angeles | 3 | All Maps","protocol":17,"map":"cp_snakewater_final1","folder":"tf","game":"Team Fortress","app_id":440,"player_count":0,"max_players":24,"Bots":0,"server_type":"Dedicated","server_os":"Linux","password":true,"vac":true,"version":"7742253","steam_id":85568392924510198,"keywords":["cp","nocrits","nodmgspread","uncletopia"],"game_id":440,"stv_port":27036,"stv_name":"Uncletopia | Los Angeles | 3 | All Maps | STV","players":null},{"server_id":25,"name":"Uncletopia | Los Angeles | 4 | Stopwatch Beta","name_short":"lax-4","host":"lax-1.us.uncletopia.com","port":27045,"enabled":true,"region":"us-west","cc":"us","latitude":33.94279,"longitude":-118.41004,"reserved":0,"last_update":"0001-01-01T00:00:00Z","name_a2s":"Uncletopia | Los Angeles | 4 | Stopwatch Beta","protocol":17,"map":"pl_swiftwater_final1","folder":"tf","game":"Team Fortress","app_id":440,"player_count":0,"max_players":24,"Bots":0,"server_type":"Dedicated","server_os":"Linux","password":true,"vac":true,"version":"7742253","steam_id":85568392924510199,"keywords":["nocrits","nodmgspread","payload","uncletopia"],"game_id":440,"stv_port":27046,"stv_name":"Uncletopia | Los Angeles | 4 | Stopwatch Beta | STV","players":null},{"server_id":11,"name":"Uncletopia | London | 1 | All Maps","name_short":"lon-1","host":"lon-1.uk.uncletopia.com","port":27015,"enabled":true,"region":"eu","cc":"gb","latitude":51.509865,"longitude":-0.118092,"reserved":0,"last_update":"0001-01-01T00:00:00Z","name_a2s":"Uncletopia | London | 1 | All Maps","protocol":17,"map":"pl_snowycoast","folder":"tf","game":"Team Fortress","app_id":440,"player_count":24,"max_players":24,"Bots":0,"server_type":"Dedicated","server_os":"Linux","password":true,"vac":true,"version":"7742253","steam_id":85568392924367362,"keywords":["nocrits","nodmgspread","payload","uncletopia"],"game_id":440,"stv_port":27016,"stv_name":"Uncletopia | London | 1 | All Maps | STV","players":[{"user_id":487,"name":"dafydd","steam_id":76561198052200325,"connected_time":140000000000,"state":"active","ping":87},{"user_id":477,"name":"Sch","steam_id":76561198071341689,"connected_time":698000000000,"state":"active","ping":71},{"user_id":484,"name":"Koleisus","steam_id":76561198045374646,"connected_time":321000000000,"state":"active","ping":66},{"user_id":469,"name":"i am the spy","steam_id":76561198368783937,"connected_time":742000000000,"state":"active","ping":119},{"user_id":467,"name":"willus212","steam_id":76561199182615246,"connected_time":747000000000,"state":"active","ping":87},{"user_id":441,"name":"tactical783","steam_id":76561199051688560,"connected_time":2540000000000,"state":"active","ping":61},{"user_id":485,"name":"Retard","steam_id":76561198217874317,"connected_time":296000000000,"state":"active","ping":76},{"user_id":478,"name":"Lozamundoskin","steam_id":76561198282753005,"connected_time":672000000000,"state":"active","ping":45},{"user_id":456,"name":"Echo of Abyss","steam_id":76561198981841782,"connected_time":1976000000000,"state":"active","ping":77},{"user_id":481,"name":"luma","steam_id":76561198081649669,"connected_time":413000000000,"state":"active","ping":75},{"user_id":483,"name":"Dieu-Sama","steam_id":76561198002075862,"connected_time":366000000000,"state":"active","ping":56},{"user_id":442,"name":"imma slap you","steam_id":76561198063965879,"connected_time":2532000000000,"state":"active","ping":71},{"user_id":447,"name":"Theodd857","steam_id":76561198451805725,"connected_time":2480000000000,"state":"active","ping":65},{"user_id":480,"name":"す LightFlight し","steam_id":76561198079007530,"connected_time":473000000000,"state":"active","ping":52},{"user_id":479,"name":"SynthBox3","steam_id":76561199094075745,"connected_time":634000000000,"state":"active","ping":90},{"user_id":448,"name":"Sacco","steam_id":76561199048451187,"connected_time":2479000000000,"state":"active","ping":69},{"user_id":418,"name":"R A S M U S","steam_id":76561198279799226,"connected_time":4112000000000,"state":"active","ping":74},{"user_id":486,"name":"Darkmaen","steam_id":76561198060543390,"connected_time":156000000000,"state":"active","ping":58},{"user_id":460,"name":"nachtraaf","steam_id":76561197960473205,"connected_time":1799000000000,"state":"active","ping":55},{"user_id":436,"name":"Денис Базука","steam_id":76561198835849082,"connected_time":2898000000000,"state":"active","ping":91},{"user_id":468,"name":"TankMan","steam_id":76561198297526926,"connected_time":746000000000,"state":"active","ping":46},{"user_id":482,"name":"20BB Raxor","steam_id":76561198239927434,"connected_time":403000000000,"state":"active","ping":90},{"user_id":438,"name":"swerve_vision","steam_id":76561198088624259,"connected_time":2848000000000,"state":"active","ping":58},{"user_id":476,"name":"SubDragon","steam_id":76561199074530966,"connected_time":722000000000,"state":"active","ping":126}]},{"server_id":114,"name":"Uncletopia | London | 2 | All Maps","name_short":"lon-2","host":"lon-1.uk.uncletopia.com","port":27025,"enabled":true,"region":"eu","cc":"gb","latitude":51.509865,"longitude":-0.118092,"reserved":0,"last_update":"0001-01-01T00:00:00Z","name_a2s":"Uncletopia | London | 2 | All Maps","protocol":17,"map":"pl_borneo","folder":"tf","game":"Team Fortress","app_id":440,"player_count":24,"max_players":24,"Bots":0,"server_type":"Dedicated","server_os":"Linux","password":true,"vac":true,"version":"7742253","steam_id":85568392924470941,"keywords":["nocrits","nodmgspread","payload","uncletopia"],"game_id":440,"stv_port":27026,"stv_name":"Uncletopia | London | 2 | All Maps | STV","players":[{"user_id":93,"name":"Redkiller","steam_id":76561199453655288,"connected_time":3944000000000,"state":"active","ping":132},{"user_id":151,"name":"Mury","steam_id":76561198069743049,"connected_time":620000000000,"state":"active","ping":122},{"user_id":138,"name":"Scarlet","steam_id":76561198075966579,"connected_time":988000000000,"state":"active","ping":45},{"user_id":158,"name":"Mr. Fox","steam_id":76561198803610709,"connected_time":366000000000,"state":"active","ping":110},{"user_id":117,"name":"Joe","steam_id":76561198061717026,"connected_time":2207000000000,"state":"active","ping":44},{"user_id":159,"name":"willy","steam_id":76561198002519060,"connected_time":359000000000,"state":"active","ping":88},{"user_id":77,"name":"Silverstorm","steam_id":76561198118175267,"connected_time":5031000000000,"state":"active","ping":62},{"user_id":140,"name":"Le Bon Toutou","steam_id":76561198300902712,"connected_time":932000000000,"state":"active","ping":68},{"user_id":156,"name":"Super Splint","steam_id":76561199465781208,"connected_time":453000000000,"state":"active","ping":157},{"user_id":161,"name":"Sombreterre","steam_id":76561198869817596,"connected_time":331000000000,"state":"active","ping":48},{"user_id":139,"name":"[Sheep] Tomco","steam_id":76561198388549261,"connected_time":949000000000,"state":"active","ping":46},{"user_id":111,"name":"Arx","steam_id":76561198182901217,"connected_time":2939000000000,"state":"active","ping":108},{"user_id":121,"name":"The Fat Rat","steam_id":76561198064115286,"connected_time":2133000000000,"state":"active","ping":67},{"user_id":141,"name":"Totally Something","steam_id":76561198916824935,"connected_time":929000000000,"state":"active","ping":83},{"user_id":162,"name":"Woj","steam_id":76561199003258257,"connected_time":319000000000,"state":"active","ping":62},{"user_id":143,"name":"FramefrapsoM","steam_id":76561198113119119,"connected_time":856000000000,"state":"active","ping":110},{"user_id":155,"name":"poshto;))","steam_id":76561198106182078,"connected_time":467000000000,"state":"active","ping":107},{"user_id":163,"name":"Farmercy","steam_id":76561198000038039,"connected_time":307000000000,"state":"active","ping":66},{"user_id":145,"name":"QUIRELL","steam_id":76561199070823831,"connected_time":789000000000,"state":"active","ping":41},{"user_id":148,"name":"SmugTradingWolf","steam_id":76561198073845794,"connected_time":727000000000,"state":"active","ping":43},{"user_id":149,"name":"Speibsackerl","steam_id":76561198058135257,"connected_time":722000000000,"state":"active","ping":76},{"user_id":168,"name":"ScottMachine","steam_id":76561198813531432,"connected_time":153000000000,"state":"active","ping":60},{"user_id":98,"name":"Madree","steam_id":76561199443143457,"connected_time":3739000000000,"state":"active","ping":109},{"user_id":167,"name":"crat","steam_id":76561198401398502,"connected_time":216000000000,"state":"active","ping":84}]},{"server_id":320,"name":"Uncletopia | London | 3 | All Maps","name_short":"lon-3","host":"lon-1.uk.uncletopia.com","port":27035,"enabled":true,"region":"eu","cc":"gb","latitude":51.509865,"longitude":-0.118092,"reserved":0,"last_update":"0001-01-01T00:00:00Z","name_a2s":"Uncletopia | London | 3 | All Maps","protocol":17,"map":"ctf_2fort","folder":"tf","game":"Team Fortress","app_id":440,"player_count":24,"max_players":24,"Bots":0,"server_type":"Dedicated","server_os":"Linux","password":true,"vac":true,"version":"7742253","steam_id":85568392924510192,"keywords":["ctf","nocrits","nodmgspread","uncletopia"],"game_id":440,"stv_port":27036,"stv_name":"Uncletopia | London | 3 | All Maps | STV","players":[{"user_id":247,"name":"Leeze","steam_id":76561198449793642,"connected_time":57000000000,"state":"active","ping":306},{"user_id":175,"name":"Penis Contortionist","steam_id":76561198073663784,"connected_time":5398000000000,"state":"active","ping":37},{"user_id":230,"name":"KFC Enjoyer","steam_id":76561198840259819,"connected_time":946000000000,"state":"active","ping":50},{"user_id":155,"name":"Dexity","steam_id":76561198056130461,"connected_time":6560000000000,"state":"active","ping":52},{"user_id":234,"name":"Smoker","steam_id":76561198129454909,"connected_time":637000000000,"state":"active","ping":72},{"user_id":200,"name":"Crunchy","steam_id":76561198184973203,"connected_time":3349000000000,"state":"active","ping":59},{"user_id":225,"name":"BalSock","steam_id":76561198165339392,"connected_time":1044000000000,"state":"active","ping":87},{"user_id":115,"name":"squo -pivzavod-","steam_id":76561198324357479,"connected_time":9310000000000,"state":"active","ping":81},{"user_id":224,"name":"Hedj","steam_id":76561198108369687,"connected_time":1473000000000,"state":"active","ping":45},{"user_id":231,"name":"Hot Beverage Enjoyer","steam_id":76561198060638325,"connected_time":945000000000,"state":"active","ping":51},{"user_id":243,"name":"Minimi","steam_id":76561198873850443,"connected_time":431000000000,"state":"active","ping":45},{"user_id":237,"name":"Pinkchup","steam_id":76561198106802803,"connected_time":615000000000,"state":"active","ping":75},{"user_id":238,"name":"Feelin' Supersonic","steam_id":76561198005738407,"connected_time":591000000000,"state":"active","ping":81},{"user_id":227,"name":"Milfshake","steam_id":76561198208740557,"connected_time":1017000000000,"state":"active","ping":63},{"user_id":160,"name":"Johnny Cockroach","steam_id":76561198049648277,"connected_time":6253000000000,"state":"active","ping":99},{"user_id":213,"name":"Clamor_","steam_id":76561198104368295,"connected_time":2550000000000,"state":"active","ping":90},{"user_id":239,"name":"Koalified","steam_id":76561198095350290,"connected_time":588000000000,"state":"active","ping":180},{"user_id":240,"name":"Rollermine ♥","steam_id":76561199370148924,"connected_time":583000000000,"state":"active","ping":63},{"user_id":241,"name":"Ixsus\u003c3","steam_id":76561198094756869,"connected_time":574000000000,"state":"active","ping":64},{"user_id":153,"name":".4b (fourbee)","steam_id":76561198249832770,"connected_time":6603000000000,"state":"active","ping":46},{"user_id":242,"name":"MateMO","steam_id":76561198146180114,"connected_time":567000000000,"state":"active","ping":88},{"user_id":47,"name":"Lawliet","steam_id":76561198846232981,"connected_time":13182000000000,"state":"active","ping":156},{"user_id":215,"name":"Toom","steam_id":76561198005637020,"connected_time":2531000000000,"state":"active","ping":63},{"user_id":246,"name":"Pitmin_","steam_id":76561198005342133,"connected_time":235000000000,"state":"active","ping":42}]},{"server_id":321,"name":"Uncletopia | London | 4 | All Maps","name_short":"lon-4","host":"lon-1.uk.uncletopia.com","port":27045,"enabled":true,"region":"eu","cc":"gb","latitude":51.509865,"longitude":-0.118092,"reserved":0,"last_update":"0001-01-01T00:00:00Z","name_a2s":"Uncletopia | London | 4 | All Maps","protocol":17,"map":"cp_process_final","folder":"tf","game":"Team Fortress","app_id":440,"player_count":24,"max_players":24,"Bots":0,"server_type":"Dedicated","server_os":"Linux","password":true,"vac":true,"version":"7742253","steam_id":85568392924510193,"keywords":["cp","nocrits","nodmgspread","uncletopia"],"game_id":440,"stv_port":27046,"stv_name":"Uncletopia | London | 4 | All Maps | STV","players":[{"user_id":15,"name":"Saihtama","steam_id":76561198067497192,"connected_time":2088000000000,"state":"active","ping":59},{"user_id":11,"name":"Jaggy Snake","steam_id":76561197972779231,"connected_time":2445000000000,"state":"active","ping":46},{"user_id":43,"name":"banrab","steam_id":76561198083615367,"connected_time":1068000000000,"state":"active","ping":38},{"user_id":33,"name":"Mr.Cupcake","steam_id":76561198152711174,"connected_time":1724000000000,"state":"active","ping":65},{"user_id":14,"name":"ReflqzTTV","steam_id":76561199080694842,"connected_time":2203000000000,"state":"active","ping":46},{"user_id":51,"name":"Cazulas","steam_id":76561198027460283,"connected_time":431000000000,"state":"active","ping":66},{"user_id":49,"name":"G1","steam_id":76561199097753630,"connected_time":634000000000,"state":"active","ping":75},{"user_id":48,"name":"TylowStar","steam_id":76561198357107806,"connected_time":700000000000,"state":"active","ping":75},{"user_id":58,"name":"The chumbler","steam_id":76561198999161827,"connected_time":62000000000,"state":"active","ping":63},{"user_id":52,"name":"Delab Le Fou","steam_id":76561198846356572,"connected_time":424000000000,"state":"active","ping":88},{"user_id":53,"name":"the joy of recycling","steam_id":76561198138509827,"connected_time":254000000000,"state":"active","ping":88},{"user_id":22,"name":"MilkMonkey22","steam_id":76561198347070760,"connected_time":1913000000000,"state":"active","ping":64},{"user_id":23,"name":"drippin jimmy","steam_id":76561198219243969,"connected_time":1911000000000,"state":"active","ping":55},{"user_id":24,"name":"obbeymaster19","steam_id":76561199197244143,"connected_time":1873000000000,"state":"active","ping":152},{"user_id":25,"name":"Rolloden","steam_id":76561198069414404,"connected_time":1822000000000,"state":"active","ping":69},{"user_id":54,"name":"Noob_with_source","steam_id":76561198870362103,"connected_time":251000000000,"state":"active","ping":55},{"user_id":56,"name":"the boil","steam_id":76561199236080782,"connected_time":195000000000,"state":"active","ping":111},{"user_id":62,"name":"AITOTESTO","steam_id":76561198843742968,"connected_time":48000000000,"state":"active","ping":98},{"user_id":57,"name":"Dark Souls Reference","steam_id":76561198094102747,"connected_time":159000000000,"state":"active","ping":52},{"user_id":30,"name":"Milk","steam_id":76561198125876588,"connected_time":1766000000000,"state":"active","ping":41},{"user_id":60,"name":"TheCourtOfCrimsonKing","steam_id":76561198966953323,"connected_time":56000000000,"state":"active","ping":85},{"user_id":61,"name":"purplecan","steam_id":76561199208283508,"connected_time":52000000000,"state":"active","ping":72},{"user_id":38,"name":"Sakura","steam_id":76561198892631275,"connected_time":1590000000000,"state":"active","ping":48},{"user_id":63,"name":"Tickleshits","steam_id":76561198159197241,"connected_time":46000000000,"state":"active","ping":127}]},{"server_id":21,"name":"Uncletopia | London | 5 | All Maps","name_short":"lon-5","host":"lon-1.uk.uncletopia.com","port":27055,"enabled":true,"region":"eu","cc":"gb","latitude":51.509865,"longitude":-0.118092,"reserved":0,"last_update":"0001-01-01T00:00:00Z","name_a2s":"Uncletopia | London | 5 | All Maps","protocol":17,"map":"koth_highpass","folder":"tf","game":"Team Fortress","app_id":440,"player_count":3,"max_players":24,"Bots":0,"server_type":"Dedicated","server_os":"Linux","password":true,"vac":true,"version":"7742253","steam_id":85568392924742829,"keywords":["cp","nocrits","nodmgspread","uncletopia"],"game_id":440,"stv_port":27056,"stv_name":"Uncletopia | London | 5 | All Maps | STV","players":[{"user_id":9,"name":"Cheshireycat","steam_id":76561198067204908,"connected_time":1276000000000,"state":"active","ping":59},{"user_id":14,"name":"egirl guy","steam_id":76561198170609049,"connected_time":129000000000,"state":"active","ping":76},{"user_id":11,"name":"certified song ruiner","steam_id":76561198097507847,"connected_time":1188000000000,"state":"active","ping":88}]},{"server_id":22,"name":"Uncletopia | London | 6 | All Maps","name_short":"lon-6","host":"lon-1.uk.uncletopia.com","port":27065,"enabled":true,"region":"eu","cc":"gb","latitude":51.509865,"longitude":-0.118092,"reserved":0,"last_update":"0001-01-01T00:00:00Z","name_a2s":"Uncletopia | London | 6 | All Maps","protocol":17,"map":"pl_snowycoast","folder":"tf","game":"Team Fortress","app_id":440,"player_count":15,"max_players":24,"Bots":0,"server_type":"Dedicated","server_os":"Linux","password":true,"vac":true,"version":"7742253","steam_id":85568392924742830,"keywords":["nocrits","nodmgspread","payload","uncletopia"],"game_id":440,"stv_port":27066,"stv_name":"Uncletopia | London | 6 | All Maps | STV","players":[{"user_id":184,"name":"Tywhip","steam_id":76561199207545191,"connected_time":328000000000,"state":"active","ping":61},{"user_id":173,"name":"kryhu","steam_id":76561198293327713,"connected_time":1243000000000,"state":"active","ping":75},{"user_id":179,"name":"Son Goku","steam_id":76561199383437138,"connected_time":702000000000,"state":"active","ping":119},{"user_id":182,"name":"kirbykinggggYT","steam_id":76561199433707628,"connected_time":576000000000,"state":"active","ping":147},{"user_id":114,"name":"WiiSportKing","steam_id":76561198114139081,"connected_time":6044000000000,"state":"active","ping":41},{"user_id":127,"name":"RedFog","steam_id":76561198284713081,"connected_time":5423000000000,"state":"active","ping":55},{"user_id":175,"name":"who asked","steam_id":76561198834897089,"connected_time":1138000000000,"state":"active","ping":63},{"user_id":79,"name":"The Wolf Leader","steam_id":76561198038007462,"connected_time":8847000000000,"state":"active","ping":73},{"user_id":186,"name":"Sacreshiea","steam_id":76561198169853697,"connected_time":165000000000,"state":"active","ping":74},{"user_id":180,"name":"Malsi","steam_id":76561199061284165,"connected_time":652000000000,"state":"active","ping":78},{"user_id":165,"name":"klaus","steam_id":76561198150394201,"connected_time":1432000000000,"state":"active","ping":78},{"user_id":112,"name":"Dominus.","steam_id":76561199065917088,"connected_time":6220000000000,"state":"active","ping":60},{"user_id":181,"name":"Gin-Gi","steam_id":76561198108332859,"connected_time":608000000000,"state":"active","ping":49},{"user_id":172,"name":"scorsese","steam_id":76561198049782306,"connected_time":1278000000000,"state":"active","ping":38},{"user_id":149,"name":"random clit","steam_id":76561198404802175,"connected_time":3489000000000,"state":"active","ping":149}]},{"server_id":40,"name":"Uncletopia | London | 7 | No Payload","name_short":"lon-7","host":"lon-1.uk.uncletopia.com","port":27075,"enabled":true,"region":"eu","cc":"gb","latitude":51.509865,"longitude":-0.118092,"reserved":0,"last_update":"0001-01-01T00:00:00Z","name_a2s":"Uncletopia | London | 7 | No Payload","protocol":17,"map":"cp_freight_final1","folder":"tf","game":"Team Fortress","app_id":440,"player_count":0,"max_players":24,"Bots":0,"server_type":"Dedicated","server_os":"Linux","password":true,"vac":true,"version":"7742253","steam_id":85568392924964314,"keywords":["cp","nocrits","nodmgspread","uncletopia"],"game_id":440,"stv_port":27076,"stv_name":"Uncletopia | London | 7 | No Payload | STV","players":null},{"server_id":41,"name":"Uncletopia | London | 8 | Community","name_short":"lon-8","host":"lon-1.uk.uncletopia.com","port":27085,"enabled":true,"region":"eu","cc":"gb","latitude":51.509865,"longitude":-0.118092,"reserved":0,"last_update":"0001-01-01T00:00:00Z","name_a2s":"Uncletopia | London | 8 | Community","protocol":17,"map":"workshop/koth_ramjam_rc1.ugc459778887","folder":"tf","game":"Team Fortress","app_id":440,"player_count":0,"max_players":24,"Bots":0,"server_type":"Dedicated","server_os":"Linux","password":true,"vac":true,"version":"7742253","steam_id":85568392924964315,"keywords":["cp","nocrits","nodmgspread","uncletopia"],"game_id":440,"stv_port":27086,"stv_name":"Uncletopia | London | 8 | Community | STV","players":null},{"server_id":300,"name":"Uncletopia | Montréal | 1 | All Maps","name_short":"mtl-1","host":"mtl-1.ca.uncletopia.com","port":27015,"enabled":true,"region":"us-east","cc":"ca","latitude":45.50889,"longitude":-73.56167,"reserved":0,"last_update":"0001-01-01T00:00:00Z","name_a2s":"Uncletopia | Montréal | 1 | All Maps","protocol":17,"map":"cp_snakewater_final1","folder":"tf","game":"Team Fortress","app_id":440,"player_count":0,"max_players":24,"Bots":0,"server_type":"Dedicated","server_os":"Linux","password":true,"vac":true,"version":"7742253","steam_id":85568392924500087,"keywords":["cp","nocrits","nodmgspread","uncletopia"],"game_id":440,"stv_port":27016,"stv_name":"Uncletopia | Montréal | 1 | All Maps | STV","players":null},{"server_id":301,"name":"Uncletopia | Montréal | 2 | All Maps","name_short":"mtl-2","host":"mtl-1.ca.uncletopia.com","port":27025,"enabled":true,"region":"us-east","cc":"ca","latitude":45.50889,"longitude":-73.56167,"reserved":0,"last_update":"0001-01-01T00:00:00Z","name_a2s":"Uncletopia | Montréal | 2 | All Maps","protocol":17,"map":"koth_highpass","folder":"tf","game":"Team Fortress","app_id":440,"player_count":0,"max_players":24,"Bots":0,"server_type":"Dedicated","server_os":"Linux","password":true,"vac":true,"version":"7742253","steam_id":85568392924500088,"keywords":["cp","nocrits","nodmgspread","uncletopia"],"game_id":440,"stv_port":27026,"stv_name":"Uncletopia | Montréal | 2 | All Maps | STV","players":null},{"server_id":302,"name":"Uncletopia | Montréal | 3 | All Maps","name_short":"mtl-3","host":"mtl-1.ca.uncletopia.com","port":27035,"enabled":true,"region":"us-east","cc":"ca","latitude":45.50889,"longitude":-73.56167,"reserved":0,"last_update":"0001-01-01T00:00:00Z","name_a2s":"Uncletopia | Montréal | 3 | All Maps","protocol":17,"map":"cp_mountainlab","folder":"tf","game":"Team Fortress","app_id":440,"player_count":0,"max_players":24,"Bots":0,"server_type":"Dedicated","server_os":"Linux","password":true,"vac":true,"version":"7742253","steam_id":85568392924500089,"keywords":["cp","nocrits","nodmgspread","uncletopia"],"game_id":440,"stv_port":27036,"stv_name":"Uncletopia | Montréal | 3 | All Maps | STV","players":null},{"server_id":303,"name":"Uncletopia | Montréal | 4 | No Payload","name_short":"mtl-4","host":"mtl-1.ca.uncletopia.com","port":27045,"enabled":true,"region":"us-east","cc":"ca","latitude":45.50889,"longitude":-73.56167,"reserved":0,"last_update":"0001-01-01T00:00:00Z","name_a2s":"Uncletopia | Montréal | 4 | No Payload","protocol":17,"map":"cp_snakewater_final1","folder":"tf","game":"Team Fortress","app_id":440,"player_count":0,"max_players":24,"Bots":0,"server_type":"Dedicated","server_os":"Linux","password":true,"vac":true,"version":"7742253","steam_id":85568392924500090,"keywords":["cp","nocrits","nodmgspread","uncletopia"],"game_id":440,"stv_port":27046,"stv_name":"Uncletopia | Montréal | 4 | No Payload | STV","players":null},{"server_id":13,"name":"Uncletopia | New York City | 1 | All Maps","name_short":"nyc-1","host":"nyc-1.us.uncletopia.com","port":27015,"enabled":true,"region":"us-east","cc":"us","latitude":40.73061,"longitude":-73.93524,"reserved":0,"last_update":"0001-01-01T00:00:00Z","name_a2s":"Uncletopia | New York City | 1 | All Maps","protocol":17,"map":"cp_mountainlab","folder":"tf","game":"Team Fortress","app_id":440,"player_count":0,"max_players":24,"Bots":0,"server_type":"Dedicated","server_os":"Linux","password":true,"vac":true,"version":"7742253","steam_id":85568392924469993,"keywords":["cp","nocrits","nodmgspread","uncletopia"],"game_id":440,"stv_port":27016,"stv_name":"Uncletopia | New York City | 1 | All Maps | STV","players":null},{"server_id":14,"name":"Uncletopia | New York City | 2 | All Maps","name_short":"nyc-2","host":"nyc-1.us.uncletopia.com","port":27025,"enabled":true,"region":"us-east","cc":"us","latitude":40.73061,"longitude":-73.93524,"reserved":0,"last_update":"0001-01-01T00:00:00Z","name_a2s":"Uncletopia | New York City | 2 | All Maps","protocol":17,"map":"cp_altitude","folder":"tf","game":"Team Fortress","app_id":440,"player_count":0,"max_players":24,"Bots":0,"server_type":"Dedicated","server_os":"Linux","password":true,"vac":true,"version":"7742253","steam_id":85568392924469994,"keywords":["cp","nocrits","nodmgspread","uncletopia"],"game_id":440,"stv_port":27026,"stv_name":"Uncletopia | New York City | 2 | All Maps | STV","players":null},{"server_id":15,"name":"Uncletopia | New York City | 3 | Stopwatch Beta","name_short":"nyc-3","host":"nyc-1.us.uncletopia.com","port":27035,"enabled":true,"region":"us-east","cc":"us","latitude":40.73061,"longitude":-73.93524,"reserved":0,"last_update":"0001-01-01T00:00:00Z","name_a2s":"Uncletopia | New York City | 3 | Stopwatch Beta","protocol":17,"map":"pl_pier","folder":"tf","game":"Team Fortress","app_id":440,"player_count":0,"max_players":24,"Bots":0,"server_type":"Dedicated","server_os":"Linux","password":true,"vac":true,"version":"7742253","steam_id":85568392924742820,"keywords":["nocrits","nodmgspread","payload","uncletopia"],"game_id":440,"stv_port":27036,"stv_name":"Uncletopia | New York City | 3 | Stopwatch Beta | STV","players":null},{"server_id":16,"name":"Uncletopia | New York City | 4 | Community","name_short":"nyc-4","host":"nyc-1.us.uncletopia.com","port":27045,"enabled":true,"region":"us-east","cc":"us","latitude":40.73061,"longitude":-73.93524,"reserved":0,"last_update":"0001-01-01T00:00:00Z","name_a2s":"Uncletopia | New York City | 4 | Community","protocol":17,"map":"koth_viaduct","folder":"tf","game":"Team Fortress","app_id":440,"player_count":0,"max_players":24,"Bots":0,"server_type":"Dedicated","server_os":"Linux","password":true,"vac":true,"version":"7742253","steam_id":85568392924742821,"keywords":["cp","nocrits","nodmgspread","uncletopia"],"game_id":440,"stv_port":27046,"stv_name":"Uncletopia | New York City | 4 | Community | STV","players":null},{"server_id":142,"name":"Uncletopia | São Paulo | 1 | All Maps","name_short":"sao-1","host":"sao-1.br.uncletopia.com","port":27015,"enabled":true,"region":"sa","cc":"br","latitude":-23.533773,"longitude":-46.62529,"reserved":0,"last_update":"0001-01-01T00:00:00Z","name_a2s":"Uncletopia | São Paulo | 1 | All Maps","protocol":17,"map":"koth_viaduct","folder":"tf","game":"Team Fortress","app_id":440,"player_count":0,"max_players":24,"Bots":0,"server_type":"Dedicated","server_os":"Linux","password":true,"vac":true,"version":"7742253","steam_id":85568392924469996,"keywords":["cp","nocrits","nodmgspread","uncletopia"],"game_id":440,"stv_port":27016,"stv_name":"Uncletopia | São Paulo | 1 | All Maps | STV","players":null},{"server_id":143,"name":"Uncletopia | São Paulo | 2 | All Maps","name_short":"sao-2","host":"sao-2.br.uncletopia.com","port":27015,"enabled":true,"region":"sa","cc":"br","latitude":-23.533773,"longitude":-46.62529,"reserved":0,"last_update":"0001-01-01T00:00:00Z","name_a2s":"Uncletopia | São Paulo | 2 | All Maps","protocol":17,"map":"koth_viaduct","folder":"tf","game":"Team Fortress","app_id":440,"player_count":0,"max_players":24,"Bots":0,"server_type":"Dedicated","server_os":"Linux","password":true,"vac":true,"version":"7742253","steam_id":85568392924485349,"keywords":["cp","nocrits","nodmgspread","uncletopia"],"game_id":440,"stv_port":27016,"stv_name":"Uncletopia | São Paulo | 2 | All Maps | STV","players":null},{"server_id":7,"name":"Uncletopia | Seattle | 1 | All Maps","name_short":"sea-1","host":"sea-1.us.uncletopia.com","port":27015,"enabled":true,"region":"us-west","cc":"us","latitude":47.608013,"longitude":-122.33517,"reserved":0,"last_update":"0001-01-01T00:00:00Z","name_a2s":"Uncletopia | Seattle | 1 | All Maps","protocol":17,"map":"pl_frontier_final","folder":"tf","game":"Team Fortress","app_id":440,"player_count":0,"max_players":24,"Bots":0,"server_type":"Dedicated","server_os":"Linux","password":true,"vac":true,"version":"7742253","steam_id":85568392924469997,"keywords":["nocrits","nodmgspread","payload","uncletopia"],"game_id":440,"stv_port":27016,"stv_name":"Uncletopia | Seattle | 1 | All Maps | STV","players":null},{"server_id":119,"name":"Uncletopia | Seattle | 2 | All Maps","name_short":"sea-2","host":"sea-1.us.uncletopia.com","port":27025,"enabled":true,"region":"us-west","cc":"us","latitude":47.608013,"longitude":-122.33517,"reserved":0,"last_update":"0001-01-01T00:00:00Z","name_a2s":"Uncletopia | Seattle | 2 | All Maps","protocol":17,"map":"pl_borneo","folder":"tf","game":"Team Fortress","app_id":440,"player_count":24,"max_players":24,"Bots":0,"server_type":"Dedicated","server_os":"Linux","password":true,"vac":true,"version":"7742253","steam_id":85568392924469998,"keywords":["nocrits","nodmgspread","payload","uncletopia"],"game_id":440,"stv_port":27026,"stv_name":"Uncletopia | Seattle | 2 | All Maps | STV","players":[{"user_id":3,"name":"Malmart_Employee","steam_id":76561198320388704,"connected_time":4530000000000,"state":"active","ping":61},{"user_id":4,"name":"facecheck","steam_id":76561198115269587,"connected_time":4529000000000,"state":"active","ping":117},{"user_id":5,"name":"ImFr0sty","steam_id":76561199441249487,"connected_time":4527000000000,"state":"active","ping":123},{"user_id":6,"name":"Slug Johnson","steam_id":76561198062402220,"connected_time":4527000000000,"state":"active","ping":63},{"user_id":7,"name":"Mogwr","steam_id":76561198124942972,"connected_time":4526000000000,"state":"active","ping":135},{"user_id":8,"name":"ATL1 | to4st","steam_id":76561198981009008,"connected_time":4522000000000,"state":"active","ping":106},{"user_id":45,"name":"god approaches","steam_id":76561198081617990,"connected_time":1700000000000,"state":"active","ping":119},{"user_id":10,"name":"aisu","steam_id":76561198043768507,"connected_time":4520000000000,"state":"active","ping":96},{"user_id":11,"name":"Quansen","steam_id":76561198151594550,"connected_time":4513000000000,"state":"active","ping":97},{"user_id":46,"name":"bjorn","steam_id":76561199014834054,"connected_time":1649000000000,"state":"active","ping":119},{"user_id":13,"name":"Johnny Warcrimes","steam_id":76561198073353907,"connected_time":4504000000000,"state":"active","ping":47},{"user_id":40,"name":"Mr. Pink","steam_id":76561198065858172,"connected_time":2528000000000,"state":"active","ping":114},{"user_id":50,"name":"YoyoMama","steam_id":76561198260113828,"connected_time":1076000000000,"state":"active","ping":88},{"user_id":36,"name":"DODOOOM(NO SOUND)","steam_id":76561198985082462,"connected_time":2779000000000,"state":"active","ping":178},{"user_id":43,"name":".KITTEN ON A RAMPAGE.","steam_id":76561198079230721,"connected_time":2107000000000,"state":"active","ping":86},{"user_id":47,"name":"I-die-often","steam_id":76561197996780327,"connected_time":1631000000000,"state":"active","ping":103},{"user_id":34,"name":"7/11 Gaming","steam_id":76561199091007559,"connected_time":2909000000000,"state":"active","ping":79},{"user_id":51,"name":":)","steam_id":76561198093921290,"connected_time":468000000000,"state":"active","ping":93},{"user_id":42,"name":"Steven","steam_id":76561198062999343,"connected_time":2489000000000,"state":"active","ping":182},{"user_id":48,"name":"Spooky Wizard","steam_id":76561198052573339,"connected_time":1590000000000,"state":"active","ping":109},{"user_id":44,"name":"Spongebob","steam_id":76561198189429665,"connected_time":1759000000000,"state":"active","ping":117},{"user_id":39,"name":"Aeris","steam_id":76561198287271028,"connected_time":2662000000000,"state":"active","ping":98},{"user_id":49,"name":"A Random Guy","steam_id":76561198052725191,"connected_time":1568000000000,"state":"active","ping":81},{"user_id":32,"name":"Red","steam_id":76561197998285162,"connected_time":3149000000000,"state":"active","ping":133}]},{"server_id":406,"name":"Uncletopia | Seattle | 3 | Stopwatch Beta","name_short":"sea-3","host":"sea-1.us.uncletopia.com","port":27035,"enabled":true,"region":"us-west","cc":"us","latitude":47.608013,"longitude":-122.33517,"reserved":0,"last_update":"0001-01-01T00:00:00Z","name_a2s":"Uncletopia | Seattle | 3 | Stopwatch Beta","protocol":17,"map":"cp_altitude","folder":"tf","game":"Team Fortress","app_id":440,"player_count":0,"max_players":24,"Bots":0,"server_type":"Dedicated","server_os":"Linux","password":true,"vac":true,"version":"7742253","steam_id":85568392924515217,"keywords":["cp","nocrits","nodmgspread","uncletopia"],"game_id":440,"stv_port":27036,"stv_name":"Uncletopia | Seattle | 3 | Stopwatch Beta | STV","players":null},{"server_id":17,"name":"Uncletopia | San Francisco | 1 | All Maps","name_short":"sfo-1","host":"sfo-1.us.uncletopia.com","port":27015,"enabled":true,"region":"us-west","cc":"us","latitude":37.77397,"longitude":-122.4313,"reserved":0,"last_update":"0001-01-01T00:00:00Z","name_a2s":"Uncletopia | San Francisco | 1 | All Maps","protocol":17,"map":"pl_snowycoast","folder":"tf","game":"Team Fortress","app_id":440,"player_count":0,"max_players":24,"Bots":0,"server_type":"Dedicated","server_os":"Linux","password":true,"vac":true,"version":"7742253","steam_id":85568392924469999,"keywords":["nocrits","nodmgspread","payload","uncletopia"],"game_id":440,"stv_port":27016,"stv_name":"Uncletopia | San Francisco | 1 | All Maps | STV","players":null},{"server_id":18,"name":"Uncletopia | San Francisco | 2 | All Maps","name_short":"sfo-2","host":"sfo-1.us.uncletopia.com","port":27025,"enabled":true,"region":"us-west","cc":"us","latitude":37.77397,"longitude":-122.4313,"reserved":0,"last_update":"0001-01-01T00:00:00Z","name_a2s":"Uncletopia | San Francisco | 2 | All Maps","protocol":17,"map":"cp_altitude","folder":"tf","game":"Team Fortress","app_id":440,"player_count":0,"max_players":24,"Bots":0,"server_type":"Dedicated","server_os":"Linux","password":true,"vac":true,"version":"7742253","steam_id":85568392924470000,"keywords":["cp","nocrits","nodmgspread","uncletopia"],"game_id":440,"stv_port":27026,"stv_name":"Uncletopia | San Francisco | 2 | All Maps | STV","players":null},{"server_id":19,"name":"Uncletopia | San Francisco | 3 | Stopwatch Beta","name_short":"sfo-3","host":"sfo-1.us.uncletopia.com","port":27035,"enabled":true,"region":"us-west","cc":"us","latitude":37.77397,"longitude":-122.4313,"reserved":0,"last_update":"0001-01-01T00:00:00Z","name_a2s":"Uncletopia | San Francisco | 3 | Stopwatch Beta","protocol":17,"map":"cp_snakewater_final1","folder":"tf","game":"Team Fortress","app_id":440,"player_count":0,"max_players":24,"Bots":0,"server_type":"Dedicated","server_os":"Linux","password":true,"vac":true,"version":"7742253","steam_id":85568392924742824,"keywords":["cp","nocrits","nodmgspread","uncletopia"],"game_id":440,"stv_port":27036,"stv_name":"Uncletopia | San Francisco | 3 | Stopwatch Beta | STV","players":null},{"server_id":20,"name":"Uncletopia | San Francisco | 4 | Community","name_short":"sfo-4","host":"sfo-1.us.uncletopia.com","port":27045,"enabled":true,"region":"us-west","cc":"us","latitude":37.77397,"longitude":-122.4313,"reserved":0,"last_update":"0001-01-01T00:00:00Z","name_a2s":"Uncletopia | San Francisco | 4 | Community","protocol":17,"map":"cp_dustbowl","folder":"tf","game":"Team Fortress","app_id":440,"player_count":0,"max_players":24,"Bots":0,"server_type":"Dedicated","server_os":"Linux","password":true,"vac":true,"version":"7742253","steam_id":85568392924742826,"keywords":["cp","nocrits","nodmgspread","uncletopia"],"game_id":440,"stv_port":27046,"stv_name":"Uncletopia | San Francisco | 4 | Community | STV","players":null},{"server_id":141,"name":"Uncletopia | Sydney | 1 | All Maps","name_short":"syd-1","host":"syd-1.au.uncletopia.com","port":27015,"enabled":true,"region":"au","cc":"au","latitude":-33.865143,"longitude":151.2099,"reserved":0,"last_update":"0001-01-01T00:00:00Z","name_a2s":"Uncletopia | Sydney | 1 | All Maps","protocol":17,"map":"koth_highpass","folder":"tf","game":"Team Fortress","app_id":440,"player_count":2,"max_players":24,"Bots":0,"server_type":"Dedicated","server_os":"Linux","password":true,"vac":true,"version":"7742253","steam_id":85568392924470001,"keywords":["cp","nocrits","nodmgspread","uncletopia"],"game_id":440,"stv_port":27016,"stv_name":"Uncletopia | Sydney | 1 | All Maps | STV","players":[{"user_id":584,"name":"arthurdpa [F2P]","steam_id":76561199035808894,"connected_time":3336000000000,"state":"active","ping":352},{"user_id":594,"name":"Cafe","steam_id":76561198061587693,"connected_time":1087000000000,"state":"active","ping":101}]},{"server_id":123,"name":"Uncletopia | Sydney | 2 | All Maps","name_short":"syd-2","host":"syd-1.au.uncletopia.com","port":27025,"enabled":true,"region":"au","cc":"au","latitude":-33.865143,"longitude":151.2099,"reserved":0,"last_update":"0001-01-01T00:00:00Z","name_a2s":"Uncletopia | Sydney | 2 | All Maps","protocol":17,"map":"pl_borneo","folder":"tf","game":"Team Fortress","app_id":440,"player_count":0,"max_players":24,"Bots":0,"server_type":"Dedicated","server_os":"Linux","password":true,"vac":true,"version":"7742253","steam_id":85568392924470002,"keywords":["nocrits","nodmgspread","payload","uncletopia"],"game_id":440,"stv_port":27026,"stv_name":"Uncletopia | Sydney | 2 | All Maps | STV","players":null},{"server_id":395,"name":"Uncletopia | Sydney | 3 | All Maps","name_short":"syd-3","host":"syd-1.au.uncletopia.com","port":27035,"enabled":true,"region":"au","cc":"au","latitude":-33.865143,"longitude":151.2099,"reserved":0,"last_update":"0001-01-01T00:00:00Z","name_a2s":"Uncletopia | Sydney | 3 | All Maps","protocol":17,"map":"koth_sawmill","folder":"tf","game":"Team Fortress","app_id":440,"player_count":0,"max_players":24,"Bots":0,"server_type":"Dedicated","server_os":"Linux","password":true,"vac":true,"version":"7742253","steam_id":85568392925194467,"keywords":["cp","nocrits","nodmgspread","uncletopia"],"game_id":440,"stv_port":27036,"stv_name":"Uncletopia | Sydney | 3 | All Maps | STV","players":null},{"server_id":396,"name":"Uncletopia | Sydney | 4 | All Maps","name_short":"syd-4","host":"syd-1.au.uncletopia.com","port":27045,"enabled":true,"region":"au","cc":"au","latitude":-33.865143,"longitude":151.2099,"reserved":0,"last_update":"0001-01-01T00:00:00Z","name_a2s":"Uncletopia | Sydney | 4 | All Maps","protocol":17,"map":"koth_lakeside_final","folder":"tf","game":"Team Fortress","app_id":440,"player_count":0,"max_players":24,"Bots":0,"server_type":"Dedicated","server_os":"Linux","password":true,"vac":true,"version":"7742253","steam_id":85568392925397958,"keywords":["cp","nocrits","nodmgspread","uncletopia"],"game_id":440,"stv_port":27046,"stv_name":"Uncletopia | Sydney | 4 | All Maps | STV","players":null},{"server_id":58,"name":"Uncletopia | Sydney | 5 | Stopwatch Beta","name_short":"syd-5","host":"syd-1.au.uncletopia.com","port":27055,"enabled":true,"region":"au","cc":"au","latitude":-33.865143,"longitude":151.2099,"reserved":0,"last_update":"0001-01-01T00:00:00Z","name_a2s":"Uncletopia | Sydney | 5 | Stopwatch Beta","protocol":17,"map":"workshop/koth_bagel_rc5.ugc2514036946","folder":"tf","game":"Team Fortress","app_id":440,"player_count":0,"max_players":24,"Bots":0,"server_type":"Dedicated","server_os":"Linux","password":true,"vac":true,"version":"7742253","steam_id":85568392925397959,"keywords":["cp","nocrits","nodmgspread","uncletopia"],"game_id":440,"stv_port":27056,"stv_name":"Uncletopia | Sydney | 5 | Stopwatch Beta | STV","players":null},{"server_id":59,"name":"Uncletopia | Sydney | 6 | Community","name_short":"syd-6","host":"syd-1.au.uncletopia.com","port":27065,"enabled":true,"region":"au","cc":"au","latitude":-33.865143,"longitude":151.2099,"reserved":0,"last_update":"0001-01-01T00:00:00Z","name_a2s":"Uncletopia | Sydney | 6 | Community","protocol":17,"map":"workshop/koth_ramjam_rc1.ugc459778887","folder":"tf","game":"Team Fortress","app_id":440,"player_count":0,"max_players":24,"Bots":0,"server_type":"Dedicated","server_os":"Linux","password":true,"vac":true,"version":"7742253","steam_id":85568392925397960,"keywords":["cp","nocrits","nodmgspread","uncletopia"],"game_id":440,"stv_port":27066,"stv_name":"Uncletopia | Sydney | 6 | Community | STV","players":null},{"server_id":49,"name":"Uncletopia | Warsaw | 1 | All Maps","name_short":"waw-1","host":"waw-1.pl.uncletopia.com","port":27015,"enabled":true,"region":"eu","cc":"pl","latitude":52.2297,"longitude":21.017532,"reserved":0,"last_update":"0001-01-01T00:00:00Z","name_a2s":"","protocol":0,"map":"","folder":"","game":"","app_id":0,"player_count":0,"max_players":0,"Bots":0,"server_type":"","server_os":"","password":false,"vac":false,"version":"","steam_id":0,"keywords":null,"game_id":0,"stv_port":0,"stv_name":"","players":null},{"server_id":50,"name":"Uncletopia | Warsaw | 2 | All Maps","name_short":"waw-2","host":"waw-1.pl.uncletopia.com","port":27025,"enabled":true,"region":"eu","cc":"pl","latitude":52.2297,"longitude":21.017532,"reserved":0,"last_update":"0001-01-01T00:00:00Z","name_a2s":"Uncletopia | Warsaw | 2 | All Maps","protocol":17,"map":"cp_process_final","folder":"tf","game":"Team Fortress","app_id":440,"player_count":0,"max_players":24,"Bots":0,"server_type":"Dedicated","server_os":"Linux","password":true,"vac":true,"version":"7742253","steam_id":85568392925397851,"keywords":["cp","nocrits","nodmgspread","uncletopia"],"game_id":440,"stv_port":27026,"stv_name":"Uncletopia | Warsaw | 2 | All Maps | STV","players":null},{"server_id":51,"name":"Uncletopia | Warsaw | 3 | All Maps","name_short":"waw-3","host":"waw-1.pl.uncletopia.com","port":27035,"enabled":true,"region":"eu","cc":"pl","latitude":52.2297,"longitude":21.017532,"reserved":0,"last_update":"0001-01-01T00:00:00Z","name_a2s":"Uncletopia | Warsaw | 3 | All Maps","protocol":17,"map":"koth_lakeside_final","folder":"tf","game":"Team Fortress","app_id":440,"player_count":0,"max_players":24,"Bots":0,"server_type":"Dedicated","server_os":"Linux","password":true,"vac":true,"version":"7742253","steam_id":85568392925397852,"keywords":["cp","nocrits","nodmgspread","uncletopia"],"game_id":440,"stv_port":27036,"stv_name":"Uncletopia | Warsaw | 3 | All Maps | STV","players":null},{"server_id":52,"name":"Uncletopia | Warsaw | 4 | All Maps","name_short":"waw-4","host":"waw-1.pl.uncletopia.com","port":27045,"enabled":true,"region":"eu","cc":"pl","latitude":52.2297,"longitude":21.017532,"reserved":0,"last_update":"0001-01-01T00:00:00Z","name_a2s":"Uncletopia | Warsaw | 4 | All Maps","protocol":17,"map":"pl_frontier_final","folder":"tf","game":"Team Fortress","app_id":440,"player_count":0,"max_players":24,"Bots":0,"server_type":"Dedicated","server_os":"Linux","password":true,"vac":true,"version":"7742253","steam_id":85568392925397853,"keywords":["nocrits","nodmgspread","payload","uncletopia"],"game_id":440,"stv_port":27046,"stv_name":"Uncletopia | Warsaw | 4 | All Maps | STV","players":null},{"server_id":53,"name":"Uncletopia | Warsaw | 5 | Stopwatch Beta","name_short":"waw-5","host":"waw-1.pl.uncletopia.com","port":27055,"enabled":true,"region":"eu","cc":"pl","latitude":52.2297,"longitude":21.017532,"reserved":0,"last_update":"0001-01-01T00:00:00Z","name_a2s":"Uncletopia | Warsaw | 5 | Stopwatch Beta","protocol":17,"map":"pl_swiftwater_final1","folder":"tf","game":"Team Fortress","app_id":440,"player_count":0,"max_players":24,"Bots":0,"server_type":"Dedicated","server_os":"Linux","password":true,"vac":true,"version":"7742253","steam_id":85568392925397854,"keywords":["nocrits","nodmgspread","payload","uncletopia"],"game_id":440,"stv_port":27056,"stv_name":"Uncletopia | Warsaw | 5 | Stopwatch Beta | STV","players":null},{"server_id":54,"name":"Uncletopia | Warsaw | 6 | Community","name_short":"waw-6","host":"waw-1.pl.uncletopia.com","port":27065,"enabled":true,"region":"eu","cc":"pl","latitude":52.2297,"longitude":21.017532,"reserved":0,"last_update":"0001-01-01T00:00:00Z","name_a2s":"Uncletopia | Warsaw | 6 | Community","protocol":17,"map":"koth_highpass","folder":"tf","game":"Team Fortress","app_id":440,"player_count":0,"max_players":24,"Bots":0,"server_type":"Dedicated","server_os":"Linux","password":true,"vac":true,"version":"7742253","steam_id":85568392925397856,"keywords":["cp","nocrits","nodmgspread","uncletopia"],"game_id":440,"stv_port":27066,"stv_name":"Uncletopia | Warsaw | 6 | Community | STV","players":null}]}