{"status":true,"message":"","result":[{"server_id":9,"name":"Uncletopia | Atlanta | 1 | All Maps","name_short":"atl-1","host":"atl-1.us.uncletopia.com","port":27015,"enabled":true,"region":"us-east","cc":"us","latitude":33.753746,"longitude":-84.38633,"reserved":0,"last_update":"0001-01-01T00:00:00Z","name_a2s":"Uncletopia | Atlanta | 1 | All Maps","protocol":17,"map":"cp_steel","folder":"tf","game":"Team Fortress","app_id":440,"player_count":24,"max_players":24,"Bots":0,"server_type":"Dedicated","server_os":"Linux","password":true,"vac":true,"version":"7961495","steam_id":85568392924469982,"keywords":["cp","nocrits","nodmgspread","uncletopia"],"game_id":440,"stv_port":27016,"stv_name":"Uncletopia | Atlanta | 1 | All Maps | STV","players":null},{"server_id":104,"name":"Uncletopia | Atlanta | 2 | All Maps","name_short":"atl-2","host":"atl-1.us.uncletopia.com","port":27025,"enabled":true,"region":"us-east","cc":"us","latitude":33.753746,"longitude":-84.38633,"reserved":0,"last_update":"0001-01-01T00:00:00Z","name_a2s":"Uncletopia | Atlanta | 2 | All Maps","protocol":17,"map":"pl_barnblitz","folder":"tf","game":"Team Fortress","app_id":440,"player_count":23,"max_players":24,"Bots":0,"server_type":"Dedicated","server_os":"Linux","password":true,"vac":true,"version":"7961495","steam_id":85568392924469983,"keywords":["nocrits","nodmgspread","payload","uncletopia"],"game_id":440,"stv_port":27026,"stv_name":"Uncletopia | Atlanta | 2 | All Maps | STV","players":null},{"server_id":400,"name":"Uncletopia | Atlanta | 3 | Stopwatch","name_short":"atl-3","host":"atl-1.us.uncletopia.com","port":27035,"enabled":true,"region":"us-east","cc":"us","latitude":33.753746,"longitude":-84.38633,"reserved":0,"last_update":"0001-01-01T00:00:00Z","name_a2s":"Uncletopia | Atlanta | 3 | Stopwatch","protocol":17,"map":"cp_metalworks","folder":"tf","game":"Team Fortress","app_id":440,"player_count":24,"max_players":24,"Bots":0,"server_type":"Dedicated","server_os":"Linux","password":true,"vac":true,"version":"7961495","steam_id":85568392924515187,"keywords":["cp","nocrits","nodmgspread","uncletopia"],"game_id":440,"stv_port":27036,"stv_name":"Uncletopia | Atlanta | 3 | Stopwatch | STV","players":null},{"server_id":401,"name":"Uncletopia | Atlanta | 4 | Community","name_short":"atl-4","host":"atl-1.us.uncletopia.com","port":27045,"enabled":true,"region":"us-east","cc":"us","latitude":33.753746,"longitude":-84.38633,"reserved":0,"last_update":"0001-01-01T00:00:00Z","name_a2s":"Uncletopia | Atlanta | 4 | Community","protocol":17,"map":"cp_snowbase_b18","folder":"tf","game":"Team Fortress","app_id":440,"player_count":0,"max_players":24,"Bots":0,"server_type":"Dedicated","server_os":"Linux","password":true,"vac":true,"version":"7961495","steam_id":85568392924515188,"keywords":["cp","nocrits","nodmgspread","uncletopia"],"game_id":440,"stv_port":27046,"stv_name":"Uncletopia | Atlanta | 4 | Community | STV","players":null},{"server_id":2,"name":"Uncletopia | Chicago | 1 | All Maps","name_short":"chi-1","host":"chi-1.us.uncletopia.com","port":27015,"enabled":true,"region":"us-central","cc":"us","latitude":41.881832,"longitude":-87.62318,"reserved":0,"last_update":"0001-01-01T00:00:00Z","name_a2s":"Uncletopia | Chicago | 1 | All Maps","protocol":17,"map":"pl_borneo","folder":"tf","game":"Team Fortress","app_id":440,"player_count":24,"max_players":24,"Bots":0,"server_type":"Dedicated","server_os":"Linux","password":true,"vac":true,"version":"7961495","steam_id":85568392924469984,"keywords":["nocrits","nodmgspread","payload","uncletopia"],"game_id":440,"stv_port":27016,"stv_name":"Uncletopia | Chicago | 1 | All Maps | STV","players":[{"user_id":185,"name":"Wengatang","steam_id":76561198021747059,"connected_time":966000000000,"state":"active","ping":47},{"user_id":192,"name":"el wiwi","steam_id":76561198857304367,"connected_time":202000000000,"state":"active","ping":73},{"user_id":190,"name":"None of that $9.99 bullshit","steam_id":76561198116169903,"connected_time":236000000000,"state":"active","ping":45},{"user_id":111,"name":"Boxpipe","steam_id":76561197964501915,"connected_time":8089000000000,"state":"active","ping":52},{"user_id":106,"name":"Jerk Tryhard (roleplay)","steam_id":76561199470538309,"connected_time":8747000000000,"state":"active","ping":59},{"user_id":188,"name":"mistib7","steam_id":76561198219911404,"connected_time":369000000000,"state":"active","ping":70},{"user_id":127,"name":"Sunny D+","steam_id":76561197999371052,"connected_time":5176000000000,"state":"active","ping":62},{"user_id":137,"name":"Filthy Acts at Reasonable Price","steam_id":76561198354615890,"connected_time":4950000000000,"state":"active","ping":57},{"user_id":191,"name":"ya ya breathe","steam_id":76561198075858067,"connected_time":235000000000,"state":"active","ping":63},{"user_id":189,"name":"Sergeant Joker #savetf2","steam_id":76561198854616604,"connected_time":284000000000,"state":"active","ping":72},{"user_id":187,"name":"Allahuakber786","steam_id":76561198870359481,"connected_time":560000000000,"state":"active","ping":89},{"user_id":166,"name":"Hylic","steam_id":76561199051314589,"connected_time":2731000000000,"state":"active","ping":60},{"user_id":193,"name":"yeet ape","steam_id":76561198151368930,"connected_time":200000000000,"state":"active","ping":47},{"user_id":184,"name":"allMAX","steam_id":76561198270980670,"connected_time":1143000000000,"state":"active","ping":190},{"user_id":153,"name":"aiden","steam_id":76561198449527009,"connected_time":3518000000000,"state":"active","ping":92},{"user_id":168,"name":"nonagon infinity","steam_id":76561198397662124,"connected_time":2639000000000,"state":"active","ping":85},{"user_id":186,"name":"cognitiveAfflatus","steam_id":76561198295181426,"connected_time":965000000000,"state":"active","ping":73},{"user_id":195,"name":"Joshy","steam_id":76561198061405421,"connected_time":176000000000,"state":"active","ping":89},{"user_id":196,"name":"Space","steam_id":76561198350489754,"connected_time":173000000000,"state":"active","ping":55},{"user_id":117,"name":"kirby7","steam_id":76561199167006749,"connected_time":7477000000000,"state":"active","ping":133},{"user_id":150,"name":"eloressa","steam_id":76561198120330867,"connected_time":3536000000000,"state":"active","ping":46},{"user_id":198,"name":"Avenging Spirit","steam_id":76561198119572121,"connected_time":152000000000,"state":"active","ping":60},{"user_id":183,"name":"kite","steam_id":76561198346516392,"connected_time":1278000000000,"state":"active","ping":70},{"user_id":180,"name":"hoOmIN","steam_id":76561198334947079,"connected_time":1416000000000,"state":"active","ping":90}]},{"server_id":106,"name":"Uncletopia | Chicago | 2 | All Maps","name_short":"chi-2","host":"chi-1.us.uncletopia.com","port":27025,"enabled":true,"region":"us-central","cc":"us","latitude":41.881832,"longitude":-87.62318,"reserved":0,"last_update":"0001-01-01T00:00:00Z","name_a2s":"Uncletopia | Chicago | 2 | All Maps","protocol":17,"map":"koth_viaduct","folder":"tf","game":"Team Fortress","app_id":440,"player_count":24,"max_players":24,"Bots":0,"server_type":"Dedicated","server_os":"Linux","password":true,"vac":true,"version":"7961495","steam_id":85568392924469985,"keywords":["cp","nocrits","nodmgspread","uncletopia"],"game_id":440,"stv_port":27026,"stv_name":"Uncletopia | Chicago | 2 | All Maps | STV","players":[{"user_id":49,"name":"Dox","steam_id":76561198120368589,"connected_time":871000000000,"state":"active","ping":76},{"user_id":16,"name":"RedPyro2009","steam_id":76561198935824363,"connected_time":2159000000000,"state":"active","ping":160},{"user_id":29,"name":"cool beans","steam_id":76561198321591685,"connected_time":1540000000000,"state":"active","ping":80},{"user_id":52,"name":"shnowshner","steam_id":76561198066450438,"connected_time":181000000000,"state":"active","ping":82},{"user_id":19,"name":"chiswola","steam_id":76561198046920142,"connected_time":2010000000000,"state":"active","ping":73},{"user_id":20,"name":"GreySweaterCat","steam_id":76561198351860293,"connected_time":1959000000000,"state":"active","ping":81},{"user_id":21,"name":"Westwood","steam_id":76561199387699252,"connected_time":1945000000000,"state":"active","ping":87},{"user_id":22,"name":"kingcreeper","steam_id":76561199096024712,"connected_time":1898000000000,"state":"active","ping":91},{"user_id":23,"name":"thatguy_luigi","steam_id":76561198968055462,"connected_time":1879000000000,"state":"active","ping":126},{"user_id":24,"name":"barney","steam_id":76561198166433332,"connected_time":1682000000000,"state":"active","ping":105},{"user_id":25,"name":"lolzfrdawin21","steam_id":76561199006665979,"connected_time":1649000000000,"state":"active","ping":74},{"user_id":53,"name":"fisherman","steam_id":76561198157435832,"connected_time":43000000000,"state":"active","ping":69},{"user_id":44,"name":"carrot cake","steam_id":76561198055174915,"connected_time":1199000000000,"state":"active","ping":69},{"user_id":28,"name":"Princess Daisy Gaming","steam_id":76561199194349087,"connected_time":1584000000000,"state":"active","ping":80},{"user_id":30,"name":"HUMBY","steam_id":76561198065045867,"connected_time":1445000000000,"state":"active","ping":84},{"user_id":48,"name":"ham salmontizer","steam_id":76561198168840293,"connected_time":933000000000,"state":"active","ping":85},{"user_id":33,"name":"WesyUWU (The mini crit pig)","steam_id":76561198069188177,"connected_time":1395000000000,"state":"active","ping":71},{"user_id":34,"name":"Kung fu Mungus","steam_id":76561198069281556,"connected_time":1383000000000,"state":"active","ping":74},{"user_id":50,"name":"wafflehamster2000","steam_id":76561198849161820,"connected_time":643000000000,"state":"active","ping":66},{"user_id":38,"name":"Doctor Bear ʕ •ᴥ•ʔ","steam_id":76561197968103161,"connected_time":1308000000000,"state":"active","ping":69},{"user_id":39,"name":"Not_Douglas","steam_id":76561199024184136,"connected_time":1305000000000,"state":"active","ping":65},{"user_id":40,"name":"Dongus","steam_id":76561197979056451,"connected_time":1277000000000,"state":"active","ping":95},{"user_id":43,"name":"Degree","steam_id":76561198059812393,"connected_time":1211000000000,"state":"active","ping":82},{"user_id":46,"name":"對沖基金分析師","steam_id":76561198068672882,"connected_time":1188000000000,"state":"active","ping":106}]},{"server_id":402,"name":"Uncletopia | Chicago | 3 | All Maps","name_short":"chi-3","host":"chi-1.us.uncletopia.com","port":27035,"enabled":true,"region":"us-central","cc":"us","latitude":41.881832,"longitude":-87.62318,"reserved":0,"last_update":"0001-01-01T00:00:00Z","name_a2s":"Uncletopia | Chicago | 3 | All Maps","protocol":17,"map":"cp_altitude","folder":"tf","game":"Team Fortress","app_id":440,"player_count":2,"max_players":24,"Bots":0,"server_type":"Dedicated","server_os":"Linux","password":true,"vac":true,"version":"7961495","steam_id":85568392924515191,"keywords":["cp","nocrits","nodmgspread","uncletopia"],"game_id":440,"stv_port":27036,"stv_name":"Uncletopia | Chicago | 3 | All Maps | STV","players":[{"user_id":26,"name":"gunman231","steam_id":76561199375682212,"connected_time":246000000000,"state":"active","ping":202},{"user_id":24,"name":"SebastionFletcher2005","steam_id":76561198878574189,"connected_time":337000000000,"state":"active","ping":79}]},{"server_id":403,"name":"Uncletopia | Chicago | 4 | All Maps","name_short":"chi-4","host":"chi-1.us.uncletopia.com","port":27045,"enabled":true,"region":"us-central","cc":"us","latitude":41.881832,"longitude":-87.62318,"reserved":0,"last_update":"0001-01-01T00:00:00Z","name_a2s":"Uncletopia | Chicago | 4 | All Maps","protocol":17,"map":"cp_mossrock","folder":"tf","game":"Team Fortress","app_id":440,"player_count":24,"max_players":24,"Bots":0,"server_type":"Dedicated","server_os":"Linux","password":true,"vac":true,"version":"7961495","steam_id":85568392924515193,"keywords":["cp","nocrits","nodmgspread","uncletopia"],"game_id":440,"stv_port":27046,"stv_name":"Uncletopia | Chicago | 4 | All Maps | STV","players":[{"user_id":144,"name":"Nathan","steam_id":76561199132214008,"connected_time":924000000000,"state":"active","ping":93},{"user_id":159,"name":"The_RainbowTrout","steam_id":76561199309554436,"connected_time":194000000000,"state":"active","ping":93},{"user_id":123,"name":"thecal","steam_id":76561198307893384,"connected_time":2654000000000,"state":"active","ping":55},{"user_id":158,"name":"|WS| Don't_Taze_Me_Bro","steam_id":76561198043289495,"connected_time":260000000000,"state":"active","ping":73},{"user_id":134,"name":":p","steam_id":76561198047786061,"connected_time":1252000000000,"state":"active","ping":82},{"user_id":125,"name":"tA.CHRONIC","steam_id":76561197960760990,"connected_time":2222000000000,"state":"active","ping":49},{"user_id":63,"name":"Toxic Ron","steam_id":76561198089302972,"connected_time":6528000000000,"state":"active","ping":66},{"user_id":151,"name":"Franco","steam_id":76561199483952215,"connected_time":716000000000,"state":"active","ping":124},{"user_id":128,"name":"can you help me with my homewor","steam_id":76561198408159536,"connected_time":1817000000000,"state":"active","ping":55},{"user_id":155,"name":"derz","steam_id":76561198010742216,"connected_time":438000000000,"state":"active","ping":55},{"user_id":87,"name":"The Rookie","steam_id":76561198015781346,"connected_time":5130000000000,"state":"active","ping":87},{"user_id":136,"name":"PumpkinThink","steam_id":76561198393830529,"connected_time":1179000000000,"state":"active","ping":128},{"user_id":129,"name":"evasive species","steam_id":76561198068089999,"connected_time":1706000000000,"state":"active","ping":52},{"user_id":160,"name":"epic cheeseburger","steam_id":76561198041995180,"connected_time":102000000000,"state":"active","ping":86},{"user_id":154,"name":"anonion","steam_id":76561198056477584,"connected_time":503000000000,"state":"active","ping":89},{"user_id":46,"name":"Blue Eyes Ace Dragon.","steam_id":76561198048214237,"connected_time":7528000000000,"state":"active","ping":61},{"user_id":140,"name":"Rein | Comms Open","steam_id":76561198300340427,"connected_time":1103000000000,"state":"active","ping":62},{"user_id":152,"name":"Chin, Bruce Lee's Relative","steam_id":76561198240105522,"connected_time":697000000000,"state":"active","ping":75},{"user_id":107,"name":"schnedwob","steam_id":76561197999146588,"connected_time":3828000000000,"state":"active","ping":76},{"user_id":150,"name":"Egg","steam_id":76561198028157625,"connected_time":736000000000,"state":"active","ping":89},{"user_id":139,"name":"Urbanzpinapple","steam_id":76561198115426938,"connected_time":1116000000000,"state":"active","ping":58},{"user_id":161,"name":"ZodiacThundaga","steam_id":76561199025117814,"connected_time":35000000000,"state":"active","ping":82},{"user_id":109,"name":"Lain","steam_id":76561198029303534,"connected_time":3797000000000,"state":"active","ping":69},{"user_id":65,"name":"King Sans","steam_id":76561198294198517,"connected_time":6517000000000,"state":"active","ping":59}]},{"server_id":36,"name":"Uncletopia | Chicago | 5 | All Maps","name_short":"chi-5","host":"chi-2.us.uncletopia.com","port":27015,"enabled":true,"region":"us-central","cc":"us","latitude":41.881832,"longitude":-87.62318,"reserved":0,"last_update":"0001-01-01T00:00:00Z","name_a2s":"Uncletopia | Chicago | 5 | All Maps","protocol":17,"map":"koth_viaduct","folder":"tf","game":"Team Fortress","app_id":440,"player_count":3,"max_players":24,"Bots":0,"server_type":"Dedicated","server_os":"Linux","password":true,"vac":true,"version":"7961495","steam_id":85568392924866362,"keywords":["cp","nocrits","nodmgspread","uncletopia"],"game_id":440,"stv_port":27016,"stv_name":"Uncletopia | Chicago | 5 | All Maps | STV","players":[{"user_id":12,"name":"MeKaso TropStar","steam_id":76561199109895840,"connected_time":560000000000,"state":"active","ping":66},{"user_id":18,"name":"Ectomonkey","steam_id":76561198125417062,"connected_time":17000000000,"state":"spawning","ping":88},{"user_id":14,"name":"cwaggs76","steam_id":76561199013048778,"connected_time":376000000000,"state":"active","ping":62}]},{"server_id":37,"name":"Uncletopia | Chicago | 6 | All Maps","name_short":"chi-6","host":"chi-2.us.uncletopia.com","port":27025,"enabled":true,"region":"us-central","cc":"us","latitude":41.881832,"longitude":-87.62318,"reserved":0,"last_update":"0001-01-01T00:00:00Z","name_a2s":"Uncletopia | Chicago | 6 | All Maps","protocol":17,"map":"koth_viaduct","folder":"tf","game":"Team Fortress","app_id":440,"player_count":0,"max_players":24,"Bots":0,"server_type":"Dedicated","server_os":"Linux","password":true,"vac":true,"version":"7961495","steam_id":85568392924866363,"keywords":["cp","nocrits","nodmgspread","uncletopia"],"game_id":440,"stv_port":27026,"stv_name":"Uncletopia | Chicago | 6 | All Maps | STV","players":null},{"server_id":38,"name":"Uncletopia | Chicago | 7 | Stopwatch","name_short":"chi-7","host":"chi-2.us.uncletopia.com","port":27035,"enabled":true,"region":"us-central","cc":"us","latitude":41.881832,"longitude":-87.62318,"reserved":0,"last_update":"0001-01-01T00:00:00Z","name_a2s":"Uncletopia | Chicago | 7 | Stopwatch","protocol":17,"map":"pl_borneo","folder":"tf","game":"Team Fortress","app_id":440,"player_count":0,"max_players":24,"Bots":0,"server_type":"Dedicated","server_os":"Linux","password":true,"vac":true,"version":"7961495","steam_id":85568392924866364,"keywords":["nocrits","nodmgspread","payload","uncletopia"],"game_id":440,"stv_port":27036,"stv_name":"Uncletopia | Chicago | 7 | Stopwatch | STV","players":null},{"server_id":39,"name":"Uncletopia | Chicago | 8 | Community","name_short":"chi-8","host":"chi-2.us.uncletopia.com","port":27045,"enabled":true,"region":"us-central","cc":"us","latitude":41.881832,"longitude":-87.62318,"reserved":0,"last_update":"0001-01-01T00:00:00Z","name_a2s":"Uncletopia | Chicago | 8 | Community","protocol":17,"map":"pl_pier","folder":"tf","game":"Team Fortress","app_id":440,"player_count":0,"max_players":24,"Bots":0,"server_type":"Dedicated","server_os":"Linux","password":true,"vac":true,"version":"7961495","steam_id":85568392924866365,"keywords":["nocrits","nodmgspread","payload","uncletopia"],"game_id":440,"stv_port":27046,"stv_name":"Uncletopia | Chicago | 8 | Community | STV","players":null},{"server_id":8,"name":"Uncletopia | Dallas | 1 | All Maps","name_short":"dal-1","host":"dal-1.us.uncletopia.com","port":27015,"enabled":true,"region":"us-central","cc":"us","latitude":32.779167,"longitude":-96.80889,"reserved":0,"last_update":"0001-01-01T00:00:00Z","name_a2s":"Uncletopia | Dallas | 1 | All Maps","protocol":17,"map":"pl_upward","folder":"tf","game":"Team Fortress","app_id":440,"player_count":20,"max_players":24,"Bots":0,"server_type":"Dedicated","server_os":"Linux","password":true,"vac":true,"version":"7961495","steam_id":85568392924469986,"keywords":["nocrits","nodmgspread","payload","uncletopia"],"game_id":440,"stv_port":27016,"stv_name":"Uncletopia | Dallas | 1 | All Maps | STV","players":[{"user_id":78,"name":"Metru Nui Online Game","steam_id":76561198056496183,"connected_time":4340000000000,"state":"active","ping":92},{"user_id":102,"name":"Sloth ❦","steam_id":76561197998378462,"connected_time":1878000000000,"state":"active","ping":91},{"user_id":121,"name":"p8ps","steam_id":76561199137042715,"connected_time":98000000000,"state":"active","ping":214},{"user_id":115,"name":"-π- BakaD","steam_id":76561197960559169,"connected_time":1374000000000,"state":"active","ping":77},{"user_id":117,"name":"Carbonated Cocaine","steam_id":76561198110678966,"connected_time":1247000000000,"state":"active","ping":46},{"user_id":79,"name":"DELTRON ZERO","steam_id":76561198081123470,"connected_time":4219000000000,"state":"active","ping":48},{"user_id":125,"name":"Gem","steam_id":76561198106330075,"connected_time":32000000000,"state":"active","ping":62},{"user_id":126,"name":"XboxGold14dayfreetrial","steam_id":76561199087480628,"connected_time":23000000000,"state":"active","ping":91},{"user_id":88,"name":"Lovedaddy","steam_id":76561198006569710,"connected_time":3613000000000,"state":"active","ping":103},{"user_id":87,"name":"Crack Addict","steam_id":76561198166681494,"connected_time":3625000000000,"state":"active","ping":55},{"user_id":127,"name":"Harufloofer","steam_id":76561199084506827,"connected_time":21000000000,"state":"active","ping":48},{"user_id":128,"name":"Firedust19","steam_id":76561198153238631,"connected_time":6000000000,"state":"spawning","ping":117},{"user_id":113,"name":"ducky","steam_id":76561198007764271,"connected_time":1429000000000,"state":"active","ping":52},{"user_id":32,"name":"Smashy","steam_id":76561198030704307,"connected_time":6751000000000,"state":"active","ping":108},{"user_id":118,"name":"rocketspires","steam_id":76561198800386026,"connected_time":970000000000,"state":"active","ping":103},{"user_id":116,"name":"jasperschwartz09","steam_id":76561199468934923,"connected_time":1286000000000,"state":"active","ping":58},{"user_id":68,"name":"TheGirthquake","steam_id":76561198238895056,"connected_time":4760000000000,"state":"active","ping":150},{"user_id":122,"name":"zero two","steam_id":76561199058650117,"connected_time":75000000000,"state":"connecting","ping":97},{"user_id":41,"name":"redarcher42","steam_id":76561199027887687,"connected_time":6481000000000,"state":"active","ping":71},{"user_id":92,"name":"Greg Boberton 2012","steam_id":76561198983566026,"connected_time":3289000000000,"state":"active","ping":82}]},{"server_id":108,"name":"Uncletopia | Dallas | 2 | All Maps","name_short":"dal-2","host":"dal-1.us.uncletopia.com","port":27025,"enabled":true,"region":"us-central","cc":"us","latitude":32.779167,"longitude":-96.80889,"reserved":0,"last_update":"0001-01-01T00:00:00Z","name_a2s":"Uncletopia | Dallas | 2 | All Maps","protocol":17,"map":"cp_dustbowl","folder":"tf","game":"Team Fortress","app_id":440,"player_count":24,"max_players":24,"Bots":0,"server_type":"Dedicated","server_os":"Linux","password":true,"vac":true,"version":"7961495","steam_id":85568392924469988,"keywords":["cp","nocrits","nodmgspread","uncletopia"],"game_id":440,"stv_port":27026,"stv_name":"Uncletopia | Dallas | 2 | All Maps | STV","players":[{"user_id":10,"name":"Insizhen","steam_id":76561198051352605,"connected_time":3374000000000,"state":"active","ping":59},{"user_id":28,"name":"fasterbum","steam_id":76561198142577444,"connected_time":2598000000000,"state":"active","ping":77},{"user_id":47,"name":"GlingGlop95","steam_id":76561198386865528,"connected_time":2111000000000,"state":"active","ping":79},{"user_id":53,"name":"nav","steam_id":76561198872608266,"connected_time":939000000000,"state":"active","ping":85},{"user_id":51,"name":"rymeister","steam_id":76561199108571500,"connected_time":1025000000000,"state":"active","ping":41},{"user_id":52,"name":"gooch_masta","steam_id":76561198151578423,"connected_time":986000000000,"state":"active","ping":83},{"user_id":54,"name":"hl3 hot gay sex","steam_id":76561199122281764,"connected_time":917000000000,"state":"active","ping":74},{"user_id":16,"name":"Dreamzapp","steam_id":76561199084936632,"connected_time":3162000000000,"state":"active","ping":97},{"user_id":64,"name":"King","steam_id":76561198039763676,"connected_time":557000000000,"state":"active","ping":75},{"user_id":55,"name":"BOB","steam_id":76561198000787196,"connected_time":871000000000,"state":"active","ping":145},{"user_id":68,"name":"The creator(made twitter)","steam_id":76561198870900265,"connected_time":94000000000,"state":"active","ping":89},{"user_id":63,"name":"tim","steam_id":76561198075510786,"connected_time":588000000000,"state":"active","ping":69},{"user_id":36,"name":"name me pls","steam_id":76561199273576072,"connected_time":2390000000000,"state":"active","ping":170},{"user_id":65,"name":"Koala Bear","steam_id":76561198118025990,"connected_time":528000000000,"state":"active","ping":89},{"user_id":38,"name":"Justy","steam_id":76561198044014069,"connected_time":2378000000000,"state":"active","ping":64},{"user_id":62,"name":"Legit_Jaxer","steam_id":76561198172234053,"connected_time":661000000000,"state":"active","ping":110},{"user_id":58,"name":"Platinum","steam_id":76561198348354629,"connected_time":810000000000,"state":"active","ping":78},{"user_id":39,"name":"firestabber","steam_id":76561198057055577,"connected_time":2344000000000,"state":"active","ping":95},{"user_id":40,"name":"YoteDab McFapDab.jpg","steam_id":76561197984870380,"connected_time":2338000000000,"state":"active","ping":93},{"user_id":41,"name":"bobkattbro","steam_id":76561199009438984,"connected_time":2321000000000,"state":"active","ping":132},{"user_id":59,"name":"grape","steam_id":76561197993980328,"connected_time":751000000000,"state":"active","ping":123},{"user_id":61,"name":"Bankito","steam_id":76561198972260865,"connected_time":675000000000,"state":"active","ping":101},{"user_id":44,"name":"Sax","steam_id":76561198055425123,"connected_time":2270000000000,"state":"active","ping":117},{"user_id":46,"name":"mr555","steam_id":76561199128375354,"connected_time":2224000000000,"state":"active","ping":178}]},{"server_id":404,"name":"Uncletopia | Dallas | 3 | All Maps","name_short":"dal-3","host":"dal-1.us.uncletopia.com","port":27035,"enabled":true,"region":"us-central","cc":"us","latitude":32.779167,"longitude":-96.80889,"reserved":0,"last_update":"0001-01-01T00:00:00Z","name_a2s":"Uncletopia | Dallas | 3 | All Maps","protocol":17,"map":"koth_viaduct","folder":"tf","game":"Team Fortress","app_id":440,"player_count":0,"max_players":24,"Bots":0,"server_type":"Dedicated","server_os":"Linux","password":true,"vac":true,"version":"7961495","steam_id":85568392924515219,"keywords":["cp","nocrits","nodmgspread","uncletopia"],"game_id":440,"stv_port":27036,"stv_name":"Uncletopia | Dallas | 3 | All Maps | STV","players":null},{"server_id":405,"name":"Uncletopia | Dallas | 4 | Community","name_short":"dal-4","host":"dal-1.us.uncletopia.com","port":27045,"enabled":true,"region":"us-central","cc":"us","latitude":32.779167,"longitude":-96.80889,"reserved":0,"last_update":"0001-01-01T00:00:00Z","name_a2s":"Uncletopia | Dallas | 4 | Community","protocol":17,"map":"pl_pier","folder":"tf","game":"Team Fortress","app_id":440,"player_count":0,"max_players":24,"Bots":0,"server_type":"Dedicated","server_os":"Linux","password":true,"vac":true,"version":"7961495","steam_id":85568392924515220,"keywords":["nocrits","nodmgspread","payload","uncletopia"],"game_id":440,"stv_port":27046,"stv_name":"Uncletopia | Dallas | 4 | Community | STV","players":null},{"server_id":5,"name":"Uncletopia | Frankfurt | 1 | All Maps","name_short":"frk-1","host":"frk-1.de.uncletopia.com","port":27015,"enabled":true,"region":"eu","cc":"de","latitude":50.110924,"longitude":8.682127,"reserved":0,"last_update":"0001-01-01T00:00:00Z","name_a2s":"Uncletopia | Frankfurt | 1 | All Maps","protocol":17,"map":"pl_frontier_final","folder":"tf","game":"Team Fortress","app_id":440,"player_count":24,"max_players":24,"Bots":0,"server_type":"Dedicated","server_os":"Linux","password":true,"vac":true,"version":"7961495","steam_id":85568392924469989,"keywords":["nocrits","nodmgspread","payload","uncletopia"],"game_id":440,"stv_port":27016,"stv_name":"Uncletopia | Frankfurt | 1 | All Maps | STV","players":[{"user_id":658,"name":"Pico","steam_id":76561198063552545,"connected_time":1052000000000,"state":"active","ping":91},{"user_id":632,"name":"fynta","steam_id":76561198315371425,"connected_time":3771000000000,"state":"active","ping":53},{"user_id":659,"name":"humble genius","steam_id":76561198243808680,"connected_time":945000000000,"state":"active","ping":59},{"user_id":628,"name":"denismaidanov","steam_id":76561198338601367,"connected_time":4401000000000,"state":"active","ping":100},{"user_id":667,"name":"Officer KD6-3.7","steam_id":76561198034343111,"connected_time":342000000000,"state":"active","ping":49},{"user_id":665,"name":"Sato","steam_id":76561199042847761,"connected_time":681000000000,"state":"active","ping":120},{"user_id":630,"name":"AdeAAa","steam_id":76561198974207724,"connected_time":3861000000000,"state":"active","ping":99},{"user_id":666,"name":"Malbrus","steam_id":76561198054454837,"connected_time":510000000000,"state":"active","ping":130},{"user_id":656,"name":"TheDeath","steam_id":76561198265038954,"connected_time":1641000000000,"state":"active","ping":70},{"user_id":629,"name":"Tree","steam_id":76561198054795379,"connected_time":3891000000000,"state":"active","ping":52},{"user_id":662,"name":"Axxion","steam_id":76561198083142916,"connected_time":861000000000,"state":"active","ping":63},{"user_id":626,"name":"MR BUBBLES","steam_id":76561198019005259,"connected_time":4757000000000,"state":"active","ping":100},{"user_id":645,"name":"Jered","steam_id":76561198834692136,"connected_time":2215000000000,"state":"active","ping":63},{"user_id":663,"name":"jovi_","steam_id":76561198449280552,"connected_time":782000000000,"state":"active","ping":65},{"user_id":646,"name":"Kabajsa","steam_id":76561198111264439,"connected_time":2210000000000,"state":"active","ping":68},{"user_id":635,"name":"TAFI03","steam_id":76561198213082089,"connected_time":3235000000000,"state":"active","ping":61},{"user_id":627,"name":"Kolanciasty ♥","steam_id":76561198020042179,"connected_time":4492000000000,"state":"active","ping":82},{"user_id":639,"name":"Raulca25","steam_id":76561199068256964,"connected_time":2793000000000,"state":"active","ping":87},{"user_id":653,"name":"2spooky4me","steam_id":76561198043211244,"connected_time":2030000000000,"state":"active","ping":58},{"user_id":636,"name":"scarybroccoli","steam_id":76561198996934524,"connected_time":3036000000000,"state":"active","ping":105},{"user_id":649,"name":"Toast","steam_id":76561199243331140,"connected_time":2173000000000,"state":"active","ping":167},{"user_id":660,"name":"LeGerooo","steam_id":76561199110422160,"connected_time":932000000000,"state":"active","ping":91},{"user_id":604,"name":"John","steam_id":76561198121630215,"connected_time":5966000000000,"state":"active","ping":63},{"user_id":664,"name":"Samaj","steam_id":76561198008442806,"connected_time":761000000000,"state":"active","ping":82}]},{"server_id":110,"name":"Uncletopia | Frankfurt | 2 | All Maps","name_short":"frk-2","host":"frk-1.de.uncletopia.com","port":27025,"enabled":true,"region":"eu","cc":"de","latitude":50.110924,"longitude":8.682127,"reserved":0,"last_update":"0001-01-01T00:00:00Z","name_a2s":"Uncletopia | Frankfurt | 2 | All Maps","protocol":17,"map":"pl_snowycoast","folder":"tf","game":"Team Fortress","app_id":440,"player_count":24,"max_players":24,"Bots":0,"server_type":"Dedicated","server_os":"Linux","password":true,"vac":true,"version":"7961495","steam_id":85568392924469990,"keywords":["nocrits","nodmgspread","payload","uncletopia"],"game_id":440,"stv_port":27026,"stv_name":"Uncletopia | Frankfurt | 2 | All Maps | STV","players":[{"user_id":36,"name":"Doommsatic","steam_id":76561198264874440,"connected_time":4100000000000,"state":"active","ping":109},{"user_id":89,"name":"Master Of Noob","steam_id":76561198217926783,"connected_time":701000000000,"state":"active","ping":68},{"user_id":84,"name":"Pilaarius","steam_id":76561198120273212,"connected_time":967000000000,"state":"active","ping":91},{"user_id":60,"name":"DHD - Obismal","steam_id":76561198000356530,"connected_time":2726000000000,"state":"active","ping":73},{"user_id":99,"name":"dollerboy","steam_id":76561199246428577,"connected_time":431000000000,"state":"active","ping":97},{"user_id":91,"name":"Kacperos12","steam_id":76561198044168268,"connected_time":593000000000,"state":"active","ping":94},{"user_id":75,"name":"Negan Smith","steam_id":76561199114463463,"connected_time":2101000000000,"state":"active","ping":96},{"user_id":90,"name":"Behind you","steam_id":76561198102420849,"connected_time":690000000000,"state":"active","ping":57},{"user_id":80,"name":"BING CHILLING","steam_id":76561198065438030,"connected_time":1832000000000,"state":"active","ping":131},{"user_id":77,"name":"󠀡󠀡","steam_id":76561198399390201,"connected_time":1998000000000,"state":"active","ping":68},{"user_id":92,"name":"blazeeight","steam_id":76561198159456502,"connected_time":583000000000,"state":"active","ping":60},{"user_id":49,"name":"Macci - Obismal","steam_id":76561198050485404,"connected_time":3063000000000,"state":"active","ping":75},{"user_id":101,"name":"Caruzon - Obismal","steam_id":76561198036211170,"connected_time":364000000000,"state":"active","ping":76},{"user_id":56,"name":"Rez","steam_id":76561198410598772,"connected_time":2822000000000,"state":"active","ping":45},{"user_id":81,"name":"Gen","steam_id":76561198021775885,"connected_time":1416000000000,"state":"active","ping":54},{"user_id":57,"name":"Mike","steam_id":76561198228455736,"connected_time":2817000000000,"state":"active","ping":100},{"user_id":95,"name":"Birdseye","steam_id":76561198025852216,"connected_time":543000000000,"state":"active","ping":60},{"user_id":86,"name":"Schmidt","steam_id":76561198001058733,"connected_time":869000000000,"state":"active","ping":104},{"user_id":104,"name":"Soulman25 (FIN)","steam_id":76561198103611974,"connected_time":222000000000,"state":"active","ping":99},{"user_id":97,"name":"Space","steam_id":76561198021572167,"connected_time":493000000000,"state":"active","ping":60},{"user_id":98,"name":"Gimli","steam_id":76561198004149706,"connected_time":488000000000,"state":"active","ping":73},{"user_id":102,"name":". . .","steam_id":76561198184360615,"connected_time":339000000000,"state":"active","ping":89},{"user_id":78,"name":"R8N - Obismal","steam_id":76561198007482714,"connected_time":1978000000000,"state":"active","ping":68},{"user_id":103,"name":"САНЯ ВОДІЛА","steam_id":76561198343380238,"connected_time":304000000000,"state":"active","ping":78}]},{"server_id":308,"name":"Uncletopia | Frankfurt | 3 | All Maps","name_short":"frk-3","host":"frk-1.de.uncletopia.com","port":27035,"enabled":true,"region":"eu","cc":"de","latitude":50.110924,"longitude":8.682127,"reserved":0,"last_update":"0001-01-01T00:00:00Z","name_a2s":"Uncletopia | Frankfurt | 3 | All Maps","protocol":17,"map":"koth_harvest_final","folder":"tf","game":"Team Fortress","app_id":440,"player_count":21,"max_players":24,"Bots":0,"server_type":"Dedicated","server_os":"Linux","password":true,"vac":true,"version":"7961495","steam_id":85568392924504274,"keywords":["cp","nocrits","nodmgspread","uncletopia"],"game_id":440,"stv_port":27036,"stv_name":"Uncletopia | Frankfurt | 3 | All Maps | STV","players":[{"user_id":367,"name":"peams","steam_id":76561198343328308,"connected_time":213000000000,"state":"active","ping":48},{"user_id":379,"name":"the grongle","steam_id":76561198989398023,"connected_time":23000000000,"state":"active","ping":97},{"user_id":369,"name":"lulu","steam_id":76561199147764133,"connected_time":196000000000,"state":"active","ping":76},{"user_id":289,"name":"Der er myrer under min hud","steam_id":76561198204171871,"connected_time":6351000000000,"state":"active","ping":89},{"user_id":376,"name":"Klikkxy","steam_id":76561199319171770,"connected_time":49000000000,"state":"active","ping":71},{"user_id":364,"name":"ThatTFguy","steam_id":76561198056794321,"connected_time":315000000000,"state":"active","ping":70},{"user_id":365,"name":"Dom","steam_id":76561198363721191,"connected_time":260000000000,"state":"active","ping":98},{"user_id":378,"name":"supersabir","steam_id":76561198303055397,"connected_time":34000000000,"state":"spawning","ping":44},{"user_id":370,"name":"EdDie","steam_id":76561198277966196,"connected_time":181000000000,"state":"active","ping":71},{"user_id":371,"name":"Random","steam_id":76561199079951047,"connected_time":163000000000,"state":"active","ping":85},{"user_id":372,"name":"ramirez","steam_id":76561198117060048,"connected_time":158000000000,"state":"active","ping":43},{"user_id":380,"name":"Mark Johnson","steam_id":76561198218293684,"connected_time":21000000000,"state":"active","ping":60},{"user_id":374,"name":"Intruder","steam_id":76561198156128173,"connected_time":72000000000,"state":"active","ping":73},{"user_id":377,"name":"The Fire","steam_id":76561199219653853,"connected_time":45000000000,"state":"active","ping":49},{"user_id":381,"name":"twitch.tv/vision515","steam_id":76561198065293729,"connected_time":14000000000,"state":"active","ping":163},{"user_id":360,"name":"♂ MGE ♂ PUPSIK ♂","steam_id":76561198308302932,"connected_time":362000000000,"state":"active","ping":102},{"user_id":352,"name":"RichT","steam_id":76561197990504106,"connected_time":1288000000000,"state":"active","ping":66},{"user_id":321,"name":"꒰ ˶• ༝ •˶꒱","steam_id":76561198054474684,"connected_time":3844000000000,"state":"active","ping":69},{"user_id":343,"name":"FreXx","steam_id":76561198375272077,"connected_time":1945000000000,"state":"active","ping":84},{"user_id":334,"name":"sex toilet","steam_id":76561198412197820,"connected_time":2612000000000,"state":"active","ping":77},{"user_id":310,"name":"Andy","steam_id":76561198046918834,"connected_time":5412000000000,"state":"active","ping":67}]},{"server_id":309,"name":"Uncletopia | Frankfurt | 4 | All Maps","name_short":"frk-4","host":"frk-1.de.uncletopia.com","port":27045,"enabled":true,"region":"eu","cc":"de","latitude":50.110924,"longitude":8.682127,"reserved":0,"last_update":"0001-01-01T00:00:00Z","name_a2s":"Uncletopia | Frankfurt | 4 | All Maps","protocol":17,"map":"cp_process_final","folder":"tf","game":"Team Fortress","app_id":440,"player_count":24,"max_players":24,"Bots":0,"server_type":"Dedicated","server_os":"Linux","password":true,"vac":true,"version":"7961495","steam_id":85568392924504275,"keywords":["cp","nocrits","nodmgspread","uncletopia"],"game_id":440,"stv_port":27046,"stv_name":"Uncletopia | Frankfurt | 4 | All Maps | STV","players":[{"user_id":448,"name":"Person","steam_id":76561199216957269,"connected_time":5946000000000,"state":"active","ping":91},{"user_id":523,"name":"Waazard","steam_id":76561198383923159,"connected_time":1803000000000,"state":"active","ping":75},{"user_id":511,"name":"ᴀꜱᴋᴜʟᴀᴘ","steam_id":76561197992018795,"connected_time":2855000000000,"state":"active","ping":75},{"user_id":542,"name":"Jennifer","steam_id":76561199474556920,"connected_time":276000000000,"state":"active","ping":91},{"user_id":534,"name":"Naty","steam_id":76561198083488307,"connected_time":1501000000000,"state":"active","ping":72},{"user_id":394,"name":"hhhhhh","steam_id":76561198031982574,"connected_time":9252000000000,"state":"active","ping":53},{"user_id":524,"name":"ion luca caragiale","steam_id":76561198132025408,"connected_time":1790000000000,"state":"active","ping":66},{"user_id":525,"name":"plo at u","steam_id":76561198998684199,"connected_time":1780000000000,"state":"active","ping":120},{"user_id":535,"name":"Exee","steam_id":76561198139574633,"connected_time":1367000000000,"state":"active","ping":72},{"user_id":538,"name":"Ninpan","steam_id":76561198836972540,"connected_time":834000000000,"state":"active","ping":164},{"user_id":543,"name":"Szeregowy LowiRyb","steam_id":76561198855967762,"connected_time":245000000000,"state":"active","ping":107},{"user_id":509,"name":"H1DD3 gaming","steam_id":76561198855897385,"connected_time":2940000000000,"state":"active","ping":65},{"user_id":544,"name":"lyudmilakh","steam_id":76561198362779878,"connected_time":241000000000,"state":"active","ping":91},{"user_id":530,"name":"biohazard","steam_id":76561198162873354,"connected_time":1641000000000,"state":"active","ping":106},{"user_id":493,"name":"go casino 777","steam_id":76561198150755391,"connected_time":3569000000000,"state":"active","ping":42},{"user_id":532,"name":"glue gunner","steam_id":76561198330025106,"connected_time":1591000000000,"state":"active","ping":45},{"user_id":501,"name":"john fortress","steam_id":76561198013237629,"connected_time":3115000000000,"state":"active","ping":96},{"user_id":488,"name":"Jonny J","steam_id":76561198027710849,"connected_time":3766000000000,"state":"active","ping":87},{"user_id":513,"name":"Redumpus Demarcus U. the 3rd","steam_id":76561199162894483,"connected_time":2620000000000,"state":"active","ping":154},{"user_id":539,"name":"Brian","steam_id":76561198077756206,"connected_time":546000000000,"state":"active","ping":46},{"user_id":541,"name":"Doric","steam_id":76561198402691965,"connected_time":290000000000,"state":"active","ping":64},{"user_id":536,"name":"VibeCat22","steam_id":76561199248330295,"connected_time":936000000000,"state":"active","ping":63},{"user_id":510,"name":"PanPatrik","steam_id":76561198293331527,"connected_time":2914000000000,"state":"active","ping":52},{"user_id":537,"name":"KFD","steam_id":76561198157183003,"connected_time":935000000000,"state":"active","ping":79}]},{"server_id":310,"name":"Uncletopia | Frankfurt | 5 | All Maps","name_short":"frk-5","host":"frk-1.de.uncletopia.com","port":27055,"enabled":true,"region":"eu","cc":"de","latitude":50.110924,"longitude":8.682127,"reserved":0,"last_update":"0001-01-01T00:00:00Z","name_a2s":"Uncletopia | Frankfurt | 5 | All Maps","protocol":17,"map":"pl_upward","folder":"tf","game":"Team Fortress","app_id":440,"player_count":23,"max_players":24,"Bots":0,"server_type":"Dedicated","server_os":"Linux","password":true,"vac":true,"version":"7961495","steam_id":85568392924504277,"keywords":["nocrits","nodmgspread","payload","uncletopia"],"game_id":440,"stv_port":27056,"stv_name":"Uncletopia | Frankfurt | 5 | All Maps | STV","players":[{"user_id":433,"name":"0xDEADBEEF","steam_id":76561199075416111,"connected_time":116000000000,"state":"active","ping":90},{"user_id":421,"name":"zulfie","steam_id":76561198117390056,"connected_time":563000000000,"state":"active","ping":60},{"user_id":430,"name":"kelm","steam_id":76561198027166144,"connected_time":283000000000,"state":"active","ping":79},{"user_id":406,"name":"虾扯蛋.Lonely","steam_id":76561198022989560,"connected_time":2351000000000,"state":"active","ping":64},{"user_id":428,"name":"Deckard","steam_id":76561198004704647,"connected_time":407000000000,"state":"active","ping":74},{"user_id":399,"name":"Volvo 740 Turbo Wagon","steam_id":76561199027564726,"connected_time":3153000000000,"state":"active","ping":45},{"user_id":431,"name":"Mind Fuzz","steam_id":76561198050079428,"connected_time":122000000000,"state":"active","ping":98},{"user_id":249,"name":"Flank Scout™","steam_id":76561198148115584,"connected_time":16299000000000,"state":"active","ping":75},{"user_id":424,"name":"RiX","steam_id":76561197969053733,"connected_time":496000000000,"state":"active","ping":66},{"user_id":412,"name":"Nor1h_l1zard","steam_id":76561198250011918,"connected_time":1923000000000,"state":"active","ping":75},{"user_id":413,"name":"Chopperson_","steam_id":76561198873728497,"connected_time":1770000000000,"state":"active","ping":99},{"user_id":400,"name":"butter hunt (caber gang)","steam_id":76561198192343263,"connected_time":3130000000000,"state":"active","ping":55},{"user_id":419,"name":"full extent of the jam","steam_id":76561198033728176,"connected_time":645000000000,"state":"active","ping":105},{"user_id":386,"name":"Bob D","steam_id":76561198026375630,"connected_time":4609000000000,"state":"active","ping":61},{"user_id":429,"name":"Lustadinnye (HUN)","steam_id":76561198280206427,"connected_time":374000000000,"state":"active","ping":94},{"user_id":427,"name":"Tweek.","steam_id":76561198030958701,"connected_time":421000000000,"state":"active","ping":60},{"user_id":402,"name":"mendako","steam_id":76561198295305088,"connected_time":2975000000000,"state":"active","ping":58},{"user_id":410,"name":"def","steam_id":76561198857396812,"connected_time":2269000000000,"state":"active","ping":50},{"user_id":432,"name":":)","steam_id":76561198039964082,"connected_time":119000000000,"state":"active","ping":57},{"user_id":417,"name":"DrExplosive","steam_id":76561198063678579,"connected_time":1368000000000,"state":"active","ping":62},{"user_id":387,"name":"Crunchips","steam_id":76561198004336818,"connected_time":4540000000000,"state":"active","ping":102},{"user_id":220,"name":"1914","steam_id":76561198257383813,"connected_time":18921000000000,"state":"active","ping":46},{"user_id":391,"name":"Wardruna96","steam_id":76561199057083828,"connected_time":3450000000000,"state":"active","ping":84}]},{"server_id":311,"name":"Uncletopia | Frankfurt | 6 | All Maps","name_short":"frk-6","host":"frk-1.de.uncletopia.com","port":27065,"enabled":true,"region":"eu","cc":"de","latitude":50.110924,"longitude":8.682127,"reserved":0,"last_update":"0001-01-01T00:00:00Z","name_a2s":"Uncletopia | Frankfurt | 6 | All Maps","protocol":17,"map":"pl_pier","folder":"tf","game":"Team Fortress","app_id":440,"player_count":23,"max_players":24,"Bots":0,"server_type":"Dedicated","server_os":"Linux","password":true,"vac":true,"version":"7961495","steam_id":85568392924504278,"keywords":["nocrits","nodmgspread","payload","uncletopia"],"game_id":440,"stv_port":27066,"stv_name":"Uncletopia | Frankfurt | 6 | All Maps | STV","players":[{"user_id":346,"name":"Not A Fake Uncletopia Server","steam_id":76561198152871288,"connected_time":627000000000,"state":"active","ping":59},{"user_id":278,"name":"Flohr","steam_id":76561198191948841,"connected_time":4618000000000,"state":"active","ping":46},{"user_id":329,"name":"Zino","steam_id":76561197969422755,"connected_time":2214000000000,"state":"active","ping":83},{"user_id":331,"name":"Zor","steam_id":76561198009851383,"connected_time":2076000000000,"state":"active","ping":64},{"user_id":335,"name":"Enjoyer","steam_id":76561198147399855,"connected_time":1958000000000,"state":"active","ping":131},{"user_id":324,"name":"Gardvord","steam_id":76561198120715753,"connected_time":2292000000000,"state":"active","ping":74},{"user_id":325,"name":"Beep","steam_id":76561198151248575,"connected_time":2279000000000,"state":"active","ping":73},{"user_id":354,"name":"Hexagon","steam_id":76561198151205758,"connected_time":351000000000,"state":"active","ping":53},{"user_id":355,"name":"Dictatorial Karelian","steam_id":76561198196736457,"connected_time":332000000000,"state":"active","ping":75},{"user_id":336,"name":"Soverney","steam_id":76561197997961169,"connected_time":1947000000000,"state":"active","ping":99},{"user_id":326,"name":"Tiobio","steam_id":76561198355473473,"connected_time":2276000000000,"state":"active","ping":72},{"user_id":342,"name":"Old Beavis","steam_id":76561198065951617,"connected_time":1321000000000,"state":"active","ping":68},{"user_id":318,"name":"David \"Crash\" Murphy","steam_id":76561198292845505,"connected_time":2736000000000,"state":"active","ping":94},{"user_id":319,"name":"c1v","steam_id":76561199085624224,"connected_time":2558000000000,"state":"active","ping":71},{"user_id":348,"name":"Akisян","steam_id":76561198078706435,"connected_time":559000000000,"state":"active","ping":77},{"user_id":328,"name":"Bortas","steam_id":76561197972282153,"connected_time":2236000000000,"state":"active","ping":75},{"user_id":356,"name":"GGabe","steam_id":76561198117199068,"connected_time":302000000000,"state":"active","ping":69},{"user_id":343,"name":"emir","steam_id":76561198113089831,"connected_time":795000000000,"state":"active","ping":90},{"user_id":350,"name":"corralled","steam_id":76561198028648627,"connected_time":513000000000,"state":"active","ping":70},{"user_id":352,"name":"Average meme enjoyer","steam_id":76561199087566663,"connected_time":449000000000,"state":"active","ping":85},{"user_id":357,"name":"Nick","steam_id":76561198036109469,"connected_time":271000000000,"state":"active","ping":83},{"user_id":340,"name":"Koss","steam_id":76561198033316239,"connected_time":1657000000000,"state":"active","ping":99},{"user_id":359,"name":"Qwerty","steam_id":76561198023525894,"connected_time":249000000000,"state":"active","ping":83}]},{"server_id":23,"name":"Uncletopia | Frankfurt | 7 | Stopwatch","name_short":"frk-7","host":"frk-1.de.uncletopia.com","port":27075,"enabled":true,"region":"eu","cc":"de","latitude":50.110924,"longitude":8.682127,"reserved":0,"last_update":"0001-01-01T00:00:00Z","name_a2s":"Uncletopia | Frankfurt | 7 | Stopwatch","protocol":17,"map":"workshop/koth_ashville_final.ugc2130459942","folder":"tf","game":"Team Fortress","app_id":440,"player_count":0,"max_players":24,"Bots":0,"server_type":"Dedicated","server_os":"Linux","password":true,"vac":true,"version":"7961495","steam_id":85568392924742827,"keywords":["cp","nocrits","nodmgspread","uncletopia"],"game_id":440,"stv_port":27076,"stv_name":"Uncletopia | Frankfurt | 7 | Stopwatch | STV","players":null},{"server_id":24,"name":"Uncletopia | Frankfurt | 8 | Community","name_short":"frk-8","host":"frk-1.de.uncletopia.com","port":27085,"enabled":true,"region":"eu","cc":"de","latitude":50.110924,"longitude":8.682127,"reserved":0,"last_update":"0001-01-01T00:00:00Z","name_a2s":"Uncletopia | Frankfurt | 8 | Community","protocol":17,"map":"workshop/pl_cactuscanyon_redux_final2.ugc2579644293","folder":"tf","game":"Team Fortress","app_id":440,"player_count":1,"max_players":24,"Bots":0,"server_type":"Dedicated","server_os":"Linux","password":true,"vac":true,"version":"7961495","steam_id":85568392924742828,"keywords":["nocrits","nodmgspread","payload","uncletopia"],"game_id":440,"stv_port":27086,"stv_name":"Uncletopia | Frankfurt | 8 | Community | STV","players":[{"user_id":7,"name":"norespectforthedevil","steam_id":76561197998922218,"connected_time":1905000000000,"state":"spawning","ping":146}]},{"server_id":202,"name":"Uncletopia | Hong Kong | 1 | All Maps","name_short":"hgk-1","host":"hgk-1.hk.uncletopia.com","port":27015,"enabled":true,"region":"asia","cc":"hk","latitude":22.302711,"longitude":114.177216,"reserved":0,"last_update":"0001-01-01T00:00:00Z","name_a2s":"Uncletopia | Hong Kong | 1 | All Maps","protocol":17,"map":"pl_snowycoast","folder":"tf","game":"Team Fortress","app_id":440,"player_count":0,"max_players":24,"Bots":0,"server_type":"Dedicated","server_os":"Linux","password":true,"vac":true,"version":"7961495","steam_id":85568392924494504,"keywords":["nocrits","nodmgspread","payload","uncletopia"],"game_id":440,"stv_port":27016,"stv_name":"Uncletopia | Hong Kong | 1 | All Maps | STV","players":null},{"server_id":1,"name":"Uncletopia | Los Angeles | 1 | All Maps","name_short":"lax-1","host":"lax-1.us.uncletopia.com","port":27015,"enabled":true,"region":"us-west","cc":"us","latitude":33.94279,"longitude":-118.41004,"reserved":0,"last_update":"0001-01-01T00:00:00Z","name_a2s":"Uncletopia | Los Angeles | 1 | All Maps","protocol":17,"map":"cp_process_final","folder":"tf","game":"Team Fortress","app_id":440,"player_count":24,"max_players":24,"Bots":0,"server_type":"Dedicated","server_os":"Linux","password":true,"vac":true,"version":"7961495","steam_id":85568392924469991,"keywords":["cp","nocrits","nodmgspread","uncletopia"],"game_id":440,"stv_port":27016,"stv_name":"Uncletopia | Los Angeles | 1 | All Maps | STV","players":[{"user_id":176,"name":"Cyber","steam_id":76561198323298672,"connected_time":3143000000000,"state":"active","ping":75},{"user_id":216,"name":"Insomniac","steam_id":76561199180653046,"connected_time":649000000000,"state":"active","ping":163},{"user_id":219,"name":"Sheev Palpatine","steam_id":76561198252332430,"connected_time":540000000000,"state":"active","ping":77},{"user_id":212,"name":"Frank Horrigan","steam_id":76561198066504831,"connected_time":855000000000,"state":"active","ping":56},{"user_id":196,"name":"d4ngerd4n","steam_id":76561198043758735,"connected_time":1513000000000,"state":"active","ping":60},{"user_id":217,"name":"poopweed24","steam_id":76561198338739253,"connected_time":577000000000,"state":"active","ping":58},{"user_id":188,"name":"tyrone","steam_id":76561198113817130,"connected_time":2207000000000,"state":"active","ping":90},{"user_id":204,"name":"crowe","steam_id":76561198142185527,"connected_time":1242000000000,"state":"active","ping":55},{"user_id":205,"name":"Rodrick Knee","steam_id":76561198283021062,"connected_time":1189000000000,"state":"active","ping":130},{"user_id":178,"name":"Buswolley","steam_id":76561197995205571,"connected_time":2952000000000,"state":"active","ping":57},{"user_id":193,"name":"Limerumpus","steam_id":76561198138113676,"connected_time":1742000000000,"state":"active","ping":101},{"user_id":213,"name":"IDK_LIZORD","steam_id":76561199244260952,"connected_time":854000000000,"state":"active","ping":100},{"user_id":224,"name":"KombatWombat","steam_id":76561198062536642,"connected_time":418000000000,"state":"active","ping":65},{"user_id":201,"name":"Nibotshooter","steam_id":76561199284825579,"connected_time":1283000000000,"state":"active","ping":64},{"user_id":189,"name":"baked garfield","steam_id":76561198069874720,"connected_time":2194000000000,"state":"active","ping":89},{"user_id":214,"name":"DJ Giant [They/Them]","steam_id":76561198288059782,"connected_time":837000000000,"state":"active","ping":161},{"user_id":225,"name":"Sunkenthree51","steam_id":76561198300781307,"connected_time":230000000000,"state":"active","ping":57},{"user_id":183,"name":"Wolfking450","steam_id":76561198399975373,"connected_time":2460000000000,"state":"active","ping":130},{"user_id":220,"name":"catrinaisahuman","steam_id":76561198281355729,"connected_time":540000000000,"state":"active","ping":75},{"user_id":218,"name":"Touka Katanouka","steam_id":76561198171521806,"connected_time":572000000000,"state":"active","ping":100},{"user_id":184,"name":"Birby","steam_id":76561198884009768,"connected_time":2425000000000,"state":"active","ping":67},{"user_id":207,"name":"TheAnswer","steam_id":76561198039471743,"connected_time":1130000000000,"state":"active","ping":79},{"user_id":215,"name":"SomeUnknownThing","steam_id":76561198412163316,"connected_time":810000000000,"state":"active","ping":45},{"user_id":222,"name":"ceres","steam_id":76561198291976960,"connected_time":499000000000,"state":"active","ping":89}]},{"server_id":112,"name":"Uncletopia | Los Angeles | 2 | All Maps","name_short":"lax-2","host":"lax-1.us.uncletopia.com","port":27025,"enabled":true,"region":"us-west","cc":"us","latitude":33.94279,"longitude":-118.41004,"reserved":0,"last_update":"0001-01-01T00:00:00Z","name_a2s":"Uncletopia | Los Angeles | 2 | All Maps","protocol":17,"map":"cp_process_final","folder":"tf","game":"Team Fortress","app_id":440,"player_count":0,"max_players":24,"Bots":0,"server_type":"Dedicated","server_os":"Linux","password":true,"vac":true,"version":"7961495","steam_id":85568392924469992,"keywords":["cp","nocrits","nodmgspread","uncletopia"],"game_id":440,"stv_port":27026,"stv_name":"Uncletopia | Los Angeles | 2 | All Maps | STV","players":null},{"server_id":324,"name":"Uncletopia | Los Angeles | 3 | All Maps","name_short":"lax-3","host":"lax-1.us.uncletopia.com","port":27035,"enabled":true,"region":"us-west","cc":"us","latitude":33.94279,"longitude":-118.41004,"reserved":0,"last_update":"0001-01-01T00:00:00Z","name_a2s":"Uncletopia | Los Angeles | 3 | All Maps","protocol":17,"map":"pl_frontier_final","folder":"tf","game":"Team Fortress","app_id":440,"player_count":0,"max_players":24,"Bots":0,"server_type":"Dedicated","server_os":"Linux","password":true,"vac":true,"version":"7961495","steam_id":85568392924510198,"keywords":["nocrits","nodmgspread","payload","uncletopia"],"game_id":440,"stv_port":27036,"stv_name":"Uncletopia | Los Angeles | 3 | All Maps | STV","players":null},{"server_id":25,"name":"Uncletopia | Los Angeles | 4 | Stopwatch","name_short":"lax-4","host":"lax-1.us.uncletopia.com","port":27045,"enabled":true,"region":"us-west","cc":"us","latitude":33.94279,"longitude":-118.41004,"reserved":0,"last_update":"0001-01-01T00:00:00Z","name_a2s":"Uncletopia | Los Angeles | 4 | Stopwatch","protocol":17,"map":"pl_barnblitz","folder":"tf","game":"Team Fortress","app_id":440,"player_count":0,"max_players":24,"Bots":0,"server_type":"Dedicated","server_os":"Linux","password":true,"vac":true,"version":"7961495","steam_id":85568392924510199,"keywords":["nocrits","nodmgspread","payload","uncletopia"],"game_id":440,"stv_port":27046,"stv_name":"Uncletopia | Los Angeles | 4 | Stopwatch | STV","players":null},{"server_id":11,"name":"Uncletopia | London | 1 | All Maps","name_short":"lon-1","host":"lon-1.uk.uncletopia.com","port":27015,"enabled":true,"region":"eu","cc":"gb","latitude":51.509865,"longitude":-0.118092,"reserved":0,"last_update":"0001-01-01T00:00:00Z","name_a2s":"Uncletopia | London | 1 | All Maps","protocol":17,"map":"koth_lakeside_final","folder":"tf","game":"Team Fortress","app_id":440,"player_count":24,"max_players":24,"Bots":0,"server_type":"Dedicated","server_os":"Linux","password":true,"vac":true,"version":"7961495","steam_id":85568392924367362,"keywords":["cp","nocrits","nodmgspread","uncletopia"],"game_id":440,"stv_port":27016,"stv_name":"Uncletopia | London | 1 | All Maps | STV","players":[{"user_id":407,"name":"Kapitan Polska","steam_id":76561197968069413,"connected_time":238000000000,"state":"active","ping":87},{"user_id":381,"name":"Vivian From Paper Mario","steam_id":76561198077624205,"connected_time":2777000000000,"state":"active","ping":70},{"user_id":397,"name":"stroyo","steam_id":76561198409592046,"connected_time":897000000000,"state":"active","ping":48},{"user_id":375,"name":"Dark ^^","steam_id":76561198036241064,"connected_time":3748000000000,"state":"active","ping":70},{"user_id":408,"name":"hi guys it's me","steam_id":76561198997586136,"connected_time":232000000000,"state":"active","ping":128},{"user_id":401,"name":"Tombobx","steam_id":76561198862443949,"connected_time":550000000000,"state":"active","ping":61},{"user_id":395,"name":"Cheers Mate!","steam_id":76561198265192382,"connected_time":1006000000000,"state":"active","ping":74},{"user_id":386,"name":"Mini","steam_id":76561197968634073,"connected_time":2231000000000,"state":"active","ping":94},{"user_id":369,"name":"shooer!","steam_id":76561198110531281,"connected_time":3884000000000,"state":"active","ping":71},{"user_id":402,"name":"Lord","steam_id":76561198241305816,"connected_time":523000000000,"state":"active","ping":116},{"user_id":409,"name":"Plep","steam_id":76561198840259819,"connected_time":228000000000,"state":"active","ping":59},{"user_id":410,"name":"mq","steam_id":76561198091888948,"connected_time":209000000000,"state":"active","ping":50},{"user_id":394,"name":"The Bugs Under Your Skin","steam_id":76561198064795519,"connected_time":1245000000000,"state":"active","ping":48},{"user_id":411,"name":"wife dead","steam_id":76561198444036574,"connected_time":204000000000,"state":"active","ping":60},{"user_id":416,"name":"SwiftKarma","steam_id":76561199005694153,"connected_time":31000000000,"state":"active","ping":62},{"user_id":348,"name":"hipster_doofus","steam_id":76561197970902697,"connected_time":6261000000000,"state":"active","ping":56},{"user_id":384,"name":"cuddle","steam_id":76561198805181599,"connected_time":2614000000000,"state":"active","ping":50},{"user_id":403,"name":"neet","steam_id":76561197968115168,"connected_time":505000000000,"state":"active","ping":115},{"user_id":388,"name":"Romultra","steam_id":76561198354105082,"connected_time":2219000000000,"state":"active","ping":49},{"user_id":326,"name":"Paper","steam_id":76561199037749675,"connected_time":7803000000000,"state":"active","ping":43},{"user_id":413,"name":"Doctor Livesey","steam_id":76561198828037534,"connected_time":181000000000,"state":"active","ping":76},{"user_id":364,"name":"jermany","steam_id":76561198126599355,"connected_time":4278000000000,"state":"active","ping":28},{"user_id":415,"name":"Nobody","steam_id":76561198843025241,"connected_time":159000000000,"state":"active","ping":99},{"user_id":304,"name":"lillunya ♡","steam_id":76561198330418866,"connected_time":8798000000000,"state":"active","ping":73}]},{"server_id":114,"name":"Uncletopia | London | 2 | All Maps","name_short":"lon-2","host":"lon-1.uk.uncletopia.com","port":27025,"enabled":true,"region":"eu","cc":"gb","latitude":51.509865,"longitude":-0.118092,"reserved":0,"last_update":"0001-01-01T00:00:00Z","name_a2s":"Uncletopia | London | 2 | All Maps","protocol":17,"map":"cp_badlands","folder":"tf","game":"Team Fortress","app_id":440,"player_count":24,"max_players":24,"Bots":0,"server_type":"Dedicated","server_os":"Linux","password":true,"vac":true,"version":"7961495","steam_id":85568392924470941,"keywords":["cp","nocrits","nodmgspread","uncletopia"],"game_id":440,"stv_port":27026,"stv_name":"Uncletopia | London | 2 | All Maps | STV","players":[{"user_id":421,"name":"pepper","steam_id":76561198852650589,"connected_time":393000000000,"state":"active","ping":74},{"user_id":281,"name":"Flying Squirrel","steam_id":76561198005202791,"connected_time":10326000000000,"state":"active","ping":76},{"user_id":423,"name":"starlightartist","steam_id":76561198050608456,"connected_time":304000000000,"state":"active","ping":39},{"user_id":346,"name":"grassesmode.exe","steam_id":76561198090167960,"connected_time":6681000000000,"state":"active","ping":83},{"user_id":393,"name":"PashaVerti","steam_id":76561199013963024,"connected_time":2900000000000,"state":"active","ping":80},{"user_id":422,"name":"MostSereneDogeBestDoge","steam_id":76561198061196566,"connected_time":374000000000,"state":"active","ping":56},{"user_id":384,"name":"LazyBane","steam_id":76561198032359132,"connected_time":4419000000000,"state":"active","ping":44},{"user_id":413,"name":"Flyingmeadow","steam_id":76561198144687723,"connected_time":1103000000000,"state":"active","ping":131},{"user_id":419,"name":"dafydd","steam_id":76561198052200325,"connected_time":722000000000,"state":"active","ping":84},{"user_id":424,"name":"OrangeBanana","steam_id":76561199230233875,"connected_time":254000000000,"state":"active","ping":54},{"user_id":392,"name":"Witor","steam_id":76561198127584681,"connected_time":3386000000000,"state":"active","ping":73},{"user_id":420,"name":"life of sponge bob","steam_id":76561199497244760,"connected_time":550000000000,"state":"active","ping":75},{"user_id":324,"name":"dash.","steam_id":76561198084796149,"connected_time":7637000000000,"state":"active","ping":45},{"user_id":412,"name":"Mister","steam_id":76561199049647854,"connected_time":1176000000000,"state":"active","ping":47},{"user_id":390,"name":"TheAutisticGamer","steam_id":76561198137828769,"connected_time":3785000000000,"state":"active","ping":68},{"user_id":386,"name":"Anton Stormbreaker","steam_id":76561198041426778,"connected_time":4361000000000,"state":"active","ping":69},{"user_id":405,"name":"Pfnic","steam_id":76561198157727407,"connected_time":2450000000000,"state":"active","ping":84},{"user_id":415,"name":"piper","steam_id":76561198112687349,"connected_time":886000000000,"state":"active","ping":54},{"user_id":408,"name":"Spagett spook victim","steam_id":76561198124177844,"connected_time":2162000000000,"state":"active","ping":50},{"user_id":297,"name":"just_adhenz1284 #SaveTF2","steam_id":76561198293654671,"connected_time":9542000000000,"state":"active","ping":161},{"user_id":398,"name":"Ozzie","steam_id":76561197992915315,"connected_time":2858000000000,"state":"active","ping":62},{"user_id":416,"name":"etc","steam_id":76561197998394797,"connected_time":846000000000,"state":"active","ping":57},{"user_id":417,"name":"Noodlez","steam_id":76561198239993738,"connected_time":768000000000,"state":"active","ping":62},{"user_id":403,"name":"[IX] KamilaCity","steam_id":76561198854358215,"connected_time":2628000000000,"state":"active","ping":61}]},{"server_id":320,"name":"Uncletopia | London | 3 | All Maps","name_short":"lon-3","host":"lon-1.uk.uncletopia.com","port":27035,"enabled":true,"region":"eu","cc":"gb","latitude":51.509865,"longitude":-0.118092,"reserved":0,"last_update":"0001-01-01T00:00:00Z","name_a2s":"Uncletopia | London | 3 | All Maps","protocol":17,"map":"pl_pier","folder":"tf","game":"Team Fortress","app_id":440,"player_count":24,"max_players":24,"Bots":0,"server_type":"Dedicated","server_os":"Linux","password":true,"vac":true,"version":"7961495","steam_id":85568392924510192,"keywords":["nocrits","nodmgspread","payload","uncletopia"],"game_id":440,"stv_port":27036,"stv_name":"Uncletopia | London | 3 | All Maps | STV","players":[{"user_id":316,"name":"Miss American PIe","steam_id":76561198867108476,"connected_time":391000000000,"state":"active","ping":53},{"user_id":312,"name":"rooliman","steam_id":76561198107767058,"connected_time":898000000000,"state":"active","ping":89},{"user_id":246,"name":"basedgod","steam_id":76561198313835012,"connected_time":5077000000000,"state":"active","ping":58},{"user_id":305,"name":".mostech","steam_id":76561198180506521,"connected_time":1284000000000,"state":"active","ping":92},{"user_id":289,"name":"[FP] Shiken","steam_id":76561198257905663,"connected_time":2077000000000,"state":"active","ping":70},{"user_id":279,"name":"Pvt. Prinny","steam_id":76561198030278562,"connected_time":2937000000000,"state":"active","ping":47},{"user_id":307,"name":"Fuzz","steam_id":76561198013049077,"connected_time":1218000000000,"state":"active","ping":77},{"user_id":290,"name":"Beep","steam_id":76561198120500488,"connected_time":2071000000000,"state":"active","ping":56},{"user_id":280,"name":"Dan Dan the Furious","steam_id":76561198091032527,"connected_time":2934000000000,"state":"active","ping":55},{"user_id":315,"name":"asko","steam_id":76561198081966620,"connected_time":590000000000,"state":"active","ping":89},{"user_id":294,"name":"SirNeeco \u003c3","steam_id":76561198103014203,"connected_time":1947000000000,"state":"active","ping":65},{"user_id":273,"name":"medicinal man","steam_id":76561198202668788,"connected_time":3517000000000,"state":"active","ping":72},{"user_id":291,"name":"[FP] Rune","steam_id":76561198030842879,"connected_time":2067000000000,"state":"active","ping":45},{"user_id":228,"name":"paypig","steam_id":76561198035137115,"connected_time":6262000000000,"state":"active","ping":45},{"user_id":314,"name":"smadetus2","steam_id":76561198060561361,"connected_time":819000000000,"state":"active","ping":115},{"user_id":268,"name":"Fran","steam_id":76561199070516960,"connected_time":3676000000000,"state":"active","ping":75},{"user_id":304,"name":"Skinny101","steam_id":76561197985599360,"connected_time":1411000000000,"state":"active","ping":58},{"user_id":301,"name":"SSAdam","steam_id":76561198244670152,"connected_time":1602000000000,"state":"active","ping":88},{"user_id":296,"name":"God Emperor of Mankind","steam_id":76561198300869935,"connected_time":1883000000000,"state":"active","ping":52},{"user_id":297,"name":"InsectKing","steam_id":76561199013519071,"connected_time":1842000000000,"state":"active","ping":43},{"user_id":317,"name":"Fidacha","steam_id":76561198003060881,"connected_time":333000000000,"state":"active","ping":74},{"user_id":306,"name":"Trapezoid","steam_id":76561198059369295,"connected_time":1237000000000,"state":"active","ping":75},{"user_id":308,"name":"Wyzis","steam_id":76561198972794977,"connected_time":1156000000000,"state":"active","ping":85},{"user_id":210,"name":"Snowmotion","steam_id":76561198075022454,"connected_time":7538000000000,"state":"active","ping":71}]},{"server_id":321,"name":"Uncletopia | London | 4 | All Maps","name_short":"lon-4","host":"lon-1.uk.uncletopia.com","port":27045,"enabled":true,"region":"eu","cc":"gb","latitude":51.509865,"longitude":-0.118092,"reserved":0,"last_update":"0001-01-01T00:00:00Z","name_a2s":"Uncletopia | London | 4 | All Maps","protocol":17,"map":"pl_swiftwater_final1","folder":"tf","game":"Team Fortress","app_id":440,"player_count":16,"max_players":24,"Bots":0,"server_type":"Dedicated","server_os":"Linux","password":true,"vac":true,"version":"7961495","steam_id":85568392924510193,"keywords":["nocrits","nodmgspread","payload","uncletopia"],"game_id":440,"stv_port":27046,"stv_name":"Uncletopia | London | 4 | All Maps | STV","players":[{"user_id":111,"name":"free back real estate","steam_id":76561197999437155,"connected_time":1910000000000,"state":"active","ping":52},{"user_id":137,"name":"Ghost11","steam_id":76561198068892992,"connected_time":24000000000,"state":"spawning","ping":95},{"user_id":134,"name":"soap lore 15","steam_id":76561198058879767,"connected_time":143000000000,"state":"active","ping":46},{"user_id":135,"name":"I.AM.THE.BOOP.WHICH.IS.APROACHI","steam_id":76561198049342507,"connected_time":134000000000,"state":"active","ping":90},{"user_id":77,"name":"pro pates","steam_id":76561198089560908,"connected_time":4348000000000,"state":"active","ping":92},{"user_id":85,"name":"Keho","steam_id":76561198087962709,"connected_time":4030000000000,"state":"active","ping":75},{"user_id":116,"name":"Brallerin","steam_id":76561198060026189,"connected_time":1548000000000,"state":"active","ping":55},{"user_id":47,"name":"zazuza","steam_id":76561198049820905,"connected_time":6453000000000,"state":"active","ping":78},{"user_id":136,"name":"dave.shotgun_2008","steam_id":76561199153146171,"connected_time":114000000000,"state":"active","ping":56},{"user_id":124,"name":"Monkeytonk","steam_id":76561198081151851,"connected_time":1271000000000,"state":"active","ping":34},{"user_id":113,"name":"Vonacht","steam_id":76561198016033944,"connected_time":1728000000000,"state":"active","ping":61},{"user_id":117,"name":"Gentlemann of Scotland","steam_id":76561198073941805,"connected_time":1488000000000,"state":"active","ping":56},{"user_id":130,"name":"Virtual Mage","steam_id":76561198180779897,"connected_time":848000000000,"state":"active","ping":46},{"user_id":80,"name":"The man from the window","steam_id":76561198055949151,"connected_time":4278000000000,"state":"active","ping":44},{"user_id":118,"name":"executive producer larry david","steam_id":76561198057868438,"connected_time":1477000000000,"state":"active","ping":98},{"user_id":128,"name":"alexthecaptain","steam_id":76561198072632194,"connected_time":933000000000,"state":"active","ping":168}]},{"server_id":21,"name":"Uncletopia | London | 5 | All Maps","name_short":"lon-5","host":"lon-1.uk.uncletopia.com","port":27055,"enabled":true,"region":"eu","cc":"gb","latitude":51.509865,"longitude":-0.118092,"reserved":0,"last_update":"0001-01-01T00:00:00Z","name_a2s":"Uncletopia | London | 5 | All Maps","protocol":17,"map":"ctf_2fort","folder":"tf","game":"Team Fortress","app_id":440,"player_count":17,"max_players":24,"Bots":0,"server_type":"Dedicated","server_os":"Linux","password":true,"vac":true,"version":"7961495","steam_id":85568392924742829,"keywords":["ctf","nocrits","nodmgspread","uncletopia"],"game_id":440,"stv_port":27056,"stv_name":"Uncletopia | London | 5 | All Maps | STV","players":[{"user_id":63,"name":"Punkin","steam_id":76561198334301755,"connected_time":41000000000,"state":"spawning","ping":95},{"user_id":49,"name":"Fatmagic Mukbang ASMR","steam_id":76561198063492110,"connected_time":689000000000,"state":"active","ping":86},{"user_id":43,"name":"Weegad Wobus","steam_id":76561199429562693,"connected_time":1092000000000,"state":"active","ping":70},{"user_id":26,"name":"Goblin Tinkerer","steam_id":76561199195214616,"connected_time":3303000000000,"state":"active","ping":48},{"user_id":27,"name":"Ascended Noob","steam_id":76561198079411460,"connected_time":3289000000000,"state":"active","ping":54},{"user_id":28,"name":"Zx.kk","steam_id":76561199223724162,"connected_time":3262000000000,"state":"active","ping":60},{"user_id":44,"name":"Kenny_killer_69","steam_id":76561199465207725,"connected_time":1080000000000,"state":"active","ping":82},{"user_id":59,"name":"Toasted Toby","steam_id":76561198002139581,"connected_time":232000000000,"state":"active","ping":59},{"user_id":50,"name":"TaiFaitter","steam_id":76561198844647170,"connected_time":678000000000,"state":"active","ping":95},{"user_id":52,"name":"Dr. Sex","steam_id":76561198108056121,"connected_time":608000000000,"state":"active","ping":88},{"user_id":51,"name":"EMPPU","steam_id":76561198386978962,"connected_time":645000000000,"state":"active","ping":121},{"user_id":53,"name":"Princess Peach","steam_id":76561198260272240,"connected_time":587000000000,"state":"active","ping":45},{"user_id":55,"name":"Futatsuiwa Mamizou","steam_id":76561198799303596,"connected_time":481000000000,"state":"active","ping":106},{"user_id":56,"name":"Псина","steam_id":76561199382797449,"connected_time":448000000000,"state":"active","ping":122},{"user_id":61,"name":"PootisPupper","steam_id":76561198819761525,"connected_time":166000000000,"state":"active","ping":75},{"user_id":58,"name":"Trujo","steam_id":76561199002203871,"connected_time":392000000000,"state":"active","ping":67},{"user_id":62,"name":"burger eater","steam_id":76561199488645777,"connected_time":164000000000,"state":"active","ping":139}]},{"server_id":22,"name":"Uncletopia | London | 6 | All Maps","name_short":"lon-6","host":"lon-1.uk.uncletopia.com","port":27065,"enabled":true,"region":"eu","cc":"gb","latitude":51.509865,"longitude":-0.118092,"reserved":0,"last_update":"0001-01-01T00:00:00Z","name_a2s":"Uncletopia | London | 6 | All Maps","protocol":17,"map":"cp_altitude","folder":"tf","game":"Team Fortress","app_id":440,"player_count":20,"max_players":24,"Bots":0,"server_type":"Dedicated","server_os":"Linux","password":true,"vac":true,"version":"7961495","steam_id":85568392924742830,"keywords":["cp","nocrits","nodmgspread","uncletopia"],"game_id":440,"stv_port":27066,"stv_name":"Uncletopia | London | 6 | All Maps | STV","players":[{"user_id":158,"name":"purplecan","steam_id":76561199208283508,"connected_time":1419000000000,"state":"active","ping":80},{"user_id":183,"name":"Bird On Your Window","steam_id":76561198081933130,"connected_time":19000000000,"state":"spawning","ping":48},{"user_id":156,"name":"cister0","steam_id":76561198130195469,"connected_time":1479000000000,"state":"active","ping":82},{"user_id":176,"name":"⸸aura⸸","steam_id":76561198066258544,"connected_time":584000000000,"state":"active","ping":69},{"user_id":185,"name":"Pogmanson","steam_id":76561198919953445,"connected_time":7000000000,"state":"spawning","ping":137},{"user_id":175,"name":"Prox","steam_id":76561198351490981,"connected_time":923000000000,"state":"active","ping":40},{"user_id":155,"name":"Fuck it (unhandicaps)","steam_id":76561197983095579,"connected_time":1499000000000,"state":"active","ping":78},{"user_id":163,"name":"dopamine overdose","steam_id":76561199032511302,"connected_time":1244000000000,"state":"active","ping":93},{"user_id":165,"name":"ПЕПЕ","steam_id":76561198133085347,"connected_time":1229000000000,"state":"active","ping":72},{"user_id":177,"name":"spy's arent real","steam_id":76561198165871469,"connected_time":302000000000,"state":"active","ping":61},{"user_id":129,"name":"zayd","steam_id":76561198895235231,"connected_time":3709000000000,"state":"active","ping":51},{"user_id":105,"name":"mixxxa_french","steam_id":76561198085098243,"connected_time":6524000000000,"state":"active","ping":120},{"user_id":178,"name":"sAmasam","steam_id":76561198114953928,"connected_time":298000000000,"state":"active","ping":69},{"user_id":182,"name":"Cypher","steam_id":76561197996967254,"connected_time":49000000000,"state":"active","ping":62},{"user_id":187,"name":"h","steam_id":76561198149967445,"connected_time":3000000000,"state":"spawning","ping":32},{"user_id":157,"name":"bugpov","steam_id":76561198104896547,"connected_time":1475000000000,"state":"active","ping":84},{"user_id":169,"name":"Laka","steam_id":76561198084105780,"connected_time":1143000000000,"state":"active","ping":85},{"user_id":137,"name":"Open Salami","steam_id":76561198351223374,"connected_time":3591000000000,"state":"active","ping":72},{"user_id":117,"name":"transgender e-girl","steam_id":76561198168589809,"connected_time":4991000000000,"state":"active","ping":57},{"user_id":172,"name":"Darfsterman #rustclash","steam_id":76561199004139305,"connected_time":1106000000000,"state":"active","ping":63}]},{"server_id":40,"name":"Uncletopia | London | 7 | Stopwatch","name_short":"lon-7","host":"lon-1.uk.uncletopia.com","port":27075,"enabled":true,"region":"eu","cc":"gb","latitude":51.509865,"longitude":-0.118092,"reserved":0,"last_update":"0001-01-01T00:00:00Z","name_a2s":"Uncletopia | London | 7 | Stopwatch","protocol":17,"map":"workshop/koth_product_final.ugc454272353","folder":"tf","game":"Team Fortress","app_id":440,"player_count":22,"max_players":24,"Bots":0,"server_type":"Dedicated","server_os":"Linux","password":true,"vac":true,"version":"7961495","steam_id":85568392924964314,"keywords":["cp","nocrits","nodmgspread","uncletopia"],"game_id":440,"stv_port":27076,"stv_name":"Uncletopia | London | 7 | Stopwatch | STV","players":[{"user_id":91,"name":"tconroy","steam_id":76561199207989305,"connected_time":334000000000,"state":"active","ping":68},{"user_id":88,"name":"Mong","steam_id":76561198254497427,"connected_time":734000000000,"state":"active","ping":39},{"user_id":77,"name":"halorreclaimer(PC)","steam_id":76561199230287999,"connected_time":2044000000000,"state":"active","ping":58},{"user_id":83,"name":"sMONKI","steam_id":76561198066863249,"connected_time":1481000000000,"state":"active","ping":74},{"user_id":76,"name":"Tá prátaí go maith","steam_id":76561198372536459,"connected_time":2146000000000,"state":"active","ping":54},{"user_id":80,"name":"Thaigrr_-","steam_id":76561198075599870,"connected_time":1778000000000,"state":"active","ping":37},{"user_id":69,"name":"wG papi coolines","steam_id":76561198075312767,"connected_time":2574000000000,"state":"active","ping":43},{"user_id":68,"name":"Project Negroid","steam_id":76561198120176618,"connected_time":2634000000000,"state":"active","ping":86},{"user_id":70,"name":"wG auto","steam_id":76561198062247888,"connected_time":2562000000000,"state":"active","ping":58},{"user_id":89,"name":"Nithle","steam_id":76561198025372740,"connected_time":687000000000,"state":"active","ping":30},{"user_id":92,"name":"Greyhunter","steam_id":76561197960884202,"connected_time":323000000000,"state":"active","ping":45},{"user_id":98,"name":"shirtokiya","steam_id":76561198963599425,"connected_time":171000000000,"state":"active","ping":67},{"user_id":90,"name":"Moose","steam_id":76561198352381052,"connected_time":672000000000,"state":"active","ping":87},{"user_id":56,"name":"TheEmeraldStar","steam_id":76561198072942529,"connected_time":3089000000000,"state":"active","ping":75},{"user_id":71,"name":"wG Domo","steam_id":76561198056790920,"connected_time":2524000000000,"state":"active","ping":53},{"user_id":58,"name":"F0RGTPR0X","steam_id":76561198037119829,"connected_time":3070000000000,"state":"active","ping":79},{"user_id":86,"name":"qcHeavy","steam_id":76561198072218040,"connected_time":1342000000000,"state":"active","ping":47},{"user_id":74,"name":"Dr. Enforcicle (real)","steam_id":76561198964471859,"connected_time":2300000000000,"state":"active","ping":136},{"user_id":75,"name":"Spongelica Slobblecoque","steam_id":76561198009072273,"connected_time":2233000000000,"state":"active","ping":68},{"user_id":61,"name":"Egor Pomidor","steam_id":76561199175688390,"connected_time":3045000000000,"state":"active","ping":81},{"user_id":63,"name":"CuJIA_TPAHCJIuTA","steam_id":76561198149654361,"connected_time":2845000000000,"state":"active","ping":70},{"user_id":97,"name":"DistantJragon","steam_id":76561198117563641,"connected_time":227000000000,"state":"active","ping":128}]},{"server_id":41,"name":"Uncletopia | London | 8 | Community","name_short":"lon-8","host":"lon-1.uk.uncletopia.com","port":27085,"enabled":true,"region":"eu","cc":"gb","latitude":51.509865,"longitude":-0.118092,"reserved":0,"last_update":"0001-01-01T00:00:00Z","name_a2s":"Uncletopia | London | 8 | Community","protocol":17,"map":"workshop/koth_trenchfoot_b1a.ugc731436616","folder":"tf","game":"Team Fortress","app_id":440,"player_count":0,"max_players":24,"Bots":0,"server_type":"Dedicated","server_os":"Linux","password":true,"vac":true,"version":"7961495","steam_id":85568392924964315,"keywords":["cp","nocrits","nodmgspread","uncletopia"],"game_id":440,"stv_port":27086,"stv_name":"Uncletopia | London | 8 | Community | STV","players":null},{"server_id":300,"name":"Uncletopia | Montréal | 1 | One Thousand Uncles","name_short":"mtl-1","host":"mtl-1.ca.uncletopia.com","port":27015,"enabled":true,"region":"us-east","cc":"ca","latitude":45.50889,"longitude":-73.56167,"reserved":0,"last_update":"0001-01-01T00:00:00Z","name_a2s":"","protocol":0,"map":"","folder":"","game":"","app_id":0,"player_count":0,"max_players":0,"Bots":0,"server_type":"","server_os":"","password":false,"vac":false,"version":"","steam_id":0,"keywords":null,"game_id":0,"stv_port":0,"stv_name":"","players":null},{"server_id":301,"name":"Uncletopia | Montréal | 2 | One Thousand Uncles","name_short":"mtl-2","host":"mtl-1.ca.uncletopia.com","port":27025,"enabled":true,"region":"us-east","cc":"ca","latitude":45.50889,"longitude":-73.56167,"reserved":0,"last_update":"0001-01-01T00:00:00Z","name_a2s":"","protocol":0,"map":"","folder":"","game":"","app_id":0,"player_count":0,"max_players":0,"Bots":0,"server_type":"","server_os":"","password":false,"vac":false,"version":"","steam_id":0,"keywords":null,"game_id":0,"stv_port":0,"stv_name":"","players":null},{"server_id":302,"name":"Uncletopia | Montréal | 3 | One Thousand Uncles","name_short":"mtl-3","host":"mtl-1.ca.uncletopia.com","port":27035,"enabled":true,"region":"us-east","cc":"ca","latitude":45.50889,"longitude":-73.56167,"reserved":0,"last_update":"0001-01-01T00:00:00Z","name_a2s":"","protocol":0,"map":"","folder":"","game":"","app_id":0,"player_count":9,"max_players":0,"Bots":0,"server_type":"","server_os":"","password":false,"vac":false,"version":"","steam_id":0,"keywords":null,"game_id":0,"stv_port":0,"stv_name":"","players":[{"user_id":197,"name":"Mysterious Stranger","steam_id":76561198027779564,"connected_time":3039000000000,"state":"active","ping":64},{"user_id":222,"name":"some tree","steam_id":76561198166093346,"connected_time":470000000000,"state":"active","ping":32},{"user_id":161,"name":"Yep","steam_id":76561198041437251,"connected_time":7264000000000,"state":"active","ping":59},{"user_id":175,"name":"neo :)","steam_id":76561199092954930,"connected_time":3721000000000,"state":"active","ping":50},{"user_id":234,"name":"blood-thirsty pitbull","steam_id":76561198106690989,"connected_time":451000000000,"state":"active","ping":60},{"user_id":165,"name":"Lois","steam_id":76561199386119444,"connected_time":5622000000000,"state":"active","ping":76},{"user_id":209,"name":"ComatosePhoenix","steam_id":76561198071702821,"connected_time":1142000000000,"state":"active","ping":61},{"user_id":214,"name":"Heartgold","steam_id":76561199062592062,"connected_time":835000000000,"state":"active","ping":76},{"user_id":178,"name":"Jake_Spencer","steam_id":76561198025176750,"connected_time":3395000000000,"state":"active","ping":86}]},{"server_id":13,"name":"Uncletopia | New York City | 1 | All Maps","name_short":"nyc-1","host":"nyc-1.us.uncletopia.com","port":27015,"enabled":true,"region":"us-east","cc":"us","latitude":40.73061,"longitude":-73.93524,"reserved":0,"last_update":"0001-01-01T00:00:00Z","name_a2s":"Uncletopia | New York City | 1 | All Maps","protocol":17,"map":"pl_borneo","folder":"tf","game":"Team Fortress","app_id":440,"player_count":24,"max_players":24,"Bots":0,"server_type":"Dedicated","server_os":"Linux","password":true,"vac":true,"version":"7961495","steam_id":85568392924469993,"keywords":["nocrits","nodmgspread","payload","uncletopia"],"game_id":440,"stv_port":27016,"stv_name":"Uncletopia | New York City | 1 | All Maps | STV","players":[{"user_id":79,"name":"GallowPole","steam_id":76561198045903539,"connected_time":2296000000000,"state":"active","ping":67},{"user_id":75,"name":"AliceTF2","steam_id":76561199163341339,"connected_time":2472000000000,"state":"active","ping":180},{"user_id":93,"name":"legalize nuclear bombs","steam_id":76561199052840531,"connected_time":1565000000000,"state":"active","ping":47},{"user_id":62,"name":"Flowers","steam_id":76561198031669899,"connected_time":2900000000000,"state":"active","ping":71},{"user_id":71,"name":"Hunt0rb","steam_id":76561198120527608,"connected_time":2557000000000,"state":"active","ping":74},{"user_id":98,"name":"nhbiker","steam_id":76561198081277675,"connected_time":1445000000000,"state":"active","ping":46},{"user_id":80,"name":"Cla1rv0yant","steam_id":76561198073841803,"connected_time":2253000000000,"state":"active","ping":59},{"user_id":81,"name":"dj magdogrozen","steam_id":76561198984131011,"connected_time":2232000000000,"state":"active","ping":68},{"user_id":107,"name":"Notorious","steam_id":76561198240531476,"connected_time":266000000000,"state":"active","ping":45},{"user_id":112,"name":"Unfortunate Son","steam_id":76561199123285878,"connected_time":22000000000,"state":"active","ping":65},{"user_id":92,"name":"the 04","steam_id":76561198164502862,"connected_time":1605000000000,"state":"active","ping":82},{"user_id":111,"name":"cyberas","steam_id":76561198257092290,"connected_time":69000000000,"state":"active","ping":67},{"user_id":90,"name":"--_Cook_--","steam_id":76561198080855748,"connected_time":2124000000000,"state":"active","ping":53},{"user_id":94,"name":"Big Gay Pyro","steam_id":76561198809770239,"connected_time":1533000000000,"state":"active","ping":57},{"user_id":32,"name":"Argo","steam_id":76561198353725622,"connected_time":4028000000000,"state":"active","ping":74},{"user_id":102,"name":"G","steam_id":76561198960346683,"connected_time":551000000000,"state":"active","ping":74},{"user_id":86,"name":"Raptorria","steam_id":76561198105613110,"connected_time":2164000000000,"state":"active","ping":61},{"user_id":83,"name":"A Puppy","steam_id":76561198828184456,"connected_time":2199000000000,"state":"active","ping":45},{"user_id":99,"name":"jaytheking05","steam_id":76561198856419769,"connected_time":1351000000000,"state":"active","ping":51},{"user_id":105,"name":"oxycodone","steam_id":76561198188722751,"connected_time":297000000000,"state":"active","ping":117},{"user_id":106,"name":"YOU WHAT?!","steam_id":76561198418679471,"connected_time":282000000000,"state":"active","ping":58},{"user_id":91,"name":"GunManWIllSTabYou#SaveTf2","steam_id":76561199045277311,"connected_time":2021000000000,"state":"active","ping":76},{"user_id":97,"name":"Shuu","steam_id":76561199199180558,"connected_time":1474000000000,"state":"active","ping":43},{"user_id":89,"name":"abom","steam_id":76561198167974713,"connected_time":2158000000000,"state":"active","ping":74}]},{"server_id":14,"name":"Uncletopia | New York City | 2 | All Maps","name_short":"nyc-2","host":"nyc-1.us.uncletopia.com","port":27025,"enabled":true,"region":"us-east","cc":"us","latitude":40.73061,"longitude":-73.93524,"reserved":0,"last_update":"0001-01-01T00:00:00Z","name_a2s":"Uncletopia | New York City | 2 | All Maps","protocol":17,"map":"pl_borneo","folder":"tf","game":"Team Fortress","app_id":440,"player_count":24,"max_players":24,"Bots":0,"server_type":"Dedicated","server_os":"Linux","password":true,"vac":true,"version":"7961495","steam_id":85568392924469994,"keywords":["nocrits","nodmgspread","payload","uncletopia"],"game_id":440,"stv_port":27026,"stv_name":"Uncletopia | New York City | 2 | All Maps | STV","players":[{"user_id":181,"name":"Terminally Online Weeb [Dexgod]","steam_id":76561198017130786,"connected_time":3069000000000,"state":"active","ping":65},{"user_id":201,"name":"GX Compress Dong","steam_id":76561198018950826,"connected_time":608000000000,"state":"active","ping":111},{"user_id":211,"name":"GX thedittoguy","steam_id":76561199013129784,"connected_time":318000000000,"state":"active","ping":83},{"user_id":174,"name":"F2P Rights Activist","steam_id":76561199012786293,"connected_time":3570000000000,"state":"active","ping":89},{"user_id":190,"name":"fiddlesticks","steam_id":76561198174428289,"connected_time":2159000000000,"state":"active","ping":89},{"user_id":197,"name":"Chris P. Bacon","steam_id":76561198000851038,"connected_time":1810000000000,"state":"active","ping":54},{"user_id":202,"name":"Sergeant Snowflake","steam_id":76561198041474489,"connected_time":577000000000,"state":"active","ping":72},{"user_id":192,"name":"InfernoBane","steam_id":76561197997742994,"connected_time":2072000000000,"state":"active","ping":73},{"user_id":134,"name":"Ziath","steam_id":76561198094009164,"connected_time":7173000000000,"state":"active","ping":44},{"user_id":128,"name":"Vaun","steam_id":76561198034075317,"connected_time":7705000000000,"state":"active","ping":97},{"user_id":193,"name":"Tohbeh","steam_id":76561198191173883,"connected_time":2065000000000,"state":"active","ping":117},{"user_id":207,"name":"baconlover09","steam_id":76561198060684892,"connected_time":547000000000,"state":"active","ping":45},{"user_id":187,"name":"EggDroop","steam_id":76561198129588301,"connected_time":2370000000000,"state":"active","ping":64},{"user_id":209,"name":"cheetaz","steam_id":76561198224614084,"connected_time":513000000000,"state":"active","ping":59},{"user_id":200,"name":"Ursus Ludius","steam_id":76561198025470722,"connected_time":619000000000,"state":"active","ping":71},{"user_id":210,"name":"banxet","steam_id":76561198067879051,"connected_time":489000000000,"state":"active","ping":162},{"user_id":182,"name":"You Don't Nomi.","steam_id":76561197969137836,"connected_time":2776000000000,"state":"active","ping":48},{"user_id":170,"name":"Shark","steam_id":76561198219031981,"connected_time":3759000000000,"state":"active","ping":83},{"user_id":208,"name":"Verathragna","steam_id":76561198067215453,"connected_time":541000000000,"state":"active","ping":58},{"user_id":196,"name":"HeartsBoxcar","steam_id":76561197989851953,"connected_time":1948000000000,"state":"active","ping":68},{"user_id":205,"name":"R O D G E D A N","steam_id":76561198226236524,"connected_time":561000000000,"state":"active","ping":78},{"user_id":206,"name":"A Weeb","steam_id":76561198317024457,"connected_time":559000000000,"state":"active","ping":87},{"user_id":212,"name":"Poi","steam_id":76561198176914898,"connected_time":183000000000,"state":"active","ping":87},{"user_id":199,"name":"Goomby","steam_id":76561198079416561,"connected_time":1090000000000,"state":"active","ping":78}]},{"server_id":15,"name":"Uncletopia | New York City | 3 | Stopwatch","name_short":"nyc-3","host":"nyc-1.us.uncletopia.com","port":27035,"enabled":true,"region":"us-east","cc":"us","latitude":40.73061,"longitude":-73.93524,"reserved":0,"last_update":"0001-01-01T00:00:00Z","name_a2s":"Uncletopia | New York City | 3 | Stopwatch","protocol":17,"map":"workshop/pl_badwater_pro_v12.ugc2142942074","folder":"tf","game":"Team Fortress","app_id":440,"player_count":0,"max_players":24,"Bots":0,"server_type":"Dedicated","server_os":"Linux","password":true,"vac":true,"version":"7961495","steam_id":85568392924742820,"keywords":["nocrits","nodmgspread","payload","uncletopia"],"game_id":440,"stv_port":27036,"stv_name":"Uncletopia | New York City | 3 | Stopwatch | STV","players":null},{"server_id":16,"name":"Uncletopia | New York City | 4 | Community","name_short":"nyc-4","host":"nyc-1.us.uncletopia.com","port":27045,"enabled":true,"region":"us-east","cc":"us","latitude":40.73061,"longitude":-73.93524,"reserved":0,"last_update":"0001-01-01T00:00:00Z","name_a2s":"Uncletopia | New York City | 4 | Community","protocol":17,"map":"workshop/koth_product_final.ugc454272353","folder":"tf","game":"Team Fortress","app_id":440,"player_count":0,"max_players":24,"Bots":0,"server_type":"Dedicated","server_os":"Linux","password":true,"vac":true,"version":"7961495","steam_id":85568392924742821,"keywords":["cp","nocrits","nodmgspread","uncletopia"],"game_id":440,"stv_port":27046,"stv_name":"Uncletopia | New York City | 4 | Community | STV","players":null},{"server_id":142,"name":"Uncletopia | São Paulo | 1 | All Maps","name_short":"sao-1","host":"sao-1.br.uncletopia.com","port":27015,"enabled":true,"region":"sa","cc":"br","latitude":-23.533773,"longitude":-46.62529,"reserved":0,"last_update":"0001-01-01T00:00:00Z","name_a2s":"Uncletopia | São Paulo | 1 | All Maps","protocol":17,"map":"koth_lakeside_final","folder":"tf","game":"Team Fortress","app_id":440,"player_count":0,"max_players":24,"Bots":0,"server_type":"Dedicated","server_os":"Linux","password":true,"vac":true,"version":"7961495","steam_id":85568392924469996,"keywords":["cp","nocrits","nodmgspread","uncletopia"],"game_id":440,"stv_port":27016,"stv_name":"Uncletopia | São Paulo | 1 | All Maps | STV","players":null},{"server_id":143,"name":"Uncletopia | São Paulo | 2 | Community","name_short":"sao-2","host":"sao-2.br.uncletopia.com","port":27015,"enabled":true,"region":"sa","cc":"br","latitude":-23.533773,"longitude":-46.62529,"reserved":0,"last_update":"0001-01-01T00:00:00Z","name_a2s":"Uncletopia | São Paulo | 2 | Community","protocol":17,"map":"workshop/pl_divulgence_b4b.ugc2884808746","folder":"tf","game":"Team Fortress","app_id":440,"player_count":0,"max_players":24,"Bots":0,"server_type":"Dedicated","server_os":"Linux","password":true,"vac":true,"version":"7961495","steam_id":85568392924485349,"keywords":["nocrits","nodmgspread","payload","uncletopia"],"game_id":440,"stv_port":27016,"stv_name":"Uncletopia | São Paulo | 2 | Community | STV","players":null},{"server_id":7,"name":"Uncletopia | Seattle | 1 | All Maps","name_short":"sea-1","host":"sea-1.us.uncletopia.com","port":27015,"enabled":true,"region":"us-west","cc":"us","latitude":47.608013,"longitude":-122.33517,"reserved":0,"last_update":"0001-01-01T00:00:00Z","name_a2s":"Uncletopia | Seattle | 1 | All Maps","protocol":17,"map":"pl_badwater","folder":"tf","game":"Team Fortress","app_id":440,"player_count":23,"max_players":24,"Bots":0,"server_type":"Dedicated","server_os":"Linux","password":true,"vac":true,"version":"7961495","steam_id":85568392924469997,"keywords":["nocrits","nodmgspread","payload","uncletopia"],"game_id":440,"stv_port":27016,"stv_name":"Uncletopia | Seattle | 1 | All Maps | STV","players":[{"user_id":89,"name":"Cloud","steam_id":76561198272454184,"connected_time":10243000000000,"state":"spawning","ping":210},{"user_id":201,"name":"ThePriceIsRice","steam_id":76561198079069543,"connected_time":108000000000,"state":"spawning","ping":100},{"user_id":197,"name":"worker","steam_id":76561198039608940,"connected_time":594000000000,"state":"spawning","ping":89},{"user_id":175,"name":"mizurush","steam_id":76561198039595304,"connected_time":3540000000000,"state":"spawning","ping":173},{"user_id":196,"name":"O","steam_id":76561198450073779,"connected_time":642000000000,"state":"spawning","ping":91},{"user_id":127,"name":"DragonJimmy","steam_id":76561198272966565,"connected_time":8290000000000,"state":"spawning","ping":130},{"user_id":162,"name":"TheMagicMrWaffle","steam_id":76561198104357256,"connected_time":5615000000000,"state":"spawning","ping":119},{"user_id":173,"name":"Dimple #TF2Center","steam_id":76561198980324190,"connected_time":4780000000000,"state":"spawning","ping":134},{"user_id":192,"name":"aya","steam_id":76561198209880837,"connected_time":933000000000,"state":"spawning","ping":104},{"user_id":181,"name":"✪ Y V E S","steam_id":76561198299479796,"connected_time":2543000000000,"state":"spawning","ping":128},{"user_id":139,"name":"slushy :))","steam_id":76561198135281802,"connected_time":7213000000000,"state":"spawning","ping":73},{"user_id":184,"name":"green bean","steam_id":76561198113099204,"connected_time":2493000000000,"state":"spawning","ping":102},{"user_id":177,"name":"Mr8bittripper","steam_id":76561198133894229,"connected_time":3175000000000,"state":"spawning","ping":64},{"user_id":200,"name":"bobtheninjaman","steam_id":76561198066424544,"connected_time":213000000000,"state":"spawning","ping":150},{"user_id":180,"name":"ilun","steam_id":76561198042913843,"connected_time":2650000000000,"state":"spawning","ping":131},{"user_id":174,"name":"CashGordon","steam_id":76561197975594096,"connected_time":3686000000000,"state":"spawning","ping":88},{"user_id":199,"name":"hamilton","steam_id":76561198034096096,"connected_time":336000000000,"state":"spawning","ping":147},{"user_id":198,"name":"Colonel Chikara","steam_id":76561198010021087,"connected_time":554000000000,"state":"spawning","ping":123},{"user_id":171,"name":"wicked nasty killstreak medigun","steam_id":76561199488457138,"connected_time":5089000000000,"state":"spawning","ping":103},{"user_id":191,"name":"Greskrendtregk","steam_id":76561197969553142,"connected_time":1041000000000,"state":"spawning","ping":99},{"user_id":195,"name":"some nerd","steam_id":76561198297272878,"connected_time":735000000000,"state":"spawning","ping":111},{"user_id":179,"name":"Preston","steam_id":76561198255721392,"connected_time":2687000000000,"state":"spawning","ping":171},{"user_id":143,"name":"UserLeft","steam_id":76561197998297379,"connected_time":7005000000000,"state":"spawning","ping":124}]},{"server_id":119,"name":"Uncletopia | Seattle | 2 | All Maps","name_short":"sea-2","host":"sea-1.us.uncletopia.com","port":27025,"enabled":true,"region":"us-west","cc":"us","latitude":47.608013,"longitude":-122.33517,"reserved":0,"last_update":"0001-01-01T00:00:00Z","name_a2s":"Uncletopia | Seattle | 2 | All Maps","protocol":17,"map":"koth_viaduct","folder":"tf","game":"Team Fortress","app_id":440,"player_count":0,"max_players":24,"Bots":0,"server_type":"Dedicated","server_os":"Linux","password":true,"vac":true,"version":"7961495","steam_id":85568392924469998,"keywords":["cp","nocrits","nodmgspread","uncletopia"],"game_id":440,"stv_port":27026,"stv_name":"Uncletopia | Seattle | 2 | All Maps | STV","players":null},{"server_id":406,"name":"Uncletopia | Seattle | 3 | Stopwatch","name_short":"sea-3","host":"sea-1.us.uncletopia.com","port":27035,"enabled":true,"region":"us-west","cc":"us","latitude":47.608013,"longitude":-122.33517,"reserved":0,"last_update":"0001-01-01T00:00:00Z","name_a2s":"Uncletopia | Seattle | 3 | Stopwatch","protocol":17,"map":"workshop/pl_badwater_pro_v12.ugc2142942074","folder":"tf","game":"Team Fortress","app_id":440,"player_count":0,"max_players":24,"Bots":0,"server_type":"Dedicated","server_os":"Linux","password":true,"vac":true,"version":"7961495","steam_id":85568392924515217,"keywords":["nocrits","nodmgspread","payload","uncletopia"],"game_id":440,"stv_port":27036,"stv_name":"Uncletopia | Seattle | 3 | Stopwatch | STV","players":null},{"server_id":17,"name":"Uncletopia | San Francisco | 1 | All Maps","name_short":"sfo-1","host":"sfo-1.us.uncletopia.com","port":27015,"enabled":true,"region":"us-west","cc":"us","latitude":37.77397,"longitude":-122.4313,"reserved":0,"last_update":"0001-01-01T00:00:00Z","name_a2s":"Uncletopia | San Francisco | 1 | All Maps","protocol":17,"map":"cp_snakewater_final1","folder":"tf","game":"Team Fortress","app_id":440,"player_count":0,"max_players":24,"Bots":0,"server_type":"Dedicated","server_os":"Linux","password":true,"vac":true,"version":"7961495","steam_id":85568392924469999,"keywords":["cp","nocrits","nodmgspread","uncletopia"],"game_id":440,"stv_port":27016,"stv_name":"Uncletopia | San Francisco | 1 | All Maps | STV","players":null},{"server_id":18,"name":"Uncletopia | San Francisco | 2 | All Maps","name_short":"sfo-2","host":"sfo-1.us.uncletopia.com","port":27025,"enabled":true,"region":"us-west","cc":"us","latitude":37.77397,"longitude":-122.4313,"reserved":0,"last_update":"0001-01-01T00:00:00Z","name_a2s":"Uncletopia | San Francisco | 2 | All Maps","protocol":17,"map":"pl_frontier_final","folder":"tf","game":"Team Fortress","app_id":440,"player_count":0,"max_players":24,"Bots":0,"server_type":"Dedicated","server_os":"Linux","password":true,"vac":true,"version":"7961495","steam_id":85568392924470000,"keywords":["nocrits","nodmgspread","payload","uncletopia"],"game_id":440,"stv_port":27026,"stv_name":"Uncletopia | San Francisco | 2 | All Maps | STV","players":null},{"server_id":19,"name":"Uncletopia | San Francisco | 3 | Stopwatch","name_short":"sfo-3","host":"sfo-1.us.uncletopia.com","port":27035,"enabled":true,"region":"us-west","cc":"us","latitude":37.77397,"longitude":-122.4313,"reserved":0,"last_update":"0001-01-01T00:00:00Z","name_a2s":"Uncletopia | San Francisco | 3 | Stopwatch","protocol":17,"map":"pl_pier","folder":"tf","game":"Team Fortress","app_id":440,"player_count":0,"max_players":24,"Bots":0,"server_type":"Dedicated","server_os":"Linux","password":true,"vac":true,"version":"7961495","steam_id":85568392924742824,"keywords":["nocrits","nodmgspread","payload","uncletopia"],"game_id":440,"stv_port":27036,"stv_name":"Uncletopia | San Francisco | 3 | Stopwatch | STV","players":null},{"server_id":20,"name":"Uncletopia | San Francisco | 4 | Community","name_short":"sfo-4","host":"sfo-1.us.uncletopia.com","port":27045,"enabled":true,"region":"us-west","cc":"us","latitude":37.77397,"longitude":-122.4313,"reserved":0,"last_update":"0001-01-01T00:00:00Z","name_a2s":"Uncletopia | San Francisco | 4 | Community","protocol":17,"map":"pl_pier","folder":"tf","game":"Team Fortress","app_id":440,"player_count":0,"max_players":24,"Bots":0,"server_type":"Dedicated","server_os":"Linux","password":true,"vac":true,"version":"7961495","steam_id":85568392924742826,"keywords":["nocrits","nodmgspread","payload","uncletopia"],"game_id":440,"stv_port":27046,"stv_name":"Uncletopia | San Francisco | 4 | Community | STV","players":null},{"server_id":141,"name":"Uncletopia | Sydney | 1 | All Maps","name_short":"syd-1","host":"syd-1.au.uncletopia.com","port":27015,"enabled":true,"region":"au","cc":"au","latitude":-33.865143,"longitude":151.2099,"reserved":0,"last_update":"0001-01-01T00:00:00Z","name_a2s":"Uncletopia | Sydney | 1 | All Maps","protocol":17,"map":"koth_cascade","folder":"tf","game":"Team Fortress","app_id":440,"player_count":0,"max_players":24,"Bots":0,"server_type":"Dedicated","server_os":"Linux","password":true,"vac":true,"version":"7961495","steam_id":85568392924470001,"keywords":["cp","nocrits","nodmgspread","uncletopia"],"game_id":440,"stv_port":27016,"stv_name":"Uncletopia | Sydney | 1 | All Maps | STV","players":null},{"server_id":123,"name":"Uncletopia | Sydney | 2 | All Maps","name_short":"syd-2","host":"syd-1.au.uncletopia.com","port":27025,"enabled":true,"region":"au","cc":"au","latitude":-33.865143,"longitude":151.2099,"reserved":0,"last_update":"0001-01-01T00:00:00Z","name_a2s":"Uncletopia | Sydney | 2 | All Maps","protocol":17,"map":"pl_swiftwater_final1","folder":"tf","game":"Team Fortress","app_id":440,"player_count":0,"max_players":24,"Bots":0,"server_type":"Dedicated","server_os":"Linux","password":true,"vac":true,"version":"7961495","steam_id":85568392924470002,"keywords":["nocrits","nodmgspread","payload","uncletopia"],"game_id":440,"stv_port":27026,"stv_name":"Uncletopia | Sydney | 2 | All Maps | STV","players":null},{"server_id":395,"name":"Uncletopia | Sydney | 3 | All Maps","name_short":"syd-3","host":"syd-1.au.uncletopia.com","port":27035,"enabled":true,"region":"au","cc":"au","latitude":-33.865143,"longitude":151.2099,"reserved":0,"last_update":"0001-01-01T00:00:00Z","name_a2s":"Uncletopia | Sydney | 3 | All Maps","protocol":17,"map":"pl_borneo","folder":"tf","game":"Team Fortress","app_id":440,"player_count":0,"max_players":24,"Bots":0,"server_type":"Dedicated","server_os":"Linux","password":true,"vac":true,"version":"7961495","steam_id":85568392925194467,"keywords":["nocrits","nodmgspread","payload","uncletopia"],"game_id":440,"stv_port":27036,"stv_name":"Uncletopia | Sydney | 3 | All Maps | STV","players":null},{"server_id":396,"name":"Uncletopia | Sydney | 4 | All Maps","name_short":"syd-4","host":"syd-1.au.uncletopia.com","port":27045,"enabled":true,"region":"au","cc":"au","latitude":-33.865143,"longitude":151.2099,"reserved":0,"last_update":"0001-01-01T00:00:00Z","name_a2s":"Uncletopia | Sydney | 4 | All Maps","protocol":17,"map":"koth_lakeside_final","folder":"tf","game":"Team Fortress","app_id":440,"player_count":0,"max_players":24,"Bots":0,"server_type":"Dedicated","server_os":"Linux","password":true,"vac":true,"version":"7961495","steam_id":85568392925397958,"keywords":["cp","nocrits","nodmgspread","uncletopia"],"game_id":440,"stv_port":27046,"stv_name":"Uncletopia | Sydney | 4 | All Maps | STV","players":null},{"server_id":58,"name":"Uncletopia | Sydney | 5 | Stopwatch","name_short":"syd-5","host":"syd-1.au.uncletopia.com","port":27055,"enabled":true,"region":"au","cc":"au","latitude":-33.865143,"longitude":151.2099,"reserved":0,"last_update":"0001-01-01T00:00:00Z","name_a2s":"Uncletopia | Sydney | 5 | Stopwatch","protocol":17,"map":"workshop/cp_reckoner_rc6.ugc674719999","folder":"tf","game":"Team Fortress","app_id":440,"player_count":0,"max_players":24,"Bots":0,"server_type":"Dedicated","server_os":"Linux","password":true,"vac":true,"version":"7961495","steam_id":85568392925397959,"keywords":["cp","nocrits","nodmgspread","uncletopia"],"game_id":440,"stv_port":27056,"stv_name":"Uncletopia | Sydney | 5 | Stopwatch | STV","players":null},{"server_id":59,"name":"Uncletopia | Sydney | 6 | Community","name_short":"syd-6","host":"syd-1.au.uncletopia.com","port":27065,"enabled":true,"region":"au","cc":"au","latitude":-33.865143,"longitude":151.2099,"reserved":0,"last_update":"0001-01-01T00:00:00Z","name_a2s":"Uncletopia | Sydney | 6 | Community","protocol":17,"map":"workshop/pl_badwater_pro_v12.ugc2142942074","folder":"tf","game":"Team Fortress","app_id":440,"player_count":0,"max_players":24,"Bots":0,"server_type":"Dedicated","server_os":"Linux","password":true,"vac":true,"version":"7961495","steam_id":85568392925397960,"keywords":["nocrits","nodmgspread","payload","uncletopia"],"game_id":440,"stv_port":27066,"stv_name":"Uncletopia | Sydney | 6 | Community | STV","players":null},{"server_id":49,"name":"Uncletopia | Warsaw | 1 | One Thousand Uncles","name_short":"waw-1","host":"waw-1.pl.uncletopia.com","port":27015,"enabled":true,"region":"eu","cc":"pl","latitude":52.2297,"longitude":21.017532,"reserved":0,"last_update":"0001-01-01T00:00:00Z","name_a2s":"Uncletopia | Warsaw | 1 | One Thousand Uncles","protocol":17,"map":"cp_dustbowl","folder":"tf","game":"Team Fortress","app_id":440,"player_count":23,"max_players":32,"Bots":16,"server_type":"Dedicated","server_os":"Linux","password":true,"vac":true,"version":"7961495","steam_id":85568392925397850,"keywords":["alltalk","bots","cp","danepve","increased_maxplayers","nocrits","norespawntime","uncletopia"],"game_id":440,"stv_port":0,"stv_name":"","players":[{"user_id":435,"name":"WOW i'm dead","steam_id":76561199082267619,"connected_time":3055000000000,"state":"active","ping":68},{"user_id":462,"name":"Jethro Tull","steam_id":76561199034041634,"connected_time":119000000000,"state":"active","ping":74},{"user_id":450,"name":"aberrato","steam_id":76561198047206994,"connected_time":2456000000000,"state":"active","ping":87},{"user_id":451,"name":"night.s","steam_id":76561198326287823,"connected_time":2348000000000,"state":"active","ping":98},{"user_id":460,"name":"Eujekas","steam_id":76561198010527145,"connected_time":517000000000,"state":"active","ping":112},{"user_id":453,"name":"Crimson","steam_id":76561197987552332,"connected_time":2235000000000,"state":"active","ping":59},{"user_id":459,"name":"full power heart attack","steam_id":76561199196568965,"connected_time":926000000000,"state":"active","ping":78}]},{"server_id":50,"name":"Uncletopia | Warsaw | 2 | One Thousand Uncles","name_short":"waw-2","host":"waw-1.pl.uncletopia.com","port":27025,"enabled":true,"region":"eu","cc":"pl","latitude":52.2297,"longitude":21.017532,"reserved":0,"last_update":"0001-01-01T00:00:00Z","name_a2s":"Uncletopia | Warsaw | 2 | One Thousand Uncles","protocol":17,"map":"pl_goldrush","folder":"tf","game":"Team Fortress","app_id":440,"player_count":23,"max_players":32,"Bots":16,"server_type":"Dedicated","server_os":"Linux","password":true,"vac":true,"version":"7961495","steam_id":85568392925397851,"keywords":["alltalk","bots","danepve","increased_maxplayers","nocrits","norespawntime","payload","uncletopia"],"game_id":440,"stv_port":0,"stv_name":"","players":[{"user_id":4,"name":"yusufkaanutkan","steam_id":76561199445549640,"connected_time":2348000000000,"state":"active","ping":102},{"user_id":22,"name":"mike had a dad :(","steam_id":76561199087364410,"connected_time":1408000000000,"state":"active","ping":181},{"user_id":23,"name":"zgryzek.8","steam_id":76561199063445009,"connected_time":759000000000,"state":"active","ping":44},{"user_id":24,"name":"JuJuMann","steam_id":76561198289461028,"connected_time":329000000000,"state":"active","ping":184},{"user_id":25,"name":"naxeron","steam_id":76561198271037396,"connected_time":309000000000,"state":"active","ping":115},{"user_id":26,"name":"TheJustTeaPlayer","steam_id":76561198980203796,"connected_time":164000000000,"state":"active","ping":111},{"user_id":27,"name":"Jared_1120","steam_id":76561199497190226,"connected_time":65000000000,"state":"active","ping":297}]},{"server_id":51,"name":"Uncletopia | Warsaw | 3 | All Maps","name_short":"waw-3","host":"waw-1.pl.uncletopia.com","port":27035,"enabled":true,"region":"eu","cc":"pl","latitude":52.2297,"longitude":21.017532,"reserved":0,"last_update":"0001-01-01T00:00:00Z","name_a2s":"Uncletopia | Warsaw | 3 | All Maps","protocol":17,"map":"pl_pier","folder":"tf","game":"Team Fortress","app_id":440,"player_count":24,"max_players":24,"Bots":0,"server_type":"Dedicated","server_os":"Linux","password":true,"vac":true,"version":"7961495","steam_id":85568392925397852,"keywords":["nocrits","nodmgspread","payload","uncletopia"],"game_id":440,"stv_port":27036,"stv_name":"Uncletopia | Warsaw | 3 | All Maps | STV","players":[{"user_id":100,"name":"sauli01","steam_id":76561198069149120,"connected_time":2567000000000,"state":"active","ping":90},{"user_id":112,"name":"Shadowedrow","steam_id":76561199041997229,"connected_time":1358000000000,"state":"active","ping":42},{"user_id":10,"name":"Lakki","steam_id":76561198137595103,"connected_time":8426000000000,"state":"active","ping":89},{"user_id":126,"name":"-TA- AITOTESTO","steam_id":76561198843742968,"connected_time":58000000000,"state":"active","ping":97},{"user_id":113,"name":"bAdmon","steam_id":76561197961785793,"connected_time":1251000000000,"state":"active","ping":62},{"user_id":116,"name":"Lorenzo Lovers","steam_id":76561198073973581,"connected_time":1072000000000,"state":"active","ping":95},{"user_id":114,"name":"♦nudzeku♦","steam_id":76561199196336940,"connected_time":1229000000000,"state":"active","ping":72},{"user_id":95,"name":"gagalak","steam_id":76561198089979108,"connected_time":2872000000000,"state":"active","ping":91},{"user_id":19,"name":"Average Gibus Enjoyer","steam_id":76561199410300277,"connected_time":8093000000000,"state":"active","ping":84},{"user_id":125,"name":"ThatKetos","steam_id":76561198989682540,"connected_time":568000000000,"state":"active","ping":51},{"user_id":107,"name":"TheAnonymeKiller","steam_id":76561198190680978,"connected_time":1558000000000,"state":"active","ping":64},{"user_id":123,"name":"Maro","steam_id":76561198395701352,"connected_time":663000000000,"state":"active","ping":39},{"user_id":78,"name":"TheKees301","steam_id":76561198827506371,"connected_time":3931000000000,"state":"active","ping":91},{"user_id":109,"name":"MUWEQ","steam_id":76561198107615727,"connected_time":1481000000000,"state":"active","ping":41},{"user_id":118,"name":"Medo","steam_id":76561198047894250,"connected_time":756000000000,"state":"active","ping":75},{"user_id":115,"name":"Archie","steam_id":76561198073498063,"connected_time":1143000000000,"state":"active","ping":68},{"user_id":61,"name":"Creative","steam_id":76561198835034247,"connected_time":5351000000000,"state":"active","ping":92},{"user_id":81,"name":"Lynx","steam_id":76561199274008207,"connected_time":3874000000000,"state":"active","ping":53},{"user_id":124,"name":"Testicular torsion","steam_id":76561198119547399,"connected_time":635000000000,"state":"active","ping":54},{"user_id":77,"name":"LOBZIK","steam_id":76561198114830120,"connected_time":3976000000000,"state":"active","ping":47},{"user_id":90,"name":"Alexair","steam_id":76561199022206498,"connected_time":3291000000000,"state":"active","ping":58},{"user_id":104,"name":"Baruu","steam_id":76561199130278220,"connected_time":1896000000000,"state":"active","ping":60},{"user_id":122,"name":"Oceanic | tuesday maybe","steam_id":76561197979741827,"connected_time":712000000000,"state":"active","ping":75}]},{"server_id":52,"name":"Uncletopia | Warsaw | 4 | All Maps","name_short":"waw-4","host":"waw-1.pl.uncletopia.com","port":27045,"enabled":true,"region":"eu","cc":"pl","latitude":52.2297,"longitude":21.017532,"reserved":0,"last_update":"0001-01-01T00:00:00Z","name_a2s":"Uncletopia | Warsaw | 4 | All Maps","protocol":17,"map":"koth_cascade","folder":"tf","game":"Team Fortress","app_id":440,"player_count":0,"max_players":24,"Bots":0,"server_type":"Dedicated","server_os":"Linux","password":true,"vac":true,"version":"7961495","steam_id":85568392925397853,"keywords":["cp","nocrits","nodmgspread","uncletopia"],"game_id":440,"stv_port":27046,"stv_name":"Uncletopia | Warsaw | 4 | All Maps | STV","players":null},{"server_id":53,"name":"Uncletopia | Warsaw | 5 | Stopwatch","name_short":"waw-5","host":"waw-1.pl.uncletopia.com","port":27055,"enabled":true,"region":"eu","cc":"pl","latitude":52.2297,"longitude":21.017532,"reserved":0,"last_update":"0001-01-01T00:00:00Z","name_a2s":"Uncletopia | Warsaw | 5 | Stopwatch","protocol":17,"map":"pl_upward","folder":"tf","game":"Team Fortress","app_id":440,"player_count":0,"max_players":24,"Bots":0,"server_type":"Dedicated","server_os":"Linux","password":true,"vac":true,"version":"7961495","steam_id":85568392925397854,"keywords":["nocrits","nodmgspread","payload","uncletopia"],"game_id":440,"stv_port":27056,"stv_name":"Uncletopia | Warsaw | 5 | Stopwatch | STV","players":null},{"server_id":54,"name":"Uncletopia | Warsaw | 6 | Community","name_short":"waw-6","host":"waw-1.pl.uncletopia.com","port":27065,"enabled":true,"region":"eu","cc":"pl","latitude":52.2297,"longitude":21.017532,"reserved":0,"last_update":"0001-01-01T00:00:00Z","name_a2s":"Uncletopia | Warsaw | 6 | Community","protocol":17,"map":"workshop/koth_kemptown_rc1.ugc767410655","folder":"tf","game":"Team Fortress","app_id":440,"player_count":0,"max_players":24,"Bots":0,"server_type":"Dedicated","server_os":"Linux","password":true,"vac":true,"version":"7961495","steam_id":85568392925397856,"keywords":["cp","nocrits","nodmgspread","uncletopia"],"game_id":440,"stv_port":27066,"stv_name":"Uncletopia | Warsaw | 6 | Community | STV","players":null}]}