{"status":true,"message":"","result":[{"server_id":9,"name":"Uncletopia | Atlanta | 1 | All Maps","name_short":"atl-1","host":"atl-1.us.uncletopia.com","port":27015,"enabled":true,"region":"us-east","cc":"us","latitude":33.753746,"longitude":-84.38633,"reserved":0,"last_update":"0001-01-01T00:00:00Z","name_a2s":"Uncletopia | Atlanta | 1 | All Maps","protocol":17,"map":"pl_borneo","folder":"tf","game":"Team Fortress","app_id":440,"player_count":0,"max_players":24,"Bots":0,"server_type":"Dedicated","server_os":"Linux","password":true,"vac":true,"version":"7742253","steam_id":85568392924469982,"keywords":["nocrits","nodmgspread","payload","uncletopia"],"game_id":440,"stv_port":27016,"stv_name":"Uncletopia | Atlanta | 1 | All Maps | STV","players":null},{"server_id":400,"name":"Uncletopia | Atlanta | 3 | Stopwatch Beta","name_short":"atl-3","host":"atl-1.us.uncletopia.com","port":27035,"enabled":true,"region":"us-east","cc":"us","latitude":33.753746,"longitude":-84.38633,"reserved":0,"last_update":"0001-01-01T00:00:00Z","name_a2s":"Uncletopia | Atlanta | 3 | Stopwatch Beta","protocol":17,"map":"pl_pier","folder":"tf","game":"Team Fortress","app_id":440,"player_count":0,"max_players":24,"Bots":0,"server_type":"Dedicated","server_os":"Linux","password":true,"vac":true,"version":"7742253","steam_id":85568392924515187,"keywords":["nocrits","nodmgspread","payload","uncletopia"],"game_id":440,"stv_port":27036,"stv_name":"Uncletopia | Atlanta | 3 | Stopwatch Beta | STV","players":null},{"server_id":401,"name":"Uncletopia | Atlanta | 4 | No Payload","name_short":"atl-4","host":"atl-1.us.uncletopia.com","port":27045,"enabled":true,"region":"us-east","cc":"us","latitude":33.753746,"longitude":-84.38633,"reserved":0,"last_update":"0001-01-01T00:00:00Z","name_a2s":"Uncletopia | Atlanta | 4 | No Payload","protocol":17,"map":"pl_pier","folder":"tf","game":"Team Fortress","app_id":440,"player_count":0,"max_players":24,"Bots":0,"server_type":"Dedicated","server_os":"Linux","password":true,"vac":true,"version":"7723704","steam_id":85568392924515188,"keywords":["nocrits","nodmgspread","payload","uncletopia"],"game_id":440,"stv_port":27046,"stv_name":"Uncletopia | Atlanta | 4 | No Payload | STV","players":null},{"server_id":2,"name":"Uncletopia | Chicago | 1 | All Maps","name_short":"chi-1","host":"chi-1.us.uncletopia.com","port":27015,"enabled":true,"region":"us-central","cc":"us","latitude":41.881832,"longitude":-87.62318,"reserved":0,"last_update":"0001-01-01T00:00:00Z","name_a2s":"Uncletopia | Chicago | 1 | All Maps","protocol":17,"map":"pl_upward","folder":"tf","game":"Team Fortress","app_id":440,"player_count":24,"max_players":24,"Bots":0,"server_type":"Dedicated","server_os":"Linux","password":true,"vac":true,"version":"7742253","steam_id":85568392924469984,"keywords":["nocrits","nodmgspread","payload","uncletopia"],"game_id":440,"stv_port":27016,"stv_name":"Uncletopia | Chicago | 1 | All Maps | STV","players":[{"user_id":3,"name":"Tommy Pickles (Very Cool)","steam_id":76561198391261463,"connected_time":13263000000000,"state":"active","ping":74},{"user_id":139,"name":"Dexter","steam_id":76561198050149035,"connected_time":2163000000000,"state":"active","ping":61},{"user_id":144,"name":"jimbo","steam_id":76561198046059770,"connected_time":550000000000,"state":"active","ping":60},{"user_id":145,"name":"James","steam_id":76561198098325427,"connected_time":549000000000,"state":"active","ping":90},{"user_id":64,"name":"shokie","steam_id":76561197997961542,"connected_time":10320000000000,"state":"active","ping":87},{"user_id":115,"name":"luxin","steam_id":76561198399383047,"connected_time":5615000000000,"state":"active","ping":64},{"user_id":151,"name":"Zadok Allen","steam_id":76561198057374871,"connected_time":283000000000,"state":"active","ping":61},{"user_id":131,"name":"Ta5K","steam_id":76561198939558155,"connected_time":3413000000000,"state":"active","ping":43},{"user_id":150,"name":"President Saget :)","steam_id":76561198071709455,"connected_time":372000000000,"state":"active","ping":65},{"user_id":121,"name":"oopsboom24","steam_id":76561199105248648,"connected_time":5194000000000,"state":"active","ping":93},{"user_id":103,"name":"Elena Manetta","steam_id":76561197998344054,"connected_time":6828000000000,"state":"active","ping":52},{"user_id":105,"name":"SkyHiPie","steam_id":76561198152124919,"connected_time":6732000000000,"state":"active","ping":86},{"user_id":106,"name":"nomnom","steam_id":76561198152344988,"connected_time":6707000000000,"state":"active","ping":90},{"user_id":122,"name":"spinz","steam_id":76561198353098481,"connected_time":5180000000000,"state":"active","ping":76},{"user_id":137,"name":"nnobi","steam_id":76561198878729277,"connected_time":2267000000000,"state":"active","ping":75},{"user_id":136,"name":"stockhack","steam_id":76561198050220225,"connected_time":2775000000000,"state":"active","ping":75},{"user_id":142,"name":"xyzKevin","steam_id":76561199042234301,"connected_time":1621000000000,"state":"active","ping":69},{"user_id":89,"name":"Elias","steam_id":76561198106431732,"connected_time":8607000000000,"state":"active","ping":72},{"user_id":133,"name":"VioletSpecs","steam_id":76561198089366466,"connected_time":3356000000000,"state":"active","ping":79},{"user_id":127,"name":"hops_a_pops","steam_id":76561198210902109,"connected_time":3795000000000,"state":"active","ping":75},{"user_id":73,"name":"Tyler\u0026Fingers","steam_id":76561198085154485,"connected_time":9897000000000,"state":"active","ping":70},{"user_id":149,"name":"loud pack","steam_id":76561197960463103,"connected_time":477000000000,"state":"active","ping":53},{"user_id":91,"name":"Stauxie","steam_id":76561198255030077,"connected_time":8392000000000,"state":"active","ping":85},{"user_id":97,"name":"trans rights","steam_id":76561198044183038,"connected_time":7117000000000,"state":"active","ping":66}]},{"server_id":106,"name":"Uncletopia | Chicago | 2 | All Maps","name_short":"chi-2","host":"chi-1.us.uncletopia.com","port":27025,"enabled":true,"region":"us-central","cc":"us","latitude":41.881832,"longitude":-87.62318,"reserved":0,"last_update":"0001-01-01T00:00:00Z","name_a2s":"Uncletopia | Chicago | 2 | All Maps","protocol":17,"map":"pl_upward","folder":"tf","game":"Team Fortress","app_id":440,"player_count":24,"max_players":24,"Bots":0,"server_type":"Dedicated","server_os":"Linux","password":true,"vac":true,"version":"7742253","steam_id":85568392924469985,"keywords":["nocrits","nodmgspread","payload","uncletopia"],"game_id":440,"stv_port":27026,"stv_name":"Uncletopia | Chicago | 2 | All Maps | STV","players":[{"user_id":6,"name":"Juni Cortez","steam_id":76561198115552623,"connected_time":4146000000000,"state":"active","ping":55},{"user_id":10,"name":"ultra instinct cringe micheal","steam_id":76561198275625984,"connected_time":3469000000000,"state":"active","ping":68},{"user_id":20,"name":"William Wallace","steam_id":76561199343316814,"connected_time":2070000000000,"state":"active","ping":67},{"user_id":69,"name":"Metna ☁","steam_id":76561198092381079,"connected_time":165000000000,"state":"active","ping":54},{"user_id":64,"name":"Kro","steam_id":76561198005200718,"connected_time":398000000000,"state":"active","ping":51},{"user_id":57,"name":"junebug","steam_id":76561198126662775,"connected_time":640000000000,"state":"active","ping":46},{"user_id":71,"name":"Vapor","steam_id":76561198850475407,"connected_time":76000000000,"state":"active","ping":51},{"user_id":25,"name":"Cheez it hater","steam_id":76561199006014570,"connected_time":1568000000000,"state":"active","ping":47},{"user_id":59,"name":"PLATYPUS","steam_id":76561198255796625,"connected_time":508000000000,"state":"active","ping":112},{"user_id":67,"name":"sphinxmagoo","steam_id":76561198057001653,"connected_time":206000000000,"state":"active","ping":69},{"user_id":31,"name":"Casual Costanza","steam_id":76561198024409325,"connected_time":1405000000000,"state":"active","ping":62},{"user_id":29,"name":"Bee_Pirate","steam_id":76561199000599111,"connected_time":1439000000000,"state":"active","ping":70},{"user_id":63,"name":"Do Moose go Moo?","steam_id":76561198073550620,"connected_time":425000000000,"state":"active","ping":46},{"user_id":68,"name":"TheEnderTom","steam_id":76561198330409399,"connected_time":194000000000,"state":"active","ping":63},{"user_id":41,"name":"amagicowl","steam_id":76561199060487814,"connected_time":1305000000000,"state":"active","ping":108},{"user_id":35,"name":"ToadcolonD","steam_id":76561199398272900,"connected_time":1361000000000,"state":"active","ping":79},{"user_id":36,"name":"Muejiza","steam_id":76561199467836831,"connected_time":1360000000000,"state":"active","ping":61},{"user_id":50,"name":"Royal_tm","steam_id":76561198319509387,"connected_time":886000000000,"state":"active","ping":75},{"user_id":39,"name":"Samus","steam_id":76561198121933439,"connected_time":1329000000000,"state":"active","ping":70},{"user_id":40,"name":"Regi","steam_id":76561198271508598,"connected_time":1318000000000,"state":"active","ping":58},{"user_id":54,"name":"Bones","steam_id":76561198811553472,"connected_time":820000000000,"state":"active","ping":70},{"user_id":44,"name":"iAmBack!\u003c3","steam_id":76561198004525276,"connected_time":1239000000000,"state":"active","ping":167},{"user_id":45,"name":"Sea4","steam_id":76561198846451551,"connected_time":1201000000000,"state":"active","ping":75},{"user_id":46,"name":"13 INCH TGIRL SCHLONG","steam_id":76561198122059018,"connected_time":1137000000000,"state":"active","ping":80}]},{"server_id":402,"name":"Uncletopia | Chicago | 3 | All Maps","name_short":"chi-3","host":"chi-1.us.uncletopia.com","port":27035,"enabled":true,"region":"us-central","cc":"us","latitude":41.881832,"longitude":-87.62318,"reserved":0,"last_update":"0001-01-01T00:00:00Z","name_a2s":"Uncletopia | Chicago | 3 | All Maps","protocol":17,"map":"koth_viaduct","folder":"tf","game":"Team Fortress","app_id":440,"player_count":0,"max_players":24,"Bots":0,"server_type":"Dedicated","server_os":"Linux","password":true,"vac":true,"version":"7742253","steam_id":85568392924515191,"keywords":["cp","nocrits","nodmgspread","uncletopia"],"game_id":440,"stv_port":27036,"stv_name":"Uncletopia | Chicago | 3 | All Maps | STV","players":null},{"server_id":403,"name":"Uncletopia | Chicago | 4 | All Maps","name_short":"chi-4","host":"chi-1.us.uncletopia.com","port":27045,"enabled":true,"region":"us-central","cc":"us","latitude":41.881832,"longitude":-87.62318,"reserved":0,"last_update":"0001-01-01T00:00:00Z","name_a2s":"Uncletopia | Chicago | 4 | All Maps","protocol":17,"map":"koth_lakeside_final","folder":"tf","game":"Team Fortress","app_id":440,"player_count":0,"max_players":24,"Bots":0,"server_type":"Dedicated","server_os":"Linux","password":true,"vac":true,"version":"7742253","steam_id":85568392924515193,"keywords":["cp","nocrits","nodmgspread","uncletopia"],"game_id":440,"stv_port":27046,"stv_name":"Uncletopia | Chicago | 4 | All Maps | STV","players":null},{"server_id":36,"name":"Uncletopia | Chicago | 5 | All Maps","name_short":"chi-5","host":"chi-2.us.uncletopia.com","port":27015,"enabled":true,"region":"us-central","cc":"us","latitude":41.881832,"longitude":-87.62318,"reserved":0,"last_update":"0001-01-01T00:00:00Z","name_a2s":"Uncletopia | Chicago | 5 | All Maps","protocol":17,"map":"pl_upward","folder":"tf","game":"Team Fortress","app_id":440,"player_count":0,"max_players":24,"Bots":0,"server_type":"Dedicated","server_os":"Linux","password":true,"vac":true,"version":"7742253","steam_id":85568392924866362,"keywords":["nocrits","nodmgspread","payload","uncletopia"],"game_id":440,"stv_port":27016,"stv_name":"Uncletopia | Chicago | 5 | All Maps | STV","players":null},{"server_id":37,"name":"Uncletopia | Chicago | 6 | All Maps","name_short":"chi-6","host":"chi-2.us.uncletopia.com","port":27025,"enabled":true,"region":"us-central","cc":"us","latitude":41.881832,"longitude":-87.62318,"reserved":0,"last_update":"0001-01-01T00:00:00Z","name_a2s":"Uncletopia | Chicago | 6 | All Maps","protocol":17,"map":"cp_sunshine","folder":"tf","game":"Team Fortress","app_id":440,"player_count":0,"max_players":24,"Bots":0,"server_type":"Dedicated","server_os":"Linux","password":true,"vac":true,"version":"7742253","steam_id":85568392924866363,"keywords":["cp","nocrits","nodmgspread","uncletopia"],"game_id":440,"stv_port":27026,"stv_name":"Uncletopia | Chicago | 6 | All Maps | STV","players":null},{"server_id":38,"name":"Uncletopia | Chicago | 7 | Stopwatch Beta","name_short":"chi-7","host":"chi-2.us.uncletopia.com","port":27035,"enabled":true,"region":"us-central","cc":"us","latitude":41.881832,"longitude":-87.62318,"reserved":0,"last_update":"0001-01-01T00:00:00Z","name_a2s":"Uncletopia | Chicago | 7 | Stopwatch Beta","protocol":17,"map":"koth_lakeside_final","folder":"tf","game":"Team Fortress","app_id":440,"player_count":0,"max_players":24,"Bots":0,"server_type":"Dedicated","server_os":"Linux","password":true,"vac":true,"version":"7742253","steam_id":85568392924866364,"keywords":["cp","nocrits","nodmgspread","uncletopia"],"game_id":440,"stv_port":27036,"stv_name":"Uncletopia | Chicago | 7 | Stopwatch Beta | STV","players":null},{"server_id":39,"name":"Uncletopia | Chicago | 8 | Community","name_short":"chi-8","host":"chi-2.us.uncletopia.com","port":27045,"enabled":true,"region":"us-central","cc":"us","latitude":41.881832,"longitude":-87.62318,"reserved":0,"last_update":"0001-01-01T00:00:00Z","name_a2s":"Uncletopia | Chicago | 8 | Community","protocol":17,"map":"koth_lakeside_final","folder":"tf","game":"Team Fortress","app_id":440,"player_count":0,"max_players":24,"Bots":0,"server_type":"Dedicated","server_os":"Linux","password":true,"vac":true,"version":"7742253","steam_id":85568392924866365,"keywords":["cp","nocrits","nodmgspread","uncletopia"],"game_id":440,"stv_port":27046,"stv_name":"Uncletopia | Chicago | 8 | Community | STV","players":null},{"server_id":8,"name":"Uncletopia | Dallas | 1 | All Maps","name_short":"dal-1","host":"dal-1.us.uncletopia.com","port":27015,"enabled":true,"region":"us-central","cc":"us","latitude":32.779167,"longitude":-96.80889,"reserved":0,"last_update":"0001-01-01T00:00:00Z","name_a2s":"Uncletopia | Dallas | 1 | All Maps","protocol":17,"map":"koth_viaduct","folder":"tf","game":"Team Fortress","app_id":440,"player_count":0,"max_players":24,"Bots":0,"server_type":"Dedicated","server_os":"Linux","password":true,"vac":true,"version":"7742253","steam_id":85568392924469986,"keywords":["cp","nocrits","nodmgspread","uncletopia"],"game_id":440,"stv_port":27016,"stv_name":"Uncletopia | Dallas | 1 | All Maps | STV","players":null},{"server_id":108,"name":"Uncletopia | Dallas | 2 | All Maps","name_short":"dal-2","host":"dal-1.us.uncletopia.com","port":27025,"enabled":true,"region":"us-central","cc":"us","latitude":32.779167,"longitude":-96.80889,"reserved":0,"last_update":"0001-01-01T00:00:00Z","name_a2s":"Uncletopia | Dallas | 2 | All Maps","protocol":17,"map":"koth_viaduct","folder":"tf","game":"Team Fortress","app_id":440,"player_count":1,"max_players":24,"Bots":0,"server_type":"Dedicated","server_os":"Linux","password":true,"vac":true,"version":"7742253","steam_id":85568392924469988,"keywords":["cp","nocrits","nodmgspread","uncletopia"],"game_id":440,"stv_port":27026,"stv_name":"Uncletopia | Dallas | 2 | All Maps | STV","players":[{"user_id":8,"name":"webaline","steam_id":76561199052450127,"connected_time":462000000000,"state":"active","ping":66}]},{"server_id":5,"name":"Uncletopia | Frankfurt | 1 | All Maps","name_short":"frk-1","host":"frk-1.de.uncletopia.com","port":27015,"enabled":true,"region":"eu","cc":"de","latitude":50.110924,"longitude":8.682127,"reserved":0,"last_update":"0001-01-01T00:00:00Z","name_a2s":"Uncletopia | Frankfurt | 1 | All Maps","protocol":17,"map":"cp_sunshine","folder":"tf","game":"Team Fortress","app_id":440,"player_count":0,"max_players":24,"Bots":0,"server_type":"Dedicated","server_os":"Linux","password":true,"vac":true,"version":"7742253","steam_id":85568392924469989,"keywords":["cp","nocrits","nodmgspread","uncletopia"],"game_id":440,"stv_port":27016,"stv_name":"Uncletopia | Frankfurt | 1 | All Maps | STV","players":null},{"server_id":110,"name":"Uncletopia | Frankfurt | 2 | All Maps","name_short":"frk-2","host":"frk-1.de.uncletopia.com","port":27025,"enabled":true,"region":"eu","cc":"de","latitude":50.110924,"longitude":8.682127,"reserved":0,"last_update":"0001-01-01T00:00:00Z","name_a2s":"Uncletopia | Frankfurt | 2 | All Maps","protocol":17,"map":"pl_badwater","folder":"tf","game":"Team Fortress","app_id":440,"player_count":24,"max_players":24,"Bots":0,"server_type":"Dedicated","server_os":"Linux","password":true,"vac":true,"version":"7742253","steam_id":85568392924469990,"keywords":["nocrits","nodmgspread","payload","uncletopia"],"game_id":440,"stv_port":27026,"stv_name":"Uncletopia | Frankfurt | 2 | All Maps | STV","players":[{"user_id":371,"name":"Frenchie","steam_id":76561198178298931,"connected_time":508000000000,"state":"active","ping":51},{"user_id":322,"name":"jankomit","steam_id":76561198043024857,"connected_time":4867000000000,"state":"active","ping":85},{"user_id":374,"name":"FluiDCobRa™","steam_id":76561198142461723,"connected_time":457000000000,"state":"active","ping":94},{"user_id":380,"name":"Mr. Hunts","steam_id":76561197981910397,"connected_time":246000000000,"state":"active","ping":61},{"user_id":364,"name":"Boredem","steam_id":76561198982092978,"connected_time":929000000000,"state":"active","ping":59},{"user_id":321,"name":"Freeman","steam_id":76561198094288793,"connected_time":5156000000000,"state":"active","ping":66},{"user_id":337,"name":"Michał","steam_id":76561198320346362,"connected_time":3932000000000,"state":"active","ping":59},{"user_id":361,"name":"❤BezLyapchik❤","steam_id":76561199447261771,"connected_time":1134000000000,"state":"active","ping":98},{"user_id":325,"name":"Lordware","steam_id":76561198022011299,"connected_time":4808000000000,"state":"active","ping":78},{"user_id":381,"name":"v0rt3x","steam_id":76561198034695233,"connected_time":202000000000,"state":"active","ping":63},{"user_id":373,"name":"Rolloden","steam_id":76561198069414404,"connected_time":501000000000,"state":"active","ping":73},{"user_id":351,"name":":)","steam_id":76561198103988618,"connected_time":2015000000000,"state":"active","ping":77},{"user_id":376,"name":"bkashooter","steam_id":76561198116877713,"connected_time":368000000000,"state":"active","ping":51},{"user_id":375,"name":"juan","steam_id":76561199098499873,"connected_time":451000000000,"state":"active","ping":97},{"user_id":377,"name":"Ann1ck","steam_id":76561198361129190,"connected_time":364000000000,"state":"active","ping":148},{"user_id":362,"name":"TURBOCHIASSE","steam_id":76561198087713683,"connected_time":1071000000000,"state":"active","ping":52},{"user_id":369,"name":"frost","steam_id":76561198196853610,"connected_time":537000000000,"state":"active","ping":62},{"user_id":378,"name":"bugpov","steam_id":76561198104896547,"connected_time":364000000000,"state":"active","ping":74},{"user_id":359,"name":"Poppy Stingray","steam_id":76561198049673783,"connected_time":1193000000000,"state":"active","ping":75},{"user_id":382,"name":"gonarsworth","steam_id":76561198194876459,"connected_time":198000000000,"state":"active","ping":65},{"user_id":328,"name":"Jack Dickfister","steam_id":76561198145145810,"connected_time":4709000000000,"state":"active","ping":45},{"user_id":340,"name":"Andy","steam_id":76561198136364381,"connected_time":3683000000000,"state":"active","ping":82},{"user_id":346,"name":"Hoxton","steam_id":76561198129209505,"connected_time":3209000000000,"state":"active","ping":73},{"user_id":368,"name":"Wuzi Mugen","steam_id":76561199163831495,"connected_time":586000000000,"state":"active","ping":87}]},{"server_id":308,"name":"Uncletopia | Frankfurt | 3 | All Maps","name_short":"frk-3","host":"frk-1.de.uncletopia.com","port":27035,"enabled":true,"region":"eu","cc":"de","latitude":50.110924,"longitude":8.682127,"reserved":0,"last_update":"0001-01-01T00:00:00Z","name_a2s":"Uncletopia | Frankfurt | 3 | All Maps","protocol":17,"map":"pl_upward","folder":"tf","game":"Team Fortress","app_id":440,"player_count":24,"max_players":24,"Bots":0,"server_type":"Dedicated","server_os":"Linux","password":true,"vac":true,"version":"7742253","steam_id":85568392924504274,"keywords":["nocrits","nodmgspread","payload","uncletopia"],"game_id":440,"stv_port":27036,"stv_name":"Uncletopia | Frankfurt | 3 | All Maps | STV","players":[{"user_id":366,"name":"Hadshed","steam_id":76561198167733863,"connected_time":3685000000000,"state":"active","ping":120},{"user_id":378,"name":"Optimist 50","steam_id":76561198039631442,"connected_time":2294000000000,"state":"active","ping":72},{"user_id":396,"name":"Trunk Monkey","steam_id":76561198201068833,"connected_time":726000000000,"state":"active","ping":72},{"user_id":377,"name":"YuraGreek","steam_id":76561198050182252,"connected_time":2427000000000,"state":"active","ping":75},{"user_id":403,"name":"KLAMA  ❤","steam_id":76561198351549661,"connected_time":265000000000,"state":"active","ping":63},{"user_id":304,"name":"fogings","steam_id":76561198044165284,"connected_time":7418000000000,"state":"active","ping":44},{"user_id":399,"name":"wads","steam_id":76561198175406562,"connected_time":497000000000,"state":"active","ping":66},{"user_id":379,"name":"Ardello","steam_id":76561198864484125,"connected_time":2283000000000,"state":"active","ping":83},{"user_id":397,"name":"My Name is Jeff XDDDDDD","steam_id":76561198163644527,"connected_time":712000000000,"state":"active","ping":59},{"user_id":380,"name":"Mankor","steam_id":76561198020439322,"connected_time":2273000000000,"state":"active","ping":49},{"user_id":330,"name":"Zenos","steam_id":76561198058829310,"connected_time":6276000000000,"state":"active","ping":40},{"user_id":394,"name":"Chambersite (can't chat)","steam_id":76561198197022399,"connected_time":843000000000,"state":"active","ping":65},{"user_id":383,"name":"Joe mama","steam_id":76561198806718750,"connected_time":2257000000000,"state":"active","ping":60},{"user_id":375,"name":"Realist 40","steam_id":76561198052476979,"connected_time":2711000000000,"state":"active","ping":75},{"user_id":401,"name":"someboyo","steam_id":76561198321085677,"connected_time":364000000000,"state":"active","ping":137},{"user_id":384,"name":"NhouBrane","steam_id":76561198293577735,"connected_time":2251000000000,"state":"active","ping":64},{"user_id":404,"name":"Maximus","steam_id":76561198032472655,"connected_time":253000000000,"state":"active","ping":52},{"user_id":372,"name":"USBug999","steam_id":76561199174677820,"connected_time":3394000000000,"state":"active","ping":133},{"user_id":391,"name":"Snu Snu","steam_id":76561198102420849,"connected_time":1337000000000,"state":"active","ping":59},{"user_id":385,"name":"0","steam_id":76561198047648913,"connected_time":2249000000000,"state":"active","ping":61},{"user_id":392,"name":"Wubba Lubba dub-dub","steam_id":76561198871342329,"connected_time":1329000000000,"state":"active","ping":109},{"user_id":398,"name":"EZPK","steam_id":76561197987474355,"connected_time":704000000000,"state":"active","ping":61},{"user_id":358,"name":"M. Hulot","steam_id":76561197994284798,"connected_time":3807000000000,"state":"active","ping":59},{"user_id":386,"name":"better call selo","steam_id":76561198976793469,"connected_time":2054000000000,"state":"active","ping":94}]},{"server_id":309,"name":"Uncletopia | Frankfurt | 4 | All Maps","name_short":"frk-4","host":"frk-1.de.uncletopia.com","port":27045,"enabled":true,"region":"eu","cc":"de","latitude":50.110924,"longitude":8.682127,"reserved":0,"last_update":"0001-01-01T00:00:00Z","name_a2s":"Uncletopia | Frankfurt | 4 | All Maps","protocol":17,"map":"pl_barnblitz","folder":"tf","game":"Team Fortress","app_id":440,"player_count":22,"max_players":24,"Bots":0,"server_type":"Dedicated","server_os":"Linux","password":true,"vac":true,"version":"7742253","steam_id":85568392924504275,"keywords":["nocrits","nodmgspread","payload","uncletopia"],"game_id":440,"stv_port":27046,"stv_name":"Uncletopia | Frankfurt | 4 | All Maps | STV","players":[{"user_id":114,"name":"AWJ ˆ-ˆ","steam_id":76561198053628243,"connected_time":1184000000000,"state":"active","ping":55},{"user_id":87,"name":"HwK!","steam_id":76561198287835588,"connected_time":2425000000000,"state":"active","ping":78},{"user_id":12,"name":"The Drybone","steam_id":76561199229123721,"connected_time":7106000000000,"state":"active","ping":48},{"user_id":123,"name":"Drdarlekzzz","steam_id":76561198160141785,"connected_time":97000000000,"state":"active","ping":58},{"user_id":76,"name":"ZOMBINΣ","steam_id":76561198151057964,"connected_time":3705000000000,"state":"active","ping":70},{"user_id":125,"name":"the joy of recycling","steam_id":76561198138509827,"connected_time":62000000000,"state":"active","ping":91},{"user_id":121,"name":"AcidRaindrop996","steam_id":76561199234628123,"connected_time":1017000000000,"state":"active","ping":80},{"user_id":117,"name":"Rambi","steam_id":76561199058078505,"connected_time":1073000000000,"state":"active","ping":161},{"user_id":124,"name":"The Enclave","steam_id":76561198257670344,"connected_time":93000000000,"state":"active","ping":58},{"user_id":104,"name":"WX-78","steam_id":76561199117263527,"connected_time":1865000000000,"state":"active","ping":143},{"user_id":108,"name":"already ubered","steam_id":76561198065009070,"connected_time":1597000000000,"state":"active","ping":69},{"user_id":113,"name":"Neimon","steam_id":76561198343485710,"connected_time":1195000000000,"state":"active","ping":118},{"user_id":77,"name":"[G.E.W.P.] | Gr0t0s","steam_id":76561198157368331,"connected_time":3703000000000,"state":"active","ping":66},{"user_id":127,"name":"Shirogame","steam_id":76561198126154697,"connected_time":22000000000,"state":"spawning","ping":75},{"user_id":126,"name":"bad at gaem","steam_id":76561198072373587,"connected_time":53000000000,"state":"spawning","ping":187},{"user_id":128,"name":"catgirl (real)","steam_id":76561199045736884,"connected_time":14000000000,"state":"active","ping":217},{"user_id":118,"name":"Mell","steam_id":76561198356521260,"connected_time":1069000000000,"state":"active","ping":77},{"user_id":95,"name":"tekt","steam_id":76561198044554387,"connected_time":2339000000000,"state":"active","ping":84},{"user_id":110,"name":"M E H","steam_id":76561198038436594,"connected_time":1531000000000,"state":"active","ping":63},{"user_id":111,"name":"Talismanas","steam_id":76561198282892553,"connected_time":1287000000000,"state":"active","ping":69},{"user_id":122,"name":"ToniGAM3S","steam_id":76561198128605351,"connected_time":968000000000,"state":"active","ping":59},{"user_id":97,"name":"glyph","steam_id":76561197980736364,"connected_time":2317000000000,"state":"active","ping":76}]},{"server_id":310,"name":"Uncletopia | Frankfurt | 5 | All Maps","name_short":"frk-5","host":"frk-1.de.uncletopia.com","port":27055,"enabled":true,"region":"eu","cc":"de","latitude":50.110924,"longitude":8.682127,"reserved":0,"last_update":"0001-01-01T00:00:00Z","name_a2s":"Uncletopia | Frankfurt | 5 | All Maps","protocol":17,"map":"koth_viaduct","folder":"tf","game":"Team Fortress","app_id":440,"player_count":0,"max_players":24,"Bots":0,"server_type":"Dedicated","server_os":"Linux","password":true,"vac":true,"version":"7742253","steam_id":85568392924504277,"keywords":["cp","nocrits","nodmgspread","uncletopia"],"game_id":440,"stv_port":27056,"stv_name":"Uncletopia | Frankfurt | 5 | All Maps | STV","players":null},{"server_id":311,"name":"Uncletopia | Frankfurt | 6 | All Maps","name_short":"frk-6","host":"frk-1.de.uncletopia.com","port":27065,"enabled":true,"region":"eu","cc":"de","latitude":50.110924,"longitude":8.682127,"reserved":0,"last_update":"0001-01-01T00:00:00Z","name_a2s":"Uncletopia | Frankfurt | 6 | All Maps","protocol":17,"map":"pl_frontier_final","folder":"tf","game":"Team Fortress","app_id":440,"player_count":24,"max_players":24,"Bots":0,"server_type":"Dedicated","server_os":"Linux","password":true,"vac":true,"version":"7742253","steam_id":85568392924504278,"keywords":["nocrits","nodmgspread","payload","uncletopia"],"game_id":440,"stv_port":27066,"stv_name":"Uncletopia | Frankfurt | 6 | All Maps | STV","players":[{"user_id":345,"name":"zheel","steam_id":76561198354135485,"connected_time":122000000000,"state":"active","ping":60},{"user_id":348,"name":"manKe","steam_id":76561198008564860,"connected_time":106000000000,"state":"active","ping":57},{"user_id":347,"name":"Another terrible teammate","steam_id":76561199078891409,"connected_time":111000000000,"state":"active","ping":90},{"user_id":340,"name":"Ged","steam_id":76561198079288943,"connected_time":283000000000,"state":"active","ping":106},{"user_id":341,"name":"M@T!X マティ","steam_id":76561198273121669,"connected_time":281000000000,"state":"active","ping":86},{"user_id":333,"name":"Femboypawnguy","steam_id":76561198274894771,"connected_time":1093000000000,"state":"active","ping":54},{"user_id":349,"name":"Jsaa_","steam_id":76561198281086623,"connected_time":93000000000,"state":"active","ping":68},{"user_id":346,"name":"spuugen hauer","steam_id":76561198004186922,"connected_time":113000000000,"state":"active","ping":74},{"user_id":350,"name":"F1-M","steam_id":76561198198409875,"connected_time":69000000000,"state":"spawning","ping":139},{"user_id":320,"name":"Use The Finger","steam_id":76561198050203563,"connected_time":2040000000000,"state":"active","ping":69},{"user_id":330,"name":"PLUTO","steam_id":76561198312436128,"connected_time":1330000000000,"state":"active","ping":125},{"user_id":336,"name":"Duck_gaming","steam_id":76561198841587079,"connected_time":433000000000,"state":"active","ping":61},{"user_id":351,"name":"System","steam_id":76561199442503973,"connected_time":59000000000,"state":"active","ping":54},{"user_id":352,"name":"Guy with squares as username","steam_id":76561198269524918,"connected_time":52000000000,"state":"active","ping":49},{"user_id":309,"name":"goktwoxd","steam_id":76561198065114415,"connected_time":2682000000000,"state":"active","ping":89},{"user_id":353,"name":"árvíztűrő tükörfúrógép","steam_id":76561198296643061,"connected_time":24000000000,"state":"active","ping":61},{"user_id":342,"name":"Doctor Sex","steam_id":76561199027785550,"connected_time":273000000000,"state":"active","ping":66},{"user_id":306,"name":"Stepoface","steam_id":76561198091569863,"connected_time":3495000000000,"state":"active","ping":61},{"user_id":334,"name":"BELADIT","steam_id":76561198011911501,"connected_time":822000000000,"state":"active","ping":74},{"user_id":338,"name":"Mrforgetful","steam_id":76561198869654419,"connected_time":388000000000,"state":"active","ping":63},{"user_id":305,"name":"♣Бредовый Месяц","steam_id":76561198796404149,"connected_time":3517000000000,"state":"active","ping":93},{"user_id":287,"name":"FaceShackle","steam_id":76561198038371397,"connected_time":4951000000000,"state":"active","ping":44},{"user_id":339,"name":"RI","steam_id":76561198350826913,"connected_time":333000000000,"state":"active","ping":65},{"user_id":344,"name":"The Pybro","steam_id":76561198831956754,"connected_time":135000000000,"state":"active","ping":179}]},{"server_id":23,"name":"Uncletopia | Frankfurt | 7 | Stopwatch Beta","name_short":"frk-7","host":"frk-1.de.uncletopia.com","port":27075,"enabled":true,"region":"eu","cc":"de","latitude":50.110924,"longitude":8.682127,"reserved":0,"last_update":"0001-01-01T00:00:00Z","name_a2s":"Uncletopia | Frankfurt | 7 | Stopwatch Beta","protocol":17,"map":"workshop/koth_bagel_rc5.ugc2514036946","folder":"tf","game":"Team Fortress","app_id":440,"player_count":12,"max_players":24,"Bots":0,"server_type":"Dedicated","server_os":"Linux","password":true,"vac":true,"version":"7742253","steam_id":85568392924742827,"keywords":["cp","nocrits","nodmgspread","uncletopia"],"game_id":440,"stv_port":27076,"stv_name":"Uncletopia | Frankfurt | 7 | Stopwatch Beta | STV","players":[{"user_id":274,"name":"RocketBoy08","steam_id":76561198833978944,"connected_time":1332000000000,"state":"active","ping":84},{"user_id":271,"name":"fried","steam_id":76561198307522022,"connected_time":1525000000000,"state":"active","ping":45},{"user_id":286,"name":"Tutiwit","steam_id":76561198254481528,"connected_time":87000000000,"state":"active","ping":68},{"user_id":282,"name":"PH4NTOMtry","steam_id":76561198979390263,"connected_time":685000000000,"state":"active","ping":89},{"user_id":267,"name":"im red","steam_id":76561199087284519,"connected_time":2002000000000,"state":"active","ping":62},{"user_id":265,"name":"Mehrtelb","steam_id":76561198054162669,"connected_time":2159000000000,"state":"active","ping":45},{"user_id":275,"name":"Borloxos","steam_id":76561198123110073,"connected_time":1288000000000,"state":"active","ping":58},{"user_id":283,"name":"Feelin' Supersonic","steam_id":76561198005738407,"connected_time":497000000000,"state":"active","ping":73},{"user_id":284,"name":"Funni duck","steam_id":76561198358450003,"connected_time":353000000000,"state":"active","ping":96},{"user_id":281,"name":"Stragnov☆","steam_id":76561198074702465,"connected_time":782000000000,"state":"active","ping":52},{"user_id":288,"name":"The chumbler","steam_id":76561198999161827,"connected_time":7000000000,"state":"spawning","ping":63},{"user_id":261,"name":"Suleli","steam_id":76561199006199283,"connected_time":2283000000000,"state":"active","ping":74}]},{"server_id":24,"name":"Uncletopia | Frankfurt | 8 | Community","name_short":"frk-8","host":"frk-1.de.uncletopia.com","port":27085,"enabled":true,"region":"eu","cc":"de","latitude":50.110924,"longitude":8.682127,"reserved":0,"last_update":"0001-01-01T00:00:00Z","name_a2s":"Uncletopia | Frankfurt | 8 | Community","protocol":17,"map":"koth_cascade","folder":"tf","game":"Team Fortress","app_id":440,"player_count":0,"max_players":24,"Bots":0,"server_type":"Dedicated","server_os":"Linux","password":true,"vac":true,"version":"7742253","steam_id":85568392924742828,"keywords":["cp","nocrits","nodmgspread","uncletopia"],"game_id":440,"stv_port":27086,"stv_name":"Uncletopia | Frankfurt | 8 | Community | STV","players":null},{"server_id":202,"name":"Uncletopia | Hong Kong | 1 | All Maps","name_short":"hgk-1","host":"hgk-1.hk.uncletopia.com","port":27015,"enabled":true,"region":"asia","cc":"hk","latitude":22.302711,"longitude":114.177216,"reserved":0,"last_update":"0001-01-01T00:00:00Z","name_a2s":"Uncletopia | Hong Kong | 1 | All Maps","protocol":17,"map":"pl_wutville_event","folder":"tf","game":"Team Fortress","app_id":440,"player_count":24,"max_players":24,"Bots":0,"server_type":"Dedicated","server_os":"Linux","password":true,"vac":true,"version":"7742253","steam_id":85568392924494504,"keywords":["nocrits","nodmgspread","payload","uncletopia"],"game_id":440,"stv_port":27016,"stv_name":"Uncletopia | Hong Kong | 1 | All Maps | STV","players":[{"user_id":815,"name":"Banana Milk","steam_id":76561198005156257,"connected_time":4712000000000,"state":"active","ping":124},{"user_id":777,"name":"bocchi the oppai","steam_id":76561198008307645,"connected_time":8695000000000,"state":"active","ping":96},{"user_id":800,"name":"Tyxant","steam_id":76561198091066056,"connected_time":7317000000000,"state":"active","ping":88},{"user_id":844,"name":"lettuce at 58p","steam_id":76561199401283123,"connected_time":2529000000000,"state":"active","ping":92},{"user_id":859,"name":"Darknight","steam_id":76561199090139287,"connected_time":1390000000000,"state":"active","ping":104},{"user_id":805,"name":"쿠키","steam_id":76561197997220367,"connected_time":6540000000000,"state":"active","ping":47},{"user_id":787,"name":"Smarks123","steam_id":76561198132170503,"connected_time":7788000000000,"state":"active","ping":80},{"user_id":862,"name":"母の肉団子","steam_id":76561198069561896,"connected_time":714000000000,"state":"active","ping":26},{"user_id":846,"name":"PapaFranku69","steam_id":76561199446266814,"connected_time":2498000000000,"state":"active","ping":87},{"user_id":849,"name":"gilsomnia","steam_id":76561198830813639,"connected_time":2485000000000,"state":"active","ping":87},{"user_id":781,"name":"Drutzhfer","steam_id":76561198299948446,"connected_time":7965000000000,"state":"active","ping":99},{"user_id":848,"name":"Uranium Sanchez","steam_id":76561198129037091,"connected_time":2491000000000,"state":"active","ping":71},{"user_id":850,"name":"Femboy Marcos Sr.","steam_id":76561198172020910,"connected_time":2482000000000,"state":"active","ping":59},{"user_id":858,"name":"Linus Meth Tips","steam_id":76561198827014993,"connected_time":1475000000000,"state":"active","ping":83},{"user_id":861,"name":"Phou","steam_id":76561198322136756,"connected_time":1143000000000,"state":"active","ping":102},{"user_id":854,"name":"Pandemo","steam_id":76561198024666110,"connected_time":2149000000000,"state":"active","ping":41},{"user_id":804,"name":"Duck with a knife (what he gonn","steam_id":76561199092409364,"connected_time":6553000000000,"state":"active","ping":121},{"user_id":852,"name":"Zacy","steam_id":76561198114841670,"connected_time":2313000000000,"state":"active","ping":67},{"user_id":630,"name":"Bertengkar","steam_id":76561198213031155,"connected_time":16299000000000,"state":"active","ping":105},{"user_id":809,"name":"balls 2","steam_id":76561198024102244,"connected_time":5826000000000,"state":"active","ping":78},{"user_id":837,"name":"Batbob","steam_id":76561198999413123,"connected_time":2964000000000,"state":"active","ping":82},{"user_id":841,"name":"Vortex Morez","steam_id":76561198833527091,"connected_time":2557000000000,"state":"active","ping":97},{"user_id":855,"name":"Krayken","steam_id":76561197997933283,"connected_time":1694000000000,"state":"active","ping":123},{"user_id":779,"name":"老兄","steam_id":76561197976647906,"connected_time":7978000000000,"state":"active","ping":83}]},{"server_id":1,"name":"Uncletopia | Los Angeles | 1 | All Maps","name_short":"lax-1","host":"lax-1.us.uncletopia.com","port":27015,"enabled":true,"region":"us-west","cc":"us","latitude":33.94279,"longitude":-118.41004,"reserved":0,"last_update":"0001-01-01T00:00:00Z","name_a2s":"Uncletopia | Los Angeles | 1 | All Maps","protocol":17,"map":"cp_dustbowl","folder":"tf","game":"Team Fortress","app_id":440,"player_count":0,"max_players":24,"Bots":0,"server_type":"Dedicated","server_os":"Linux","password":true,"vac":true,"version":"7742253","steam_id":85568392924469991,"keywords":["cp","nocrits","nodmgspread","uncletopia"],"game_id":440,"stv_port":27016,"stv_name":"Uncletopia | Los Angeles | 1 | All Maps | STV","players":null},{"server_id":112,"name":"Uncletopia | Los Angeles | 2 | All Maps","name_short":"lax-2","host":"lax-1.us.uncletopia.com","port":27025,"enabled":true,"region":"us-west","cc":"us","latitude":33.94279,"longitude":-118.41004,"reserved":0,"last_update":"0001-01-01T00:00:00Z","name_a2s":"Uncletopia | Los Angeles | 2 | All Maps","protocol":17,"map":"pl_frontier_final","folder":"tf","game":"Team Fortress","app_id":440,"player_count":0,"max_players":24,"Bots":0,"server_type":"Dedicated","server_os":"Linux","password":true,"vac":true,"version":"7742253","steam_id":85568392924469992,"keywords":["nocrits","nodmgspread","payload","uncletopia"],"game_id":440,"stv_port":27026,"stv_name":"Uncletopia | Los Angeles | 2 | All Maps | STV","players":null},{"server_id":324,"name":"Uncletopia | Los Angeles | 3 | All Maps","name_short":"lax-3","host":"lax-1.us.uncletopia.com","port":27035,"enabled":true,"region":"us-west","cc":"us","latitude":33.94279,"longitude":-118.41004,"reserved":0,"last_update":"0001-01-01T00:00:00Z","name_a2s":"Uncletopia | Los Angeles | 3 | All Maps","protocol":17,"map":"cp_snakewater_final1","folder":"tf","game":"Team Fortress","app_id":440,"player_count":0,"max_players":24,"Bots":0,"server_type":"Dedicated","server_os":"Linux","password":true,"vac":true,"version":"7742253","steam_id":85568392924510198,"keywords":["cp","nocrits","nodmgspread","uncletopia"],"game_id":440,"stv_port":27036,"stv_name":"Uncletopia | Los Angeles | 3 | All Maps | STV","players":null},{"server_id":25,"name":"Uncletopia | Los Angeles | 4 | Stopwatch Beta","name_short":"lax-4","host":"lax-1.us.uncletopia.com","port":27045,"enabled":true,"region":"us-west","cc":"us","latitude":33.94279,"longitude":-118.41004,"reserved":0,"last_update":"0001-01-01T00:00:00Z","name_a2s":"Uncletopia | Los Angeles | 4 | Stopwatch Beta","protocol":17,"map":"pl_swiftwater_final1","folder":"tf","game":"Team Fortress","app_id":440,"player_count":0,"max_players":24,"Bots":0,"server_type":"Dedicated","server_os":"Linux","password":true,"vac":true,"version":"7742253","steam_id":85568392924510199,"keywords":["nocrits","nodmgspread","payload","uncletopia"],"game_id":440,"stv_port":27046,"stv_name":"Uncletopia | Los Angeles | 4 | Stopwatch Beta | STV","players":null},{"server_id":11,"name":"Uncletopia | London | 1 | All Maps","name_short":"lon-1","host":"lon-1.uk.uncletopia.com","port":27015,"enabled":true,"region":"eu","cc":"gb","latitude":51.509865,"longitude":-0.118092,"reserved":0,"last_update":"0001-01-01T00:00:00Z","name_a2s":"Uncletopia | London | 1 | All Maps","protocol":17,"map":"pl_badwater","folder":"tf","game":"Team Fortress","app_id":440,"player_count":24,"max_players":24,"Bots":0,"server_type":"Dedicated","server_os":"Linux","password":true,"vac":true,"version":"7742253","steam_id":85568392924367362,"keywords":["nocrits","nodmgspread","payload","uncletopia"],"game_id":440,"stv_port":27016,"stv_name":"Uncletopia | London | 1 | All Maps | STV","players":[{"user_id":510,"name":"wise ukrainian shaman","steam_id":76561198989398023,"connected_time":110000000000,"state":"active","ping":107},{"user_id":504,"name":"L.A. Palm Tree","steam_id":76561199289526521,"connected_time":246000000000,"state":"active","ping":73},{"user_id":493,"name":"AL Jardinet","steam_id":76561198126723721,"connected_time":858000000000,"state":"active","ping":56},{"user_id":469,"name":"i am the spy","steam_id":76561198368783937,"connected_time":2299000000000,"state":"active","ping":118},{"user_id":467,"name":"willus212","steam_id":76561199182615246,"connected_time":2304000000000,"state":"active","ping":96},{"user_id":441,"name":"tactical783","steam_id":76561199051688560,"connected_time":4097000000000,"state":"active","ping":63},{"user_id":505,"name":"sacha","steam_id":76561198098065932,"connected_time":234000000000,"state":"active","ping":48},{"user_id":496,"name":"SuperBob103","steam_id":76561199175360012,"connected_time":833000000000,"state":"active","ping":52},{"user_id":456,"name":"Echo of Abyss","steam_id":76561198981841782,"connected_time":3533000000000,"state":"active","ping":75},{"user_id":481,"name":"luma","steam_id":76561198081649669,"connected_time":1970000000000,"state":"active","ping":80},{"user_id":483,"name":"Dieu-Sama","steam_id":76561198002075862,"connected_time":1923000000000,"state":"active","ping":51},{"user_id":442,"name":"imma slap you","steam_id":76561198063965879,"connected_time":4089000000000,"state":"active","ping":73},{"user_id":498,"name":"Mr Prince","steam_id":76561199006591691,"connected_time":777000000000,"state":"active","ping":48},{"user_id":506,"name":"Cryo","steam_id":76561198324132940,"connected_time":212000000000,"state":"active","ping":46},{"user_id":507,"name":"Tavish","steam_id":76561197971486686,"connected_time":174000000000,"state":"active","ping":52},{"user_id":501,"name":"murderwow","steam_id":76561198024566944,"connected_time":376000000000,"state":"active","ping":113},{"user_id":512,"name":"Sacreshiea","steam_id":76561198169853697,"connected_time":18000000000,"state":"active","ping":74},{"user_id":511,"name":"British Disapproval","steam_id":76561198001375260,"connected_time":82000000000,"state":"active","ping":60},{"user_id":509,"name":"Darkmaen","steam_id":76561198060543390,"connected_time":124000000000,"state":"active","ping":57},{"user_id":497,"name":"Frylock","steam_id":76561198050292560,"connected_time":786000000000,"state":"active","ping":45},{"user_id":490,"name":"willy","steam_id":76561198002519060,"connected_time":1167000000000,"state":"active","ping":83},{"user_id":482,"name":"20BB Raxor","steam_id":76561198239927434,"connected_time":1960000000000,"state":"active","ping":91},{"user_id":438,"name":"swerve_vision","steam_id":76561198088624259,"connected_time":4405000000000,"state":"active","ping":65},{"user_id":476,"name":"SubDragon","steam_id":76561199074530966,"connected_time":2279000000000,"state":"active","ping":127}]},{"server_id":114,"name":"Uncletopia | London | 2 | All Maps","name_short":"lon-2","host":"lon-1.uk.uncletopia.com","port":27025,"enabled":true,"region":"eu","cc":"gb","latitude":51.509865,"longitude":-0.118092,"reserved":0,"last_update":"0001-01-01T00:00:00Z","name_a2s":"Uncletopia | London | 2 | All Maps","protocol":17,"map":"pl_borneo","folder":"tf","game":"Team Fortress","app_id":440,"player_count":24,"max_players":24,"Bots":0,"server_type":"Dedicated","server_os":"Linux","password":true,"vac":true,"version":"7742253","steam_id":85568392924470941,"keywords":["nocrits","nodmgspread","payload","uncletopia"],"game_id":440,"stv_port":27026,"stv_name":"Uncletopia | London | 2 | All Maps | STV","players":[{"user_id":93,"name":"Redkiller","steam_id":76561199453655288,"connected_time":5504000000000,"state":"active","ping":129},{"user_id":151,"name":"Mury","steam_id":76561198069743049,"connected_time":2180000000000,"state":"active","ping":124},{"user_id":138,"name":"Scarlet","steam_id":76561198075966579,"connected_time":2548000000000,"state":"active","ping":45},{"user_id":158,"name":"Mr. Fox","steam_id":76561198803610709,"connected_time":1926000000000,"state":"active","ping":111},{"user_id":117,"name":"Joe","steam_id":76561198061717026,"connected_time":3767000000000,"state":"active","ping":45},{"user_id":169,"name":"Mike","steam_id":76561198228455736,"connected_time":1368000000000,"state":"active","ping":50},{"user_id":77,"name":"Silverstorm","steam_id":76561198118175267,"connected_time":6591000000000,"state":"active","ping":64},{"user_id":177,"name":"kbbq","steam_id":76561198346638308,"connected_time":172000000000,"state":"active","ping":46},{"user_id":156,"name":"Super Splint","steam_id":76561199465781208,"connected_time":2013000000000,"state":"active","ping":160},{"user_id":170,"name":"Néodamode","steam_id":76561197968575924,"connected_time":1076000000000,"state":"active","ping":54},{"user_id":139,"name":"[Sheep] Tomco","steam_id":76561198388549261,"connected_time":2509000000000,"state":"active","ping":50},{"user_id":111,"name":"Arx","steam_id":76561198182901217,"connected_time":4499000000000,"state":"active","ping":105},{"user_id":121,"name":"The Fat Rat","steam_id":76561198064115286,"connected_time":3693000000000,"state":"active","ping":74},{"user_id":141,"name":"Totally Something","steam_id":76561198916824935,"connected_time":2489000000000,"state":"active","ping":82},{"user_id":162,"name":"Woj","steam_id":76561199003258257,"connected_time":1879000000000,"state":"active","ping":66},{"user_id":143,"name":"FramefrapsoM","steam_id":76561198113119119,"connected_time":2416000000000,"state":"active","ping":109},{"user_id":155,"name":"poshto;))","steam_id":76561198106182078,"connected_time":2027000000000,"state":"active","ping":107},{"user_id":163,"name":"Farmercy","steam_id":76561198000038039,"connected_time":1867000000000,"state":"active","ping":71},{"user_id":145,"name":"QUIRELL","steam_id":76561199070823831,"connected_time":2349000000000,"state":"active","ping":50},{"user_id":148,"name":"SmugTradingWolf","steam_id":76561198073845794,"connected_time":2287000000000,"state":"active","ping":53},{"user_id":173,"name":"JoJo","steam_id":76561198296920548,"connected_time":574000000000,"state":"active","ping":87},{"user_id":176,"name":"Never Über Me","steam_id":76561198140522687,"connected_time":325000000000,"state":"active","ping":77},{"user_id":98,"name":"Madree","steam_id":76561199443143457,"connected_time":5299000000000,"state":"active","ping":106},{"user_id":167,"name":"crat","steam_id":76561198401398502,"connected_time":1776000000000,"state":"active","ping":87}]},{"server_id":320,"name":"Uncletopia | London | 3 | All Maps","name_short":"lon-3","host":"lon-1.uk.uncletopia.com","port":27035,"enabled":true,"region":"eu","cc":"gb","latitude":51.509865,"longitude":-0.118092,"reserved":0,"last_update":"0001-01-01T00:00:00Z","name_a2s":"Uncletopia | London | 3 | All Maps","protocol":17,"map":"pl_borneo","folder":"tf","game":"Team Fortress","app_id":440,"player_count":23,"max_players":24,"Bots":0,"server_type":"Dedicated","server_os":"Linux","password":true,"vac":true,"version":"7742253","steam_id":85568392924510192,"keywords":["nocrits","nodmgspread","payload","uncletopia"],"game_id":440,"stv_port":27036,"stv_name":"Uncletopia | London | 3 | All Maps | STV","players":[{"user_id":262,"name":"Dingus","steam_id":76561198140514058,"connected_time":514000000000,"state":"active","ping":35},{"user_id":175,"name":"Penis Contortionist","steam_id":76561198073663784,"connected_time":6955000000000,"state":"active","ping":33},{"user_id":263,"name":"quak","steam_id":76561198053928976,"connected_time":482000000000,"state":"active","ping":86},{"user_id":265,"name":"jaime8D","steam_id":76561197980590671,"connected_time":405000000000,"state":"active","ping":75},{"user_id":260,"name":"Areck2","steam_id":76561199041737814,"connected_time":673000000000,"state":"active","ping":45},{"user_id":261,"name":"-makina","steam_id":76561198273042780,"connected_time":565000000000,"state":"active","ping":79},{"user_id":115,"name":"squo -pivzavod-","steam_id":76561198324357479,"connected_time":10866000000000,"state":"active","ping":81},{"user_id":267,"name":"TryTane","steam_id":76561198133293111,"connected_time":359000000000,"state":"active","ping":58},{"user_id":231,"name":"Hot Beverage Enjoyer","steam_id":76561198060638325,"connected_time":2502000000000,"state":"active","ping":46},{"user_id":243,"name":"Minimi","steam_id":76561198873850443,"connected_time":1988000000000,"state":"active","ping":43},{"user_id":249,"name":"Double your risk","steam_id":76561197995194628,"connected_time":1417000000000,"state":"active","ping":69},{"user_id":237,"name":"Pinkchup","steam_id":76561198106802803,"connected_time":2172000000000,"state":"active","ping":75},{"user_id":270,"name":"Sandvich Gaming","steam_id":76561199079493666,"connected_time":82000000000,"state":"active","ping":93},{"user_id":227,"name":"Milfshake","steam_id":76561198208740557,"connected_time":2574000000000,"state":"active","ping":62},{"user_id":253,"name":"CheekiBreekiBoi","steam_id":76561198089977062,"connected_time":1133000000000,"state":"active","ping":63},{"user_id":256,"name":"tikitaki","steam_id":76561199154384606,"connected_time":862000000000,"state":"active","ping":78},{"user_id":239,"name":"Koalified","steam_id":76561198095350290,"connected_time":2144000000000,"state":"active","ping":177},{"user_id":258,"name":"MelvinIsANiceBoy","steam_id":76561198178415634,"connected_time":785000000000,"state":"active","ping":55},{"user_id":241,"name":"Ixsus\u003c3","steam_id":76561198094756869,"connected_time":2131000000000,"state":"active","ping":67},{"user_id":269,"name":"I am a box","steam_id":76561199184671939,"connected_time":295000000000,"state":"active","ping":110},{"user_id":242,"name":"MateMO","steam_id":76561198146180114,"connected_time":2124000000000,"state":"active","ping":75},{"user_id":47,"name":"Lawliet","steam_id":76561198846232981,"connected_time":14739000000000,"state":"active","ping":157},{"user_id":246,"name":"Pitmin_","steam_id":76561198005342133,"connected_time":1792000000000,"state":"active","ping":56}]},{"server_id":321,"name":"Uncletopia | London | 4 | All Maps","name_short":"lon-4","host":"lon-1.uk.uncletopia.com","port":27045,"enabled":true,"region":"eu","cc":"gb","latitude":51.509865,"longitude":-0.118092,"reserved":0,"last_update":"0001-01-01T00:00:00Z","name_a2s":"Uncletopia | London | 4 | All Maps","protocol":17,"map":"pl_badwater","folder":"tf","game":"Team Fortress","app_id":440,"player_count":24,"max_players":24,"Bots":0,"server_type":"Dedicated","server_os":"Linux","password":true,"vac":true,"version":"7742253","steam_id":85568392924510193,"keywords":["nocrits","nodmgspread","payload","uncletopia"],"game_id":440,"stv_port":27046,"stv_name":"Uncletopia | London | 4 | All Maps | STV","players":[{"user_id":15,"name":"Saihtama","steam_id":76561198067497192,"connected_time":3645000000000,"state":"active","ping":59},{"user_id":78,"name":"Ale1199","steam_id":76561198994871986,"connected_time":1136000000000,"state":"active","ping":81},{"user_id":90,"name":"b33tl3","steam_id":76561198418417451,"connected_time":278000000000,"state":"active","ping":42},{"user_id":33,"name":"Mr.Cupcake","steam_id":76561198152711174,"connected_time":3281000000000,"state":"active","ping":76},{"user_id":91,"name":"KQ","steam_id":76561198079633316,"connected_time":163000000000,"state":"active","ping":43},{"user_id":51,"name":"Cazulas","steam_id":76561198027460283,"connected_time":1988000000000,"state":"active","ping":69},{"user_id":92,"name":"Sir Skyber","steam_id":76561198064440004,"connected_time":161000000000,"state":"active","ping":90},{"user_id":48,"name":"TylowStar","steam_id":76561198357107806,"connected_time":2257000000000,"state":"active","ping":75},{"user_id":93,"name":"banrab","steam_id":76561198083615367,"connected_time":126000000000,"state":"active","ping":35},{"user_id":52,"name":"Delab Le Fou","steam_id":76561198846356572,"connected_time":1981000000000,"state":"active","ping":88},{"user_id":80,"name":"Kahvi","steam_id":76561198723244199,"connected_time":1066000000000,"state":"active","ping":75},{"user_id":85,"name":"Neonlemurs","steam_id":76561198161147186,"connected_time":653000000000,"state":"active","ping":58},{"user_id":89,"name":"Grinch Gun","steam_id":76561198097789669,"connected_time":474000000000,"state":"active","ping":72},{"user_id":87,"name":"Erior","steam_id":76561198039462080,"connected_time":549000000000,"state":"active","ping":76},{"user_id":88,"name":"Españaa","steam_id":76561198879587832,"connected_time":507000000000,"state":"active","ping":69},{"user_id":54,"name":"Noob_with_source","steam_id":76561198870362103,"connected_time":1808000000000,"state":"active","ping":59},{"user_id":81,"name":"Sakura","steam_id":76561198892631275,"connected_time":919000000000,"state":"active","ping":39},{"user_id":79,"name":"the joy of recycling","steam_id":76561198415564349,"connected_time":1121000000000,"state":"active","ping":60},{"user_id":57,"name":"Dark Souls Reference","steam_id":76561198094102747,"connected_time":1716000000000,"state":"active","ping":56},{"user_id":94,"name":"who asked","steam_id":76561198834897089,"connected_time":100000000000,"state":"active","ping":64},{"user_id":82,"name":"Komolo","steam_id":76561198234497016,"connected_time":908000000000,"state":"active","ping":58},{"user_id":84,"name":"JimTheMagicJumper","steam_id":76561197996773886,"connected_time":811000000000,"state":"active","ping":35},{"user_id":83,"name":"outlaw","steam_id":76561198323805289,"connected_time":864000000000,"state":"active","ping":35},{"user_id":66,"name":"klaus","steam_id":76561198150394201,"connected_time":1427000000000,"state":"active","ping":94}]},{"server_id":21,"name":"Uncletopia | London | 5 | All Maps","name_short":"lon-5","host":"lon-1.uk.uncletopia.com","port":27055,"enabled":true,"region":"eu","cc":"gb","latitude":51.509865,"longitude":-0.118092,"reserved":0,"last_update":"0001-01-01T00:00:00Z","name_a2s":"Uncletopia | London | 5 | All Maps","protocol":17,"map":"koth_highpass","folder":"tf","game":"Team Fortress","app_id":440,"player_count":0,"max_players":24,"Bots":0,"server_type":"Dedicated","server_os":"Linux","password":true,"vac":true,"version":"7742253","steam_id":85568392924742829,"keywords":["cp","nocrits","nodmgspread","uncletopia"],"game_id":440,"stv_port":27056,"stv_name":"Uncletopia | London | 5 | All Maps | STV","players":null},{"server_id":22,"name":"Uncletopia | London | 6 | All Maps","name_short":"lon-6","host":"lon-1.uk.uncletopia.com","port":27065,"enabled":true,"region":"eu","cc":"gb","latitude":51.509865,"longitude":-0.118092,"reserved":0,"last_update":"0001-01-01T00:00:00Z","name_a2s":"Uncletopia | London | 6 | All Maps","protocol":17,"map":"pl_barnblitz","folder":"tf","game":"Team Fortress","app_id":440,"player_count":21,"max_players":24,"Bots":0,"server_type":"Dedicated","server_os":"Linux","password":true,"vac":true,"version":"7742253","steam_id":85568392924742830,"keywords":["nocrits","nodmgspread","payload","uncletopia"],"game_id":440,"stv_port":27066,"stv_name":"Uncletopia | London | 6 | All Maps | STV","players":[{"user_id":184,"name":"Tywhip","steam_id":76561199207545191,"connected_time":1885000000000,"state":"active","ping":61},{"user_id":188,"name":"Wang of Wall St","steam_id":76561198047460598,"connected_time":1495000000000,"state":"active","ping":119},{"user_id":173,"name":"kryhu","steam_id":76561198293327713,"connected_time":2800000000000,"state":"active","ping":75},{"user_id":179,"name":"Son Goku","steam_id":76561199383437138,"connected_time":2259000000000,"state":"active","ping":117},{"user_id":182,"name":"kirbykinggggYT","steam_id":76561199433707628,"connected_time":2133000000000,"state":"active","ping":150},{"user_id":200,"name":"frost","steam_id":76561198167675482,"connected_time":1031000000000,"state":"active","ping":90},{"user_id":127,"name":"RedFog","steam_id":76561198284713081,"connected_time":6980000000000,"state":"active","ping":50},{"user_id":210,"name":"Goon Spoons","steam_id":76561198116391675,"connected_time":70000000000,"state":"active","ping":263},{"user_id":211,"name":"bgunonu","steam_id":76561199239434415,"connected_time":33000000000,"state":"active","ping":94},{"user_id":212,"name":"toust","steam_id":76561199103417422,"connected_time":27000000000,"state":"spawning","ping":68},{"user_id":201,"name":"torn","steam_id":76561198223003236,"connected_time":988000000000,"state":"active","ping":55},{"user_id":190,"name":"LeninPro1870","steam_id":76561199175688390,"connected_time":1464000000000,"state":"active","ping":86},{"user_id":191,"name":"Bill by Daylight","steam_id":76561199068338969,"connected_time":1453000000000,"state":"active","ping":47},{"user_id":202,"name":"tim nagle","steam_id":76561198206177349,"connected_time":960000000000,"state":"active","ping":58},{"user_id":112,"name":"Dominus.","steam_id":76561199065917088,"connected_time":7777000000000,"state":"active","ping":67},{"user_id":193,"name":"the_lamb","steam_id":76561198837779849,"connected_time":1398000000000,"state":"active","ping":86},{"user_id":207,"name":"A Cat","steam_id":76561198221549132,"connected_time":711000000000,"state":"active","ping":37},{"user_id":203,"name":"waffle toaster","steam_id":76561198799089628,"connected_time":935000000000,"state":"active","ping":37},{"user_id":196,"name":"xfolo","steam_id":76561198219022400,"connected_time":1306000000000,"state":"active","ping":50},{"user_id":198,"name":"Andlol15","steam_id":76561199366677327,"connected_time":1296000000000,"state":"active","ping":79},{"user_id":206,"name":"Gearing Up","steam_id":76561198306413262,"connected_time":857000000000,"state":"active","ping":68}]},{"server_id":40,"name":"Uncletopia | London | 7 | No Payload","name_short":"lon-7","host":"lon-1.uk.uncletopia.com","port":27075,"enabled":true,"region":"eu","cc":"gb","latitude":51.509865,"longitude":-0.118092,"reserved":0,"last_update":"0001-01-01T00:00:00Z","name_a2s":"Uncletopia | London | 7 | No Payload","protocol":17,"map":"cp_freight_final1","folder":"tf","game":"Team Fortress","app_id":440,"player_count":0,"max_players":24,"Bots":0,"server_type":"Dedicated","server_os":"Linux","password":true,"vac":true,"version":"7742253","steam_id":85568392924964314,"keywords":["cp","nocrits","nodmgspread","uncletopia"],"game_id":440,"stv_port":27076,"stv_name":"Uncletopia | London | 7 | No Payload | STV","players":null},{"server_id":41,"name":"Uncletopia | London | 8 | Community","name_short":"lon-8","host":"lon-1.uk.uncletopia.com","port":27085,"enabled":true,"region":"eu","cc":"gb","latitude":51.509865,"longitude":-0.118092,"reserved":0,"last_update":"0001-01-01T00:00:00Z","name_a2s":"Uncletopia | London | 8 | Community","protocol":17,"map":"workshop/koth_ramjam_rc1.ugc459778887","folder":"tf","game":"Team Fortress","app_id":440,"player_count":0,"max_players":24,"Bots":0,"server_type":"Dedicated","server_os":"Linux","password":true,"vac":true,"version":"7742253","steam_id":85568392924964315,"keywords":["cp","nocrits","nodmgspread","uncletopia"],"game_id":440,"stv_port":27086,"stv_name":"Uncletopia | London | 8 | Community | STV","players":null},{"server_id":300,"name":"Uncletopia | Montréal | 1 | All Maps","name_short":"mtl-1","host":"mtl-1.ca.uncletopia.com","port":27015,"enabled":true,"region":"us-east","cc":"ca","latitude":45.50889,"longitude":-73.56167,"reserved":0,"last_update":"0001-01-01T00:00:00Z","name_a2s":"Uncletopia | Montréal | 1 | All Maps","protocol":17,"map":"cp_snakewater_final1","folder":"tf","game":"Team Fortress","app_id":440,"player_count":0,"max_players":24,"Bots":0,"server_type":"Dedicated","server_os":"Linux","password":true,"vac":true,"version":"7742253","steam_id":85568392924500087,"keywords":["cp","nocrits","nodmgspread","uncletopia"],"game_id":440,"stv_port":27016,"stv_name":"Uncletopia | Montréal | 1 | All Maps | STV","players":null},{"server_id":301,"name":"Uncletopia | Montréal | 2 | All Maps","name_short":"mtl-2","host":"mtl-1.ca.uncletopia.com","port":27025,"enabled":true,"region":"us-east","cc":"ca","latitude":45.50889,"longitude":-73.56167,"reserved":0,"last_update":"0001-01-01T00:00:00Z","name_a2s":"Uncletopia | Montréal | 2 | All Maps","protocol":17,"map":"koth_highpass","folder":"tf","game":"Team Fortress","app_id":440,"player_count":0,"max_players":24,"Bots":0,"server_type":"Dedicated","server_os":"Linux","password":true,"vac":true,"version":"7742253","steam_id":85568392924500088,"keywords":["cp","nocrits","nodmgspread","uncletopia"],"game_id":440,"stv_port":27026,"stv_name":"Uncletopia | Montréal | 2 | All Maps | STV","players":null},{"server_id":302,"name":"Uncletopia | Montréal | 3 | All Maps","name_short":"mtl-3","host":"mtl-1.ca.uncletopia.com","port":27035,"enabled":true,"region":"us-east","cc":"ca","latitude":45.50889,"longitude":-73.56167,"reserved":0,"last_update":"0001-01-01T00:00:00Z","name_a2s":"Uncletopia | Montréal | 3 | All Maps","protocol":17,"map":"cp_mountainlab","folder":"tf","game":"Team Fortress","app_id":440,"player_count":0,"max_players":24,"Bots":0,"server_type":"Dedicated","server_os":"Linux","password":true,"vac":true,"version":"7742253","steam_id":85568392924500089,"keywords":["cp","nocrits","nodmgspread","uncletopia"],"game_id":440,"stv_port":27036,"stv_name":"Uncletopia | Montréal | 3 | All Maps | STV","players":null},{"server_id":303,"name":"Uncletopia | Montréal | 4 | No Payload","name_short":"mtl-4","host":"mtl-1.ca.uncletopia.com","port":27045,"enabled":true,"region":"us-east","cc":"ca","latitude":45.50889,"longitude":-73.56167,"reserved":0,"last_update":"0001-01-01T00:00:00Z","name_a2s":"Uncletopia | Montréal | 4 | No Payload","protocol":17,"map":"cp_snakewater_final1","folder":"tf","game":"Team Fortress","app_id":440,"player_count":0,"max_players":24,"Bots":0,"server_type":"Dedicated","server_os":"Linux","password":true,"vac":true,"version":"7742253","steam_id":85568392924500090,"keywords":["cp","nocrits","nodmgspread","uncletopia"],"game_id":440,"stv_port":27046,"stv_name":"Uncletopia | Montréal | 4 | No Payload | STV","players":null},{"server_id":13,"name":"Uncletopia | New York City | 1 | All Maps","name_short":"nyc-1","host":"nyc-1.us.uncletopia.com","port":27015,"enabled":true,"region":"us-east","cc":"us","latitude":40.73061,"longitude":-73.93524,"reserved":0,"last_update":"0001-01-01T00:00:00Z","name_a2s":"Uncletopia | New York City | 1 | All Maps","protocol":17,"map":"cp_mountainlab","folder":"tf","game":"Team Fortress","app_id":440,"player_count":0,"max_players":24,"Bots":0,"server_type":"Dedicated","server_os":"Linux","password":true,"vac":true,"version":"7742253","steam_id":85568392924469993,"keywords":["cp","nocrits","nodmgspread","uncletopia"],"game_id":440,"stv_port":27016,"stv_name":"Uncletopia | New York City | 1 | All Maps | STV","players":null},{"server_id":14,"name":"Uncletopia | New York City | 2 | All Maps","name_short":"nyc-2","host":"nyc-1.us.uncletopia.com","port":27025,"enabled":true,"region":"us-east","cc":"us","latitude":40.73061,"longitude":-73.93524,"reserved":0,"last_update":"0001-01-01T00:00:00Z","name_a2s":"Uncletopia | New York City | 2 | All Maps","protocol":17,"map":"cp_altitude","folder":"tf","game":"Team Fortress","app_id":440,"player_count":0,"max_players":24,"Bots":0,"server_type":"Dedicated","server_os":"Linux","password":true,"vac":true,"version":"7742253","steam_id":85568392924469994,"keywords":["cp","nocrits","nodmgspread","uncletopia"],"game_id":440,"stv_port":27026,"stv_name":"Uncletopia | New York City | 2 | All Maps | STV","players":null},{"server_id":15,"name":"Uncletopia | New York City | 3 | Stopwatch Beta","name_short":"nyc-3","host":"nyc-1.us.uncletopia.com","port":27035,"enabled":true,"region":"us-east","cc":"us","latitude":40.73061,"longitude":-73.93524,"reserved":0,"last_update":"0001-01-01T00:00:00Z","name_a2s":"Uncletopia | New York City | 3 | Stopwatch Beta","protocol":17,"map":"pl_pier","folder":"tf","game":"Team Fortress","app_id":440,"player_count":0,"max_players":24,"Bots":0,"server_type":"Dedicated","server_os":"Linux","password":true,"vac":true,"version":"7742253","steam_id":85568392924742820,"keywords":["nocrits","nodmgspread","payload","uncletopia"],"game_id":440,"stv_port":27036,"stv_name":"Uncletopia | New York City | 3 | Stopwatch Beta | STV","players":null},{"server_id":16,"name":"Uncletopia | New York City | 4 | Community","name_short":"nyc-4","host":"nyc-1.us.uncletopia.com","port":27045,"enabled":true,"region":"us-east","cc":"us","latitude":40.73061,"longitude":-73.93524,"reserved":0,"last_update":"0001-01-01T00:00:00Z","name_a2s":"Uncletopia | New York City | 4 | Community","protocol":17,"map":"koth_viaduct","folder":"tf","game":"Team Fortress","app_id":440,"player_count":0,"max_players":24,"Bots":0,"server_type":"Dedicated","server_os":"Linux","password":true,"vac":true,"version":"7742253","steam_id":85568392924742821,"keywords":["cp","nocrits","nodmgspread","uncletopia"],"game_id":440,"stv_port":27046,"stv_name":"Uncletopia | New York City | 4 | Community | STV","players":null},{"server_id":142,"name":"Uncletopia | São Paulo | 1 | All Maps","name_short":"sao-1","host":"sao-1.br.uncletopia.com","port":27015,"enabled":true,"region":"sa","cc":"br","latitude":-23.533773,"longitude":-46.62529,"reserved":0,"last_update":"0001-01-01T00:00:00Z","name_a2s":"Uncletopia | São Paulo | 1 | All Maps","protocol":17,"map":"koth_viaduct","folder":"tf","game":"Team Fortress","app_id":440,"player_count":0,"max_players":24,"Bots":0,"server_type":"Dedicated","server_os":"Linux","password":true,"vac":true,"version":"7742253","steam_id":85568392924469996,"keywords":["cp","nocrits","nodmgspread","uncletopia"],"game_id":440,"stv_port":27016,"stv_name":"Uncletopia | São Paulo | 1 | All Maps | STV","players":null},{"server_id":143,"name":"Uncletopia | São Paulo | 2 | All Maps","name_short":"sao-2","host":"sao-2.br.uncletopia.com","port":27015,"enabled":true,"region":"sa","cc":"br","latitude":-23.533773,"longitude":-46.62529,"reserved":0,"last_update":"0001-01-01T00:00:00Z","name_a2s":"Uncletopia | São Paulo | 2 | All Maps","protocol":17,"map":"koth_viaduct","folder":"tf","game":"Team Fortress","app_id":440,"player_count":0,"max_players":24,"Bots":0,"server_type":"Dedicated","server_os":"Linux","password":true,"vac":true,"version":"7742253","steam_id":85568392924485349,"keywords":["cp","nocrits","nodmgspread","uncletopia"],"game_id":440,"stv_port":27016,"stv_name":"Uncletopia | São Paulo | 2 | All Maps | STV","players":null},{"server_id":7,"name":"Uncletopia | Seattle | 1 | All Maps","name_short":"sea-1","host":"sea-1.us.uncletopia.com","port":27015,"enabled":true,"region":"us-west","cc":"us","latitude":47.608013,"longitude":-122.33517,"reserved":0,"last_update":"0001-01-01T00:00:00Z","name_a2s":"Uncletopia | Seattle | 1 | All Maps","protocol":17,"map":"pl_frontier_final","folder":"tf","game":"Team Fortress","app_id":440,"player_count":0,"max_players":24,"Bots":0,"server_type":"Dedicated","server_os":"Linux","password":true,"vac":true,"version":"7742253","steam_id":85568392924469997,"keywords":["nocrits","nodmgspread","payload","uncletopia"],"game_id":440,"stv_port":27016,"stv_name":"Uncletopia | Seattle | 1 | All Maps | STV","players":null},{"server_id":119,"name":"Uncletopia | Seattle | 2 | All Maps","name_short":"sea-2","host":"sea-1.us.uncletopia.com","port":27025,"enabled":true,"region":"us-west","cc":"us","latitude":47.608013,"longitude":-122.33517,"reserved":0,"last_update":"0001-01-01T00:00:00Z","name_a2s":"Uncletopia | Seattle | 2 | All Maps","protocol":17,"map":"pl_pier","folder":"tf","game":"Team Fortress","app_id":440,"player_count":22,"max_players":24,"Bots":0,"server_type":"Dedicated","server_os":"Linux","password":true,"vac":true,"version":"7742253","steam_id":85568392924469998,"keywords":["nocrits","nodmgspread","payload","uncletopia"],"game_id":440,"stv_port":27026,"stv_name":"Uncletopia | Seattle | 2 | All Maps | STV","players":[{"user_id":3,"name":"Malmart_Employee","steam_id":76561198320388704,"connected_time":6079000000000,"state":"active","ping":59},{"user_id":4,"name":"facecheck","steam_id":76561198115269587,"connected_time":6079000000000,"state":"active","ping":118},{"user_id":5,"name":"ImFr0sty","steam_id":76561199441249487,"connected_time":6077000000000,"state":"active","ping":125},{"user_id":6,"name":"Slug Johnson","steam_id":76561198062402220,"connected_time":6076000000000,"state":"active","ping":62},{"user_id":53,"name":"Yengozi","steam_id":76561198448764748,"connected_time":1467000000000,"state":"active","ping":127},{"user_id":8,"name":"ATL1 | to4st","steam_id":76561198981009008,"connected_time":6072000000000,"state":"active","ping":105},{"user_id":45,"name":"god approaches","steam_id":76561198081617990,"connected_time":3250000000000,"state":"active","ping":120},{"user_id":10,"name":"aisu","steam_id":76561198043768507,"connected_time":6069000000000,"state":"active","ping":97},{"user_id":11,"name":"Quansen","steam_id":76561198151594550,"connected_time":6063000000000,"state":"active","ping":98},{"user_id":55,"name":"barbara","steam_id":76561198072417792,"connected_time":1309000000000,"state":"active","ping":104},{"user_id":56,"name":"Jay","steam_id":76561198148464582,"connected_time":767000000000,"state":"active","ping":83},{"user_id":64,"name":"ShermanJumbo","steam_id":76561198020054307,"connected_time":196000000000,"state":"active","ping":73},{"user_id":50,"name":"YoyoMama","steam_id":76561198260113828,"connected_time":2625000000000,"state":"active","ping":87},{"user_id":36,"name":"DODOOOM(NO SOUND)","steam_id":76561198985082462,"connected_time":4329000000000,"state":"active","ping":180},{"user_id":57,"name":"the average spy main","steam_id":76561198882421166,"connected_time":689000000000,"state":"active","ping":136},{"user_id":34,"name":"7/11 Gaming","steam_id":76561199091007559,"connected_time":4459000000000,"state":"active","ping":79},{"user_id":51,"name":":)","steam_id":76561198093921290,"connected_time":2018000000000,"state":"active","ping":93},{"user_id":60,"name":"Tim the Enchanter","steam_id":76561197970503120,"connected_time":526000000000,"state":"active","ping":104},{"user_id":44,"name":"Spongebob","steam_id":76561198189429665,"connected_time":3309000000000,"state":"active","ping":116},{"user_id":39,"name":"Aeris","steam_id":76561198287271028,"connected_time":4211000000000,"state":"active","ping":105},{"user_id":63,"name":"tod","steam_id":76561198010204565,"connected_time":326000000000,"state":"active","ping":90},{"user_id":32,"name":"Red","steam_id":76561197998285162,"connected_time":4699000000000,"state":"active","ping":135}]},{"server_id":406,"name":"Uncletopia | Seattle | 3 | Stopwatch Beta","name_short":"sea-3","host":"sea-1.us.uncletopia.com","port":27035,"enabled":true,"region":"us-west","cc":"us","latitude":47.608013,"longitude":-122.33517,"reserved":0,"last_update":"0001-01-01T00:00:00Z","name_a2s":"Uncletopia | Seattle | 3 | Stopwatch Beta","protocol":17,"map":"cp_altitude","folder":"tf","game":"Team Fortress","app_id":440,"player_count":0,"max_players":24,"Bots":0,"server_type":"Dedicated","server_os":"Linux","password":true,"vac":true,"version":"7742253","steam_id":85568392924515217,"keywords":["cp","nocrits","nodmgspread","uncletopia"],"game_id":440,"stv_port":27036,"stv_name":"Uncletopia | Seattle | 3 | Stopwatch Beta | STV","players":null},{"server_id":17,"name":"Uncletopia | San Francisco | 1 | All Maps","name_short":"sfo-1","host":"sfo-1.us.uncletopia.com","port":27015,"enabled":true,"region":"us-west","cc":"us","latitude":37.77397,"longitude":-122.4313,"reserved":0,"last_update":"0001-01-01T00:00:00Z","name_a2s":"Uncletopia | San Francisco | 1 | All Maps","protocol":17,"map":"pl_snowycoast","folder":"tf","game":"Team Fortress","app_id":440,"player_count":0,"max_players":24,"Bots":0,"server_type":"Dedicated","server_os":"Linux","password":true,"vac":true,"version":"7742253","steam_id":85568392924469999,"keywords":["nocrits","nodmgspread","payload","uncletopia"],"game_id":440,"stv_port":27016,"stv_name":"Uncletopia | San Francisco | 1 | All Maps | STV","players":null},{"server_id":18,"name":"Uncletopia | San Francisco | 2 | All Maps","name_short":"sfo-2","host":"sfo-1.us.uncletopia.com","port":27025,"enabled":true,"region":"us-west","cc":"us","latitude":37.77397,"longitude":-122.4313,"reserved":0,"last_update":"0001-01-01T00:00:00Z","name_a2s":"Uncletopia | San Francisco | 2 | All Maps","protocol":17,"map":"cp_altitude","folder":"tf","game":"Team Fortress","app_id":440,"player_count":0,"max_players":24,"Bots":0,"server_type":"Dedicated","server_os":"Linux","password":true,"vac":true,"version":"7742253","steam_id":85568392924470000,"keywords":["cp","nocrits","nodmgspread","uncletopia"],"game_id":440,"stv_port":27026,"stv_name":"Uncletopia | San Francisco | 2 | All Maps | STV","players":null},{"server_id":19,"name":"Uncletopia | San Francisco | 3 | Stopwatch Beta","name_short":"sfo-3","host":"sfo-1.us.uncletopia.com","port":27035,"enabled":true,"region":"us-west","cc":"us","latitude":37.77397,"longitude":-122.4313,"reserved":0,"last_update":"0001-01-01T00:00:00Z","name_a2s":"Uncletopia | San Francisco | 3 | Stopwatch Beta","protocol":17,"map":"cp_snakewater_final1","folder":"tf","game":"Team Fortress","app_id":440,"player_count":0,"max_players":24,"Bots":0,"server_type":"Dedicated","server_os":"Linux","password":true,"vac":true,"version":"7742253","steam_id":85568392924742824,"keywords":["cp","nocrits","nodmgspread","uncletopia"],"game_id":440,"stv_port":27036,"stv_name":"Uncletopia | San Francisco | 3 | Stopwatch Beta | STV","players":null},{"server_id":20,"name":"Uncletopia | San Francisco | 4 | Community","name_short":"sfo-4","host":"sfo-1.us.uncletopia.com","port":27045,"enabled":true,"region":"us-west","cc":"us","latitude":37.77397,"longitude":-122.4313,"reserved":0,"last_update":"0001-01-01T00:00:00Z","name_a2s":"Uncletopia | San Francisco | 4 | Community","protocol":17,"map":"cp_dustbowl","folder":"tf","game":"Team Fortress","app_id":440,"player_count":0,"max_players":24,"Bots":0,"server_type":"Dedicated","server_os":"Linux","password":true,"vac":true,"version":"7742253","steam_id":85568392924742826,"keywords":["cp","nocrits","nodmgspread","uncletopia"],"game_id":440,"stv_port":27046,"stv_name":"Uncletopia | San Francisco | 4 | Community | STV","players":null},{"server_id":141,"name":"Uncletopia | Sydney | 1 | All Maps","name_short":"syd-1","host":"syd-1.au.uncletopia.com","port":27015,"enabled":true,"region":"au","cc":"au","latitude":-33.865143,"longitude":151.2099,"reserved":0,"last_update":"0001-01-01T00:00:00Z","name_a2s":"Uncletopia | Sydney | 1 | All Maps","protocol":17,"map":"pl_snowycoast","folder":"tf","game":"Team Fortress","app_id":440,"player_count":0,"max_players":24,"Bots":0,"server_type":"Dedicated","server_os":"Linux","password":true,"vac":true,"version":"7742253","steam_id":85568392924470001,"keywords":["nocrits","nodmgspread","payload","uncletopia"],"game_id":440,"stv_port":27016,"stv_name":"Uncletopia | Sydney | 1 | All Maps | STV","players":null},{"server_id":123,"name":"Uncletopia | Sydney | 2 | All Maps","name_short":"syd-2","host":"syd-1.au.uncletopia.com","port":27025,"enabled":true,"region":"au","cc":"au","latitude":-33.865143,"longitude":151.2099,"reserved":0,"last_update":"0001-01-01T00:00:00Z","name_a2s":"Uncletopia | Sydney | 2 | All Maps","protocol":17,"map":"pl_borneo","folder":"tf","game":"Team Fortress","app_id":440,"player_count":0,"max_players":24,"Bots":0,"server_type":"Dedicated","server_os":"Linux","password":true,"vac":true,"version":"7742253","steam_id":85568392924470002,"keywords":["nocrits","nodmgspread","payload","uncletopia"],"game_id":440,"stv_port":27026,"stv_name":"Uncletopia | Sydney | 2 | All Maps | STV","players":null},{"server_id":395,"name":"Uncletopia | Sydney | 3 | All Maps","name_short":"syd-3","host":"syd-1.au.uncletopia.com","port":27035,"enabled":true,"region":"au","cc":"au","latitude":-33.865143,"longitude":151.2099,"reserved":0,"last_update":"0001-01-01T00:00:00Z","name_a2s":"Uncletopia | Sydney | 3 | All Maps","protocol":17,"map":"koth_sawmill","folder":"tf","game":"Team Fortress","app_id":440,"player_count":0,"max_players":24,"Bots":0,"server_type":"Dedicated","server_os":"Linux","password":true,"vac":true,"version":"7742253","steam_id":85568392925194467,"keywords":["cp","nocrits","nodmgspread","uncletopia"],"game_id":440,"stv_port":27036,"stv_name":"Uncletopia | Sydney | 3 | All Maps | STV","players":null},{"server_id":396,"name":"Uncletopia | Sydney | 4 | All Maps","name_short":"syd-4","host":"syd-1.au.uncletopia.com","port":27045,"enabled":true,"region":"au","cc":"au","latitude":-33.865143,"longitude":151.2099,"reserved":0,"last_update":"0001-01-01T00:00:00Z","name_a2s":"Uncletopia | Sydney | 4 | All Maps","protocol":17,"map":"koth_lakeside_final","folder":"tf","game":"Team Fortress","app_id":440,"player_count":0,"max_players":24,"Bots":0,"server_type":"Dedicated","server_os":"Linux","password":true,"vac":true,"version":"7742253","steam_id":85568392925397958,"keywords":["cp","nocrits","nodmgspread","uncletopia"],"game_id":440,"stv_port":27046,"stv_name":"Uncletopia | Sydney | 4 | All Maps | STV","players":null},{"server_id":58,"name":"Uncletopia | Sydney | 5 | Stopwatch Beta","name_short":"syd-5","host":"syd-1.au.uncletopia.com","port":27055,"enabled":true,"region":"au","cc":"au","latitude":-33.865143,"longitude":151.2099,"reserved":0,"last_update":"0001-01-01T00:00:00Z","name_a2s":"Uncletopia | Sydney | 5 | Stopwatch Beta","protocol":17,"map":"workshop/koth_bagel_rc5.ugc2514036946","folder":"tf","game":"Team Fortress","app_id":440,"player_count":0,"max_players":24,"Bots":0,"server_type":"Dedicated","server_os":"Linux","password":true,"vac":true,"version":"7742253","steam_id":85568392925397959,"keywords":["cp","nocrits","nodmgspread","uncletopia"],"game_id":440,"stv_port":27056,"stv_name":"Uncletopia | Sydney | 5 | Stopwatch Beta | STV","players":null},{"server_id":59,"name":"Uncletopia | Sydney | 6 | Community","name_short":"syd-6","host":"syd-1.au.uncletopia.com","port":27065,"enabled":true,"region":"au","cc":"au","latitude":-33.865143,"longitude":151.2099,"reserved":0,"last_update":"0001-01-01T00:00:00Z","name_a2s":"Uncletopia | Sydney | 6 | Community","protocol":17,"map":"workshop/koth_ramjam_rc1.ugc459778887","folder":"tf","game":"Team Fortress","app_id":440,"player_count":0,"max_players":24,"Bots":0,"server_type":"Dedicated","server_os":"Linux","password":true,"vac":true,"version":"7742253","steam_id":85568392925397960,"keywords":["cp","nocrits","nodmgspread","uncletopia"],"game_id":440,"stv_port":27066,"stv_name":"Uncletopia | Sydney | 6 | Community | STV","players":null},{"server_id":49,"name":"Uncletopia | Warsaw | 1 | All Maps","name_short":"waw-1","host":"waw-1.pl.uncletopia.com","port":27015,"enabled":true,"region":"eu","cc":"pl","latitude":52.2297,"longitude":21.017532,"reserved":0,"last_update":"0001-01-01T00:00:00Z","name_a2s":"","protocol":0,"map":"","folder":"","game":"","app_id":0,"player_count":0,"max_players":0,"Bots":0,"server_type":"","server_os":"","password":false,"vac":false,"version":"","steam_id":0,"keywords":null,"game_id":0,"stv_port":0,"stv_name":"","players":null},{"server_id":50,"name":"Uncletopia | Warsaw | 2 | All Maps","name_short":"waw-2","host":"waw-1.pl.uncletopia.com","port":27025,"enabled":true,"region":"eu","cc":"pl","latitude":52.2297,"longitude":21.017532,"reserved":0,"last_update":"0001-01-01T00:00:00Z","name_a2s":"Uncletopia | Warsaw | 2 | All Maps","protocol":17,"map":"cp_process_final","folder":"tf","game":"Team Fortress","app_id":440,"player_count":0,"max_players":24,"Bots":0,"server_type":"Dedicated","server_os":"Linux","password":true,"vac":true,"version":"7742253","steam_id":85568392925397851,"keywords":["cp","nocrits","nodmgspread","uncletopia"],"game_id":440,"stv_port":27026,"stv_name":"Uncletopia | Warsaw | 2 | All Maps | STV","players":null},{"server_id":51,"name":"Uncletopia | Warsaw | 3 | All Maps","name_short":"waw-3","host":"waw-1.pl.uncletopia.com","port":27035,"enabled":true,"region":"eu","cc":"pl","latitude":52.2297,"longitude":21.017532,"reserved":0,"last_update":"0001-01-01T00:00:00Z","name_a2s":"Uncletopia | Warsaw | 3 | All Maps","protocol":17,"map":"koth_lakeside_final","folder":"tf","game":"Team Fortress","app_id":440,"player_count":0,"max_players":24,"Bots":0,"server_type":"Dedicated","server_os":"Linux","password":true,"vac":true,"version":"7742253","steam_id":85568392925397852,"keywords":["cp","nocrits","nodmgspread","uncletopia"],"game_id":440,"stv_port":27036,"stv_name":"Uncletopia | Warsaw | 3 | All Maps | STV","players":null},{"server_id":52,"name":"Uncletopia | Warsaw | 4 | All Maps","name_short":"waw-4","host":"waw-1.pl.uncletopia.com","port":27045,"enabled":true,"region":"eu","cc":"pl","latitude":52.2297,"longitude":21.017532,"reserved":0,"last_update":"0001-01-01T00:00:00Z","name_a2s":"Uncletopia | Warsaw | 4 | All Maps","protocol":17,"map":"pl_frontier_final","folder":"tf","game":"Team Fortress","app_id":440,"player_count":0,"max_players":24,"Bots":0,"server_type":"Dedicated","server_os":"Linux","password":true,"vac":true,"version":"7742253","steam_id":85568392925397853,"keywords":["nocrits","nodmgspread","payload","uncletopia"],"game_id":440,"stv_port":27046,"stv_name":"Uncletopia | Warsaw | 4 | All Maps | STV","players":null},{"server_id":53,"name":"Uncletopia | Warsaw | 5 | Stopwatch Beta","name_short":"waw-5","host":"waw-1.pl.uncletopia.com","port":27055,"enabled":true,"region":"eu","cc":"pl","latitude":52.2297,"longitude":21.017532,"reserved":0,"last_update":"0001-01-01T00:00:00Z","name_a2s":"Uncletopia | Warsaw | 5 | Stopwatch Beta","protocol":17,"map":"pl_swiftwater_final1","folder":"tf","game":"Team Fortress","app_id":440,"player_count":0,"max_players":24,"Bots":0,"server_type":"Dedicated","server_os":"Linux","password":true,"vac":true,"version":"7742253","steam_id":85568392925397854,"keywords":["nocrits","nodmgspread","payload","uncletopia"],"game_id":440,"stv_port":27056,"stv_name":"Uncletopia | Warsaw | 5 | Stopwatch Beta | STV","players":null},{"server_id":54,"name":"Uncletopia | Warsaw | 6 | Community","name_short":"waw-6","host":"waw-1.pl.uncletopia.com","port":27065,"enabled":true,"region":"eu","cc":"pl","latitude":52.2297,"longitude":21.017532,"reserved":0,"last_update":"0001-01-01T00:00:00Z","name_a2s":"Uncletopia | Warsaw | 6 | Community","protocol":17,"map":"koth_highpass","folder":"tf","game":"Team Fortress","app_id":440,"player_count":0,"max_players":24,"Bots":0,"server_type":"Dedicated","server_os":"Linux","password":true,"vac":true,"version":"7742253","steam_id":85568392925397856,"keywords":["cp","nocrits","nodmgspread","uncletopia"],"game_id":440,"stv_port":27066,"stv_name":"Uncletopia | Warsaw | 6 | Community | STV","players":null}]}