{"status":true,"message":"","result":[{"server_id":9,"name":"Uncletopia | Atlanta | 1 | All Maps","name_short":"atl-1","host":"atl-1.us.uncletopia.com","port":27015,"enabled":true,"region":"us-east","cc":"us","latitude":33.753746,"longitude":-84.38633,"reserved":0,"last_update":"0001-01-01T00:00:00Z","name_a2s":"Uncletopia | Atlanta | 1 | All Maps","protocol":17,"map":"cp_process_final","folder":"tf","game":"Team Fortress","app_id":440,"player_count":24,"max_players":24,"Bots":0,"server_type":"Dedicated","server_os":"Linux","password":true,"vac":true,"version":"7961495","steam_id":85568392924469982,"keywords":["cp","nocrits","nodmgspread","uncletopia"],"game_id":440,"stv_port":27016,"stv_name":"Uncletopia | Atlanta | 1 | All Maps | STV","players":null},{"server_id":104,"name":"Uncletopia | Atlanta | 2 | All Maps","name_short":"atl-2","host":"atl-1.us.uncletopia.com","port":27025,"enabled":true,"region":"us-east","cc":"us","latitude":33.753746,"longitude":-84.38633,"reserved":0,"last_update":"0001-01-01T00:00:00Z","name_a2s":"Uncletopia | Atlanta | 2 | All Maps","protocol":17,"map":"koth_cascade","folder":"tf","game":"Team Fortress","app_id":440,"player_count":0,"max_players":24,"Bots":0,"server_type":"Dedicated","server_os":"Linux","password":true,"vac":true,"version":"7961495","steam_id":85568392924469983,"keywords":["cp","nocrits","nodmgspread","uncletopia"],"game_id":440,"stv_port":27026,"stv_name":"Uncletopia | Atlanta | 2 | All Maps | STV","players":null},{"server_id":400,"name":"Uncletopia | Atlanta | 3 | Stopwatch","name_short":"atl-3","host":"atl-1.us.uncletopia.com","port":27035,"enabled":true,"region":"us-east","cc":"us","latitude":33.753746,"longitude":-84.38633,"reserved":0,"last_update":"0001-01-01T00:00:00Z","name_a2s":"Uncletopia | Atlanta | 3 | Stopwatch","protocol":17,"map":"koth_clearcut_b15","folder":"tf","game":"Team Fortress","app_id":440,"player_count":0,"max_players":24,"Bots":0,"server_type":"Dedicated","server_os":"Linux","password":true,"vac":true,"version":"7961495","steam_id":85568392924515187,"keywords":["cp","nocrits","nodmgspread","uncletopia"],"game_id":440,"stv_port":27036,"stv_name":"Uncletopia | Atlanta | 3 | Stopwatch | STV","players":null},{"server_id":401,"name":"Uncletopia | Atlanta | 4 | Community","name_short":"atl-4","host":"atl-1.us.uncletopia.com","port":27045,"enabled":true,"region":"us-east","cc":"us","latitude":33.753746,"longitude":-84.38633,"reserved":0,"last_update":"0001-01-01T00:00:00Z","name_a2s":"Uncletopia | Atlanta | 4 | Community","protocol":17,"map":"koth_bagel_rc6","folder":"tf","game":"Team Fortress","app_id":440,"player_count":0,"max_players":24,"Bots":0,"server_type":"Dedicated","server_os":"Linux","password":true,"vac":true,"version":"7961495","steam_id":85568392924515188,"keywords":["cp","nocrits","nodmgspread","uncletopia"],"game_id":440,"stv_port":27046,"stv_name":"Uncletopia | Atlanta | 4 | Community | STV","players":null},{"server_id":2,"name":"Uncletopia | Chicago | 1 | All Maps","name_short":"chi-1","host":"chi-1.us.uncletopia.com","port":27015,"enabled":true,"region":"us-central","cc":"us","latitude":41.881832,"longitude":-87.62318,"reserved":0,"last_update":"0001-01-01T00:00:00Z","name_a2s":"Uncletopia | Chicago | 1 | All Maps","protocol":17,"map":"koth_viaduct","folder":"tf","game":"Team Fortress","app_id":440,"player_count":0,"max_players":24,"Bots":0,"server_type":"Dedicated","server_os":"Linux","password":true,"vac":true,"version":"7961495","steam_id":85568392924469984,"keywords":["cp","nocrits","nodmgspread","uncletopia"],"game_id":440,"stv_port":27016,"stv_name":"Uncletopia | Chicago | 1 | All Maps | STV","players":null},{"server_id":106,"name":"Uncletopia | Chicago | 2 | All Maps","name_short":"chi-2","host":"chi-1.us.uncletopia.com","port":27025,"enabled":true,"region":"us-central","cc":"us","latitude":41.881832,"longitude":-87.62318,"reserved":0,"last_update":"0001-01-01T00:00:00Z","name_a2s":"Uncletopia | Chicago | 2 | All Maps","protocol":17,"map":"pl_upward","folder":"tf","game":"Team Fortress","app_id":440,"player_count":24,"max_players":24,"Bots":0,"server_type":"Dedicated","server_os":"Linux","password":true,"vac":true,"version":"7961495","steam_id":85568392924469985,"keywords":["nocrits","nodmgspread","payload","uncletopia"],"game_id":440,"stv_port":27026,"stv_name":"Uncletopia | Chicago | 2 | All Maps | STV","players":[{"user_id":136,"name":"seinfeld dog","steam_id":76561199013337543,"connected_time":5419000000000,"state":"active","ping":62},{"user_id":210,"name":"Joculatrix","steam_id":76561198012795457,"connected_time":841000000000,"state":"active","ping":68},{"user_id":216,"name":"Hey","steam_id":76561198447517893,"connected_time":555000000000,"state":"active","ping":70},{"user_id":180,"name":"ThatOneKnight","steam_id":76561198388583650,"connected_time":3204000000000,"state":"active","ping":51},{"user_id":208,"name":"Sewer Wizard","steam_id":76561199061404496,"connected_time":1199000000000,"state":"active","ping":72},{"user_id":211,"name":"KATSURB","steam_id":76561199172118456,"connected_time":803000000000,"state":"active","ping":63},{"user_id":221,"name":"MrKokonut","steam_id":76561198879575825,"connected_time":190000000000,"state":"active","ping":56},{"user_id":198,"name":"OFF","steam_id":76561198191971493,"connected_time":1984000000000,"state":"active","ping":60},{"user_id":223,"name":"LG_Fridge_User","steam_id":76561198977815014,"connected_time":137000000000,"state":"active","ping":75},{"user_id":178,"name":"Fluffeline","steam_id":76561198352909489,"connected_time":3736000000000,"state":"active","ping":148},{"user_id":204,"name":"Chicago Shoplifter","steam_id":76561197986530028,"connected_time":1487000000000,"state":"active","ping":104},{"user_id":187,"name":"Rornir","steam_id":76561198081829615,"connected_time":2810000000000,"state":"active","ping":32},{"user_id":214,"name":"IsleBound","steam_id":76561198278451717,"connected_time":607000000000,"state":"active","ping":63},{"user_id":154,"name":"Goldoche","steam_id":76561197995065045,"connected_time":4535000000000,"state":"active","ping":79},{"user_id":215,"name":"TheSausageSwiper","steam_id":76561198972869845,"connected_time":568000000000,"state":"active","ping":111},{"user_id":181,"name":"爪ㄚ丂ㄒ丨匚","steam_id":76561198857357381,"connected_time":3005000000000,"state":"active","ping":51},{"user_id":176,"name":"Ceige LFT","steam_id":76561198068538473,"connected_time":3876000000000,"state":"active","ping":77},{"user_id":201,"name":"Doctor_Redstone","steam_id":76561198061947161,"connected_time":1695000000000,"state":"active","ping":67},{"user_id":205,"name":"UnlivingSkunk","steam_id":76561198324517387,"connected_time":1450000000000,"state":"active","ping":71},{"user_id":218,"name":"feudal","steam_id":76561198057374871,"connected_time":473000000000,"state":"active","ping":60},{"user_id":202,"name":"William Wallace","steam_id":76561199343316814,"connected_time":1674000000000,"state":"active","ping":72},{"user_id":213,"name":"Lost","steam_id":76561198025933206,"connected_time":785000000000,"state":"active","ping":58},{"user_id":219,"name":"twizted","steam_id":76561197960407274,"connected_time":431000000000,"state":"active","ping":79},{"user_id":224,"name":"vv","steam_id":76561198134813102,"connected_time":108000000000,"state":"active","ping":59}]},{"server_id":402,"name":"Uncletopia | Chicago | 3 | All Maps","name_short":"chi-3","host":"chi-1.us.uncletopia.com","port":27035,"enabled":true,"region":"us-central","cc":"us","latitude":41.881832,"longitude":-87.62318,"reserved":0,"last_update":"0001-01-01T00:00:00Z","name_a2s":"Uncletopia | Chicago | 3 | All Maps","protocol":17,"map":"cp_dustbowl","folder":"tf","game":"Team Fortress","app_id":440,"player_count":24,"max_players":24,"Bots":0,"server_type":"Dedicated","server_os":"Linux","password":true,"vac":true,"version":"7961495","steam_id":85568392924515191,"keywords":["cp","nocrits","nodmgspread","uncletopia"],"game_id":440,"stv_port":27036,"stv_name":"Uncletopia | Chicago | 3 | All Maps | STV","players":[{"user_id":114,"name":"Steve-O","steam_id":76561199199770572,"connected_time":45000000000,"state":"active","ping":69},{"user_id":80,"name":"BRUH NATOR","steam_id":76561199094694437,"connected_time":1704000000000,"state":"active","ping":86},{"user_id":115,"name":"Wool #ThankUrMedics","steam_id":76561198332704108,"connected_time":43000000000,"state":"active","ping":45},{"user_id":99,"name":"SlurpyTheDog","steam_id":76561198799733154,"connected_time":944000000000,"state":"active","ping":76},{"user_id":77,"name":"soltuno","steam_id":76561198074430565,"connected_time":1969000000000,"state":"active","ping":117},{"user_id":94,"name":"dicksnip","steam_id":76561198356515396,"connected_time":1188000000000,"state":"active","ping":82},{"user_id":105,"name":"Soju","steam_id":76561198044130442,"connected_time":530000000000,"state":"active","ping":76},{"user_id":111,"name":"gary","steam_id":76561198140226890,"connected_time":215000000000,"state":"active","ping":64},{"user_id":113,"name":"flange","steam_id":76561198040182692,"connected_time":65000000000,"state":"active","ping":135},{"user_id":68,"name":"Weerk","steam_id":76561199209543551,"connected_time":3259000000000,"state":"active","ping":82},{"user_id":73,"name":"Crimson","steam_id":76561198129326627,"connected_time":3030000000000,"state":"active","ping":79},{"user_id":101,"name":"chonk97531","steam_id":76561199384248529,"connected_time":839000000000,"state":"active","ping":81},{"user_id":104,"name":"digilith","steam_id":76561199106966802,"connected_time":567000000000,"state":"active","ping":194},{"user_id":116,"name":"spy has a gun?","steam_id":76561199241619967,"connected_time":39000000000,"state":"active","ping":71},{"user_id":74,"name":"KFC Rat","steam_id":76561198135128086,"connected_time":2859000000000,"state":"active","ping":118},{"user_id":108,"name":"Mr. Sauce","steam_id":76561198055512324,"connected_time":474000000000,"state":"active","ping":64},{"user_id":89,"name":"papa ram","steam_id":76561198114058074,"connected_time":1321000000000,"state":"active","ping":61},{"user_id":62,"name":"1-800-GHOST-DANCE","steam_id":76561198835430429,"connected_time":3644000000000,"state":"active","ping":87},{"user_id":91,"name":"_grug__","steam_id":76561198165311232,"connected_time":1240000000000,"state":"active","ping":69},{"user_id":117,"name":"YOU WHAT?!","steam_id":76561198418679471,"connected_time":34000000000,"state":"active","ping":66},{"user_id":103,"name":"wincel hampton","steam_id":76561198083095146,"connected_time":578000000000,"state":"active","ping":75},{"user_id":107,"name":"rennco","steam_id":76561198024019445,"connected_time":507000000000,"state":"active","ping":84},{"user_id":97,"name":"evil geeker","steam_id":76561198280331687,"connected_time":1123000000000,"state":"active","ping":79},{"user_id":110,"name":"gayforgod","steam_id":76561198364882421,"connected_time":405000000000,"state":"active","ping":109}]},{"server_id":403,"name":"Uncletopia | Chicago | 4 | All Maps","name_short":"chi-4","host":"chi-1.us.uncletopia.com","port":27045,"enabled":true,"region":"us-central","cc":"us","latitude":41.881832,"longitude":-87.62318,"reserved":0,"last_update":"0001-01-01T00:00:00Z","name_a2s":"Uncletopia | Chicago | 4 | All Maps","protocol":17,"map":"cp_standin_final","folder":"tf","game":"Team Fortress","app_id":440,"player_count":15,"max_players":24,"Bots":0,"server_type":"Dedicated","server_os":"Linux","password":true,"vac":true,"version":"7961495","steam_id":85568392924515193,"keywords":["cp","nocrits","nodmgspread","uncletopia"],"game_id":440,"stv_port":27046,"stv_name":"Uncletopia | Chicago | 4 | All Maps | STV","players":[{"user_id":10,"name":"DeadlyBlind","steam_id":76561197986897274,"connected_time":851000000000,"state":"active","ping":70},{"user_id":4,"name":"OldRavensFan","steam_id":76561198043919562,"connected_time":2936000000000,"state":"active","ping":60},{"user_id":8,"name":"BLØRG","steam_id":76561198036126673,"connected_time":1683000000000,"state":"active","ping":75},{"user_id":11,"name":"Some Dipshit","steam_id":76561197971011603,"connected_time":844000000000,"state":"active","ping":76},{"user_id":9,"name":"ChillinSquare","steam_id":76561198023745593,"connected_time":1560000000000,"state":"active","ping":91},{"user_id":15,"name":"frid","steam_id":76561198005806915,"connected_time":322000000000,"state":"active","ping":59},{"user_id":13,"name":"bandana","steam_id":76561199098102289,"connected_time":621000000000,"state":"active","ping":75},{"user_id":23,"name":"Skysteele","steam_id":76561198164536662,"connected_time":27000000000,"state":"active","ping":80},{"user_id":16,"name":"ImagineExisting","steam_id":76561198860261731,"connected_time":283000000000,"state":"active","ping":74},{"user_id":17,"name":"Rim Reaper","steam_id":76561198068133024,"connected_time":262000000000,"state":"active","ping":89},{"user_id":18,"name":"josh","steam_id":76561198111565081,"connected_time":222000000000,"state":"active","ping":105},{"user_id":19,"name":"cyren caster","steam_id":76561198204509499,"connected_time":202000000000,"state":"active","ping":104},{"user_id":20,"name":"Soul of Cinder (aka SoC)","steam_id":76561198018958668,"connected_time":162000000000,"state":"active","ping":58},{"user_id":21,"name":"Ice Jackal","steam_id":76561197986979870,"connected_time":82000000000,"state":"active","ping":101},{"user_id":22,"name":"a table","steam_id":76561198158461279,"connected_time":50000000000,"state":"active","ping":63}]},{"server_id":36,"name":"Uncletopia | Chicago | 5 | All Maps","name_short":"chi-5","host":"chi-2.us.uncletopia.com","port":27015,"enabled":true,"region":"us-central","cc":"us","latitude":41.881832,"longitude":-87.62318,"reserved":0,"last_update":"0001-01-01T00:00:00Z","name_a2s":"Uncletopia | Chicago | 5 | All Maps","protocol":17,"map":"koth_viaduct","folder":"tf","game":"Team Fortress","app_id":440,"player_count":0,"max_players":24,"Bots":0,"server_type":"Dedicated","server_os":"Linux","password":true,"vac":true,"version":"7961495","steam_id":85568392924866362,"keywords":["cp","nocrits","nodmgspread","uncletopia"],"game_id":440,"stv_port":27016,"stv_name":"Uncletopia | Chicago | 5 | All Maps | STV","players":null},{"server_id":37,"name":"Uncletopia | Chicago | 6 | All Maps","name_short":"chi-6","host":"chi-2.us.uncletopia.com","port":27025,"enabled":true,"region":"us-central","cc":"us","latitude":41.881832,"longitude":-87.62318,"reserved":0,"last_update":"0001-01-01T00:00:00Z","name_a2s":"Uncletopia | Chicago | 6 | All Maps","protocol":17,"map":"pl_barnblitz","folder":"tf","game":"Team Fortress","app_id":440,"player_count":24,"max_players":24,"Bots":0,"server_type":"Dedicated","server_os":"Linux","password":true,"vac":true,"version":"7961495","steam_id":85568392924866363,"keywords":["nocrits","nodmgspread","payload","uncletopia"],"game_id":440,"stv_port":27026,"stv_name":"Uncletopia | Chicago | 6 | All Maps | STV","players":[{"user_id":385,"name":"gummygeek","steam_id":76561198244543486,"connected_time":3671000000000,"state":"active","ping":110},{"user_id":435,"name":"hatsune miku","steam_id":76561199445009981,"connected_time":1004000000000,"state":"active","ping":99},{"user_id":433,"name":"Hyperactivedimwit","steam_id":76561198134221704,"connected_time":1091000000000,"state":"active","ping":44},{"user_id":430,"name":"Kentucky Fried Lullaby","steam_id":76561198047845399,"connected_time":1208000000000,"state":"active","ping":76},{"user_id":440,"name":"airballer","steam_id":76561198165899125,"connected_time":899000000000,"state":"active","ping":62},{"user_id":436,"name":"Lia_Rein","steam_id":76561198151569597,"connected_time":999000000000,"state":"active","ping":146},{"user_id":437,"name":"KaijuCowBelle","steam_id":76561198191619439,"connected_time":984000000000,"state":"active","ping":73},{"user_id":428,"name":"leumas","steam_id":76561198240408540,"connected_time":1274000000000,"state":"active","ping":61},{"user_id":454,"name":"viedoamges","steam_id":76561198025295263,"connected_time":86000000000,"state":"active","ping":80},{"user_id":452,"name":"Ganondorf","steam_id":76561198010421059,"connected_time":97000000000,"state":"active","ping":58},{"user_id":445,"name":"Forty","steam_id":76561198257410181,"connected_time":738000000000,"state":"active","ping":94},{"user_id":441,"name":"dietcokefan42","steam_id":76561198135307995,"connected_time":899000000000,"state":"active","ping":71},{"user_id":422,"name":"Pop Kamoel","steam_id":76561197972131979,"connected_time":1752000000000,"state":"active","ping":125},{"user_id":438,"name":"KazmirlYT","steam_id":76561198116008410,"connected_time":975000000000,"state":"active","ping":107},{"user_id":402,"name":"mastercoms","steam_id":76561198046110893,"connected_time":3039000000000,"state":"active","ping":63},{"user_id":447,"name":"Cyborgnn","steam_id":76561198283586887,"connected_time":521000000000,"state":"active","ping":75},{"user_id":446,"name":"hud_saytext_time 0","steam_id":76561198010327228,"connected_time":654000000000,"state":"active","ping":162},{"user_id":417,"name":"Sizenberg","steam_id":76561198115842661,"connected_time":2440000000000,"state":"active","ping":87},{"user_id":376,"name":"Lylith","steam_id":76561198386687546,"connected_time":4511000000000,"state":"active","ping":61},{"user_id":362,"name":"Bombsgamer","steam_id":76561198350009050,"connected_time":5267000000000,"state":"active","ping":79},{"user_id":449,"name":"Darkmaen","steam_id":76561198060543390,"connected_time":207000000000,"state":"active","ping":155},{"user_id":416,"name":"Mury","steam_id":76561198069743049,"connected_time":2465000000000,"state":"active","ping":107},{"user_id":453,"name":"Paulie Walnuts","steam_id":76561198148078451,"connected_time":97000000000,"state":"active","ping":76},{"user_id":443,"name":"Kirby Gaming","steam_id":76561199494096741,"connected_time":832000000000,"state":"active","ping":121}]},{"server_id":38,"name":"Uncletopia | Chicago | 7 | Stopwatch","name_short":"chi-7","host":"chi-2.us.uncletopia.com","port":27035,"enabled":true,"region":"us-central","cc":"us","latitude":41.881832,"longitude":-87.62318,"reserved":0,"last_update":"0001-01-01T00:00:00Z","name_a2s":"Uncletopia | Chicago | 7 | Stopwatch","protocol":17,"map":"pl_badwater","folder":"tf","game":"Team Fortress","app_id":440,"player_count":0,"max_players":24,"Bots":0,"server_type":"Dedicated","server_os":"Linux","password":true,"vac":true,"version":"7961495","steam_id":85568392924866364,"keywords":["nocrits","nodmgspread","payload","uncletopia"],"game_id":440,"stv_port":27036,"stv_name":"Uncletopia | Chicago | 7 | Stopwatch | STV","players":null},{"server_id":39,"name":"Uncletopia | Chicago | 8 | Community","name_short":"chi-8","host":"chi-2.us.uncletopia.com","port":27045,"enabled":true,"region":"us-central","cc":"us","latitude":41.881832,"longitude":-87.62318,"reserved":0,"last_update":"0001-01-01T00:00:00Z","name_a2s":"Uncletopia | Chicago | 8 | Community","protocol":17,"map":"pl_pier","folder":"tf","game":"Team Fortress","app_id":440,"player_count":0,"max_players":24,"Bots":0,"server_type":"Dedicated","server_os":"Linux","password":true,"vac":true,"version":"7961495","steam_id":85568392924866365,"keywords":["nocrits","nodmgspread","payload","uncletopia"],"game_id":440,"stv_port":27046,"stv_name":"Uncletopia | Chicago | 8 | Community | STV","players":null},{"server_id":8,"name":"Uncletopia | Dallas | 1 | All Maps","name_short":"dal-1","host":"dal-1.us.uncletopia.com","port":27015,"enabled":true,"region":"us-central","cc":"us","latitude":32.779167,"longitude":-96.80889,"reserved":0,"last_update":"0001-01-01T00:00:00Z","name_a2s":"Uncletopia | Dallas | 1 | All Maps","protocol":17,"map":"pl_frontier_final","folder":"tf","game":"Team Fortress","app_id":440,"player_count":1,"max_players":24,"Bots":0,"server_type":"Dedicated","server_os":"Linux","password":true,"vac":true,"version":"7961495","steam_id":85568392924469986,"keywords":["nocrits","nodmgspread","payload","uncletopia"],"game_id":440,"stv_port":27016,"stv_name":"Uncletopia | Dallas | 1 | All Maps | STV","players":[{"user_id":10,"name":"TheGFG","steam_id":76561198166150556,"connected_time":791000000000,"state":"active","ping":48}]},{"server_id":108,"name":"Uncletopia | Dallas | 2 | All Maps","name_short":"dal-2","host":"dal-1.us.uncletopia.com","port":27025,"enabled":true,"region":"us-central","cc":"us","latitude":32.779167,"longitude":-96.80889,"reserved":0,"last_update":"0001-01-01T00:00:00Z","name_a2s":"Uncletopia | Dallas | 2 | All Maps","protocol":17,"map":"pl_goldrush","folder":"tf","game":"Team Fortress","app_id":440,"player_count":24,"max_players":24,"Bots":0,"server_type":"Dedicated","server_os":"Linux","password":true,"vac":true,"version":"7961495","steam_id":85568392924469988,"keywords":["nocrits","nodmgspread","payload","uncletopia"],"game_id":440,"stv_port":27026,"stv_name":"Uncletopia | Dallas | 2 | All Maps | STV","players":[{"user_id":174,"name":"HUMBY","steam_id":76561198065045867,"connected_time":1825000000000,"state":"active","ping":76},{"user_id":189,"name":"Rob","steam_id":76561199187786660,"connected_time":628000000000,"state":"active","ping":55},{"user_id":180,"name":"Shameless Kuma Player","steam_id":76561198097700500,"connected_time":1537000000000,"state":"active","ping":60},{"user_id":184,"name":"Alexander","steam_id":76561198019917123,"connected_time":1404000000000,"state":"active","ping":141},{"user_id":178,"name":"U ω U","steam_id":76561198118802562,"connected_time":1633000000000,"state":"active","ping":89},{"user_id":185,"name":"TV","steam_id":76561198177326926,"connected_time":1369000000000,"state":"active","ping":96},{"user_id":163,"name":"listerine","steam_id":76561198041104084,"connected_time":2144000000000,"state":"active","ping":84},{"user_id":181,"name":"Greasy Guavas","steam_id":76561198089650428,"connected_time":1467000000000,"state":"active","ping":64},{"user_id":165,"name":"chanoc","steam_id":76561198026734746,"connected_time":2132000000000,"state":"active","ping":90},{"user_id":121,"name":"HOODOO_LOVER_2007","steam_id":76561199087691214,"connected_time":5700000000000,"state":"active","ping":99},{"user_id":175,"name":"Necronaut","steam_id":76561198064868542,"connected_time":1819000000000,"state":"active","ping":104},{"user_id":187,"name":"Lemonade Juice","steam_id":76561198402892608,"connected_time":1053000000000,"state":"active","ping":71},{"user_id":126,"name":"Waesel","steam_id":76561198069188177,"connected_time":5219000000000,"state":"active","ping":73},{"user_id":182,"name":"Zanylank","steam_id":76561198858480639,"connected_time":1446000000000,"state":"active","ping":104},{"user_id":158,"name":"Sup m8","steam_id":76561198081659121,"connected_time":2492000000000,"state":"active","ping":44},{"user_id":168,"name":"Malevo","steam_id":76561198148606522,"connected_time":2115000000000,"state":"active","ping":55},{"user_id":179,"name":"Female Gamer","steam_id":76561199366482682,"connected_time":1585000000000,"state":"active","ping":118},{"user_id":130,"name":"Kung fu Mungus","steam_id":76561198069281556,"connected_time":4977000000000,"state":"active","ping":75},{"user_id":173,"name":"Cum King","steam_id":76561199366744222,"connected_time":1889000000000,"state":"active","ping":88},{"user_id":155,"name":"Bcuz","steam_id":76561197981318027,"connected_time":2659000000000,"state":"active","ping":89},{"user_id":190,"name":"mterbay","steam_id":76561198023473264,"connected_time":428000000000,"state":"active","ping":70},{"user_id":186,"name":"Lord GabeN","steam_id":76561198140862723,"connected_time":1353000000000,"state":"active","ping":97},{"user_id":160,"name":"Toasterduds","steam_id":76561198163477584,"connected_time":2183000000000,"state":"active","ping":96},{"user_id":134,"name":"Whoa","steam_id":76561197970353496,"connected_time":4244000000000,"state":"active","ping":79}]},{"server_id":404,"name":"Uncletopia | Dallas | 3 | All Maps","name_short":"dal-3","host":"dal-1.us.uncletopia.com","port":27035,"enabled":true,"region":"us-central","cc":"us","latitude":32.779167,"longitude":-96.80889,"reserved":0,"last_update":"0001-01-01T00:00:00Z","name_a2s":"Uncletopia | Dallas | 3 | All Maps","protocol":17,"map":"pl_pier","folder":"tf","game":"Team Fortress","app_id":440,"player_count":0,"max_players":24,"Bots":0,"server_type":"Dedicated","server_os":"Linux","password":true,"vac":true,"version":"7961495","steam_id":85568392924515219,"keywords":["nocrits","nodmgspread","payload","uncletopia"],"game_id":440,"stv_port":27036,"stv_name":"Uncletopia | Dallas | 3 | All Maps | STV","players":null},{"server_id":405,"name":"Uncletopia | Dallas | 4 | Community","name_short":"dal-4","host":"dal-1.us.uncletopia.com","port":27045,"enabled":true,"region":"us-central","cc":"us","latitude":32.779167,"longitude":-96.80889,"reserved":0,"last_update":"0001-01-01T00:00:00Z","name_a2s":"Uncletopia | Dallas | 4 | Community","protocol":17,"map":"pl_pier","folder":"tf","game":"Team Fortress","app_id":440,"player_count":0,"max_players":24,"Bots":0,"server_type":"Dedicated","server_os":"Linux","password":true,"vac":true,"version":"7961495","steam_id":85568392924515220,"keywords":["nocrits","nodmgspread","payload","uncletopia"],"game_id":440,"stv_port":27046,"stv_name":"Uncletopia | Dallas | 4 | Community | STV","players":null},{"server_id":5,"name":"Uncletopia | Frankfurt | 1 | All Maps","name_short":"frk-1","host":"frk-1.de.uncletopia.com","port":27015,"enabled":true,"region":"eu","cc":"de","latitude":50.110924,"longitude":8.682127,"reserved":0,"last_update":"0001-01-01T00:00:00Z","name_a2s":"Uncletopia | Frankfurt | 1 | All Maps","protocol":17,"map":"pl_upward","folder":"tf","game":"Team Fortress","app_id":440,"player_count":24,"max_players":24,"Bots":0,"server_type":"Dedicated","server_os":"Linux","password":true,"vac":true,"version":"7961495","steam_id":85568392924469989,"keywords":["nocrits","nodmgspread","payload","uncletopia"],"game_id":440,"stv_port":27016,"stv_name":"Uncletopia | Frankfurt | 1 | All Maps | STV","players":[{"user_id":180,"name":"Redmailbox","steam_id":76561198042930322,"connected_time":1854000000000,"state":"active","ping":59},{"user_id":188,"name":"Caliban","steam_id":76561197999696839,"connected_time":1191000000000,"state":"active","ping":109},{"user_id":203,"name":"hey tutorial heads","steam_id":76561197993777553,"connected_time":371000000000,"state":"active","ping":60},{"user_id":187,"name":"Toasty5050","steam_id":76561198073540881,"connected_time":1202000000000,"state":"active","ping":44},{"user_id":137,"name":"Lucky Strike","steam_id":76561198355128010,"connected_time":5103000000000,"state":"active","ping":78},{"user_id":184,"name":"Gamlader","steam_id":76561198306177608,"connected_time":1589000000000,"state":"active","ping":71},{"user_id":177,"name":"Vershal Smershal","steam_id":76561198116223995,"connected_time":2332000000000,"state":"active","ping":61},{"user_id":192,"name":"Bobirulez","steam_id":76561198009125458,"connected_time":1171000000000,"state":"active","ping":70},{"user_id":171,"name":"Woman (Real)","steam_id":76561199151823932,"connected_time":2672000000000,"state":"active","ping":80},{"user_id":164,"name":"Taylor","steam_id":76561198088268573,"connected_time":3432000000000,"state":"active","ping":58},{"user_id":194,"name":"Rimx","steam_id":76561198053034840,"connected_time":945000000000,"state":"active","ping":94},{"user_id":198,"name":"valzecam","steam_id":76561198274352933,"connected_time":671000000000,"state":"active","ping":63},{"user_id":168,"name":"xavier","steam_id":76561198076494034,"connected_time":2937000000000,"state":"active","ping":56},{"user_id":193,"name":"Totally Clueless","steam_id":76561198085966488,"connected_time":1168000000000,"state":"active","ping":87},{"user_id":143,"name":"Carry Krypl","steam_id":76561198136938121,"connected_time":4514000000000,"state":"active","ping":60},{"user_id":172,"name":"Pilaarius","steam_id":76561198120273212,"connected_time":2586000000000,"state":"active","ping":92},{"user_id":146,"name":"=OKB= P4NTH3R","steam_id":76561197999204603,"connected_time":4106000000000,"state":"active","ping":62},{"user_id":156,"name":"Umme","steam_id":76561198053809566,"connected_time":3918000000000,"state":"active","ping":86},{"user_id":201,"name":"patmat","steam_id":76561198869110531,"connected_time":412000000000,"state":"active","ping":64},{"user_id":190,"name":"skippy","steam_id":76561198171958773,"connected_time":1186000000000,"state":"active","ping":66},{"user_id":176,"name":"KnugenIV","steam_id":76561198127091993,"connected_time":2340000000000,"state":"active","ping":54},{"user_id":202,"name":"Bob l'éponge","steam_id":76561197988085026,"connected_time":410000000000,"state":"active","ping":66},{"user_id":160,"name":"Frenk2.0","steam_id":76561198974256814,"connected_time":3860000000000,"state":"active","ping":76},{"user_id":186,"name":"Bajas","steam_id":76561198179339326,"connected_time":1547000000000,"state":"active","ping":78}]},{"server_id":110,"name":"Uncletopia | Frankfurt | 2 | All Maps","name_short":"frk-2","host":"frk-1.de.uncletopia.com","port":27025,"enabled":true,"region":"eu","cc":"de","latitude":50.110924,"longitude":8.682127,"reserved":0,"last_update":"0001-01-01T00:00:00Z","name_a2s":"Uncletopia | Frankfurt | 2 | All Maps","protocol":17,"map":"koth_lakeside_final","folder":"tf","game":"Team Fortress","app_id":440,"player_count":24,"max_players":24,"Bots":0,"server_type":"Dedicated","server_os":"Linux","password":true,"vac":true,"version":"7961495","steam_id":85568392924469990,"keywords":["cp","nocrits","nodmgspread","uncletopia"],"game_id":440,"stv_port":27026,"stv_name":"Uncletopia | Frankfurt | 2 | All Maps | STV","players":[{"user_id":313,"name":"cez","steam_id":76561198361380956,"connected_time":695000000000,"state":"active","ping":56},{"user_id":267,"name":"Vinnie","steam_id":76561198004919672,"connected_time":3547000000000,"state":"active","ping":60},{"user_id":318,"name":"XYQ NA JIVIQ","steam_id":76561198210840028,"connected_time":403000000000,"state":"active","ping":71},{"user_id":320,"name":"hamilton","steam_id":76561198034096096,"connected_time":274000000000,"state":"active","ping":147},{"user_id":319,"name":"golfmastr","steam_id":76561198993144124,"connected_time":279000000000,"state":"active","ping":74},{"user_id":322,"name":"Derp","steam_id":76561198197901062,"connected_time":252000000000,"state":"active","ping":44},{"user_id":302,"name":"Repa24","steam_id":76561198033016390,"connected_time":1502000000000,"state":"active","ping":60},{"user_id":290,"name":"Ω","steam_id":76561199088570961,"connected_time":1878000000000,"state":"active","ping":103},{"user_id":287,"name":"Finem Belli","steam_id":76561198227177976,"connected_time":1918000000000,"state":"active","ping":49},{"user_id":323,"name":"Duktigafred","steam_id":76561199211222396,"connected_time":242000000000,"state":"active","ping":63},{"user_id":324,"name":"mex :3","steam_id":76561198091083324,"connected_time":214000000000,"state":"active","ping":67},{"user_id":314,"name":"Peter Baconegg","steam_id":76561198891046692,"connected_time":692000000000,"state":"active","ping":74},{"user_id":325,"name":"The Big J","steam_id":76561198158202901,"connected_time":211000000000,"state":"active","ping":47},{"user_id":272,"name":"SuperBananeMan","steam_id":76561199091421628,"connected_time":3356000000000,"state":"active","ping":62},{"user_id":326,"name":"Erection Man","steam_id":76561198021714542,"connected_time":201000000000,"state":"active","ping":60},{"user_id":274,"name":"Ben Dover","steam_id":76561199213629970,"connected_time":3311000000000,"state":"active","ping":95},{"user_id":329,"name":"Durin sein Vater","steam_id":76561198021246713,"connected_time":73000000000,"state":"active","ping":37},{"user_id":309,"name":"QameI","steam_id":76561198251229496,"connected_time":937000000000,"state":"active","ping":71},{"user_id":328,"name":"sus man","steam_id":76561199234935153,"connected_time":82000000000,"state":"active","ping":91},{"user_id":312,"name":"Birch","steam_id":76561197998712822,"connected_time":813000000000,"state":"active","ping":48},{"user_id":330,"name":"Reeeeeeech","steam_id":76561197979913480,"connected_time":15000000000,"state":"spawning","ping":210},{"user_id":301,"name":"Gruset","steam_id":76561198327512432,"connected_time":1521000000000,"state":"active","ping":76},{"user_id":304,"name":"gagalak","steam_id":76561198089979108,"connected_time":1488000000000,"state":"active","ping":86},{"user_id":316,"name":"Gul'dan","steam_id":76561198240466940,"connected_time":669000000000,"state":"active","ping":89}]},{"server_id":308,"name":"Uncletopia | Frankfurt | 3 | All Maps","name_short":"frk-3","host":"frk-1.de.uncletopia.com","port":27035,"enabled":true,"region":"eu","cc":"de","latitude":50.110924,"longitude":8.682127,"reserved":0,"last_update":"0001-01-01T00:00:00Z","name_a2s":"Uncletopia | Frankfurt | 3 | All Maps","protocol":17,"map":"pl_badwater","folder":"tf","game":"Team Fortress","app_id":440,"player_count":24,"max_players":24,"Bots":0,"server_type":"Dedicated","server_os":"Linux","password":true,"vac":true,"version":"7961495","steam_id":85568392924504274,"keywords":["nocrits","nodmgspread","payload","uncletopia"],"game_id":440,"stv_port":27036,"stv_name":"Uncletopia | Frankfurt | 3 | All Maps | STV","players":[{"user_id":430,"name":"Master Of Noob","steam_id":76561198217926783,"connected_time":662000000000,"state":"active","ping":67},{"user_id":431,"name":"kreeekz","steam_id":76561198014431602,"connected_time":585000000000,"state":"active","ping":60},{"user_id":426,"name":"rabbitface26","steam_id":76561198327540113,"connected_time":802000000000,"state":"active","ping":53},{"user_id":423,"name":"shmax","steam_id":76561198889012709,"connected_time":1138000000000,"state":"active","ping":85},{"user_id":438,"name":"josef.friztl.1934","steam_id":76561198371317553,"connected_time":364000000000,"state":"active","ping":104},{"user_id":435,"name":"Sentry hater","steam_id":76561199269309068,"connected_time":398000000000,"state":"active","ping":93},{"user_id":353,"name":"unKr","steam_id":76561198342024316,"connected_time":6353000000000,"state":"active","ping":78},{"user_id":381,"name":"_Alonso","steam_id":76561198041893314,"connected_time":4679000000000,"state":"active","ping":52},{"user_id":401,"name":"midlpsyzl47","steam_id":76561199475972637,"connected_time":2287000000000,"state":"active","ping":83},{"user_id":428,"name":"MuchoBroke","steam_id":76561199389474207,"connected_time":787000000000,"state":"active","ping":57},{"user_id":352,"name":"DiscoTraveler","steam_id":76561199240168088,"connected_time":6728000000000,"state":"active","ping":128},{"user_id":407,"name":"Catt #saveTF2","steam_id":76561199088078419,"connected_time":2129000000000,"state":"active","ping":80},{"user_id":411,"name":"Piteras","steam_id":76561198858532207,"connected_time":1934000000000,"state":"active","ping":71},{"user_id":425,"name":"Urfangonultasadana","steam_id":76561199389286151,"connected_time":869000000000,"state":"active","ping":102},{"user_id":429,"name":"[ALT_F4]dottor_cacabula_m8","steam_id":76561198173192267,"connected_time":774000000000,"state":"active","ping":76},{"user_id":424,"name":"tony","steam_id":76561199382978934,"connected_time":1068000000000,"state":"active","ping":76},{"user_id":421,"name":"Mr Kawaii-Desu","steam_id":76561198122236176,"connected_time":1338000000000,"state":"active","ping":60},{"user_id":406,"name":"Fish 'n' Chips","steam_id":76561198033476886,"connected_time":2161000000000,"state":"active","ping":52},{"user_id":358,"name":"MUWEQ","steam_id":76561198107615727,"connected_time":6226000000000,"state":"active","ping":75},{"user_id":408,"name":"Janner","steam_id":76561198127045282,"connected_time":2072000000000,"state":"active","ping":56},{"user_id":392,"name":"Venenakki","steam_id":76561198311526482,"connected_time":4127000000000,"state":"active","ping":71},{"user_id":387,"name":"Eric Catman","steam_id":76561198802117294,"connected_time":4279000000000,"state":"active","ping":80},{"user_id":333,"name":"neJ","steam_id":76561198003397488,"connected_time":9349000000000,"state":"active","ping":75},{"user_id":376,"name":"Khrinde","steam_id":76561198036744526,"connected_time":5212000000000,"state":"active","ping":98}]},{"server_id":309,"name":"Uncletopia | Frankfurt | 4 | All Maps","name_short":"frk-4","host":"frk-1.de.uncletopia.com","port":27045,"enabled":true,"region":"eu","cc":"de","latitude":50.110924,"longitude":8.682127,"reserved":0,"last_update":"0001-01-01T00:00:00Z","name_a2s":"Uncletopia | Frankfurt | 4 | All Maps","protocol":17,"map":"cp_snakewater_final1","folder":"tf","game":"Team Fortress","app_id":440,"player_count":24,"max_players":24,"Bots":0,"server_type":"Dedicated","server_os":"Linux","password":true,"vac":true,"version":"7961495","steam_id":85568392924504275,"keywords":["cp","nocrits","nodmgspread","uncletopia"],"game_id":440,"stv_port":27046,"stv_name":"Uncletopia | Frankfurt | 4 | All Maps | STV","players":[{"user_id":165,"name":"did you see it?","steam_id":76561198071440081,"connected_time":505000000000,"state":"active","ping":89},{"user_id":118,"name":"Ralistix","steam_id":76561198051654135,"connected_time":2993000000000,"state":"active","ping":86},{"user_id":160,"name":"Legendary","steam_id":76561198296721223,"connected_time":1072000000000,"state":"active","ping":97},{"user_id":157,"name":"peeka","steam_id":76561198221122068,"connected_time":1171000000000,"state":"active","ping":63},{"user_id":164,"name":"Milk","steam_id":76561198125876588,"connected_time":643000000000,"state":"active","ping":54},{"user_id":139,"name":"ᴋᴜᴀʀᴛ","steam_id":76561199212930778,"connected_time":1956000000000,"state":"active","ping":93},{"user_id":167,"name":"Splattted","steam_id":76561199327476294,"connected_time":458000000000,"state":"active","ping":77},{"user_id":110,"name":"Bhast","steam_id":76561198071620021,"connected_time":3181000000000,"state":"active","ping":83},{"user_id":144,"name":"SHRÖX","steam_id":76561198250244554,"connected_time":1700000000000,"state":"active","ping":92},{"user_id":159,"name":"FZStick","steam_id":76561198086617223,"connected_time":1080000000000,"state":"active","ping":59},{"user_id":162,"name":"Kurbeats","steam_id":76561198102259574,"connected_time":877000000000,"state":"active","ping":54},{"user_id":142,"name":"elijah","steam_id":76561198093936708,"connected_time":1928000000000,"state":"active","ping":67},{"user_id":143,"name":"raebbitos","steam_id":76561198167580006,"connected_time":1828000000000,"state":"active","ping":56},{"user_id":107,"name":"beno","steam_id":76561198152146711,"connected_time":3339000000000,"state":"active","ping":70},{"user_id":152,"name":"le big mac","steam_id":76561199026378253,"connected_time":1358000000000,"state":"active","ping":53},{"user_id":155,"name":"Nozzo","steam_id":76561198012367783,"connected_time":1203000000000,"state":"active","ping":71},{"user_id":126,"name":"Minth","steam_id":76561198149080381,"connected_time":2503000000000,"state":"active","ping":83},{"user_id":168,"name":"soup","steam_id":76561198386933065,"connected_time":355000000000,"state":"active","ping":68},{"user_id":131,"name":"average manicotti enjoyer","steam_id":76561198059535856,"connected_time":2264000000000,"state":"active","ping":171},{"user_id":113,"name":"Haukka#7","steam_id":76561198867526505,"connected_time":3123000000000,"state":"active","ping":57},{"user_id":114,"name":"Sn1Ch","steam_id":76561198073076943,"connected_time":3120000000000,"state":"active","ping":90},{"user_id":147,"name":"JepCabestany","steam_id":76561198123812578,"connected_time":1644000000000,"state":"active","ping":97},{"user_id":166,"name":"KODE","steam_id":76561198053212394,"connected_time":504000000000,"state":"active","ping":75},{"user_id":148,"name":"SneaK","steam_id":76561198280344773,"connected_time":1641000000000,"state":"active","ping":84}]},{"server_id":310,"name":"Uncletopia | Frankfurt | 5 | All Maps","name_short":"frk-5","host":"frk-1.de.uncletopia.com","port":27055,"enabled":true,"region":"eu","cc":"de","latitude":50.110924,"longitude":8.682127,"reserved":0,"last_update":"0001-01-01T00:00:00Z","name_a2s":"Uncletopia | Frankfurt | 5 | All Maps","protocol":17,"map":"koth_cascade","folder":"tf","game":"Team Fortress","app_id":440,"player_count":25,"max_players":24,"Bots":0,"server_type":"Dedicated","server_os":"Linux","password":true,"vac":true,"version":"7961495","steam_id":85568392924504277,"keywords":["cp","nocrits","nodmgspread","uncletopia"],"game_id":440,"stv_port":27056,"stv_name":"Uncletopia | Frankfurt | 5 | All Maps | STV","players":[{"user_id":277,"name":"TheMerchant","steam_id":76561198133664392,"connected_time":1806000000000,"state":"active","ping":55},{"user_id":295,"name":"Osek","steam_id":76561197972646003,"connected_time":170000000000,"state":"active","ping":64},{"user_id":296,"name":"3L","steam_id":76561198007208996,"connected_time":148000000000,"state":"active","ping":42},{"user_id":285,"name":"simeswipe","steam_id":76561198188471097,"connected_time":1340000000000,"state":"active","ping":71},{"user_id":297,"name":"CRANK","steam_id":76561198188720263,"connected_time":147000000000,"state":"active","ping":46},{"user_id":268,"name":"lore","steam_id":76561198120984188,"connected_time":2102000000000,"state":"active","ping":57},{"user_id":287,"name":"kanasta","steam_id":76561198206177349,"connected_time":935000000000,"state":"active","ping":70},{"user_id":305,"name":"Sippie","steam_id":76561198130393388,"connected_time":32000000000,"state":"spawning","ping":59},{"user_id":304,"name":"Timantrop","steam_id":76561198142563461,"connected_time":36000000000,"state":"connecting","ping":0},{"user_id":299,"name":"alenagush","steam_id":76561199468451891,"connected_time":136000000000,"state":"active","ping":103},{"user_id":294,"name":"tone","steam_id":76561197975301462,"connected_time":176000000000,"state":"active","ping":77},{"user_id":300,"name":"chrome heart","steam_id":76561198101978330,"connected_time":134000000000,"state":"active","ping":58},{"user_id":286,"name":"Mayor Wank from Wanker Town","steam_id":76561197998253588,"connected_time":1276000000000,"state":"active","ping":44},{"user_id":239,"name":"BabyYodaIsMySoda","steam_id":76561198321846861,"connected_time":4329000000000,"state":"active","ping":74},{"user_id":283,"name":"clean carp","steam_id":76561198127053294,"connected_time":1471000000000,"state":"active","ping":65},{"user_id":301,"name":"zek","steam_id":76561198862763731,"connected_time":122000000000,"state":"active","ping":56},{"user_id":260,"name":"[PVFR]gabi974","steam_id":76561198046574709,"connected_time":2773000000000,"state":"active","ping":63},{"user_id":274,"name":"Potato","steam_id":76561198184310425,"connected_time":2054000000000,"state":"active","ping":113},{"user_id":262,"name":"Delcup","steam_id":76561199006338376,"connected_time":2716000000000,"state":"active","ping":111},{"user_id":291,"name":"SirNeeco \u003c3","steam_id":76561198103014203,"connected_time":459000000000,"state":"active","ping":56},{"user_id":275,"name":"Syd","steam_id":76561198020515027,"connected_time":2043000000000,"state":"active","ping":97},{"user_id":302,"name":"Aster","steam_id":76561198448334921,"connected_time":112000000000,"state":"active","ping":63},{"user_id":276,"name":"kornetov.vitalya","steam_id":76561199286034833,"connected_time":2004000000000,"state":"active","ping":96},{"user_id":303,"name":"Nickbro101","steam_id":76561198044271692,"connected_time":98000000000,"state":"active","ping":61},{"user_id":306,"name":"true","steam_id":76561198031145243,"connected_time":20000000000,"state":"active","ping":164}]},{"server_id":311,"name":"Uncletopia | Frankfurt | 6 | All Maps","name_short":"frk-6","host":"frk-1.de.uncletopia.com","port":27065,"enabled":true,"region":"eu","cc":"de","latitude":50.110924,"longitude":8.682127,"reserved":0,"last_update":"0001-01-01T00:00:00Z","name_a2s":"Uncletopia | Frankfurt | 6 | All Maps","protocol":17,"map":"pl_barnblitz","folder":"tf","game":"Team Fortress","app_id":440,"player_count":24,"max_players":24,"Bots":0,"server_type":"Dedicated","server_os":"Linux","password":true,"vac":true,"version":"7961495","steam_id":85568392924504278,"keywords":["nocrits","nodmgspread","payload","uncletopia"],"game_id":440,"stv_port":27066,"stv_name":"Uncletopia | Frankfurt | 6 | All Maps | STV","players":[{"user_id":164,"name":"Warrior555MainsGanon","steam_id":76561198388627786,"connected_time":3999000000000,"state":"active","ping":70},{"user_id":214,"name":"barni","steam_id":76561198170420173,"connected_time":722000000000,"state":"active","ping":79},{"user_id":139,"name":"Ketich","steam_id":76561198021772703,"connected_time":5586000000000,"state":"active","ping":71},{"user_id":202,"name":"edtrash","steam_id":76561198045983578,"connected_time":1357000000000,"state":"active","ping":42},{"user_id":205,"name":"Rubi","steam_id":76561198139410003,"connected_time":1258000000000,"state":"active","ping":79},{"user_id":208,"name":"rooben","steam_id":76561198112594643,"connected_time":966000000000,"state":"active","ping":71},{"user_id":193,"name":"Yakowboi","steam_id":76561198145568925,"connected_time":2557000000000,"state":"active","ping":79},{"user_id":180,"name":"After8","steam_id":76561198090750865,"connected_time":3284000000000,"state":"active","ping":64},{"user_id":218,"name":"turtlemage","steam_id":76561198052452373,"connected_time":516000000000,"state":"active","ping":71},{"user_id":194,"name":"Mischail","steam_id":76561198016127010,"connected_time":2548000000000,"state":"active","ping":73},{"user_id":90,"name":"baby's first domination","steam_id":76561198325898181,"connected_time":8757000000000,"state":"active","ping":72},{"user_id":209,"name":"Rapnoc","steam_id":76561198255884546,"connected_time":955000000000,"state":"active","ping":91},{"user_id":217,"name":"ANGHENFILOD","steam_id":76561199492622823,"connected_time":605000000000,"state":"active","ping":55},{"user_id":159,"name":"weed fairy","steam_id":76561197998843096,"connected_time":4449000000000,"state":"active","ping":73},{"user_id":219,"name":"DJThunderHeart","steam_id":76561198274197575,"connected_time":437000000000,"state":"active","ping":129},{"user_id":128,"name":"OpticalBlack","steam_id":76561198038624807,"connected_time":6086000000000,"state":"active","ping":106},{"user_id":211,"name":"radu","steam_id":76561198067346802,"connected_time":905000000000,"state":"active","ping":58},{"user_id":181,"name":"twitch.tv/vision515","steam_id":76561198065293729,"connected_time":3281000000000,"state":"active","ping":171},{"user_id":216,"name":"Apollo","steam_id":76561198866054007,"connected_time":651000000000,"state":"active","ping":96},{"user_id":207,"name":"bouncyhousin","steam_id":76561198852902827,"connected_time":1004000000000,"state":"active","ping":148},{"user_id":204,"name":"Star Throne","steam_id":76561198132171027,"connected_time":1307000000000,"state":"active","ping":71},{"user_id":222,"name":"Zor","steam_id":76561198009851383,"connected_time":84000000000,"state":"active","ping":70},{"user_id":206,"name":"invis","steam_id":76561198120668070,"connected_time":1161000000000,"state":"active","ping":60},{"user_id":213,"name":"Pigeon","steam_id":76561199109713313,"connected_time":773000000000,"state":"active","ping":58}]},{"server_id":23,"name":"Uncletopia | Frankfurt | 7 | Stopwatch","name_short":"frk-7","host":"frk-1.de.uncletopia.com","port":27075,"enabled":true,"region":"eu","cc":"de","latitude":50.110924,"longitude":8.682127,"reserved":0,"last_update":"0001-01-01T00:00:00Z","name_a2s":"Uncletopia | Frankfurt | 7 | Stopwatch","protocol":17,"map":"workshop/koth_clearcut_b15.ugc2107050255","folder":"tf","game":"Team Fortress","app_id":440,"player_count":0,"max_players":24,"Bots":0,"server_type":"Dedicated","server_os":"Linux","password":true,"vac":true,"version":"7961495","steam_id":85568392924742827,"keywords":["cp","nocrits","nodmgspread","uncletopia"],"game_id":440,"stv_port":27076,"stv_name":"Uncletopia | Frankfurt | 7 | Stopwatch | STV","players":null},{"server_id":24,"name":"Uncletopia | Frankfurt | 8 | Community","name_short":"frk-8","host":"frk-1.de.uncletopia.com","port":27085,"enabled":true,"region":"eu","cc":"de","latitude":50.110924,"longitude":8.682127,"reserved":0,"last_update":"0001-01-01T00:00:00Z","name_a2s":"Uncletopia | Frankfurt | 8 | Community","protocol":17,"map":"workshop/pl_cactuscanyon_redux_final2.ugc2579644293","folder":"tf","game":"Team Fortress","app_id":440,"player_count":22,"max_players":24,"Bots":0,"server_type":"Dedicated","server_os":"Linux","password":true,"vac":true,"version":"7961495","steam_id":85568392924742828,"keywords":["nocrits","nodmgspread","payload","uncletopia"],"game_id":440,"stv_port":27086,"stv_name":"Uncletopia | Frankfurt | 8 | Community | STV","players":[{"user_id":298,"name":"F","steam_id":76561199149462792,"connected_time":1407000000000,"state":"active","ping":66},{"user_id":319,"name":"Torttu","steam_id":76561198013980029,"connected_time":427000000000,"state":"active","ping":59},{"user_id":300,"name":"peppino.","steam_id":76561198207929768,"connected_time":1300000000000,"state":"active","ping":67},{"user_id":301,"name":"Mr. Master","steam_id":76561199198569317,"connected_time":1266000000000,"state":"active","ping":63},{"user_id":213,"name":"✡Cpruin✡","steam_id":76561198184924239,"connected_time":7964000000000,"state":"active","ping":89},{"user_id":303,"name":"Peter Pammpim","steam_id":76561199103785290,"connected_time":1214000000000,"state":"active","ping":76},{"user_id":320,"name":"Morgan BullFrog","steam_id":76561198088334623,"connected_time":409000000000,"state":"active","ping":93},{"user_id":329,"name":"fryingpants","steam_id":76561197985655573,"connected_time":68000000000,"state":"active","ping":75},{"user_id":307,"name":"Wolfdad Duke","steam_id":76561197986442930,"connected_time":1040000000000,"state":"active","ping":59},{"user_id":309,"name":"The Engineer","steam_id":76561199437330739,"connected_time":976000000000,"state":"active","ping":78},{"user_id":310,"name":"jjkun786","steam_id":76561199438517484,"connected_time":867000000000,"state":"active","ping":55},{"user_id":313,"name":"Drinking Problem","steam_id":76561198319162953,"connected_time":708000000000,"state":"active","ping":63},{"user_id":314,"name":"Smoking problem","steam_id":76561198361351449,"connected_time":678000000000,"state":"active","ping":55},{"user_id":315,"name":"dfcv rftgvb ghtb","steam_id":76561198397764042,"connected_time":668000000000,"state":"active","ping":85},{"user_id":322,"name":"Letko","steam_id":76561198022416006,"connected_time":404000000000,"state":"active","ping":59},{"user_id":317,"name":"Spiro","steam_id":76561198026073474,"connected_time":591000000000,"state":"active","ping":60},{"user_id":328,"name":"la rose des sables","steam_id":76561198131362325,"connected_time":247000000000,"state":"active","ping":57},{"user_id":323,"name":"✪ g0lddyseq","steam_id":76561198321888235,"connected_time":389000000000,"state":"active","ping":69},{"user_id":324,"name":"Matteo Il Biondo","steam_id":76561198315389475,"connected_time":388000000000,"state":"active","ping":75},{"user_id":208,"name":"rets_","steam_id":76561198061551392,"connected_time":8325000000000,"state":"active","ping":56},{"user_id":327,"name":"Rockfrenzy","steam_id":76561198005428050,"connected_time":342000000000,"state":"active","ping":64},{"user_id":326,"name":"Klaus","steam_id":76561198150394201,"connected_time":363000000000,"state":"active","ping":77}]},{"server_id":202,"name":"Uncletopia | Hong Kong | 1 | All Maps","name_short":"hgk-1","host":"hgk-1.hk.uncletopia.com","port":27015,"enabled":true,"region":"asia","cc":"hk","latitude":22.302711,"longitude":114.177216,"reserved":0,"last_update":"0001-01-01T00:00:00Z","name_a2s":"Uncletopia | Hong Kong | 1 | All Maps","protocol":17,"map":"koth_cascade","folder":"tf","game":"Team Fortress","app_id":440,"player_count":0,"max_players":24,"Bots":0,"server_type":"Dedicated","server_os":"Linux","password":true,"vac":true,"version":"7961495","steam_id":85568392924494504,"keywords":["cp","nocrits","nodmgspread","uncletopia"],"game_id":440,"stv_port":27016,"stv_name":"Uncletopia | Hong Kong | 1 | All Maps | STV","players":null},{"server_id":1,"name":"Uncletopia | Los Angeles | 1 | All Maps","name_short":"lax-1","host":"lax-1.us.uncletopia.com","port":27015,"enabled":true,"region":"us-west","cc":"us","latitude":33.94279,"longitude":-118.41004,"reserved":0,"last_update":"0001-01-01T00:00:00Z","name_a2s":"Uncletopia | Los Angeles | 1 | All Maps","protocol":17,"map":"pl_swiftwater_final1","folder":"tf","game":"Team Fortress","app_id":440,"player_count":0,"max_players":24,"Bots":0,"server_type":"Dedicated","server_os":"Linux","password":true,"vac":true,"version":"7961495","steam_id":85568392924469991,"keywords":["nocrits","nodmgspread","payload","uncletopia"],"game_id":440,"stv_port":27016,"stv_name":"Uncletopia | Los Angeles | 1 | All Maps | STV","players":null},{"server_id":112,"name":"Uncletopia | Los Angeles | 2 | All Maps","name_short":"lax-2","host":"lax-1.us.uncletopia.com","port":27025,"enabled":true,"region":"us-west","cc":"us","latitude":33.94279,"longitude":-118.41004,"reserved":0,"last_update":"0001-01-01T00:00:00Z","name_a2s":"Uncletopia | Los Angeles | 2 | All Maps","protocol":17,"map":"koth_cascade","folder":"tf","game":"Team Fortress","app_id":440,"player_count":0,"max_players":24,"Bots":0,"server_type":"Dedicated","server_os":"Linux","password":true,"vac":true,"version":"7961495","steam_id":85568392924469992,"keywords":["cp","nocrits","nodmgspread","uncletopia"],"game_id":440,"stv_port":27026,"stv_name":"Uncletopia | Los Angeles | 2 | All Maps | STV","players":null},{"server_id":324,"name":"Uncletopia | Los Angeles | 3 | All Maps","name_short":"lax-3","host":"lax-1.us.uncletopia.com","port":27035,"enabled":true,"region":"us-west","cc":"us","latitude":33.94279,"longitude":-118.41004,"reserved":0,"last_update":"0001-01-01T00:00:00Z","name_a2s":"Uncletopia | Los Angeles | 3 | All Maps","protocol":17,"map":"pl_pier","folder":"tf","game":"Team Fortress","app_id":440,"player_count":0,"max_players":24,"Bots":0,"server_type":"Dedicated","server_os":"Linux","password":true,"vac":true,"version":"7961495","steam_id":85568392924510198,"keywords":["nocrits","nodmgspread","payload","uncletopia"],"game_id":440,"stv_port":27036,"stv_name":"Uncletopia | Los Angeles | 3 | All Maps | STV","players":null},{"server_id":25,"name":"Uncletopia | Los Angeles | 4 | Stopwatch","name_short":"lax-4","host":"lax-1.us.uncletopia.com","port":27045,"enabled":true,"region":"us-west","cc":"us","latitude":33.94279,"longitude":-118.41004,"reserved":0,"last_update":"0001-01-01T00:00:00Z","name_a2s":"Uncletopia | Los Angeles | 4 | Stopwatch","protocol":17,"map":"pl_barnblitz","folder":"tf","game":"Team Fortress","app_id":440,"player_count":0,"max_players":24,"Bots":0,"server_type":"Dedicated","server_os":"Linux","password":true,"vac":true,"version":"7961495","steam_id":85568392924510199,"keywords":["nocrits","nodmgspread","payload","uncletopia"],"game_id":440,"stv_port":27046,"stv_name":"Uncletopia | Los Angeles | 4 | Stopwatch | STV","players":null},{"server_id":11,"name":"Uncletopia | London | 1 | All Maps","name_short":"lon-1","host":"lon-1.uk.uncletopia.com","port":27015,"enabled":true,"region":"eu","cc":"gb","latitude":51.509865,"longitude":-0.118092,"reserved":0,"last_update":"0001-01-01T00:00:00Z","name_a2s":"Uncletopia | London | 1 | All Maps","protocol":17,"map":"cp_dustbowl","folder":"tf","game":"Team Fortress","app_id":440,"player_count":24,"max_players":24,"Bots":0,"server_type":"Dedicated","server_os":"Linux","password":true,"vac":true,"version":"7961495","steam_id":85568392924367362,"keywords":["cp","nocrits","nodmgspread","uncletopia"],"game_id":440,"stv_port":27016,"stv_name":"Uncletopia | London | 1 | All Maps | STV","players":[{"user_id":447,"name":"trite","steam_id":76561197983765323,"connected_time":1883000000000,"state":"active","ping":55},{"user_id":449,"name":"Aaronbill3","steam_id":76561198014056212,"connected_time":1843000000000,"state":"active","ping":68},{"user_id":444,"name":"Aaron","steam_id":76561197990046953,"connected_time":2266000000000,"state":"active","ping":60},{"user_id":465,"name":"shooer!","steam_id":76561198110531281,"connected_time":417000000000,"state":"active","ping":69},{"user_id":468,"name":"Skinny101","steam_id":76561197985599360,"connected_time":137000000000,"state":"active","ping":69},{"user_id":439,"name":"Texas Red","steam_id":76561199069782779,"connected_time":2734000000000,"state":"active","ping":87},{"user_id":429,"name":"I I","steam_id":76561199101935057,"connected_time":3025000000000,"state":"active","ping":99},{"user_id":458,"name":"Illy","steam_id":76561198045537823,"connected_time":1696000000000,"state":"active","ping":70},{"user_id":322,"name":"Trapezoid","steam_id":76561198059369295,"connected_time":10059000000000,"state":"active","ping":75},{"user_id":442,"name":"Logern","steam_id":76561198085243794,"connected_time":2425000000000,"state":"active","ping":64},{"user_id":451,"name":"Sir Cauterize","steam_id":76561198047079422,"connected_time":1813000000000,"state":"active","ping":49},{"user_id":457,"name":"Senior","steam_id":76561198065014164,"connected_time":1730000000000,"state":"active","ping":48},{"user_id":435,"name":"UltimateSlayer","steam_id":76561198384109309,"connected_time":2825000000000,"state":"active","ping":58},{"user_id":441,"name":"jcb.f.smith","steam_id":76561199491964000,"connected_time":2621000000000,"state":"active","ping":60},{"user_id":452,"name":"The_Jaystone","steam_id":76561198126280691,"connected_time":1801000000000,"state":"active","ping":31},{"user_id":466,"name":"Fuck it (unhandicaps)","steam_id":76561197983095579,"connected_time":413000000000,"state":"active","ping":87},{"user_id":448,"name":"SpacePig","steam_id":76561198044662873,"connected_time":1880000000000,"state":"active","ping":94},{"user_id":467,"name":"flappi","steam_id":76561198072892783,"connected_time":410000000000,"state":"active","ping":60},{"user_id":462,"name":"breakfast burrito","steam_id":76561198148606969,"connected_time":1424000000000,"state":"active","ping":83},{"user_id":391,"name":"Washburne","steam_id":76561198032810579,"connected_time":5171000000000,"state":"active","ping":49},{"user_id":437,"name":"Rick","steam_id":76561198140656976,"connected_time":2818000000000,"state":"active","ping":68},{"user_id":356,"name":"Fuzz","steam_id":76561198013049077,"connected_time":7750000000000,"state":"active","ping":82},{"user_id":456,"name":"God of Hellfire","steam_id":76561198423518671,"connected_time":1769000000000,"state":"active","ping":101},{"user_id":438,"name":"Will","steam_id":76561198173329977,"connected_time":2813000000000,"state":"active","ping":53}]},{"server_id":114,"name":"Uncletopia | London | 2 | All Maps","name_short":"lon-2","host":"lon-1.uk.uncletopia.com","port":27025,"enabled":true,"region":"eu","cc":"gb","latitude":51.509865,"longitude":-0.118092,"reserved":0,"last_update":"0001-01-01T00:00:00Z","name_a2s":"Uncletopia | London | 2 | All Maps","protocol":17,"map":"cp_mountainlab","folder":"tf","game":"Team Fortress","app_id":440,"player_count":0,"max_players":24,"Bots":0,"server_type":"Dedicated","server_os":"Linux","password":true,"vac":true,"version":"7961495","steam_id":85568392924470941,"keywords":["cp","nocrits","nodmgspread","uncletopia"],"game_id":440,"stv_port":27026,"stv_name":"Uncletopia | London | 2 | All Maps | STV","players":null},{"server_id":320,"name":"Uncletopia | London | 3 | All Maps","name_short":"lon-3","host":"lon-1.uk.uncletopia.com","port":27035,"enabled":true,"region":"eu","cc":"gb","latitude":51.509865,"longitude":-0.118092,"reserved":0,"last_update":"0001-01-01T00:00:00Z","name_a2s":"Uncletopia | London | 3 | All Maps","protocol":17,"map":"pl_upward","folder":"tf","game":"Team Fortress","app_id":440,"player_count":24,"max_players":24,"Bots":0,"server_type":"Dedicated","server_os":"Linux","password":true,"vac":true,"version":"7961495","steam_id":85568392924510192,"keywords":["nocrits","nodmgspread","payload","uncletopia"],"game_id":440,"stv_port":27036,"stv_name":"Uncletopia | London | 3 | All Maps | STV","players":[{"user_id":610,"name":"mere","steam_id":76561199136308055,"connected_time":2793000000000,"state":"active","ping":60},{"user_id":646,"name":"Nithle","steam_id":76561198025372740,"connected_time":448000000000,"state":"active","ping":33},{"user_id":644,"name":"Yassine","steam_id":76561198140565712,"connected_time":703000000000,"state":"active","ping":49},{"user_id":621,"name":"sloppy transgirl toppy","steam_id":76561198057092208,"connected_time":2405000000000,"state":"active","ping":75},{"user_id":609,"name":"Gentlemann Co.","steam_id":76561197997142921,"connected_time":2861000000000,"state":"active","ping":67},{"user_id":640,"name":"Bobo","steam_id":76561198052308399,"connected_time":1183000000000,"state":"active","ping":65},{"user_id":574,"name":"Fuvuk","steam_id":76561198044458593,"connected_time":4875000000000,"state":"active","ping":90},{"user_id":643,"name":"Macci - Obismal","steam_id":76561198050485404,"connected_time":793000000000,"state":"active","ping":79},{"user_id":614,"name":"♬ ᴛᴇᴋɪᴛ ♬","steam_id":76561198111704722,"connected_time":2561000000000,"state":"active","ping":90},{"user_id":625,"name":"Brisket \u003c3","steam_id":76561198047291354,"connected_time":2383000000000,"state":"active","ping":125},{"user_id":629,"name":"Mehlord","steam_id":76561198061371289,"connected_time":2204000000000,"state":"active","ping":119},{"user_id":645,"name":"Skrankly","steam_id":76561199001837576,"connected_time":666000000000,"state":"active","ping":56},{"user_id":628,"name":"Cogsworth","steam_id":76561198101859889,"connected_time":2359000000000,"state":"active","ping":163},{"user_id":630,"name":"Deformed Gollum","steam_id":76561198155563589,"connected_time":2179000000000,"state":"active","ping":50},{"user_id":631,"name":"Hotdog_Gentleman","steam_id":76561199309867837,"connected_time":2172000000000,"state":"active","ping":116},{"user_id":647,"name":"Mister","steam_id":76561199049647854,"connected_time":272000000000,"state":"active","ping":43},{"user_id":637,"name":"Caruzon - Obismal","steam_id":76561198036211170,"connected_time":1310000000000,"state":"active","ping":84},{"user_id":632,"name":"Gry","steam_id":76561198053961616,"connected_time":2168000000000,"state":"active","ping":49},{"user_id":624,"name":"Artemis","steam_id":76561198199091801,"connected_time":2390000000000,"state":"active","ping":50},{"user_id":633,"name":"Level 1 Noob","steam_id":76561198088586340,"connected_time":1936000000000,"state":"active","ping":73},{"user_id":638,"name":"R8N - Obismal","steam_id":76561198007482714,"connected_time":1308000000000,"state":"active","ping":76},{"user_id":639,"name":"TunaFish","steam_id":76561199026018102,"connected_time":1307000000000,"state":"active","ping":61},{"user_id":626,"name":"Riky95","steam_id":76561198095289436,"connected_time":2376000000000,"state":"active","ping":53},{"user_id":613,"name":"KAMIL","steam_id":76561198014578785,"connected_time":2626000000000,"state":"active","ping":63}]},{"server_id":321,"name":"Uncletopia | London | 4 | All Maps","name_short":"lon-4","host":"lon-1.uk.uncletopia.com","port":27045,"enabled":true,"region":"eu","cc":"gb","latitude":51.509865,"longitude":-0.118092,"reserved":0,"last_update":"0001-01-01T00:00:00Z","name_a2s":"Uncletopia | London | 4 | All Maps","protocol":17,"map":"cp_steel","folder":"tf","game":"Team Fortress","app_id":440,"player_count":24,"max_players":24,"Bots":0,"server_type":"Dedicated","server_os":"Linux","password":true,"vac":true,"version":"7961495","steam_id":85568392924510193,"keywords":["cp","nocrits","nodmgspread","uncletopia"],"game_id":440,"stv_port":27046,"stv_name":"Uncletopia | London | 4 | All Maps | STV","players":[{"user_id":231,"name":"The Bridge Guardian","steam_id":76561199089271429,"connected_time":140000000000,"state":"active","ping":194},{"user_id":200,"name":"jj","steam_id":76561198079200985,"connected_time":2677000000000,"state":"active","ping":54},{"user_id":209,"name":"A Very Fulfilling Salad","steam_id":76561198084530972,"connected_time":2001000000000,"state":"active","ping":53},{"user_id":237,"name":"obi","steam_id":76561198040154461,"connected_time":84000000000,"state":"active","ping":73},{"user_id":208,"name":"Palex","steam_id":76561198093219465,"connected_time":2058000000000,"state":"active","ping":45},{"user_id":227,"name":"MatarArg","steam_id":76561198280246498,"connected_time":272000000000,"state":"active","ping":108},{"user_id":219,"name":"Rock..","steam_id":76561198004641963,"connected_time":1150000000000,"state":"active","ping":80},{"user_id":196,"name":"TSx* Bargal","steam_id":76561198040266872,"connected_time":2952000000000,"state":"active","ping":82},{"user_id":229,"name":"fence_","steam_id":76561198150386379,"connected_time":203000000000,"state":"active","ping":46},{"user_id":199,"name":"gg player","steam_id":76561198341062380,"connected_time":2736000000000,"state":"active","ping":114},{"user_id":240,"name":"Pudlich","steam_id":76561198300089671,"connected_time":58000000000,"state":"active","ping":79},{"user_id":239,"name":"I.AM.THE.BOOP.WHICH.IS.APROACHI","steam_id":76561198049342507,"connected_time":77000000000,"state":"active","ping":90},{"user_id":235,"name":"GigaСhad Pyro","steam_id":76561198140742485,"connected_time":101000000000,"state":"active","ping":110},{"user_id":236,"name":"Tort","steam_id":76561198329646769,"connected_time":100000000000,"state":"active","ping":59},{"user_id":192,"name":"Don Beatle","steam_id":76561198046129368,"connected_time":2998000000000,"state":"active","ping":144},{"user_id":193,"name":"Scootermouse","steam_id":76561198008665354,"connected_time":2971000000000,"state":"active","ping":145},{"user_id":224,"name":"UltimateAura","steam_id":76561198338361324,"connected_time":440000000000,"state":"active","ping":43},{"user_id":214,"name":"TSx* Naxer","steam_id":76561198011986779,"connected_time":1689000000000,"state":"active","ping":75},{"user_id":216,"name":"skilltissues","steam_id":76561198025828664,"connected_time":1447000000000,"state":"active","ping":53},{"user_id":197,"name":"Spanns","steam_id":76561197998349793,"connected_time":2941000000000,"state":"active","ping":77},{"user_id":238,"name":"Chicken pot pie","steam_id":76561198084997090,"connected_time":81000000000,"state":"active","ping":33},{"user_id":215,"name":"[Sheep] Tomco","steam_id":76561198388549261,"connected_time":1486000000000,"state":"active","ping":60},{"user_id":177,"name":"A Very Disappointing Salad","steam_id":76561198020277939,"connected_time":3811000000000,"state":"active","ping":71},{"user_id":232,"name":"Nate","steam_id":76561198188618535,"connected_time":136000000000,"state":"active","ping":114}]},{"server_id":21,"name":"Uncletopia | London | 5 | All Maps","name_short":"lon-5","host":"lon-1.uk.uncletopia.com","port":27055,"enabled":true,"region":"eu","cc":"gb","latitude":51.509865,"longitude":-0.118092,"reserved":0,"last_update":"0001-01-01T00:00:00Z","name_a2s":"Uncletopia | London | 5 | All Maps","protocol":17,"map":"koth_lakeside_final","folder":"tf","game":"Team Fortress","app_id":440,"player_count":0,"max_players":24,"Bots":0,"server_type":"Dedicated","server_os":"Linux","password":true,"vac":true,"version":"7961495","steam_id":85568392924742829,"keywords":["cp","nocrits","nodmgspread","uncletopia"],"game_id":440,"stv_port":27056,"stv_name":"Uncletopia | London | 5 | All Maps | STV","players":null},{"server_id":22,"name":"Uncletopia | London | 6 | All Maps","name_short":"lon-6","host":"lon-1.uk.uncletopia.com","port":27065,"enabled":true,"region":"eu","cc":"gb","latitude":51.509865,"longitude":-0.118092,"reserved":0,"last_update":"0001-01-01T00:00:00Z","name_a2s":"Uncletopia | London | 6 | All Maps","protocol":17,"map":"cp_mountainlab","folder":"tf","game":"Team Fortress","app_id":440,"player_count":23,"max_players":24,"Bots":0,"server_type":"Dedicated","server_os":"Linux","password":true,"vac":true,"version":"7961495","steam_id":85568392924742830,"keywords":["cp","nocrits","nodmgspread","uncletopia"],"game_id":440,"stv_port":27066,"stv_name":"Uncletopia | London | 6 | All Maps | STV","players":[{"user_id":648,"name":"Mr. Mundy","steam_id":76561198132008918,"connected_time":2167000000000,"state":"active","ping":87},{"user_id":662,"name":"Jeffrey Harpen","steam_id":76561199073314677,"connected_time":527000000000,"state":"active","ping":74},{"user_id":659,"name":"Parky","steam_id":76561198013803623,"connected_time":943000000000,"state":"active","ping":33},{"user_id":652,"name":"hasky","steam_id":76561197986052798,"connected_time":1994000000000,"state":"active","ping":83},{"user_id":611,"name":"JuanPonchoGringo™","steam_id":76561198038046899,"connected_time":3489000000000,"state":"active","ping":130},{"user_id":661,"name":"gaming (official)","steam_id":76561198106012909,"connected_time":900000000000,"state":"active","ping":85},{"user_id":654,"name":"Yuzu","steam_id":76561198121694613,"connected_time":1956000000000,"state":"active","ping":45},{"user_id":656,"name":"kingcays","steam_id":76561198006963055,"connected_time":1500000000000,"state":"active","ping":74},{"user_id":647,"name":"Hexagon","steam_id":76561198151205758,"connected_time":2178000000000,"state":"active","ping":60},{"user_id":658,"name":"nug","steam_id":76561198055396568,"connected_time":1339000000000,"state":"active","ping":51},{"user_id":657,"name":"A Featherless Biped","steam_id":76561198307904901,"connected_time":1453000000000,"state":"active","ping":44},{"user_id":638,"name":"CRITICAL_HIT!","steam_id":76561198349330393,"connected_time":2477000000000,"state":"active","ping":89},{"user_id":545,"name":"Spurt","steam_id":76561198078523852,"connected_time":6216000000000,"state":"active","ping":47},{"user_id":639,"name":"Egor Pomidor","steam_id":76561199175688390,"connected_time":2471000000000,"state":"active","ping":83},{"user_id":596,"name":"N1xD4","steam_id":76561199047686063,"connected_time":4091000000000,"state":"active","ping":69},{"user_id":649,"name":"Flohr","steam_id":76561198191948841,"connected_time":2164000000000,"state":"active","ping":45},{"user_id":628,"name":"Well, off to hang myself","steam_id":76561198053374944,"connected_time":2873000000000,"state":"active","ping":66},{"user_id":629,"name":"JVLIVS","steam_id":76561198366167099,"connected_time":2869000000000,"state":"active","ping":44},{"user_id":655,"name":"Fat Pigeon","steam_id":76561198817940142,"connected_time":1782000000000,"state":"active","ping":45},{"user_id":653,"name":"Kestrel","steam_id":76561198144033005,"connected_time":1989000000000,"state":"active","ping":51},{"user_id":660,"name":"Cpt_frost","steam_id":76561198218034817,"connected_time":927000000000,"state":"active","ping":52},{"user_id":635,"name":"Dan Dan the Furious","steam_id":76561198091032527,"connected_time":2756000000000,"state":"active","ping":68},{"user_id":642,"name":"how about you get a job","steam_id":76561199061646193,"connected_time":2434000000000,"state":"active","ping":97}]},{"server_id":40,"name":"Uncletopia | London | 7 | Stopwatch","name_short":"lon-7","host":"lon-1.uk.uncletopia.com","port":27075,"enabled":true,"region":"eu","cc":"gb","latitude":51.509865,"longitude":-0.118092,"reserved":0,"last_update":"0001-01-01T00:00:00Z","name_a2s":"Uncletopia | London | 7 | Stopwatch","protocol":17,"map":"pl_upward","folder":"tf","game":"Team Fortress","app_id":440,"player_count":0,"max_players":24,"Bots":0,"server_type":"Dedicated","server_os":"Linux","password":true,"vac":true,"version":"7961495","steam_id":85568392924964314,"keywords":["nocrits","nodmgspread","payload","uncletopia"],"game_id":440,"stv_port":27076,"stv_name":"Uncletopia | London | 7 | Stopwatch | STV","players":null},{"server_id":41,"name":"Uncletopia | London | 8 | Community","name_short":"lon-8","host":"lon-1.uk.uncletopia.com","port":27085,"enabled":true,"region":"eu","cc":"gb","latitude":51.509865,"longitude":-0.118092,"reserved":0,"last_update":"0001-01-01T00:00:00Z","name_a2s":"Uncletopia | London | 8 | Community","protocol":17,"map":"workshop/koth_bagel_rc6.ugc2514036946","folder":"tf","game":"Team Fortress","app_id":440,"player_count":2,"max_players":24,"Bots":0,"server_type":"Dedicated","server_os":"Linux","password":true,"vac":true,"version":"7961495","steam_id":85568392924964315,"keywords":["cp","nocrits","nodmgspread","uncletopia"],"game_id":440,"stv_port":27086,"stv_name":"Uncletopia | London | 8 | Community | STV","players":[{"user_id":12,"name":"weeeerut","steam_id":76561199090471211,"connected_time":59000000000,"state":"active","ping":45},{"user_id":11,"name":"Udinese Dion","steam_id":76561198067931573,"connected_time":334000000000,"state":"active","ping":60}]},{"server_id":300,"name":"Uncletopia | Montréal | 1 | One Thousand Uncles","name_short":"mtl-1","host":"mtl-1.ca.uncletopia.com","port":27015,"enabled":true,"region":"us-east","cc":"ca","latitude":45.50889,"longitude":-73.56167,"reserved":0,"last_update":"0001-01-01T00:00:00Z","name_a2s":"","protocol":0,"map":"","folder":"","game":"","app_id":0,"player_count":4,"max_players":0,"Bots":0,"server_type":"","server_os":"","password":false,"vac":false,"version":"","steam_id":0,"keywords":null,"game_id":0,"stv_port":0,"stv_name":"","players":[{"user_id":69,"name":"mazz","steam_id":76561199472182973,"connected_time":294000000000,"state":"active","ping":121},{"user_id":61,"name":"Chucklez","steam_id":76561198058193135,"connected_time":2735000000000,"state":"active","ping":75},{"user_id":62,"name":"ThatGirlWithaK","steam_id":76561198317602350,"connected_time":2692000000000,"state":"active","ping":89},{"user_id":63,"name":"Congcrab","steam_id":76561198078687685,"connected_time":2667000000000,"state":"active","ping":98}]},{"server_id":301,"name":"Uncletopia | Montréal | 2 | One Thousand Uncles","name_short":"mtl-2","host":"mtl-1.ca.uncletopia.com","port":27025,"enabled":true,"region":"us-east","cc":"ca","latitude":45.50889,"longitude":-73.56167,"reserved":0,"last_update":"0001-01-01T00:00:00Z","name_a2s":"","protocol":0,"map":"","folder":"","game":"","app_id":0,"player_count":0,"max_players":0,"Bots":0,"server_type":"","server_os":"","password":false,"vac":false,"version":"","steam_id":0,"keywords":null,"game_id":0,"stv_port":0,"stv_name":"","players":null},{"server_id":302,"name":"Uncletopia | Montréal | 3 | One Thousand Uncles","name_short":"mtl-3","host":"mtl-1.ca.uncletopia.com","port":27035,"enabled":true,"region":"us-east","cc":"ca","latitude":45.50889,"longitude":-73.56167,"reserved":0,"last_update":"0001-01-01T00:00:00Z","name_a2s":"","protocol":0,"map":"","folder":"","game":"","app_id":0,"player_count":1,"max_players":0,"Bots":0,"server_type":"","server_os":"","password":false,"vac":false,"version":"","steam_id":0,"keywords":null,"game_id":0,"stv_port":0,"stv_name":"","players":[{"user_id":37,"name":"BinaryBitGamer[They/Them]","steam_id":76561198140761006,"connected_time":57000000000,"state":"active","ping":54}]},{"server_id":13,"name":"Uncletopia | New York City | 1 | All Maps","name_short":"nyc-1","host":"nyc-1.us.uncletopia.com","port":27015,"enabled":true,"region":"us-east","cc":"us","latitude":40.73061,"longitude":-73.93524,"reserved":0,"last_update":"0001-01-01T00:00:00Z","name_a2s":"Uncletopia | New York City | 1 | All Maps","protocol":17,"map":"cp_dustbowl","folder":"tf","game":"Team Fortress","app_id":440,"player_count":24,"max_players":24,"Bots":0,"server_type":"Dedicated","server_os":"Linux","password":true,"vac":true,"version":"7961495","steam_id":85568392924469993,"keywords":["cp","nocrits","nodmgspread","uncletopia"],"game_id":440,"stv_port":27016,"stv_name":"Uncletopia | New York City | 1 | All Maps | STV","players":[{"user_id":86,"name":"Spoon ½","steam_id":76561198032696548,"connected_time":1268000000000,"state":"active","ping":135},{"user_id":87,"name":"Ursus Ludius","steam_id":76561198025470722,"connected_time":1203000000000,"state":"active","ping":71},{"user_id":95,"name":"Gerrard Johnson","steam_id":76561199499906561,"connected_time":741000000000,"state":"active","ping":33},{"user_id":88,"name":"DaveAtDublin","steam_id":76561198162386715,"connected_time":1187000000000,"state":"active","ping":59},{"user_id":97,"name":"Psychobells","steam_id":76561197995620232,"connected_time":617000000000,"state":"active","ping":32},{"user_id":58,"name":"Primal","steam_id":76561197983118203,"connected_time":3709000000000,"state":"active","ping":58},{"user_id":75,"name":"taigaxx","steam_id":76561198202669250,"connected_time":2010000000000,"state":"active","ping":67},{"user_id":96,"name":"lambme23","steam_id":76561198313678202,"connected_time":723000000000,"state":"active","ping":56},{"user_id":60,"name":"L to the OG","steam_id":76561199215811448,"connected_time":3509000000000,"state":"active","ping":59},{"user_id":91,"name":"OrangeShoes","steam_id":76561197971249940,"connected_time":1131000000000,"state":"active","ping":97},{"user_id":77,"name":"epsilene","steam_id":76561198027468624,"connected_time":1998000000000,"state":"active","ping":42},{"user_id":92,"name":"Ziath","steam_id":76561198094009164,"connected_time":1116000000000,"state":"active","ping":44},{"user_id":84,"name":"chainsaw chains for teeth.","steam_id":76561198294013916,"connected_time":1278000000000,"state":"active","ping":45},{"user_id":65,"name":"MechaSixVII","steam_id":76561198014927379,"connected_time":2963000000000,"state":"active","ping":72},{"user_id":72,"name":"ZombieMan101","steam_id":76561198846999186,"connected_time":2267000000000,"state":"active","ping":129},{"user_id":82,"name":"Child Obesity","steam_id":76561198099263425,"connected_time":1332000000000,"state":"active","ping":50},{"user_id":93,"name":"Professional Boy Kisser","steam_id":76561199202527150,"connected_time":1079000000000,"state":"active","ping":115},{"user_id":85,"name":"REZ","steam_id":76561198071088274,"connected_time":1277000000000,"state":"active","ping":156},{"user_id":94,"name":"Mars","steam_id":76561198052436353,"connected_time":1039000000000,"state":"active","ping":111},{"user_id":98,"name":"We Are The Cavalry","steam_id":76561198044856349,"connected_time":67000000000,"state":"active","ping":74},{"user_id":63,"name":"frenemy","steam_id":76561198011363677,"connected_time":3205000000000,"state":"active","ping":70},{"user_id":30,"name":"gregoryhens","steam_id":76561199434318315,"connected_time":7424000000000,"state":"active","ping":171},{"user_id":74,"name":"Chris","steam_id":76561198044278802,"connected_time":2046000000000,"state":"active","ping":60},{"user_id":40,"name":"Brawns","steam_id":76561198045190199,"connected_time":5446000000000,"state":"active","ping":68}]},{"server_id":14,"name":"Uncletopia | New York City | 2 | All Maps","name_short":"nyc-2","host":"nyc-1.us.uncletopia.com","port":27025,"enabled":true,"region":"us-east","cc":"us","latitude":40.73061,"longitude":-73.93524,"reserved":0,"last_update":"0001-01-01T00:00:00Z","name_a2s":"Uncletopia | New York City | 2 | All Maps","protocol":17,"map":"koth_lakeside_final","folder":"tf","game":"Team Fortress","app_id":440,"player_count":0,"max_players":24,"Bots":0,"server_type":"Dedicated","server_os":"Linux","password":true,"vac":true,"version":"7961495","steam_id":85568392924469994,"keywords":["cp","nocrits","nodmgspread","uncletopia"],"game_id":440,"stv_port":27026,"stv_name":"Uncletopia | New York City | 2 | All Maps | STV","players":null},{"server_id":15,"name":"Uncletopia | New York City | 3 | Stopwatch","name_short":"nyc-3","host":"nyc-1.us.uncletopia.com","port":27035,"enabled":true,"region":"us-east","cc":"us","latitude":40.73061,"longitude":-73.93524,"reserved":0,"last_update":"0001-01-01T00:00:00Z","name_a2s":"Uncletopia | New York City | 3 | Stopwatch","protocol":17,"map":"koth_lakeside_final","folder":"tf","game":"Team Fortress","app_id":440,"player_count":0,"max_players":24,"Bots":0,"server_type":"Dedicated","server_os":"Linux","password":true,"vac":true,"version":"7961495","steam_id":85568392924742820,"keywords":["cp","nocrits","nodmgspread","uncletopia"],"game_id":440,"stv_port":27036,"stv_name":"Uncletopia | New York City | 3 | Stopwatch | STV","players":null},{"server_id":16,"name":"Uncletopia | New York City | 4 | Community","name_short":"nyc-4","host":"nyc-1.us.uncletopia.com","port":27045,"enabled":true,"region":"us-east","cc":"us","latitude":40.73061,"longitude":-73.93524,"reserved":0,"last_update":"0001-01-01T00:00:00Z","name_a2s":"Uncletopia | New York City | 4 | Community","protocol":17,"map":"workshop/koth_trenchfoot_b1a.ugc731436616","folder":"tf","game":"Team Fortress","app_id":440,"player_count":0,"max_players":24,"Bots":0,"server_type":"Dedicated","server_os":"Linux","password":true,"vac":true,"version":"7961495","steam_id":85568392924742821,"keywords":["cp","nocrits","nodmgspread","uncletopia"],"game_id":440,"stv_port":27046,"stv_name":"Uncletopia | New York City | 4 | Community | STV","players":null},{"server_id":142,"name":"Uncletopia | São Paulo | 1 | All Maps","name_short":"sao-1","host":"sao-1.br.uncletopia.com","port":27015,"enabled":true,"region":"sa","cc":"br","latitude":-23.533773,"longitude":-46.62529,"reserved":0,"last_update":"0001-01-01T00:00:00Z","name_a2s":"Uncletopia | São Paulo | 1 | All Maps","protocol":17,"map":"cp_mountainlab","folder":"tf","game":"Team Fortress","app_id":440,"player_count":0,"max_players":24,"Bots":0,"server_type":"Dedicated","server_os":"Linux","password":true,"vac":true,"version":"7961495","steam_id":85568392924469996,"keywords":["cp","nocrits","nodmgspread","uncletopia"],"game_id":440,"stv_port":27016,"stv_name":"Uncletopia | São Paulo | 1 | All Maps | STV","players":null},{"server_id":143,"name":"Uncletopia | São Paulo | 2 | Community","name_short":"sao-2","host":"sao-2.br.uncletopia.com","port":27015,"enabled":true,"region":"sa","cc":"br","latitude":-23.533773,"longitude":-46.62529,"reserved":0,"last_update":"0001-01-01T00:00:00Z","name_a2s":"Uncletopia | São Paulo | 2 | Community","protocol":17,"map":"pl_badwater","folder":"tf","game":"Team Fortress","app_id":440,"player_count":0,"max_players":24,"Bots":0,"server_type":"Dedicated","server_os":"Linux","password":true,"vac":true,"version":"7961495","steam_id":85568392924485349,"keywords":["nocrits","nodmgspread","payload","uncletopia"],"game_id":440,"stv_port":27016,"stv_name":"Uncletopia | São Paulo | 2 | Community | STV","players":null},{"server_id":7,"name":"Uncletopia | Seattle | 1 | All Maps","name_short":"sea-1","host":"sea-1.us.uncletopia.com","port":27015,"enabled":true,"region":"us-west","cc":"us","latitude":47.608013,"longitude":-122.33517,"reserved":0,"last_update":"0001-01-01T00:00:00Z","name_a2s":"Uncletopia | Seattle | 1 | All Maps","protocol":17,"map":"pl_upward","folder":"tf","game":"Team Fortress","app_id":440,"player_count":24,"max_players":24,"Bots":0,"server_type":"Dedicated","server_os":"Linux","password":true,"vac":true,"version":"7961495","steam_id":85568392924469997,"keywords":["nocrits","nodmgspread","payload","uncletopia"],"game_id":440,"stv_port":27016,"stv_name":"Uncletopia | Seattle | 1 | All Maps | STV","players":[{"user_id":262,"name":"zinnk","steam_id":76561198092081825,"connected_time":1902000000000,"state":"active","ping":56},{"user_id":258,"name":"you just got dyked on","steam_id":76561198018977723,"connected_time":2432000000000,"state":"active","ping":41},{"user_id":276,"name":"2 Point Tom","steam_id":76561198087617008,"connected_time":1099000000000,"state":"active","ping":48},{"user_id":257,"name":"my monitor is off","steam_id":76561198074499537,"connected_time":2567000000000,"state":"active","ping":72},{"user_id":241,"name":"Fluffy","steam_id":76561198115952540,"connected_time":3402000000000,"state":"active","ping":44},{"user_id":268,"name":"Reposas","steam_id":76561198058803197,"connected_time":1762000000000,"state":"active","ping":91},{"user_id":228,"name":"Schmupp","steam_id":76561198150928115,"connected_time":4933000000000,"state":"active","ping":66},{"user_id":263,"name":"monkey squirts","steam_id":76561197983101644,"connected_time":1894000000000,"state":"active","ping":67},{"user_id":280,"name":"allahsdroptop","steam_id":76561198133195238,"connected_time":582000000000,"state":"active","ping":60},{"user_id":179,"name":"oo","steam_id":76561198119626492,"connected_time":9696000000000,"state":"active","ping":84},{"user_id":260,"name":"Daz","steam_id":76561198041431938,"connected_time":2337000000000,"state":"active","ping":50},{"user_id":266,"name":"ShackerJack","steam_id":76561198118017448,"connected_time":1886000000000,"state":"active","ping":54},{"user_id":251,"name":"Spicy Chicken","steam_id":76561198074209737,"connected_time":2929000000000,"state":"active","ping":90},{"user_id":281,"name":"PopcornBucketGames","steam_id":76561199089562026,"connected_time":526000000000,"state":"active","ping":43},{"user_id":283,"name":"HotHead","steam_id":76561198138468982,"connected_time":287000000000,"state":"active","ping":30},{"user_id":271,"name":"adapt","steam_id":76561198156181017,"connected_time":1473000000000,"state":"active","ping":79},{"user_id":273,"name":"SeeNik","steam_id":76561198149499817,"connected_time":1159000000000,"state":"active","ping":76},{"user_id":253,"name":"slushy :((","steam_id":76561198135281802,"connected_time":2781000000000,"state":"active","ping":36},{"user_id":248,"name":"Seanvich","steam_id":76561198065805500,"connected_time":3222000000000,"state":"active","ping":120},{"user_id":264,"name":"Firedust19","steam_id":76561198153238631,"connected_time":1887000000000,"state":"active","ping":90},{"user_id":272,"name":"Karg","steam_id":76561198091387866,"connected_time":1469000000000,"state":"active","ping":64},{"user_id":282,"name":"Mr.Bones","steam_id":76561198205170595,"connected_time":310000000000,"state":"active","ping":51},{"user_id":284,"name":"Mr8bittripper","steam_id":76561198133894229,"connected_time":174000000000,"state":"active","ping":34},{"user_id":255,"name":"UserLeft","steam_id":76561197998297379,"connected_time":2685000000000,"state":"active","ping":69}]},{"server_id":119,"name":"Uncletopia | Seattle | 2 | All Maps","name_short":"sea-2","host":"sea-1.us.uncletopia.com","port":27025,"enabled":true,"region":"us-west","cc":"us","latitude":47.608013,"longitude":-122.33517,"reserved":0,"last_update":"0001-01-01T00:00:00Z","name_a2s":"Uncletopia | Seattle | 2 | All Maps","protocol":17,"map":"koth_cascade","folder":"tf","game":"Team Fortress","app_id":440,"player_count":0,"max_players":24,"Bots":0,"server_type":"Dedicated","server_os":"Linux","password":true,"vac":true,"version":"7961495","steam_id":85568392924469998,"keywords":["cp","nocrits","nodmgspread","uncletopia"],"game_id":440,"stv_port":27026,"stv_name":"Uncletopia | Seattle | 2 | All Maps | STV","players":null},{"server_id":406,"name":"Uncletopia | Seattle | 3 | Stopwatch","name_short":"sea-3","host":"sea-1.us.uncletopia.com","port":27035,"enabled":true,"region":"us-west","cc":"us","latitude":47.608013,"longitude":-122.33517,"reserved":0,"last_update":"0001-01-01T00:00:00Z","name_a2s":"Uncletopia | Seattle | 3 | Stopwatch","protocol":17,"map":"pl_pier","folder":"tf","game":"Team Fortress","app_id":440,"player_count":0,"max_players":24,"Bots":0,"server_type":"Dedicated","server_os":"Linux","password":true,"vac":true,"version":"7961495","steam_id":85568392924515217,"keywords":["nocrits","nodmgspread","payload","uncletopia"],"game_id":440,"stv_port":27036,"stv_name":"Uncletopia | Seattle | 3 | Stopwatch | STV","players":null},{"server_id":17,"name":"Uncletopia | San Francisco | 1 | All Maps","name_short":"sfo-1","host":"sfo-1.us.uncletopia.com","port":27015,"enabled":true,"region":"us-west","cc":"us","latitude":37.77397,"longitude":-122.4313,"reserved":0,"last_update":"0001-01-01T00:00:00Z","name_a2s":"Uncletopia | San Francisco | 1 | All Maps","protocol":17,"map":"koth_cascade","folder":"tf","game":"Team Fortress","app_id":440,"player_count":0,"max_players":24,"Bots":0,"server_type":"Dedicated","server_os":"Linux","password":true,"vac":true,"version":"7961495","steam_id":85568392924469999,"keywords":["cp","nocrits","nodmgspread","uncletopia"],"game_id":440,"stv_port":27016,"stv_name":"Uncletopia | San Francisco | 1 | All Maps | STV","players":null},{"server_id":18,"name":"Uncletopia | San Francisco | 2 | All Maps","name_short":"sfo-2","host":"sfo-1.us.uncletopia.com","port":27025,"enabled":true,"region":"us-west","cc":"us","latitude":37.77397,"longitude":-122.4313,"reserved":0,"last_update":"0001-01-01T00:00:00Z","name_a2s":"Uncletopia | San Francisco | 2 | All Maps","protocol":17,"map":"pl_frontier_final","folder":"tf","game":"Team Fortress","app_id":440,"player_count":0,"max_players":24,"Bots":0,"server_type":"Dedicated","server_os":"Linux","password":true,"vac":true,"version":"7961495","steam_id":85568392924470000,"keywords":["nocrits","nodmgspread","payload","uncletopia"],"game_id":440,"stv_port":27026,"stv_name":"Uncletopia | San Francisco | 2 | All Maps | STV","players":null},{"server_id":19,"name":"Uncletopia | San Francisco | 3 | Stopwatch","name_short":"sfo-3","host":"sfo-1.us.uncletopia.com","port":27035,"enabled":true,"region":"us-west","cc":"us","latitude":37.77397,"longitude":-122.4313,"reserved":0,"last_update":"0001-01-01T00:00:00Z","name_a2s":"Uncletopia | San Francisco | 3 | Stopwatch","protocol":17,"map":"pl_pier","folder":"tf","game":"Team Fortress","app_id":440,"player_count":0,"max_players":24,"Bots":0,"server_type":"Dedicated","server_os":"Linux","password":true,"vac":true,"version":"7961495","steam_id":85568392924742824,"keywords":["nocrits","nodmgspread","payload","uncletopia"],"game_id":440,"stv_port":27036,"stv_name":"Uncletopia | San Francisco | 3 | Stopwatch | STV","players":null},{"server_id":20,"name":"Uncletopia | San Francisco | 4 | Community","name_short":"sfo-4","host":"sfo-1.us.uncletopia.com","port":27045,"enabled":true,"region":"us-west","cc":"us","latitude":37.77397,"longitude":-122.4313,"reserved":0,"last_update":"0001-01-01T00:00:00Z","name_a2s":"Uncletopia | San Francisco | 4 | Community","protocol":17,"map":"workshop/koth_product_final.ugc454272353","folder":"tf","game":"Team Fortress","app_id":440,"player_count":0,"max_players":24,"Bots":0,"server_type":"Dedicated","server_os":"Linux","password":true,"vac":true,"version":"7961495","steam_id":85568392924742826,"keywords":["cp","nocrits","nodmgspread","uncletopia"],"game_id":440,"stv_port":27046,"stv_name":"Uncletopia | San Francisco | 4 | Community | STV","players":null},{"server_id":141,"name":"Uncletopia | Sydney | 1 | All Maps","name_short":"syd-1","host":"syd-1.au.uncletopia.com","port":27015,"enabled":true,"region":"au","cc":"au","latitude":-33.865143,"longitude":151.2099,"reserved":0,"last_update":"0001-01-01T00:00:00Z","name_a2s":"Uncletopia | Sydney | 1 | All Maps","protocol":17,"map":"koth_highpass","folder":"tf","game":"Team Fortress","app_id":440,"player_count":0,"max_players":24,"Bots":0,"server_type":"Dedicated","server_os":"Linux","password":true,"vac":true,"version":"7961495","steam_id":85568392924470001,"keywords":["cp","nocrits","nodmgspread","uncletopia"],"game_id":440,"stv_port":27016,"stv_name":"Uncletopia | Sydney | 1 | All Maps | STV","players":null},{"server_id":123,"name":"Uncletopia | Sydney | 2 | All Maps","name_short":"syd-2","host":"syd-1.au.uncletopia.com","port":27025,"enabled":true,"region":"au","cc":"au","latitude":-33.865143,"longitude":151.2099,"reserved":0,"last_update":"0001-01-01T00:00:00Z","name_a2s":"Uncletopia | Sydney | 2 | All Maps","protocol":17,"map":"pl_badwater","folder":"tf","game":"Team Fortress","app_id":440,"player_count":0,"max_players":24,"Bots":0,"server_type":"Dedicated","server_os":"Linux","password":true,"vac":true,"version":"7961495","steam_id":85568392924470002,"keywords":["nocrits","nodmgspread","payload","uncletopia"],"game_id":440,"stv_port":27026,"stv_name":"Uncletopia | Sydney | 2 | All Maps | STV","players":null},{"server_id":395,"name":"Uncletopia | Sydney | 3 | All Maps","name_short":"syd-3","host":"syd-1.au.uncletopia.com","port":27035,"enabled":true,"region":"au","cc":"au","latitude":-33.865143,"longitude":151.2099,"reserved":0,"last_update":"0001-01-01T00:00:00Z","name_a2s":"Uncletopia | Sydney | 3 | All Maps","protocol":17,"map":"koth_viaduct","folder":"tf","game":"Team Fortress","app_id":440,"player_count":0,"max_players":24,"Bots":0,"server_type":"Dedicated","server_os":"Linux","password":true,"vac":true,"version":"7961495","steam_id":85568392925194467,"keywords":["cp","nocrits","nodmgspread","uncletopia"],"game_id":440,"stv_port":27036,"stv_name":"Uncletopia | Sydney | 3 | All Maps | STV","players":null},{"server_id":396,"name":"Uncletopia | Sydney | 4 | All Maps","name_short":"syd-4","host":"syd-1.au.uncletopia.com","port":27045,"enabled":true,"region":"au","cc":"au","latitude":-33.865143,"longitude":151.2099,"reserved":0,"last_update":"0001-01-01T00:00:00Z","name_a2s":"Uncletopia | Sydney | 4 | All Maps","protocol":17,"map":"koth_highpass","folder":"tf","game":"Team Fortress","app_id":440,"player_count":0,"max_players":24,"Bots":0,"server_type":"Dedicated","server_os":"Linux","password":true,"vac":true,"version":"7961495","steam_id":85568392925397958,"keywords":["cp","nocrits","nodmgspread","uncletopia"],"game_id":440,"stv_port":27046,"stv_name":"Uncletopia | Sydney | 4 | All Maps | STV","players":null},{"server_id":58,"name":"Uncletopia | Sydney | 5 | Stopwatch","name_short":"syd-5","host":"syd-1.au.uncletopia.com","port":27055,"enabled":true,"region":"au","cc":"au","latitude":-33.865143,"longitude":151.2099,"reserved":0,"last_update":"0001-01-01T00:00:00Z","name_a2s":"Uncletopia | Sydney | 5 | Stopwatch","protocol":17,"map":"pl_frontier_final","folder":"tf","game":"Team Fortress","app_id":440,"player_count":0,"max_players":24,"Bots":0,"server_type":"Dedicated","server_os":"Linux","password":true,"vac":true,"version":"7961495","steam_id":85568392925397959,"keywords":["nocrits","nodmgspread","payload","uncletopia"],"game_id":440,"stv_port":27056,"stv_name":"Uncletopia | Sydney | 5 | Stopwatch | STV","players":null},{"server_id":59,"name":"Uncletopia | Sydney | 6 | Community","name_short":"syd-6","host":"syd-1.au.uncletopia.com","port":27065,"enabled":true,"region":"au","cc":"au","latitude":-33.865143,"longitude":151.2099,"reserved":0,"last_update":"0001-01-01T00:00:00Z","name_a2s":"Uncletopia | Sydney | 6 | Community","protocol":17,"map":"workshop/koth_bagel_rc6.ugc2514036946","folder":"tf","game":"Team Fortress","app_id":440,"player_count":0,"max_players":24,"Bots":0,"server_type":"Dedicated","server_os":"Linux","password":true,"vac":true,"version":"7961495","steam_id":85568392925397960,"keywords":["cp","nocrits","nodmgspread","uncletopia"],"game_id":440,"stv_port":27066,"stv_name":"Uncletopia | Sydney | 6 | Community | STV","players":null},{"server_id":49,"name":"Uncletopia | Warsaw | 1 | One Thousand Uncles","name_short":"waw-1","host":"waw-1.pl.uncletopia.com","port":27015,"enabled":true,"region":"eu","cc":"pl","latitude":52.2297,"longitude":21.017532,"reserved":0,"last_update":"0001-01-01T00:00:00Z","name_a2s":"Uncletopia | Warsaw | 1 | One Thousand Uncles","protocol":17,"map":"pl_upward","folder":"tf","game":"Team Fortress","app_id":440,"player_count":22,"max_players":32,"Bots":16,"server_type":"Dedicated","server_os":"Linux","password":true,"vac":true,"version":"7961495","steam_id":85568392925397850,"keywords":["alltalk","bots","danepve","increased_maxplayers","nocrits","norespawntime","payload","uncletopia"],"game_id":440,"stv_port":0,"stv_name":"","players":[{"user_id":95,"name":"Dj_Bear","steam_id":76561198149865187,"connected_time":914000000000,"state":"active","ping":37},{"user_id":102,"name":"pablo","steam_id":76561198089285014,"connected_time":258000000000,"state":"active","ping":69},{"user_id":103,"name":"Joe weak","steam_id":76561198123988931,"connected_time":239000000000,"state":"active","ping":81},{"user_id":77,"name":"Max Power","steam_id":76561198019269089,"connected_time":1185000000000,"state":"active","ping":63},{"user_id":78,"name":"GeraldyJones65","steam_id":76561199122297098,"connected_time":1123000000000,"state":"active","ping":142},{"user_id":97,"name":"Amon Gus","steam_id":76561199094540960,"connected_time":576000000000,"state":"active","ping":65}]},{"server_id":50,"name":"Uncletopia | Warsaw | 2 | One Thousand Uncles","name_short":"waw-2","host":"waw-1.pl.uncletopia.com","port":27025,"enabled":true,"region":"eu","cc":"pl","latitude":52.2297,"longitude":21.017532,"reserved":0,"last_update":"0001-01-01T00:00:00Z","name_a2s":"Uncletopia | Warsaw | 2 | One Thousand Uncles","protocol":17,"map":"cp_altitude","folder":"tf","game":"Team Fortress","app_id":440,"player_count":24,"max_players":32,"Bots":16,"server_type":"Dedicated","server_os":"Linux","password":true,"vac":true,"version":"7961495","steam_id":85568392925397851,"keywords":["alltalk","bots","cp","danepve","increased_maxplayers","nocrits","norespawntime","uncletopia"],"game_id":440,"stv_port":0,"stv_name":"","players":[{"user_id":199,"name":"just a person","steam_id":76561198340369454,"connected_time":1187000000000,"state":"active","ping":40},{"user_id":121,"name":"Samuel L. Jackson","steam_id":76561198130427881,"connected_time":5226000000000,"state":"active","ping":186},{"user_id":127,"name":"Fallen Dog","steam_id":76561198851387188,"connected_time":5172000000000,"state":"active","ping":80},{"user_id":138,"name":"Lukas","steam_id":76561198009118452,"connected_time":2702000000000,"state":"active","ping":60},{"user_id":137,"name":"Squanchy","steam_id":76561198013657513,"connected_time":3395000000000,"state":"active","ping":45},{"user_id":202,"name":"Ern(x)","steam_id":76561198141807070,"connected_time":979000000000,"state":"active","ping":76},{"user_id":181,"name":"Yavkata","steam_id":76561198355317041,"connected_time":1384000000000,"state":"active","ping":100},{"user_id":173,"name":"Tolя","steam_id":76561199108984092,"connected_time":1871000000000,"state":"active","ping":130}]},{"server_id":51,"name":"Uncletopia | Warsaw | 3 | All Maps","name_short":"waw-3","host":"waw-1.pl.uncletopia.com","port":27035,"enabled":true,"region":"eu","cc":"pl","latitude":52.2297,"longitude":21.017532,"reserved":0,"last_update":"0001-01-01T00:00:00Z","name_a2s":"Uncletopia | Warsaw | 3 | All Maps","protocol":17,"map":"koth_viaduct","folder":"tf","game":"Team Fortress","app_id":440,"player_count":0,"max_players":24,"Bots":0,"server_type":"Dedicated","server_os":"Linux","password":true,"vac":true,"version":"7961495","steam_id":85568392925397852,"keywords":["cp","nocrits","nodmgspread","uncletopia"],"game_id":440,"stv_port":27036,"stv_name":"Uncletopia | Warsaw | 3 | All Maps | STV","players":null},{"server_id":52,"name":"Uncletopia | Warsaw | 4 | All Maps","name_short":"waw-4","host":"waw-1.pl.uncletopia.com","port":27045,"enabled":true,"region":"eu","cc":"pl","latitude":52.2297,"longitude":21.017532,"reserved":0,"last_update":"0001-01-01T00:00:00Z","name_a2s":"Uncletopia | Warsaw | 4 | All Maps","protocol":17,"map":"cp_mountainlab","folder":"tf","game":"Team Fortress","app_id":440,"player_count":0,"max_players":24,"Bots":0,"server_type":"Dedicated","server_os":"Linux","password":true,"vac":true,"version":"7961495","steam_id":85568392925397853,"keywords":["cp","nocrits","nodmgspread","uncletopia"],"game_id":440,"stv_port":27046,"stv_name":"Uncletopia | Warsaw | 4 | All Maps | STV","players":null},{"server_id":53,"name":"Uncletopia | Warsaw | 5 | Stopwatch","name_short":"waw-5","host":"waw-1.pl.uncletopia.com","port":27055,"enabled":true,"region":"eu","cc":"pl","latitude":52.2297,"longitude":21.017532,"reserved":0,"last_update":"0001-01-01T00:00:00Z","name_a2s":"Uncletopia | Warsaw | 5 | Stopwatch","protocol":17,"map":"koth_highpass","folder":"tf","game":"Team Fortress","app_id":440,"player_count":0,"max_players":24,"Bots":0,"server_type":"Dedicated","server_os":"Linux","password":true,"vac":true,"version":"7961495","steam_id":85568392925397854,"keywords":["cp","nocrits","nodmgspread","uncletopia"],"game_id":440,"stv_port":27056,"stv_name":"Uncletopia | Warsaw | 5 | Stopwatch | STV","players":null},{"server_id":54,"name":"Uncletopia | Warsaw | 6 | Community","name_short":"waw-6","host":"waw-1.pl.uncletopia.com","port":27065,"enabled":true,"region":"eu","cc":"pl","latitude":52.2297,"longitude":21.017532,"reserved":0,"last_update":"0001-01-01T00:00:00Z","name_a2s":"Uncletopia | Warsaw | 6 | Community","protocol":17,"map":"workshop/koth_synthetic_rc6a.ugc1549817316","folder":"tf","game":"Team Fortress","app_id":440,"player_count":0,"max_players":24,"Bots":0,"server_type":"Dedicated","server_os":"Linux","password":true,"vac":true,"version":"7961495","steam_id":85568392925397856,"keywords":["cp","nocrits","nodmgspread","uncletopia"],"game_id":440,"stv_port":27066,"stv_name":"Uncletopia | Warsaw | 6 | Community | STV","players":null}]}