{"status":true,"message":"","result":[{"server_id":9,"name":"Uncletopia | Atlanta | 1 | All Maps","name_short":"atl-1","host":"atl-1.us.uncletopia.com","port":27015,"enabled":true,"region":"us-east","cc":"us","latitude":33.753746,"longitude":-84.38633,"reserved":0,"last_update":"0001-01-01T00:00:00Z","name_a2s":"Uncletopia | Atlanta | 1 | All Maps","protocol":17,"map":"ctf_2fort","folder":"tf","game":"Team Fortress","app_id":440,"player_count":19,"max_players":24,"Bots":0,"server_type":"Dedicated","server_os":"Linux","password":true,"vac":true,"version":"7932396","steam_id":85568392924469982,"keywords":["ctf","gravity","nocrits","nodmgspread","uncletopia"],"game_id":440,"stv_port":27016,"stv_name":"Uncletopia | Atlanta | 1 | All Maps | STV","players":[{"user_id":250,"name":"IZISOO","steam_id":76561198970380577,"connected_time":217000000000,"state":"active","ping":91},{"user_id":246,"name":"OttotheTomato","steam_id":76561198272610597,"connected_time":298000000000,"state":"active","ping":87},{"user_id":251,"name":"comet sooicidy","steam_id":76561198025173479,"connected_time":216000000000,"state":"active","ping":92},{"user_id":252,"name":"Huey","steam_id":76561198972816386,"connected_time":215000000000,"state":"active","ping":100},{"user_id":255,"name":"10KO!","steam_id":76561199134895220,"connected_time":67000000000,"state":"active","ping":83},{"user_id":253,"name":"Zeta","steam_id":76561198178693059,"connected_time":149000000000,"state":"active","ping":75},{"user_id":203,"name":"FinnGator","steam_id":76561198241766488,"connected_time":1663000000000,"state":"active","ping":89},{"user_id":231,"name":"Infantryfilms","steam_id":76561199304068543,"connected_time":744000000000,"state":"active","ping":143},{"user_id":204,"name":"‡ºò ‚ãÜÀöüéßCaffeine‚òï*Àñ¬∞","steam_id":76561199259309294,"connected_time":1559000000000,"state":"active","ping":96},{"user_id":205,"name":"Belmore","steam_id":76561198009355231,"connected_time":1513000000000,"state":"active","ping":119},{"user_id":254,"name":"hxui3506","steam_id":76561199148162329,"connected_time":119000000000,"state":"active","ping":127},{"user_id":211,"name":"chesterwnimitz","steam_id":76561198062664377,"connected_time":1170000000000,"state":"active","ping":115},{"user_id":256,"name":"mdharsy","steam_id":76561198065831053,"connected_time":49000000000,"state":"active","ping":104},{"user_id":248,"name":"Galaxy_42","steam_id":76561198845514831,"connected_time":256000000000,"state":"active","ping":64},{"user_id":242,"name":"FOrce of nature","steam_id":76561198390522839,"connected_time":410000000000,"state":"active","ping":99},{"user_id":257,"name":"HAT-WEARING‚Ñ¢ Maggot Gamer Cat","steam_id":76561197973992705,"connected_time":23000000000,"state":"spawning","ping":139},{"user_id":258,"name":"Golurk with some bitches","steam_id":76561198085888959,"connected_time":21000000000,"state":"spawning","ping":51},{"user_id":219,"name":"Gary Budussy","steam_id":76561197969793969,"connected_time":1067000000000,"state":"active","ping":77},{"user_id":227,"name":"bdlance","steam_id":76561198218846360,"connected_time":889000000000,"state":"active","ping":70}]},{"server_id":104,"name":"Uncletopia | Atlanta | 2 | All Maps","name_short":"atl-2","host":"atl-1.us.uncletopia.com","port":27025,"enabled":true,"region":"us-east","cc":"us","latitude":33.753746,"longitude":-84.38633,"reserved":0,"last_update":"0001-01-01T00:00:00Z","name_a2s":"Uncletopia | Atlanta | 2 | All Maps","protocol":17,"map":"koth_viaduct","folder":"tf","game":"Team Fortress","app_id":440,"player_count":0,"max_players":24,"Bots":0,"server_type":"Dedicated","server_os":"Linux","password":true,"vac":true,"version":"7932396","steam_id":85568392924469983,"keywords":["cp","nocrits","nodmgspread","uncletopia"],"game_id":440,"stv_port":27026,"stv_name":"Uncletopia | Atlanta | 2 | All Maps | STV","players":null},{"server_id":400,"name":"Uncletopia | Atlanta | 3 | Community","name_short":"atl-3","host":"atl-1.us.uncletopia.com","port":27035,"enabled":true,"region":"us-east","cc":"us","latitude":33.753746,"longitude":-84.38633,"reserved":0,"last_update":"0001-01-01T00:00:00Z","name_a2s":"Uncletopia | Atlanta | 3 | Community","protocol":17,"map":"workshop/cp_logjam_rc12.ugc454812035","folder":"tf","game":"Team Fortress","app_id":440,"player_count":0,"max_players":24,"Bots":0,"server_type":"Dedicated","server_os":"Linux","password":true,"vac":true,"version":"7932396","steam_id":85568392924515187,"keywords":["cp","nocrits","nodmgspread","uncletopia"],"game_id":440,"stv_port":27036,"stv_name":"Uncletopia | Atlanta | 3 | Community | STV","players":null},{"server_id":401,"name":"Uncletopia | Atlanta | 4 | No Payload","name_short":"atl-4","host":"atl-1.us.uncletopia.com","port":27045,"enabled":true,"region":"us-east","cc":"us","latitude":33.753746,"longitude":-84.38633,"reserved":0,"last_update":"0001-01-01T00:00:00Z","name_a2s":"","protocol":0,"map":"","folder":"","game":"","app_id":0,"player_count":0,"max_players":0,"Bots":0,"server_type":"","server_os":"","password":false,"vac":false,"version":"","steam_id":0,"keywords":null,"game_id":0,"stv_port":0,"stv_name":"","players":null},{"server_id":2,"name":"Uncletopia | Chicago | 1 | All Maps","name_short":"chi-1","host":"chi-1.us.uncletopia.com","port":27015,"enabled":true,"region":"us-central","cc":"us","latitude":41.881832,"longitude":-87.62318,"reserved":0,"last_update":"0001-01-01T00:00:00Z","name_a2s":"Uncletopia | Chicago | 1 | All Maps","protocol":17,"map":"pl_badwater","folder":"tf","game":"Team Fortress","app_id":440,"player_count":24,"max_players":24,"Bots":0,"server_type":"Dedicated","server_os":"Linux","password":true,"vac":true,"version":"7932396","steam_id":85568392924469984,"keywords":["nocrits","nodmgspread","payload","uncletopia"],"game_id":440,"stv_port":27016,"stv_name":"Uncletopia | Chicago | 1 | All Maps | STV","players":[{"user_id":746,"name":"wakeupbdot","steam_id":76561198160786631,"connected_time":3179000000000,"state":"active","ping":61},{"user_id":775,"name":"della","steam_id":76561198118877005,"connected_time":173000000000,"state":"active","ping":44},{"user_id":750,"name":"Catzs","steam_id":76561197996013572,"connected_time":2756000000000,"state":"active","ping":93},{"user_id":773,"name":"Yummy Kabobz","steam_id":76561198067661705,"connected_time":197000000000,"state":"active","ping":61},{"user_id":778,"name":"Juice","steam_id":76561198085001331,"connected_time":139000000000,"state":"active","ping":101},{"user_id":709,"name":"Ket","steam_id":76561198241951244,"connected_time":6558000000000,"state":"active","ping":61},{"user_id":772,"name":"gary","steam_id":76561198800005170,"connected_time":225000000000,"state":"active","ping":86},{"user_id":777,"name":"Tim","steam_id":76561198126844549,"connected_time":159000000000,"state":"active","ping":92},{"user_id":779,"name":"Cici","steam_id":76561198394169440,"connected_time":111000000000,"state":"active","ping":47},{"user_id":780,"name":"IMM0RTAL","steam_id":76561198013747901,"connected_time":93000000000,"state":"active","ping":68},{"user_id":781,"name":"Coinclever","steam_id":76561198099972692,"connected_time":78000000000,"state":"active","ping":53},{"user_id":771,"name":"Viren","steam_id":76561198012636897,"connected_time":333000000000,"state":"active","ping":84},{"user_id":782,"name":"Ginsai","steam_id":76561198107797443,"connected_time":59000000000,"state":"active","ping":82},{"user_id":758,"name":"Mank","steam_id":76561198189421005,"connected_time":1182000000000,"state":"active","ping":46},{"user_id":783,"name":"Mr Happy","steam_id":76561198067689328,"connected_time":55000000000,"state":"active","ping":55},{"user_id":756,"name":"Kritzburgh","steam_id":76561198149466938,"connected_time":2290000000000,"state":"active","ping":65},{"user_id":763,"name":"QWERTY","steam_id":76561198211430420,"connected_time":983000000000,"state":"active","ping":71},{"user_id":743,"name":"Voodo133","steam_id":76561198042670351,"connected_time":3736000000000,"state":"active","ping":87},{"user_id":751,"name":"Bonk Nickeltoon","steam_id":76561198027738883,"connected_time":2748000000000,"state":"active","ping":68},{"user_id":786,"name":"Xruffel (im so high)","steam_id":76561198067697879,"connected_time":14000000000,"state":"spawning","ping":47},{"user_id":784,"name":"scrapheap","steam_id":76561198202407087,"connected_time":54000000000,"state":"active","ping":64},{"user_id":770,"name":"Nobody","steam_id":76561198085808754,"connected_time":352000000000,"state":"active","ping":86},{"user_id":785,"name":"Thebossdude22","steam_id":76561198125202109,"connected_time":50000000000,"state":"active","ping":76},{"user_id":759,"name":"Retro Phoenix","steam_id":76561198077176271,"connected_time":1182000000000,"state":"active","ping":57}]},{"server_id":106,"name":"Uncletopia | Chicago | 2 | All Maps","name_short":"chi-2","host":"chi-1.us.uncletopia.com","port":27025,"enabled":true,"region":"us-central","cc":"us","latitude":41.881832,"longitude":-87.62318,"reserved":0,"last_update":"0001-01-01T00:00:00Z","name_a2s":"Uncletopia | Chicago | 2 | All Maps","protocol":17,"map":"pl_frontier_final","folder":"tf","game":"Team Fortress","app_id":440,"player_count":0,"max_players":24,"Bots":0,"server_type":"Dedicated","server_os":"Linux","password":true,"vac":true,"version":"7932396","steam_id":85568392924469985,"keywords":["nocrits","nodmgspread","payload","uncletopia"],"game_id":440,"stv_port":27026,"stv_name":"Uncletopia | Chicago | 2 | All Maps | STV","players":null},{"server_id":402,"name":"Uncletopia | Chicago | 3 | All Maps","name_short":"chi-3","host":"chi-1.us.uncletopia.com","port":27035,"enabled":true,"region":"us-central","cc":"us","latitude":41.881832,"longitude":-87.62318,"reserved":0,"last_update":"0001-01-01T00:00:00Z","name_a2s":"Uncletopia | Chicago | 3 | All Maps","protocol":17,"map":"cp_dustbowl","folder":"tf","game":"Team Fortress","app_id":440,"player_count":16,"max_players":24,"Bots":0,"server_type":"Dedicated","server_os":"Linux","password":true,"vac":true,"version":"7932396","steam_id":85568392924515191,"keywords":["cp","nocrits","nodmgspread","uncletopia"],"game_id":440,"stv_port":27036,"stv_name":"Uncletopia | Chicago | 3 | All Maps | STV","players":[{"user_id":850,"name":"Alfonso Molestro","steam_id":76561197998677099,"connected_time":1852000000000,"state":"active","ping":72},{"user_id":867,"name":"NeonBean","steam_id":76561198088335827,"connected_time":257000000000,"state":"active","ping":87},{"user_id":862,"name":"BIG HOG","steam_id":76561198079923652,"connected_time":701000000000,"state":"active","ping":75},{"user_id":849,"name":"Michaelpc1","steam_id":76561198088365519,"connected_time":1970000000000,"state":"active","ping":74},{"user_id":842,"name":"LesserAce","steam_id":76561198153258132,"connected_time":2079000000000,"state":"active","ping":148},{"user_id":860,"name":"AnonymousCritter","steam_id":76561198864475187,"connected_time":936000000000,"state":"active","ping":47},{"user_id":866,"name":"highadmiralh","steam_id":76561198128992875,"connected_time":377000000000,"state":"active","ping":86},{"user_id":854,"name":"Mitsubishi Materials","steam_id":76561198151871198,"connected_time":1580000000000,"state":"active","ping":56},{"user_id":825,"name":"larguu","steam_id":76561197994336210,"connected_time":3411000000000,"state":"active","ping":46},{"user_id":852,"name":"manz","steam_id":76561198059065906,"connected_time":1623000000000,"state":"active","ping":59},{"user_id":870,"name":"Bellator","steam_id":76561198064103979,"connected_time":80000000000,"state":"active","ping":93},{"user_id":868,"name":"HE‚ÄôS IN THE GODDAMN WALLS","steam_id":76561198363267009,"connected_time":177000000000,"state":"active","ping":65},{"user_id":865,"name":"Femboy Gaming","steam_id":76561198330940939,"connected_time":547000000000,"state":"active","ping":104},{"user_id":831,"name":"Yongle","steam_id":76561198068591156,"connected_time":3197000000000,"state":"active","ping":51},{"user_id":858,"name":"Creativitybreaks","steam_id":76561199468176518,"connected_time":1259000000000,"state":"active","ping":71},{"user_id":848,"name":"Mengle","steam_id":76561198001953684,"connected_time":2009000000000,"state":"active","ping":59}]},{"server_id":403,"name":"Uncletopia | Chicago | 4 | All Maps","name_short":"chi-4","host":"chi-1.us.uncletopia.com","port":27045,"enabled":true,"region":"us-central","cc":"us","latitude":41.881832,"longitude":-87.62318,"reserved":0,"last_update":"0001-01-01T00:00:00Z","name_a2s":"Uncletopia | Chicago | 4 | All Maps","protocol":17,"map":"cp_snakewater_final1","folder":"tf","game":"Team Fortress","app_id":440,"player_count":0,"max_players":24,"Bots":0,"server_type":"Dedicated","server_os":"Linux","password":true,"vac":true,"version":"7932396","steam_id":85568392924515193,"keywords":["cp","nocrits","nodmgspread","uncletopia"],"game_id":440,"stv_port":27046,"stv_name":"Uncletopia | Chicago | 4 | All Maps | STV","players":null},{"server_id":36,"name":"Uncletopia | Chicago | 5 | All Maps","name_short":"chi-5","host":"chi-2.us.uncletopia.com","port":27015,"enabled":true,"region":"us-central","cc":"us","latitude":41.881832,"longitude":-87.62318,"reserved":0,"last_update":"0001-01-01T00:00:00Z","name_a2s":"Uncletopia | Chicago | 5 | All Maps","protocol":17,"map":"pl_snowycoast","folder":"tf","game":"Team Fortress","app_id":440,"player_count":0,"max_players":24,"Bots":0,"server_type":"Dedicated","server_os":"Linux","password":true,"vac":true,"version":"7932396","steam_id":85568392924866362,"keywords":["nocrits","nodmgspread","payload","uncletopia"],"game_id":440,"stv_port":27016,"stv_name":"Uncletopia | Chicago | 5 | All Maps | STV","players":null},{"server_id":37,"name":"Uncletopia | Chicago | 6 | All Maps","name_short":"chi-6","host":"chi-2.us.uncletopia.com","port":27025,"enabled":true,"region":"us-central","cc":"us","latitude":41.881832,"longitude":-87.62318,"reserved":0,"last_update":"0001-01-01T00:00:00Z","name_a2s":"Uncletopia | Chicago | 6 | All Maps","protocol":17,"map":"koth_viaduct","folder":"tf","game":"Team Fortress","app_id":440,"player_count":3,"max_players":24,"Bots":0,"server_type":"Dedicated","server_os":"Linux","password":true,"vac":true,"version":"7932396","steam_id":85568392924866363,"keywords":["cp","nocrits","nodmgspread","uncletopia"],"game_id":440,"stv_port":27026,"stv_name":"Uncletopia | Chicago | 6 | All Maps | STV","players":[{"user_id":628,"name":"wanye","steam_id":76561198216398577,"connected_time":7079000000000,"state":"active","ping":49},{"user_id":629,"name":"bagel sandwich","steam_id":76561198087971968,"connected_time":7054000000000,"state":"active","ping":59},{"user_id":632,"name":"A Large Side Salad","steam_id":76561198106937700,"connected_time":3164000000000,"state":"active","ping":67}]},{"server_id":38,"name":"Uncletopia | Chicago | 7 | Stopwatch Beta","name_short":"chi-7","host":"chi-2.us.uncletopia.com","port":27035,"enabled":true,"region":"us-central","cc":"us","latitude":41.881832,"longitude":-87.62318,"reserved":0,"last_update":"0001-01-01T00:00:00Z","name_a2s":"Uncletopia | Chicago | 7 | Stopwatch Beta","protocol":17,"map":"workshop/koth_ramjam_rc1.ugc459778887","folder":"tf","game":"Team Fortress","app_id":440,"player_count":0,"max_players":24,"Bots":0,"server_type":"Dedicated","server_os":"Linux","password":true,"vac":true,"version":"7932396","steam_id":85568392924866364,"keywords":["cp","nocrits","nodmgspread","uncletopia"],"game_id":440,"stv_port":27036,"stv_name":"Uncletopia | Chicago | 7 | Stopwatch Beta | STV","players":null},{"server_id":39,"name":"Uncletopia | Chicago | 8 | Community","name_short":"chi-8","host":"chi-2.us.uncletopia.com","port":27045,"enabled":true,"region":"us-central","cc":"us","latitude":41.881832,"longitude":-87.62318,"reserved":0,"last_update":"0001-01-01T00:00:00Z","name_a2s":"Uncletopia | Chicago | 8 | Community","protocol":17,"map":"workshop/cp_caldera_rc2.ugc2834196889","folder":"tf","game":"Team Fortress","app_id":440,"player_count":0,"max_players":24,"Bots":0,"server_type":"Dedicated","server_os":"Linux","password":true,"vac":true,"version":"7932396","steam_id":85568392924866365,"keywords":["cp","nocrits","nodmgspread","uncletopia"],"game_id":440,"stv_port":27046,"stv_name":"Uncletopia | Chicago | 8 | Community | STV","players":null},{"server_id":8,"name":"Uncletopia | Dallas | 1 | All Maps","name_short":"dal-1","host":"dal-1.us.uncletopia.com","port":27015,"enabled":true,"region":"us-central","cc":"us","latitude":32.779167,"longitude":-96.80889,"reserved":0,"last_update":"0001-01-01T00:00:00Z","name_a2s":"Uncletopia | Dallas | 1 | All Maps","protocol":17,"map":"pl_pier","folder":"tf","game":"Team Fortress","app_id":440,"player_count":0,"max_players":24,"Bots":0,"server_type":"Dedicated","server_os":"Linux","password":true,"vac":true,"version":"7932396","steam_id":85568392924469986,"keywords":["nocrits","nodmgspread","payload","uncletopia"],"game_id":440,"stv_port":27016,"stv_name":"Uncletopia | Dallas | 1 | All Maps | STV","players":null},{"server_id":108,"name":"Uncletopia | Dallas | 2 | All Maps","name_short":"dal-2","host":"dal-1.us.uncletopia.com","port":27025,"enabled":true,"region":"us-central","cc":"us","latitude":32.779167,"longitude":-96.80889,"reserved":0,"last_update":"0001-01-01T00:00:00Z","name_a2s":"Uncletopia | Dallas | 2 | All Maps","protocol":17,"map":"cp_dustbowl","folder":"tf","game":"Team Fortress","app_id":440,"player_count":17,"max_players":24,"Bots":0,"server_type":"Dedicated","server_os":"Linux","password":true,"vac":true,"version":"7932396","steam_id":85568392924469988,"keywords":["cp","nocrits","nodmgspread","uncletopia"],"game_id":440,"stv_port":27026,"stv_name":"Uncletopia | Dallas | 2 | All Maps | STV","players":[{"user_id":910,"name":"SirGoldalot","steam_id":76561198171440151,"connected_time":1013000000000,"state":"active","ping":64},{"user_id":912,"name":"DSM-IVCE","steam_id":76561199438515797,"connected_time":619000000000,"state":"active","ping":109},{"user_id":923,"name":"Dementophobic_Dude","steam_id":76561199470601524,"connected_time":2000000000,"state":"spawning","ping":65},{"user_id":917,"name":"Talented","steam_id":76561198800259660,"connected_time":233000000000,"state":"active","ping":65},{"user_id":893,"name":"banan team fortes","steam_id":76561199073621650,"connected_time":2752000000000,"state":"active","ping":81},{"user_id":894,"name":"god's silliest puppygirl","steam_id":76561198128164970,"connected_time":2699000000000,"state":"active","ping":72},{"user_id":920,"name":"Rae","steam_id":76561198853239207,"connected_time":49000000000,"state":"active","ping":36},{"user_id":895,"name":"Out Like a Light","steam_id":76561198410957728,"connected_time":2694000000000,"state":"active","ping":67},{"user_id":919,"name":"Manic","steam_id":76561198128149670,"connected_time":116000000000,"state":"active","ping":41},{"user_id":913,"name":"KILLER FLY","steam_id":76561198846480611,"connected_time":455000000000,"state":"active","ping":91},{"user_id":871,"name":"basilberry","steam_id":76561198145275937,"connected_time":4245000000000,"state":"active","ping":63},{"user_id":921,"name":"frick","steam_id":76561198076400660,"connected_time":41000000000,"state":"active","ping":75},{"user_id":922,"name":"Batmanstop","steam_id":76561198181734609,"connected_time":18000000000,"state":"active","ping":107},{"user_id":897,"name":"peebs","steam_id":76561198261319753,"connected_time":2669000000000,"state":"active","ping":54},{"user_id":899,"name":"sergeant Adderall","steam_id":76561199010296481,"connected_time":2660000000000,"state":"active","ping":106},{"user_id":883,"name":"robo gushy","steam_id":76561198060334743,"connected_time":3962000000000,"state":"active","ping":65},{"user_id":885,"name":"skegeton","steam_id":76561198095581099,"connected_time":3934000000000,"state":"active","ping":59}]},{"server_id":5,"name":"Uncletopia | Frankfurt | 1 | All Maps","name_short":"frk-1","host":"frk-1.de.uncletopia.com","port":27015,"enabled":true,"region":"eu","cc":"de","latitude":50.110924,"longitude":8.682127,"reserved":0,"last_update":"0001-01-01T00:00:00Z","name_a2s":"Uncletopia | Frankfurt | 1 | All Maps","protocol":17,"map":"koth_viaduct","folder":"tf","game":"Team Fortress","app_id":440,"player_count":0,"max_players":24,"Bots":0,"server_type":"Dedicated","server_os":"Linux","password":true,"vac":true,"version":"7932396","steam_id":85568392924469989,"keywords":["cp","nocrits","nodmgspread","uncletopia"],"game_id":440,"stv_port":27016,"stv_name":"Uncletopia | Frankfurt | 1 | All Maps | STV","players":null},{"server_id":110,"name":"Uncletopia | Frankfurt | 2 | All Maps","name_short":"frk-2","host":"frk-1.de.uncletopia.com","port":27025,"enabled":true,"region":"eu","cc":"de","latitude":50.110924,"longitude":8.682127,"reserved":0,"last_update":"0001-01-01T00:00:00Z","name_a2s":"Uncletopia | Frankfurt | 2 | All Maps","protocol":17,"map":"cp_sunshine","folder":"tf","game":"Team Fortress","app_id":440,"player_count":0,"max_players":24,"Bots":0,"server_type":"Dedicated","server_os":"Linux","password":true,"vac":true,"version":"7932396","steam_id":85568392924469990,"keywords":["cp","nocrits","nodmgspread","uncletopia"],"game_id":440,"stv_port":27026,"stv_name":"Uncletopia | Frankfurt | 2 | All Maps | STV","players":null},{"server_id":308,"name":"Uncletopia | Frankfurt | 3 | All Maps","name_short":"frk-3","host":"frk-1.de.uncletopia.com","port":27035,"enabled":true,"region":"eu","cc":"de","latitude":50.110924,"longitude":8.682127,"reserved":0,"last_update":"0001-01-01T00:00:00Z","name_a2s":"Uncletopia | Frankfurt | 3 | All Maps","protocol":17,"map":"pl_borneo","folder":"tf","game":"Team Fortress","app_id":440,"player_count":24,"max_players":24,"Bots":0,"server_type":"Dedicated","server_os":"Linux","password":true,"vac":true,"version":"7932396","steam_id":85568392924504274,"keywords":["nocrits","nodmgspread","payload","uncletopia"],"game_id":440,"stv_port":27036,"stv_name":"Uncletopia | Frankfurt | 3 | All Maps | STV","players":[{"user_id":66,"name":"bad medic","steam_id":76561198352683491,"connected_time":1288000000000,"state":"active","ping":52},{"user_id":53,"name":"Kenopsia","steam_id":76561198126750888,"connected_time":2519000000000,"state":"active","ping":79},{"user_id":52,"name":"soup","steam_id":76561198386933065,"connected_time":2730000000000,"state":"active","ping":62},{"user_id":62,"name":"√ÉNVS DR√ÉNVS","steam_id":76561198138733015,"connected_time":1444000000000,"state":"active","ping":112},{"user_id":76,"name":"sweaterfan","steam_id":76561199389567214,"connected_time":217000000000,"state":"active","ping":144},{"user_id":50,"name":"John0309","steam_id":76561198447428162,"connected_time":2816000000000,"state":"active","ping":71},{"user_id":55,"name":"Coomer","steam_id":76561198186808027,"connected_time":2406000000000,"state":"active","ping":47},{"user_id":54,"name":"iakozachek","steam_id":76561198421867219,"connected_time":2413000000000,"state":"active","ping":131},{"user_id":74,"name":"sangth","steam_id":76561198032787233,"connected_time":419000000000,"state":"active","ping":86},{"user_id":14,"name":"Romultra","steam_id":76561198354105082,"connected_time":3969000000000,"state":"active","ping":59},{"user_id":68,"name":"Pyro","steam_id":76561198999303134,"connected_time":1184000000000,"state":"active","ping":122},{"user_id":19,"name":"Asmodeus","steam_id":76561198283156425,"connected_time":3880000000000,"state":"active","ping":72},{"user_id":36,"name":"Barak93","steam_id":76561198044585705,"connected_time":3439000000000,"state":"active","ping":53},{"user_id":63,"name":"MeBandae","steam_id":76561198910770432,"connected_time":1354000000000,"state":"active","ping":78},{"user_id":26,"name":"Wujek Cacek","steam_id":76561198010267943,"connected_time":3565000000000,"state":"active","ping":71},{"user_id":71,"name":"Muvi","steam_id":76561198044583116,"connected_time":749000000000,"state":"active","ping":93},{"user_id":75,"name":"Everness","steam_id":76561197994803883,"connected_time":413000000000,"state":"active","ping":77},{"user_id":31,"name":"Rin-Nakaret","steam_id":76561197971051188,"connected_time":3514000000000,"state":"active","ping":65},{"user_id":77,"name":"iIMOFIi","steam_id":76561199000483925,"connected_time":117000000000,"state":"active","ping":163},{"user_id":39,"name":"dunduu","steam_id":76561198875240717,"connected_time":3300000000000,"state":"active","ping":61},{"user_id":69,"name":"Rex Z'Beq","steam_id":76561199300590000,"connected_time":1119000000000,"state":"active","ping":85},{"user_id":57,"name":"du hast","steam_id":76561198927694734,"connected_time":2166000000000,"state":"active","ping":90},{"user_id":51,"name":"Kepucz","steam_id":76561197977634244,"connected_time":2755000000000,"state":"active","ping":61},{"user_id":73,"name":"lunaire","steam_id":76561198163344452,"connected_time":481000000000,"state":"active","ping":82}]},{"server_id":309,"name":"Uncletopia | Frankfurt | 4 | All Maps","name_short":"frk-4","host":"frk-1.de.uncletopia.com","port":27045,"enabled":true,"region":"eu","cc":"de","latitude":50.110924,"longitude":8.682127,"reserved":0,"last_update":"0001-01-01T00:00:00Z","name_a2s":"Uncletopia | Frankfurt | 4 | All Maps","protocol":17,"map":"pl_upward","folder":"tf","game":"Team Fortress","app_id":440,"player_count":0,"max_players":24,"Bots":0,"server_type":"Dedicated","server_os":"Linux","password":true,"vac":true,"version":"7932396","steam_id":85568392924504275,"keywords":["nocrits","nodmgspread","payload","uncletopia"],"game_id":440,"stv_port":27046,"stv_name":"Uncletopia | Frankfurt | 4 | All Maps | STV","players":null},{"server_id":310,"name":"Uncletopia | Frankfurt | 5 | All Maps","name_short":"frk-5","host":"frk-1.de.uncletopia.com","port":27055,"enabled":true,"region":"eu","cc":"de","latitude":50.110924,"longitude":8.682127,"reserved":0,"last_update":"0001-01-01T00:00:00Z","name_a2s":"Uncletopia | Frankfurt | 5 | All Maps","protocol":17,"map":"pl_pier","folder":"tf","game":"Team Fortress","app_id":440,"player_count":20,"max_players":24,"Bots":0,"server_type":"Dedicated","server_os":"Linux","password":true,"vac":true,"version":"7932396","steam_id":85568392924504277,"keywords":["nocrits","nodmgspread","payload","uncletopia"],"game_id":440,"stv_port":27056,"stv_name":"Uncletopia | Frankfurt | 5 | All Maps | STV","players":[{"user_id":55,"name":"Saul Goodman","steam_id":76561199164987448,"connected_time":419000000000,"state":"active","ping":72},{"user_id":28,"name":"Vallet","steam_id":76561198327333965,"connected_time":1821000000000,"state":"active","ping":64},{"user_id":53,"name":"Naeso","steam_id":76561198068602498,"connected_time":539000000000,"state":"active","ping":44},{"user_id":12,"name":"Zelascelar","steam_id":76561197974628666,"connected_time":2273000000000,"state":"active","ping":89},{"user_id":60,"name":"eva.","steam_id":76561198054474684,"connected_time":61000000000,"state":"active","ping":73},{"user_id":15,"name":"Holo","steam_id":76561198348567663,"connected_time":2088000000000,"state":"active","ping":74},{"user_id":61,"name":"tim","steam_id":76561198143626955,"connected_time":13000000000,"state":"spawning","ping":44},{"user_id":43,"name":"Oxer","steam_id":76561198055942412,"connected_time":1455000000000,"state":"active","ping":72},{"user_id":50,"name":"Basinox","steam_id":76561198019628384,"connected_time":1044000000000,"state":"active","ping":64},{"user_id":45,"name":"spy among us","steam_id":76561198392537090,"connected_time":1417000000000,"state":"active","ping":57},{"user_id":33,"name":"Kƒ±lƒ±√ßdar","steam_id":76561198267528331,"connected_time":1547000000000,"state":"active","ping":87},{"user_id":34,"name":"A3517","steam_id":76561198346434027,"connected_time":1545000000000,"state":"spawning","ping":1092},{"user_id":25,"name":"The Wolf Leader","steam_id":76561198038007462,"connected_time":1859000000000,"state":"active","ping":80},{"user_id":26,"name":"copium addict | blw.tf","steam_id":76561199401665282,"connected_time":1849000000000,"state":"active","ping":101},{"user_id":35,"name":"hipster_doofus","steam_id":76561197970902697,"connected_time":1539000000000,"state":"active","ping":70},{"user_id":36,"name":"georg1e","steam_id":76561199032591040,"connected_time":1526000000000,"state":"active","ping":74},{"user_id":37,"name":"Paintbrush","steam_id":76561198119987705,"connected_time":1508000000000,"state":"active","ping":58},{"user_id":44,"name":"NO end to POOTIS","steam_id":76561198144879361,"connected_time":1452000000000,"state":"active","ping":110},{"user_id":41,"name":"Yuval","steam_id":76561198241802390,"connected_time":1488000000000,"state":"active","ping":115},{"user_id":51,"name":"i will the cat","steam_id":76561198095560087,"connected_time":1009000000000,"state":"active","ping":62}]},{"server_id":311,"name":"Uncletopia | Frankfurt | 6 | All Maps","name_short":"frk-6","host":"frk-1.de.uncletopia.com","port":27065,"enabled":true,"region":"eu","cc":"de","latitude":50.110924,"longitude":8.682127,"reserved":0,"last_update":"0001-01-01T00:00:00Z","name_a2s":"Uncletopia | Frankfurt | 6 | All Maps","protocol":17,"map":"koth_viaduct","folder":"tf","game":"Team Fortress","app_id":440,"player_count":0,"max_players":24,"Bots":0,"server_type":"Dedicated","server_os":"Linux","password":true,"vac":true,"version":"7932396","steam_id":85568392924504278,"keywords":["cp","nocrits","nodmgspread","uncletopia"],"game_id":440,"stv_port":27066,"stv_name":"Uncletopia | Frankfurt | 6 | All Maps | STV","players":null},{"server_id":23,"name":"Uncletopia | Frankfurt | 7 | Stopwatch Beta","name_short":"frk-7","host":"frk-1.de.uncletopia.com","port":27075,"enabled":true,"region":"eu","cc":"de","latitude":50.110924,"longitude":8.682127,"reserved":0,"last_update":"0001-01-01T00:00:00Z","name_a2s":"Uncletopia | Frankfurt | 7 | Stopwatch Beta","protocol":17,"map":"pl_snowycoast","folder":"tf","game":"Team Fortress","app_id":440,"player_count":0,"max_players":24,"Bots":0,"server_type":"Dedicated","server_os":"Linux","password":true,"vac":true,"version":"7932396","steam_id":85568392924742827,"keywords":["nocrits","nodmgspread","payload","uncletopia"],"game_id":440,"stv_port":27076,"stv_name":"Uncletopia | Frankfurt | 7 | Stopwatch Beta | STV","players":null},{"server_id":24,"name":"Uncletopia | Frankfurt | 8 | Community","name_short":"frk-8","host":"frk-1.de.uncletopia.com","port":27085,"enabled":true,"region":"eu","cc":"de","latitude":50.110924,"longitude":8.682127,"reserved":0,"last_update":"0001-01-01T00:00:00Z","name_a2s":"Uncletopia | Frankfurt | 8 | Community","protocol":17,"map":"pl_barnblitz","folder":"tf","game":"Team Fortress","app_id":440,"player_count":0,"max_players":24,"Bots":0,"server_type":"Dedicated","server_os":"Linux","password":true,"vac":true,"version":"7932396","steam_id":85568392924742828,"keywords":["nocrits","nodmgspread","payload","uncletopia"],"game_id":440,"stv_port":27086,"stv_name":"Uncletopia | Frankfurt | 8 | Community | STV","players":null},{"server_id":202,"name":"Uncletopia | Hong Kong | 1 | All Maps","name_short":"hgk-1","host":"hgk-1.hk.uncletopia.com","port":27015,"enabled":true,"region":"asia","cc":"hk","latitude":22.302711,"longitude":114.177216,"reserved":0,"last_update":"0001-01-01T00:00:00Z","name_a2s":"Uncletopia | Hong Kong | 1 | All Maps","protocol":17,"map":"cp_dustbowl","folder":"tf","game":"Team Fortress","app_id":440,"player_count":24,"max_players":24,"Bots":0,"server_type":"Dedicated","server_os":"Linux","password":true,"vac":true,"version":"7932396","steam_id":85568392924494504,"keywords":["cp","nocrits","nodmgspread","uncletopia"],"game_id":440,"stv_port":27016,"stv_name":"Uncletopia | Hong Kong | 1 | All Maps | STV","players":[{"user_id":209,"name":"Kurin","steam_id":76561199104770725,"connected_time":351000000000,"state":"active","ping":89},{"user_id":182,"name":"Maria Buena","steam_id":76561198320532821,"connected_time":4111000000000,"state":"active","ping":74},{"user_id":204,"name":"whooops","steam_id":76561199144084820,"connected_time":1003000000000,"state":"active","ping":81},{"user_id":184,"name":"Muerto","steam_id":76561198328718520,"connected_time":3911000000000,"state":"active","ping":85},{"user_id":108,"name":"something malicious is brewing ","steam_id":76561198074339034,"connected_time":11866000000000,"state":"active","ping":74},{"user_id":173,"name":"UZ","steam_id":76561198179320563,"connected_time":5533000000000,"state":"active","ping":107},{"user_id":210,"name":"Dead? That's 500.","steam_id":76561198152588681,"connected_time":15000000000,"state":"active","ping":82},{"user_id":145,"name":"screaming sniper","steam_id":76561199085568674,"connected_time":7408000000000,"state":"active","ping":61},{"user_id":193,"name":"Lelouch","steam_id":76561198828840546,"connected_time":2398000000000,"state":"active","ping":74},{"user_id":201,"name":"Smudge","steam_id":76561198167863840,"connected_time":1859000000000,"state":"active","ping":59},{"user_id":212,"name":"BroBelyo","steam_id":76561198993199044,"connected_time":10000000000,"state":"spawning","ping":141},{"user_id":200,"name":"sauceyert","steam_id":76561199085409122,"connected_time":1915000000000,"state":"active","ping":77},{"user_id":160,"name":"vintage","steam_id":76561198230213828,"connected_time":6333000000000,"state":"active","ping":127},{"user_id":180,"name":"Gebel","steam_id":76561198256704004,"connected_time":4112000000000,"state":"active","ping":92},{"user_id":190,"name":"Michael Scott","steam_id":76561198023082794,"connected_time":2767000000000,"state":"active","ping":51},{"user_id":183,"name":"Grim","steam_id":76561198268185596,"connected_time":4016000000000,"state":"active","ping":63},{"user_id":207,"name":"walid","steam_id":76561198395530753,"connected_time":424000000000,"state":"active","ping":139},{"user_id":211,"name":"Noyour","steam_id":76561198323259830,"connected_time":15000000000,"state":"active","ping":101},{"user_id":191,"name":"Giorno Giovanna","steam_id":76561198117257758,"connected_time":2540000000000,"state":"active","ping":98},{"user_id":203,"name":"Â∏ï","steam_id":76561198439343999,"connected_time":1454000000000,"state":"active","ping":79},{"user_id":202,"name":"Dude Time","steam_id":76561198092991160,"connected_time":1654000000000,"state":"active","ping":145},{"user_id":150,"name":"im_0ff","steam_id":76561198339346695,"connected_time":7344000000000,"state":"active","ping":121},{"user_id":208,"name":"Mystery cheese üßÄ","steam_id":76561198304002409,"connected_time":406000000000,"state":"active","ping":79},{"user_id":213,"name":"justify","steam_id":76561199227541378,"connected_time":8000000000,"state":"spawning","ping":148}]},{"server_id":1,"name":"Uncletopia | Los Angeles | 1 | All Maps","name_short":"lax-1","host":"lax-1.us.uncletopia.com","port":27015,"enabled":true,"region":"us-west","cc":"us","latitude":33.94279,"longitude":-118.41004,"reserved":0,"last_update":"0001-01-01T00:00:00Z","name_a2s":"Uncletopia | Los Angeles | 1 | All Maps","protocol":17,"map":"pl_snowycoast","folder":"tf","game":"Team Fortress","app_id":440,"player_count":24,"max_players":24,"Bots":0,"server_type":"Dedicated","server_os":"Linux","password":true,"vac":true,"version":"7932396","steam_id":85568392924469991,"keywords":["nocrits","nodmgspread","payload","uncletopia"],"game_id":440,"stv_port":27016,"stv_name":"Uncletopia | Los Angeles | 1 | All Maps | STV","players":[{"user_id":808,"name":"Quagsire Acquired","steam_id":76561198417169465,"connected_time":77000000000,"state":"active","ping":94},{"user_id":802,"name":"a chicken","steam_id":76561198313121580,"connected_time":1332000000000,"state":"active","ping":45},{"user_id":771,"name":"selling rice","steam_id":76561198063357023,"connected_time":3715000000000,"state":"active","ping":50},{"user_id":803,"name":"FI LO","steam_id":76561198976530881,"connected_time":300000000000,"state":"active","ping":30},{"user_id":772,"name":"Goose-8","steam_id":76561198795950093,"connected_time":3696000000000,"state":"active","ping":101},{"user_id":777,"name":"Honey Boo Boo","steam_id":76561198119340886,"connected_time":3603000000000,"state":"active","ping":101},{"user_id":773,"name":"[ƒ¥…∏”∫] Stinky","steam_id":76561198041147126,"connected_time":3679000000000,"state":"active","ping":49},{"user_id":774,"name":"sh√•dow","steam_id":76561197991380696,"connected_time":3652000000000,"state":"active","ping":56},{"user_id":776,"name":"[ƒ¥…∏”∫] Jin kun","steam_id":76561198038929010,"connected_time":3638000000000,"state":"active","ping":69},{"user_id":809,"name":"Rabblerouser","steam_id":76561198127930963,"connected_time":72000000000,"state":"active","ping":93},{"user_id":742,"name":"Literal Vampire Potbelly Goblin","steam_id":76561197970527356,"connected_time":5821000000000,"state":"active","ping":41},{"user_id":791,"name":"Jpzarde","steam_id":76561197978240364,"connected_time":2770000000000,"state":"active","ping":82},{"user_id":787,"name":"nug nug","steam_id":76561198208573769,"connected_time":3461000000000,"state":"active","ping":83},{"user_id":797,"name":"greentop_","steam_id":76561198209650964,"connected_time":1895000000000,"state":"active","ping":59},{"user_id":745,"name":"werolat","steam_id":76561197960544784,"connected_time":5513000000000,"state":"active","ping":50},{"user_id":779,"name":"the rat","steam_id":76561198442468979,"connected_time":3574000000000,"state":"active","ping":57},{"user_id":796,"name":"RmBLe","steam_id":76561198150137369,"connected_time":1929000000000,"state":"active","ping":48},{"user_id":781,"name":"Grimra√ºst","steam_id":76561198004630905,"connected_time":3552000000000,"state":"active","ping":55},{"user_id":766,"name":"pope4tw","steam_id":76561199174282651,"connected_time":4286000000000,"state":"active","ping":89},{"user_id":807,"name":"Red Orbama","steam_id":76561198047002366,"connected_time":147000000000,"state":"active","ping":67},{"user_id":754,"name":"HAT-WEARING‚Ñ¢ Maggot Gamer Cat","steam_id":76561197973992705,"connected_time":5117000000000,"state":"active","ping":68},{"user_id":804,"name":"d4ngerd4n","steam_id":76561198043758735,"connected_time":297000000000,"state":"active","ping":61},{"user_id":806,"name":"Nice","steam_id":76561199180653046,"connected_time":234000000000,"state":"active","ping":164},{"user_id":800,"name":"Jebby","steam_id":76561198300150276,"connected_time":1772000000000,"state":"active","ping":97}]},{"server_id":112,"name":"Uncletopia | Los Angeles | 2 | All Maps","name_short":"lax-2","host":"lax-1.us.uncletopia.com","port":27025,"enabled":true,"region":"us-west","cc":"us","latitude":33.94279,"longitude":-118.41004,"reserved":0,"last_update":"0001-01-01T00:00:00Z","name_a2s":"Uncletopia | Los Angeles | 2 | All Maps","protocol":17,"map":"pl_badwater","folder":"tf","game":"Team Fortress","app_id":440,"player_count":5,"max_players":24,"Bots":0,"server_type":"Dedicated","server_os":"Linux","password":true,"vac":true,"version":"7932396","steam_id":85568392924469992,"keywords":["nocrits","nodmgspread","payload","uncletopia"],"game_id":440,"stv_port":27026,"stv_name":"Uncletopia | Los Angeles | 2 | All Maps | STV","players":[{"user_id":706,"name":"TheXayol","steam_id":76561199177408516,"connected_time":385000000000,"state":"active","ping":97},{"user_id":704,"name":"Pyrolimited","steam_id":76561198195455657,"connected_time":487000000000,"state":"active","ping":67},{"user_id":705,"name":"Dr.LeatherPsycho","steam_id":76561198800480998,"connected_time":440000000000,"state":"active","ping":105},{"user_id":708,"name":"CTRLhavoc","steam_id":76561198978808190,"connected_time":53000000000,"state":"active","ping":92},{"user_id":691,"name":"Prez Pineapple","steam_id":76561198253755258,"connected_time":1728000000000,"state":"active","ping":72}]},{"server_id":324,"name":"Uncletopia | Los Angeles | 3 | All Maps","name_short":"lax-3","host":"lax-1.us.uncletopia.com","port":27035,"enabled":true,"region":"us-west","cc":"us","latitude":33.94279,"longitude":-118.41004,"reserved":0,"last_update":"0001-01-01T00:00:00Z","name_a2s":"Uncletopia | Los Angeles | 3 | All Maps","protocol":17,"map":"pl_badwater","folder":"tf","game":"Team Fortress","app_id":440,"player_count":24,"max_players":24,"Bots":0,"server_type":"Dedicated","server_os":"Linux","password":true,"vac":true,"version":"7932396","steam_id":85568392924510198,"keywords":["nocrits","nodmgspread","payload","uncletopia"],"game_id":440,"stv_port":27036,"stv_name":"Uncletopia | Los Angeles | 3 | All Maps | STV","players":[{"user_id":397,"name":"Saggle","steam_id":76561198056075147,"connected_time":1237000000000,"state":"active","ping":175},{"user_id":403,"name":"jungus","steam_id":76561198129862008,"connected_time":686000000000,"state":"active","ping":44},{"user_id":357,"name":"Daazed","steam_id":76561199174930132,"connected_time":3184000000000,"state":"active","ping":62},{"user_id":374,"name":"Jesus H. Christ","steam_id":76561198114229349,"connected_time":2142000000000,"state":"active","ping":149},{"user_id":355,"name":"The Goblin!","steam_id":76561199015195397,"connected_time":3365000000000,"state":"active","ping":84},{"user_id":396,"name":"jams","steam_id":76561198131701290,"connected_time":1259000000000,"state":"active","ping":44},{"user_id":398,"name":"Fernando","steam_id":76561198443038047,"connected_time":1237000000000,"state":"active","ping":53},{"user_id":281,"name":"PyroTechno","steam_id":76561198060929872,"connected_time":8298000000000,"state":"active","ping":98},{"user_id":407,"name":"bladees realest, saddest verse","steam_id":76561198098099826,"connected_time":533000000000,"state":"active","ping":51},{"user_id":393,"name":"-_-","steam_id":76561198048754646,"connected_time":1312000000000,"state":"active","ping":40},{"user_id":401,"name":"set","steam_id":76561198294281809,"connected_time":1026000000000,"state":"active","ping":53},{"user_id":360,"name":"Casual Shitter #SaveTf2","steam_id":76561199126330009,"connected_time":3032000000000,"state":"active","ping":121},{"user_id":402,"name":"no :)","steam_id":76561198028612613,"connected_time":899000000000,"state":"active","ping":81},{"user_id":400,"name":"-Z-","steam_id":76561198194361333,"connected_time":1184000000000,"state":"active","ping":65},{"user_id":352,"name":"Soviet Potato","steam_id":76561198068546113,"connected_time":3814000000000,"state":"active","ping":46},{"user_id":408,"name":"dAiLyGrInD","steam_id":76561198163531915,"connected_time":504000000000,"state":"active","ping":91},{"user_id":390,"name":"naturia","steam_id":76561198092317849,"connected_time":1692000000000,"state":"active","ping":49},{"user_id":372,"name":"The Assistant Regional Manager","steam_id":76561199221484936,"connected_time":2428000000000,"state":"active","ping":90},{"user_id":391,"name":"yellow ·óúÀ¨·óú","steam_id":76561198366474647,"connected_time":1569000000000,"state":"active","ping":49},{"user_id":373,"name":"Mr. Chi City","steam_id":76561198131467867,"connected_time":2346000000000,"state":"active","ping":45},{"user_id":365,"name":"bocaJ","steam_id":76561198374535092,"connected_time":2793000000000,"state":"active","ping":31},{"user_id":381,"name":"DaBeatGoOff2?","steam_id":76561198106507400,"connected_time":2033000000000,"state":"active","ping":54},{"user_id":346,"name":"selvhat","steam_id":76561198114225509,"connected_time":4608000000000,"state":"active","ping":53},{"user_id":405,"name":"mac_cheese","steam_id":76561198071334162,"connected_time":635000000000,"state":"active","ping":75}]},{"server_id":25,"name":"Uncletopia | Los Angeles | 4 | Stopwatch Beta","name_short":"lax-4","host":"lax-1.us.uncletopia.com","port":27045,"enabled":true,"region":"us-west","cc":"us","latitude":33.94279,"longitude":-118.41004,"reserved":0,"last_update":"0001-01-01T00:00:00Z","name_a2s":"Uncletopia | Los Angeles | 4 | Stopwatch Beta","protocol":17,"map":"pl_swiftwater_final1","folder":"tf","game":"Team Fortress","app_id":440,"player_count":0,"max_players":24,"Bots":0,"server_type":"Dedicated","server_os":"Linux","password":true,"vac":true,"version":"7932396","steam_id":85568392924510199,"keywords":["nocrits","nodmgspread","payload","uncletopia"],"game_id":440,"stv_port":27046,"stv_name":"Uncletopia | Los Angeles | 4 | Stopwatch Beta | STV","players":null},{"server_id":11,"name":"Uncletopia | London | 1 | All Maps","name_short":"lon-1","host":"lon-1.uk.uncletopia.com","port":27015,"enabled":true,"region":"eu","cc":"gb","latitude":51.509865,"longitude":-0.118092,"reserved":0,"last_update":"0001-01-01T00:00:00Z","name_a2s":"Uncletopia | London | 1 | All Maps","protocol":17,"map":"pl_upward","folder":"tf","game":"Team Fortress","app_id":440,"player_count":4,"max_players":24,"Bots":0,"server_type":"Dedicated","server_os":"Linux","password":true,"vac":true,"version":"7932396","steam_id":85568392924367362,"keywords":["nocrits","nodmgspread","payload","uncletopia"],"game_id":440,"stv_port":27016,"stv_name":"Uncletopia | London | 1 | All Maps | STV","players":[{"user_id":15,"name":"toomas2018(real)","steam_id":76561199105796083,"connected_time":206000000000,"state":"active","ping":77},{"user_id":16,"name":"mark","steam_id":76561198309246388,"connected_time":106000000000,"state":"active","ping":44},{"user_id":17,"name":"clunk","steam_id":76561198836460767,"connected_time":46000000000,"state":"active","ping":71},{"user_id":18,"name":"object61","steam_id":76561198060017879,"connected_time":6000000000,"state":"spawning","ping":112}]},{"server_id":114,"name":"Uncletopia | London | 2 | All Maps","name_short":"lon-2","host":"lon-1.uk.uncletopia.com","port":27025,"enabled":true,"region":"eu","cc":"gb","latitude":51.509865,"longitude":-0.118092,"reserved":0,"last_update":"0001-01-01T00:00:00Z","name_a2s":"Uncletopia | London | 2 | All Maps","protocol":17,"map":"cp_sunshine","folder":"tf","game":"Team Fortress","app_id":440,"player_count":0,"max_players":24,"Bots":0,"server_type":"Dedicated","server_os":"Linux","password":true,"vac":true,"version":"7932396","steam_id":85568392924470941,"keywords":["cp","nocrits","nodmgspread","uncletopia"],"game_id":440,"stv_port":27026,"stv_name":"Uncletopia | London | 2 | All Maps | STV","players":null},{"server_id":320,"name":"Uncletopia | London | 3 | All Maps","name_short":"lon-3","host":"lon-1.uk.uncletopia.com","port":27035,"enabled":true,"region":"eu","cc":"gb","latitude":51.509865,"longitude":-0.118092,"reserved":0,"last_update":"0001-01-01T00:00:00Z","name_a2s":"Uncletopia | London | 3 | All Maps","protocol":17,"map":"koth_highpass","folder":"tf","game":"Team Fortress","app_id":440,"player_count":0,"max_players":24,"Bots":0,"server_type":"Dedicated","server_os":"Linux","password":true,"vac":true,"version":"7932396","steam_id":85568392924510192,"keywords":["cp","nocrits","nodmgspread","uncletopia"],"game_id":440,"stv_port":27036,"stv_name":"Uncletopia | London | 3 | All Maps | STV","players":null},{"server_id":321,"name":"Uncletopia | London | 4 | All Maps","name_short":"lon-4","host":"lon-1.uk.uncletopia.com","port":27045,"enabled":true,"region":"eu","cc":"gb","latitude":51.509865,"longitude":-0.118092,"reserved":0,"last_update":"0001-01-01T00:00:00Z","name_a2s":"Uncletopia | London | 4 | All Maps","protocol":17,"map":"cp_snakewater_final1","folder":"tf","game":"Team Fortress","app_id":440,"player_count":0,"max_players":24,"Bots":0,"server_type":"Dedicated","server_os":"Linux","password":true,"vac":true,"version":"7932396","steam_id":85568392924510193,"keywords":["cp","nocrits","nodmgspread","uncletopia"],"game_id":440,"stv_port":27046,"stv_name":"Uncletopia | London | 4 | All Maps | STV","players":null},{"server_id":21,"name":"Uncletopia | London | 5 | All Maps","name_short":"lon-5","host":"lon-1.uk.uncletopia.com","port":27055,"enabled":true,"region":"eu","cc":"gb","latitude":51.509865,"longitude":-0.118092,"reserved":0,"last_update":"0001-01-01T00:00:00Z","name_a2s":"Uncletopia | London | 5 | All Maps","protocol":17,"map":"pl_borneo","folder":"tf","game":"Team Fortress","app_id":440,"player_count":24,"max_players":24,"Bots":0,"server_type":"Dedicated","server_os":"Linux","password":true,"vac":true,"version":"7932396","steam_id":85568392924742829,"keywords":["nocrits","nodmgspread","payload","uncletopia"],"game_id":440,"stv_port":27056,"stv_name":"Uncletopia | London | 5 | All Maps | STV","players":[{"user_id":116,"name":"spxcy","steam_id":76561198080296853,"connected_time":504000000000,"state":"active","ping":75},{"user_id":120,"name":"Bonduelle#Savetf2","steam_id":76561199041992422,"connected_time":94000000000,"state":"active","ping":149},{"user_id":112,"name":"LeV","steam_id":76561199480456206,"connected_time":609000000000,"state":"active","ping":85},{"user_id":109,"name":"HAYTAM14","steam_id":76561198970139659,"connected_time":755000000000,"state":"active","ping":99},{"user_id":107,"name":"Lernix","steam_id":76561198382328645,"connected_time":1142000000000,"state":"active","ping":70},{"user_id":106,"name":"Maybe Jetstream Sam","steam_id":76561198987390492,"connected_time":1303000000000,"state":"active","ping":90},{"user_id":115,"name":"Genesis","steam_id":76561198999652040,"connected_time":518000000000,"state":"active","ping":59},{"user_id":83,"name":"Deki","steam_id":76561198031914490,"connected_time":2289000000000,"state":"active","ping":65},{"user_id":32,"name":"ja","steam_id":76561199228540618,"connected_time":7089000000000,"state":"active","ping":79},{"user_id":105,"name":"Deacon Dracul","steam_id":76561198046880663,"connected_time":1320000000000,"state":"active","ping":95},{"user_id":110,"name":"L0g1c","steam_id":76561198134085329,"connected_time":686000000000,"state":"active","ping":80},{"user_id":18,"name":"Idk What Im Doing","steam_id":76561198833068074,"connected_time":9738000000000,"state":"active","ping":92},{"user_id":75,"name":"DooWooD","steam_id":76561198335810106,"connected_time":3696000000000,"state":"active","ping":87},{"user_id":119,"name":"RLCrazyCat3","steam_id":76561197983757878,"connected_time":205000000000,"state":"active","ping":57},{"user_id":60,"name":"Nessieling","steam_id":76561198083556891,"connected_time":5263000000000,"state":"active","ping":77},{"user_id":45,"name":"hsn‚Åß‚Åß741","steam_id":76561198307602421,"connected_time":6500000000000,"state":"active","ping":110},{"user_id":100,"name":"WaDIP","steam_id":76561198010270494,"connected_time":1605000000000,"state":"active","ping":77},{"user_id":118,"name":"nymph","steam_id":76561199249569889,"connected_time":483000000000,"state":"active","ping":60},{"user_id":70,"name":"Mario Moretti [BR]","steam_id":76561198179299606,"connected_time":4600000000000,"state":"active","ping":104},{"user_id":111,"name":"Pablo","steam_id":76561198419583460,"connected_time":632000000000,"state":"active","ping":64},{"user_id":117,"name":"marvs","steam_id":76561198851777617,"connected_time":496000000000,"state":"active","ping":45},{"user_id":108,"name":"Salamon","steam_id":76561198280756561,"connected_time":1070000000000,"state":"active","ping":120},{"user_id":114,"name":"Uncle Terry","steam_id":76561198396415736,"connected_time":601000000000,"state":"active","ping":52},{"user_id":59,"name":"PP_master69420","steam_id":76561199019913910,"connected_time":5364000000000,"state":"active","ping":85}]},{"server_id":22,"name":"Uncletopia | London | 6 | All Maps","name_short":"lon-6","host":"lon-1.uk.uncletopia.com","port":27065,"enabled":true,"region":"eu","cc":"gb","latitude":51.509865,"longitude":-0.118092,"reserved":0,"last_update":"0001-01-01T00:00:00Z","name_a2s":"Uncletopia | London | 6 | All Maps","protocol":17,"map":"cp_mountainlab","folder":"tf","game":"Team Fortress","app_id":440,"player_count":0,"max_players":24,"Bots":0,"server_type":"Dedicated","server_os":"Linux","password":true,"vac":true,"version":"7932396","steam_id":85568392924742830,"keywords":["cp","nocrits","nodmgspread","uncletopia"],"game_id":440,"stv_port":27066,"stv_name":"Uncletopia | London | 6 | All Maps | STV","players":null},{"server_id":40,"name":"Uncletopia | London | 7 | No Payload","name_short":"lon-7","host":"lon-1.uk.uncletopia.com","port":27075,"enabled":true,"region":"eu","cc":"gb","latitude":51.509865,"longitude":-0.118092,"reserved":0,"last_update":"0001-01-01T00:00:00Z","name_a2s":"Uncletopia | London | 7 | No Payload","protocol":17,"map":"pl_snowycoast","folder":"tf","game":"Team Fortress","app_id":440,"player_count":0,"max_players":24,"Bots":0,"server_type":"Dedicated","server_os":"Linux","password":true,"vac":true,"version":"7932396","steam_id":85568392924964314,"keywords":["nocrits","nodmgspread","payload","uncletopia"],"game_id":440,"stv_port":27076,"stv_name":"Uncletopia | London | 7 | No Payload | STV","players":null},{"server_id":41,"name":"Uncletopia | London | 8 | Community","name_short":"lon-8","host":"lon-1.uk.uncletopia.com","port":27085,"enabled":true,"region":"eu","cc":"gb","latitude":51.509865,"longitude":-0.118092,"reserved":0,"last_update":"0001-01-01T00:00:00Z","name_a2s":"Uncletopia | London | 8 | Community","protocol":17,"map":"pl_barnblitz","folder":"tf","game":"Team Fortress","app_id":440,"player_count":0,"max_players":24,"Bots":0,"server_type":"Dedicated","server_os":"Linux","password":true,"vac":true,"version":"7932396","steam_id":85568392924964315,"keywords":["nocrits","nodmgspread","payload","uncletopia"],"game_id":440,"stv_port":27086,"stv_name":"Uncletopia | London | 8 | Community | STV","players":null},{"server_id":300,"name":"Uncletopia | Montr√©al | 1 | All Maps","name_short":"mtl-1","host":"mtl-1.ca.uncletopia.com","port":27015,"enabled":true,"region":"us-east","cc":"ca","latitude":45.50889,"longitude":-73.56167,"reserved":0,"last_update":"0001-01-01T00:00:00Z","name_a2s":"Uncletopia | Montr√©al | 1 | All Maps","protocol":17,"map":"cp_altitude","folder":"tf","game":"Team Fortress","app_id":440,"player_count":0,"max_players":24,"Bots":0,"server_type":"Dedicated","server_os":"Linux","password":true,"vac":true,"version":"7932396","steam_id":85568392924500087,"keywords":["cp","nocrits","nodmgspread","uncletopia"],"game_id":440,"stv_port":27016,"stv_name":"Uncletopia | Montr√©al | 1 | All Maps | STV","players":null},{"server_id":301,"name":"Uncletopia | Montr√©al | 2 | All Maps","name_short":"mtl-2","host":"mtl-1.ca.uncletopia.com","port":27025,"enabled":true,"region":"us-east","cc":"ca","latitude":45.50889,"longitude":-73.56167,"reserved":0,"last_update":"0001-01-01T00:00:00Z","name_a2s":"Uncletopia | Montr√©al | 2 | All Maps","protocol":17,"map":"cp_snakewater_final1","folder":"tf","game":"Team Fortress","app_id":440,"player_count":0,"max_players":24,"Bots":0,"server_type":"Dedicated","server_os":"Linux","password":true,"vac":true,"version":"7932396","steam_id":85568392924500088,"keywords":["cp","nocrits","nodmgspread","uncletopia"],"game_id":440,"stv_port":27026,"stv_name":"Uncletopia | Montr√©al | 2 | All Maps | STV","players":null},{"server_id":302,"name":"Uncletopia | Montr√©al | 3 | All Maps","name_short":"mtl-3","host":"mtl-1.ca.uncletopia.com","port":27035,"enabled":true,"region":"us-east","cc":"ca","latitude":45.50889,"longitude":-73.56167,"reserved":0,"last_update":"0001-01-01T00:00:00Z","name_a2s":"Uncletopia | Montr√©al | 3 | All Maps","protocol":17,"map":"pl_frontier_final","folder":"tf","game":"Team Fortress","app_id":440,"player_count":0,"max_players":24,"Bots":0,"server_type":"Dedicated","server_os":"Linux","password":true,"vac":true,"version":"7932396","steam_id":85568392924500089,"keywords":["nocrits","nodmgspread","payload","uncletopia"],"game_id":440,"stv_port":27036,"stv_name":"Uncletopia | Montr√©al | 3 | All Maps | STV","players":null},{"server_id":303,"name":"Uncletopia | Montr√©al | 4 | No Payload","name_short":"mtl-4","host":"mtl-1.ca.uncletopia.com","port":27045,"enabled":true,"region":"us-east","cc":"ca","latitude":45.50889,"longitude":-73.56167,"reserved":0,"last_update":"0001-01-01T00:00:00Z","name_a2s":"Uncletopia | Montr√©al | 4 | No Payload","protocol":17,"map":"koth_lakeside_final","folder":"tf","game":"Team Fortress","app_id":440,"player_count":0,"max_players":24,"Bots":0,"server_type":"Dedicated","server_os":"Linux","password":true,"vac":true,"version":"7932396","steam_id":85568392924500090,"keywords":["cp","nocrits","nodmgspread","uncletopia"],"game_id":440,"stv_port":27046,"stv_name":"Uncletopia | Montr√©al | 4 | No Payload | STV","players":null},{"server_id":13,"name":"Uncletopia | New York City | 1 | All Maps","name_short":"nyc-1","host":"nyc-1.us.uncletopia.com","port":27015,"enabled":true,"region":"us-east","cc":"us","latitude":40.73061,"longitude":-73.93524,"reserved":0,"last_update":"0001-01-01T00:00:00Z","name_a2s":"Uncletopia | New York City | 1 | All Maps","protocol":17,"map":"cp_sunshine","folder":"tf","game":"Team Fortress","app_id":440,"player_count":0,"max_players":24,"Bots":0,"server_type":"Dedicated","server_os":"Linux","password":true,"vac":true,"version":"7932396","steam_id":85568392924469993,"keywords":["cp","nocrits","nodmgspread","uncletopia"],"game_id":440,"stv_port":27016,"stv_name":"Uncletopia | New York City | 1 | All Maps | STV","players":null},{"server_id":14,"name":"Uncletopia | New York City | 2 | All Maps","name_short":"nyc-2","host":"nyc-1.us.uncletopia.com","port":27025,"enabled":true,"region":"us-east","cc":"us","latitude":40.73061,"longitude":-73.93524,"reserved":0,"last_update":"0001-01-01T00:00:00Z","name_a2s":"Uncletopia | New York City | 2 | All Maps","protocol":17,"map":"pl_pier","folder":"tf","game":"Team Fortress","app_id":440,"player_count":0,"max_players":24,"Bots":0,"server_type":"Dedicated","server_os":"Linux","password":true,"vac":true,"version":"7932396","steam_id":85568392924469994,"keywords":["nocrits","nodmgspread","payload","uncletopia"],"game_id":440,"stv_port":27026,"stv_name":"Uncletopia | New York City | 2 | All Maps | STV","players":null},{"server_id":15,"name":"Uncletopia | New York City | 3 | Stopwatch Beta","name_short":"nyc-3","host":"nyc-1.us.uncletopia.com","port":27035,"enabled":true,"region":"us-east","cc":"us","latitude":40.73061,"longitude":-73.93524,"reserved":0,"last_update":"0001-01-01T00:00:00Z","name_a2s":"Uncletopia | New York City | 3 | Stopwatch Beta","protocol":17,"map":"workshop/koth_bagel_rc6.ugc2514036946","folder":"tf","game":"Team Fortress","app_id":440,"player_count":0,"max_players":24,"Bots":0,"server_type":"Dedicated","server_os":"Linux","password":true,"vac":true,"version":"7932396","steam_id":85568392924742820,"keywords":["cp","nocrits","nodmgspread","uncletopia"],"game_id":440,"stv_port":27036,"stv_name":"Uncletopia | New York City | 3 | Stopwatch Beta | STV","players":null},{"server_id":16,"name":"Uncletopia | New York City | 4 | Community","name_short":"nyc-4","host":"nyc-1.us.uncletopia.com","port":27045,"enabled":true,"region":"us-east","cc":"us","latitude":40.73061,"longitude":-73.93524,"reserved":0,"last_update":"0001-01-01T00:00:00Z","name_a2s":"Uncletopia | New York City | 4 | Community","protocol":17,"map":"workshop/pl_cactuscanyon_redux_final2.ugc2579644293","folder":"tf","game":"Team Fortress","app_id":440,"player_count":0,"max_players":24,"Bots":0,"server_type":"Dedicated","server_os":"Linux","password":true,"vac":true,"version":"7932396","steam_id":85568392924742821,"keywords":["nocrits","nodmgspread","payload","uncletopia"],"game_id":440,"stv_port":27046,"stv_name":"Uncletopia | New York City | 4 | Community | STV","players":null},{"server_id":142,"name":"Uncletopia | S√£o Paulo | 1 | All Maps","name_short":"sao-1","host":"sao-1.br.uncletopia.com","port":27015,"enabled":true,"region":"sa","cc":"br","latitude":-23.533773,"longitude":-46.62529,"reserved":0,"last_update":"0001-01-01T00:00:00Z","name_a2s":"Uncletopia | S√£o Paulo | 1 | All Maps","protocol":17,"map":"koth_highpass","folder":"tf","game":"Team Fortress","app_id":440,"player_count":0,"max_players":24,"Bots":0,"server_type":"Dedicated","server_os":"Linux","password":true,"vac":true,"version":"7932396","steam_id":85568392924469996,"keywords":["cp","nocrits","nodmgspread","uncletopia"],"game_id":440,"stv_port":27016,"stv_name":"Uncletopia | S√£o Paulo | 1 | All Maps | STV","players":null},{"server_id":143,"name":"Uncletopia | S√£o Paulo | 2 | All Maps","name_short":"sao-2","host":"sao-2.br.uncletopia.com","port":27015,"enabled":true,"region":"sa","cc":"br","latitude":-23.533773,"longitude":-46.62529,"reserved":0,"last_update":"0001-01-01T00:00:00Z","name_a2s":"Uncletopia | S√£o Paulo | 2 | All Maps","protocol":17,"map":"koth_brazil","folder":"tf","game":"Team Fortress","app_id":440,"player_count":0,"max_players":24,"Bots":0,"server_type":"Dedicated","server_os":"Linux","password":true,"vac":true,"version":"7932396","steam_id":85568392924485349,"keywords":["cp","nocrits","nodmgspread","uncletopia"],"game_id":440,"stv_port":27016,"stv_name":"Uncletopia | S√£o Paulo | 2 | All Maps | STV","players":null},{"server_id":7,"name":"Uncletopia | Seattle | 1 | All Maps","name_short":"sea-1","host":"sea-1.us.uncletopia.com","port":27015,"enabled":true,"region":"us-west","cc":"us","latitude":47.608013,"longitude":-122.33517,"reserved":0,"last_update":"0001-01-01T00:00:00Z","name_a2s":"Uncletopia | Seattle | 1 | All Maps","protocol":17,"map":"pl_pier","folder":"tf","game":"Team Fortress","app_id":440,"player_count":19,"max_players":24,"Bots":0,"server_type":"Dedicated","server_os":"Linux","password":true,"vac":true,"version":"7932396","steam_id":85568392924469997,"keywords":["nocrits","nodmgspread","payload","uncletopia"],"game_id":440,"stv_port":27016,"stv_name":"Uncletopia | Seattle | 1 | All Maps | STV","players":[{"user_id":839,"name":"Melancholy Clown","steam_id":76561198110605813,"connected_time":1837000000000,"state":"active","ping":118},{"user_id":840,"name":"Yeeeeeeeeeeeee","steam_id":76561198869775476,"connected_time":1820000000000,"state":"active","ping":55},{"user_id":843,"name":"NEBULA","steam_id":76561198086878595,"connected_time":1715000000000,"state":"active","ping":64},{"user_id":786,"name":"goldhed","steam_id":76561198051751133,"connected_time":6085000000000,"state":"active","ping":58},{"user_id":830,"name":"Wafflemuscle","steam_id":76561198868628982,"connected_time":2804000000000,"state":"active","ping":47},{"user_id":861,"name":"Grill Skills","steam_id":76561198053575147,"connected_time":3000000000,"state":"spawning","ping":36},{"user_id":860,"name":"s4lmooooooo1301931231","steam_id":76561198055882807,"connected_time":16000000000,"state":"active","ping":46},{"user_id":855,"name":"Swiggs","steam_id":76561198135015291,"connected_time":532000000000,"state":"active","ping":77},{"user_id":823,"name":"Donny Q","steam_id":76561198020901703,"connected_time":3752000000000,"state":"active","ping":46},{"user_id":845,"name":"sillyjack","steam_id":76561198844273999,"connected_time":1702000000000,"state":"active","ping":36},{"user_id":858,"name":"Futur","steam_id":76561199096263556,"connected_time":196000000000,"state":"active","ping":54},{"user_id":781,"name":"Inflight","steam_id":76561198920049475,"connected_time":6321000000000,"state":"active","ping":57},{"user_id":846,"name":"resh","steam_id":76561198239598834,"connected_time":1695000000000,"state":"active","ping":132},{"user_id":847,"name":"lasky","steam_id":76561198017030029,"connected_time":1691000000000,"state":"active","ping":62},{"user_id":857,"name":"lox","steam_id":76561198288531493,"connected_time":419000000000,"state":"active","ping":50},{"user_id":829,"name":"porksoda","steam_id":76561198021451377,"connected_time":3250000000000,"state":"active","ping":39},{"user_id":852,"name":"horse (horse)","steam_id":76561198028718812,"connected_time":1111000000000,"state":"active","ping":42},{"user_id":827,"name":"..flop","steam_id":76561197989058876,"connected_time":3701000000000,"state":"active","ping":81},{"user_id":853,"name":"rorywashere /·ê† - Àï -„Éû ‚≥ä","steam_id":76561198065825165,"connected_time":1076000000000,"state":"active","ping":97}]},{"server_id":119,"name":"Uncletopia | Seattle | 2 | All Maps","name_short":"sea-2","host":"sea-1.us.uncletopia.com","port":27025,"enabled":true,"region":"us-west","cc":"us","latitude":47.608013,"longitude":-122.33517,"reserved":0,"last_update":"0001-01-01T00:00:00Z","name_a2s":"Uncletopia | Seattle | 2 | All Maps","protocol":17,"map":"cp_snakewater_final1","folder":"tf","game":"Team Fortress","app_id":440,"player_count":0,"max_players":24,"Bots":0,"server_type":"Dedicated","server_os":"Linux","password":true,"vac":true,"version":"7932396","steam_id":85568392924469998,"keywords":["cp","nocrits","nodmgspread","uncletopia"],"game_id":440,"stv_port":27026,"stv_name":"Uncletopia | Seattle | 2 | All Maps | STV","players":null},{"server_id":406,"name":"Uncletopia | Seattle | 3 | Stopwatch Beta","name_short":"sea-3","host":"sea-1.us.uncletopia.com","port":27035,"enabled":true,"region":"us-west","cc":"us","latitude":47.608013,"longitude":-122.33517,"reserved":0,"last_update":"0001-01-01T00:00:00Z","name_a2s":"Uncletopia | Seattle | 3 | Stopwatch Beta","protocol":17,"map":"workshop/cp_process_f12.ugc2302948105","folder":"tf","game":"Team Fortress","app_id":440,"player_count":0,"max_players":24,"Bots":0,"server_type":"Dedicated","server_os":"Linux","password":true,"vac":true,"version":"7932396","steam_id":85568392924515217,"keywords":["cp","nocrits","nodmgspread","uncletopia"],"game_id":440,"stv_port":27036,"stv_name":"Uncletopia | Seattle | 3 | Stopwatch Beta | STV","players":null},{"server_id":17,"name":"Uncletopia | San Francisco | 1 | All Maps","name_short":"sfo-1","host":"sfo-1.us.uncletopia.com","port":27015,"enabled":true,"region":"us-west","cc":"us","latitude":37.77397,"longitude":-122.4313,"reserved":0,"last_update":"0001-01-01T00:00:00Z","name_a2s":"Uncletopia | San Francisco | 1 | All Maps","protocol":17,"map":"koth_suijin","folder":"tf","game":"Team Fortress","app_id":440,"player_count":0,"max_players":24,"Bots":0,"server_type":"Dedicated","server_os":"Linux","password":true,"vac":true,"version":"7932396","steam_id":85568392924469999,"keywords":["cp","nocrits","nodmgspread","uncletopia"],"game_id":440,"stv_port":27016,"stv_name":"Uncletopia | San Francisco | 1 | All Maps | STV","players":null},{"server_id":18,"name":"Uncletopia | San Francisco | 2 | All Maps","name_short":"sfo-2","host":"sfo-1.us.uncletopia.com","port":27025,"enabled":true,"region":"us-west","cc":"us","latitude":37.77397,"longitude":-122.4313,"reserved":0,"last_update":"0001-01-01T00:00:00Z","name_a2s":"Uncletopia | San Francisco | 2 | All Maps","protocol":17,"map":"pl_upward","folder":"tf","game":"Team Fortress","app_id":440,"player_count":0,"max_players":24,"Bots":0,"server_type":"Dedicated","server_os":"Linux","password":true,"vac":true,"version":"7932396","steam_id":85568392924470000,"keywords":["nocrits","nodmgspread","payload","uncletopia"],"game_id":440,"stv_port":27026,"stv_name":"Uncletopia | San Francisco | 2 | All Maps | STV","players":null},{"server_id":19,"name":"Uncletopia | San Francisco | 3 | Stopwatch Beta","name_short":"sfo-3","host":"sfo-1.us.uncletopia.com","port":27035,"enabled":true,"region":"us-west","cc":"us","latitude":37.77397,"longitude":-122.4313,"reserved":0,"last_update":"0001-01-01T00:00:00Z","name_a2s":"Uncletopia | San Francisco | 3 | Stopwatch Beta","protocol":17,"map":"workshop/koth_clearcut_b15.ugc2107050255","folder":"tf","game":"Team Fortress","app_id":440,"player_count":0,"max_players":24,"Bots":0,"server_type":"Dedicated","server_os":"Linux","password":true,"vac":true,"version":"7932396","steam_id":85568392924742824,"keywords":["cp","nocrits","nodmgspread","uncletopia"],"game_id":440,"stv_port":27036,"stv_name":"Uncletopia | San Francisco | 3 | Stopwatch Beta | STV","players":null},{"server_id":20,"name":"Uncletopia | San Francisco | 4 | Community","name_short":"sfo-4","host":"sfo-1.us.uncletopia.com","port":27045,"enabled":true,"region":"us-west","cc":"us","latitude":37.77397,"longitude":-122.4313,"reserved":0,"last_update":"0001-01-01T00:00:00Z","name_a2s":"Uncletopia | San Francisco | 4 | Community","protocol":17,"map":"workshop/pl_eruption_b9a.ugc2807898013","folder":"tf","game":"Team Fortress","app_id":440,"player_count":22,"max_players":24,"Bots":0,"server_type":"Dedicated","server_os":"Linux","password":true,"vac":true,"version":"7932396","steam_id":85568392924742826,"keywords":["nocrits","nodmgspread","payload","uncletopia"],"game_id":440,"stv_port":27046,"stv_name":"Uncletopia | San Francisco | 4 | Community | STV","players":[{"user_id":140,"name":"Blobfish Gf","steam_id":76561198055519736,"connected_time":1533000000000,"state":"active","ping":76},{"user_id":151,"name":"Mushroom","steam_id":76561198045751043,"connected_time":1073000000000,"state":"active","ping":69},{"user_id":150,"name":"Mocha Josie","steam_id":76561198066452726,"connected_time":1165000000000,"state":"active","ping":56},{"user_id":128,"name":"ƒê√Ø…ê»ê…π…¶…Üa","steam_id":76561198981411945,"connected_time":2932000000000,"state":"active","ping":48},{"user_id":152,"name":"dax","steam_id":76561198045335319,"connected_time":891000000000,"state":"active","ping":125},{"user_id":141,"name":"‚§£RASCAL","steam_id":76561198269038647,"connected_time":1475000000000,"state":"active","ping":61},{"user_id":142,"name":"VincY -iwnl-","steam_id":76561198162395555,"connected_time":1461000000000,"state":"active","ping":48},{"user_id":144,"name":"zztopfan2009","steam_id":76561198345563240,"connected_time":1418000000000,"state":"active","ping":98},{"user_id":131,"name":"JKEMEISTR","steam_id":76561198082146326,"connected_time":2275000000000,"state":"active","ping":60},{"user_id":129,"name":"chocolat3823","steam_id":76561199249875689,"connected_time":2905000000000,"state":"active","ping":45},{"user_id":155,"name":"NuclearAdventures","steam_id":76561198995920452,"connected_time":306000000000,"state":"active","ping":126},{"user_id":112,"name":"alba","steam_id":76561198053658535,"connected_time":5190000000000,"state":"active","ping":118},{"user_id":145,"name":"cofferhead","steam_id":76561199191108449,"connected_time":1339000000000,"state":"active","ping":66},{"user_id":132,"name":"dizzy","steam_id":76561198426743211,"connected_time":2209000000000,"state":"active","ping":74},{"user_id":117,"name":"The Chimp","steam_id":76561198349842142,"connected_time":4846000000000,"state":"active","ping":60},{"user_id":120,"name":"SolarusD","steam_id":76561198029279861,"connected_time":4342000000000,"state":"active","ping":45},{"user_id":148,"name":"D0VE","steam_id":76561198151618566,"connected_time":1259000000000,"state":"active","ping":69},{"user_id":134,"name":"firstlastmcgee","steam_id":76561198170187989,"connected_time":2134000000000,"state":"active","ping":75},{"user_id":146,"name":"lasagnalarry12","steam_id":76561198162688146,"connected_time":1331000000000,"state":"active","ping":60},{"user_id":147,"name":"Kaiza Slumby","steam_id":76561199109063823,"connected_time":1321000000000,"state":"active","ping":89},{"user_id":154,"name":"Da Bird","steam_id":76561198215677985,"connected_time":879000000000,"state":"active","ping":72},{"user_id":115,"name":"rauzz","steam_id":76561198204223497,"connected_time":5044000000000,"state":"active","ping":125}]},{"server_id":141,"name":"Uncletopia | Sydney | 1 | All Maps","name_short":"syd-1","host":"syd-1.au.uncletopia.com","port":27015,"enabled":true,"region":"au","cc":"au","latitude":-33.865143,"longitude":151.2099,"reserved":0,"last_update":"0001-01-01T00:00:00Z","name_a2s":"Uncletopia | Sydney | 1 | All Maps","protocol":17,"map":"cp_dustbowl","folder":"tf","game":"Team Fortress","app_id":440,"player_count":24,"max_players":24,"Bots":0,"server_type":"Dedicated","server_os":"Linux","password":true,"vac":true,"version":"7932396","steam_id":85568392924470001,"keywords":["cp","nocrits","nodmgspread","uncletopia"],"game_id":440,"stv_port":27016,"stv_name":"Uncletopia | Sydney | 1 | All Maps | STV","players":[{"user_id":156,"name":"Sinister80s","steam_id":76561198343540472,"connected_time":2113000000000,"state":"active","ping":68},{"user_id":182,"name":"Doctor Estonia","steam_id":76561198057365089,"connected_time":495000000000,"state":"active","ping":84},{"user_id":179,"name":"using a laptop","steam_id":76561199445302425,"connected_time":616000000000,"state":"active","ping":160},{"user_id":160,"name":"Player 3.14","steam_id":76561198016766670,"connected_time":1997000000000,"state":"active","ping":45},{"user_id":173,"name":"Original Glazed (Krispy/Kreme)","steam_id":76561197997362731,"connected_time":1137000000000,"state":"active","ping":44},{"user_id":171,"name":"Just Phil","steam_id":76561198081187571,"connected_time":1271000000000,"state":"active","ping":44},{"user_id":184,"name":"\u003e:FrozenDragon:\u003c","steam_id":76561198227960928,"connected_time":312000000000,"state":"active","ping":96},{"user_id":135,"name":"the poo man | trade.tf","steam_id":76561198173322978,"connected_time":3405000000000,"state":"active","ping":72},{"user_id":183,"name":"Doctor Vinnie Boombotz","steam_id":76561198062311556,"connected_time":485000000000,"state":"active","ping":46},{"user_id":140,"name":"Zeppy","steam_id":76561198074766231,"connected_time":2985000000000,"state":"active","ping":69},{"user_id":154,"name":"b4sedhk","steam_id":76561198831069486,"connected_time":2128000000000,"state":"active","ping":47},{"user_id":149,"name":"pigeon","steam_id":76561198135180841,"connected_time":2455000000000,"state":"active","ping":42},{"user_id":166,"name":"Feoryas","steam_id":76561198129356206,"connected_time":1496000000000,"state":"active","ping":41},{"user_id":176,"name":"Winter Contingency","steam_id":76561198182437450,"connected_time":707000000000,"state":"active","ping":98},{"user_id":151,"name":"CypressFluff (She/Her)","steam_id":76561198174667818,"connected_time":2316000000000,"state":"active","ping":57},{"user_id":148,"name":"‚ô•bap NYAAAA","steam_id":76561198085486146,"connected_time":2490000000000,"state":"active","ping":55},{"user_id":141,"name":"Not A Clever Man","steam_id":76561198038700246,"connected_time":2948000000000,"state":"active","ping":69},{"user_id":188,"name":"in the balls","steam_id":76561199232929333,"connected_time":68000000000,"state":"active","ping":67},{"user_id":185,"name":"Mr Bean (real)","steam_id":76561199405735306,"connected_time":274000000000,"state":"active","ping":58},{"user_id":177,"name":"Connor","steam_id":76561198088318589,"connected_time":648000000000,"state":"active","ping":50},{"user_id":163,"name":"Jodelk√∂nig Franzl Lang","steam_id":76561198007667830,"connected_time":1512000000000,"state":"active","ping":54},{"user_id":178,"name":"voxii","steam_id":76561198099698281,"connected_time":627000000000,"state":"active","ping":73},{"user_id":187,"name":"Croc","steam_id":76561198357882246,"connected_time":92000000000,"state":"active","ping":51},{"user_id":174,"name":"Chibi Wolf","steam_id":76561198074235306,"connected_time":953000000000,"state":"active","ping":58}]},{"server_id":123,"name":"Uncletopia | Sydney | 2 | All Maps","name_short":"syd-2","host":"syd-1.au.uncletopia.com","port":27025,"enabled":true,"region":"au","cc":"au","latitude":-33.865143,"longitude":151.2099,"reserved":0,"last_update":"0001-01-01T00:00:00Z","name_a2s":"Uncletopia | Sydney | 2 | All Maps","protocol":17,"map":"pl_goldrush","folder":"tf","game":"Team Fortress","app_id":440,"player_count":23,"max_players":24,"Bots":0,"server_type":"Dedicated","server_os":"Linux","password":true,"vac":true,"version":"7932396","steam_id":85568392924470002,"keywords":["nocrits","nodmgspread","payload","uncletopia"],"game_id":440,"stv_port":27026,"stv_name":"Uncletopia | Sydney | 2 | All Maps | STV","players":[{"user_id":150,"name":"Pile of Sneed","steam_id":76561198143537391,"connected_time":672000000000,"state":"active","ping":54},{"user_id":89,"name":"Y0shua3","steam_id":76561199381627916,"connected_time":3676000000000,"state":"active","ping":82},{"user_id":153,"name":"twist","steam_id":76561198115372764,"connected_time":429000000000,"state":"active","ping":58},{"user_id":90,"name":"A 1989 Nissan Patrol DX","steam_id":76561198152812718,"connected_time":3645000000000,"state":"active","ping":74},{"user_id":123,"name":"Chocolate Lightning","steam_id":76561198213958971,"connected_time":1575000000000,"state":"active","ping":101},{"user_id":111,"name":"hazz_mcpie -BvM-","steam_id":76561198092450084,"connected_time":2521000000000,"state":"active","ping":86},{"user_id":129,"name":"e_o","steam_id":76561198040405520,"connected_time":1434000000000,"state":"active","ping":52},{"user_id":143,"name":"Maquire's Constipation","steam_id":76561198096130103,"connected_time":835000000000,"state":"active","ping":52},{"user_id":157,"name":"quick 1 2 üòµüòµü•¥ü•¥","steam_id":76561199482732718,"connected_time":354000000000,"state":"active","ping":44},{"user_id":127,"name":"MikkyD","steam_id":76561198043452962,"connected_time":1526000000000,"state":"active","ping":60},{"user_id":130,"name":"Yo","steam_id":76561199071452693,"connected_time":1434000000000,"state":"active","ping":157},{"user_id":141,"name":"Lagging F2P Gundam","steam_id":76561199092046551,"connected_time":1021000000000,"state":"active","ping":172},{"user_id":137,"name":"xenon445","steam_id":76561198218867065,"connected_time":1138000000000,"state":"active","ping":71},{"user_id":158,"name":"shaymii","steam_id":76561198058562392,"connected_time":229000000000,"state":"active","ping":87},{"user_id":149,"name":"Sk8rrrr","steam_id":76561198334646675,"connected_time":716000000000,"state":"active","ping":40},{"user_id":135,"name":"‚ô™ washedmachine","steam_id":76561198058375270,"connected_time":1311000000000,"state":"active","ping":43},{"user_id":53,"name":"s0lar","steam_id":76561198200896745,"connected_time":7245000000000,"state":"active","ping":44},{"user_id":142,"name":"assaisin-5=4","steam_id":76561198079365188,"connected_time":1005000000000,"state":"active","ping":62},{"user_id":154,"name":"callum.jones2008","steam_id":76561198050053720,"connected_time":423000000000,"state":"active","ping":80},{"user_id":155,"name":"alex","steam_id":76561198053382248,"connected_time":418000000000,"state":"active","ping":42},{"user_id":156,"name":"Editor_Billy","steam_id":76561199165608946,"connected_time":405000000000,"state":"active","ping":58},{"user_id":160,"name":"Mr Doctor","steam_id":76561198081415999,"connected_time":132000000000,"state":"active","ping":60},{"user_id":162,"name":"Zilvera","steam_id":76561198065801850,"connected_time":124000000000,"state":"active","ping":55}]},{"server_id":395,"name":"Uncletopia | Sydney | 3 | All Maps","name_short":"syd-3","host":"syd-1.au.uncletopia.com","port":27035,"enabled":true,"region":"au","cc":"au","latitude":-33.865143,"longitude":151.2099,"reserved":0,"last_update":"0001-01-01T00:00:00Z","name_a2s":"Uncletopia | Sydney | 3 | All Maps","protocol":17,"map":"koth_highpass","folder":"tf","game":"Team Fortress","app_id":440,"player_count":0,"max_players":24,"Bots":0,"server_type":"Dedicated","server_os":"Linux","password":true,"vac":true,"version":"7932396","steam_id":85568392925194467,"keywords":["cp","nocrits","nodmgspread","uncletopia"],"game_id":440,"stv_port":27036,"stv_name":"Uncletopia | Sydney | 3 | All Maps | STV","players":null},{"server_id":396,"name":"Uncletopia | Sydney | 4 | All Maps","name_short":"syd-4","host":"syd-1.au.uncletopia.com","port":27045,"enabled":true,"region":"au","cc":"au","latitude":-33.865143,"longitude":151.2099,"reserved":0,"last_update":"0001-01-01T00:00:00Z","name_a2s":"Uncletopia | Sydney | 4 | All Maps","protocol":17,"map":"pl_pier","folder":"tf","game":"Team Fortress","app_id":440,"player_count":1,"max_players":24,"Bots":0,"server_type":"Dedicated","server_os":"Linux","password":true,"vac":true,"version":"7932396","steam_id":85568392925397958,"keywords":["nocrits","nodmgspread","payload","uncletopia"],"game_id":440,"stv_port":27046,"stv_name":"Uncletopia | Sydney | 4 | All Maps | STV","players":[{"user_id":300,"name":"Cris.p bacon","steam_id":76561199230423491,"connected_time":261000000000,"state":"active","ping":102}]},{"server_id":58,"name":"Uncletopia | Sydney | 5 | Stopwatch Beta","name_short":"syd-5","host":"syd-1.au.uncletopia.com","port":27055,"enabled":true,"region":"au","cc":"au","latitude":-33.865143,"longitude":151.2099,"reserved":0,"last_update":"0001-01-01T00:00:00Z","name_a2s":"Uncletopia | Sydney | 5 | Stopwatch Beta","protocol":17,"map":"workshop/koth_ashville_final.ugc2130459942","folder":"tf","game":"Team Fortress","app_id":440,"player_count":0,"max_players":24,"Bots":0,"server_type":"Dedicated","server_os":"Linux","password":true,"vac":true,"version":"7932396","steam_id":85568392925397959,"keywords":["cp","nocrits","nodmgspread","uncletopia"],"game_id":440,"stv_port":27056,"stv_name":"Uncletopia | Sydney | 5 | Stopwatch Beta | STV","players":null},{"server_id":59,"name":"Uncletopia | Sydney | 6 | Community","name_short":"syd-6","host":"syd-1.au.uncletopia.com","port":27065,"enabled":true,"region":"au","cc":"au","latitude":-33.865143,"longitude":151.2099,"reserved":0,"last_update":"0001-01-01T00:00:00Z","name_a2s":"Uncletopia | Sydney | 6 | Community","protocol":17,"map":"workshop/cp_villa_b19.ugc2113052569","folder":"tf","game":"Team Fortress","app_id":440,"player_count":0,"max_players":24,"Bots":0,"server_type":"Dedicated","server_os":"Linux","password":true,"vac":true,"version":"7932396","steam_id":85568392925397960,"keywords":["cp","nocrits","nodmgspread","uncletopia"],"game_id":440,"stv_port":27066,"stv_name":"Uncletopia | Sydney | 6 | Community | STV","players":null},{"server_id":49,"name":"Uncletopia | Warsaw | 1 | All Maps","name_short":"waw-1","host":"waw-1.pl.uncletopia.com","port":27015,"enabled":true,"region":"eu","cc":"pl","latitude":52.2297,"longitude":21.017532,"reserved":0,"last_update":"0001-01-01T00:00:00Z","name_a2s":"","protocol":0,"map":"","folder":"","game":"","app_id":0,"player_count":0,"max_players":0,"Bots":0,"server_type":"","server_os":"","password":false,"vac":false,"version":"","steam_id":0,"keywords":null,"game_id":0,"stv_port":0,"stv_name":"","players":null},{"server_id":50,"name":"Uncletopia | Warsaw | 2 | All Maps","name_short":"waw-2","host":"waw-1.pl.uncletopia.com","port":27025,"enabled":true,"region":"eu","cc":"pl","latitude":52.2297,"longitude":21.017532,"reserved":0,"last_update":"0001-01-01T00:00:00Z","name_a2s":"Uncletopia | Warsaw | 2 | All Maps","protocol":17,"map":"pl_badwater","folder":"tf","game":"Team Fortress","app_id":440,"player_count":7,"max_players":24,"Bots":0,"server_type":"Dedicated","server_os":"Linux","password":true,"vac":true,"version":"7932396","steam_id":85568392925397851,"keywords":["nocrits","nodmgspread","payload","uncletopia"],"game_id":440,"stv_port":27026,"stv_name":"Uncletopia | Warsaw | 2 | All Maps | STV","players":[{"user_id":3,"name":"odko.mir","steam_id":76561199135301650,"connected_time":2130000000000,"state":"active","ping":174},{"user_id":11,"name":"tuuguu","steam_id":76561199218314905,"connected_time":391000000000,"state":"active","ping":181},{"user_id":10,"name":"Hotdog_Gentleman","steam_id":76561199309867837,"connected_time":419000000000,"state":"active","ping":117},{"user_id":6,"name":"Disasterday","steam_id":76561198044767090,"connected_time":845000000000,"state":"active","ping":51},{"user_id":12,"name":"IKEA toilet shitter","steam_id":76561198267411149,"connected_time":349000000000,"state":"active","ping":72},{"user_id":13,"name":"balanced diet","steam_id":76561198240320806,"connected_time":198000000000,"state":"active","ping":87},{"user_id":14,"name":"Kak≈Çaczan","steam_id":76561198967484200,"connected_time":139000000000,"state":"active","ping":44}]},{"server_id":51,"name":"Uncletopia | Warsaw | 3 | All Maps","name_short":"waw-3","host":"waw-1.pl.uncletopia.com","port":27035,"enabled":true,"region":"eu","cc":"pl","latitude":52.2297,"longitude":21.017532,"reserved":0,"last_update":"0001-01-01T00:00:00Z","name_a2s":"Uncletopia | Warsaw | 3 | All Maps","protocol":17,"map":"koth_lakeside_final","folder":"tf","game":"Team Fortress","app_id":440,"player_count":0,"max_players":24,"Bots":0,"server_type":"Dedicated","server_os":"Linux","password":true,"vac":true,"version":"7932396","steam_id":85568392925397852,"keywords":["cp","nocrits","nodmgspread","uncletopia"],"game_id":440,"stv_port":27036,"stv_name":"Uncletopia | Warsaw | 3 | All Maps | STV","players":null},{"server_id":52,"name":"Uncletopia | Warsaw | 4 | All Maps","name_short":"waw-4","host":"waw-1.pl.uncletopia.com","port":27045,"enabled":true,"region":"eu","cc":"pl","latitude":52.2297,"longitude":21.017532,"reserved":0,"last_update":"0001-01-01T00:00:00Z","name_a2s":"Uncletopia | Warsaw | 4 | All Maps","protocol":17,"map":"cp_mountainlab","folder":"tf","game":"Team Fortress","app_id":440,"player_count":0,"max_players":24,"Bots":0,"server_type":"Dedicated","server_os":"Linux","password":true,"vac":true,"version":"7932396","steam_id":85568392925397853,"keywords":["cp","nocrits","nodmgspread","uncletopia"],"game_id":440,"stv_port":27046,"stv_name":"Uncletopia | Warsaw | 4 | All Maps | STV","players":null},{"server_id":53,"name":"Uncletopia | Warsaw | 5 | Stopwatch Beta","name_short":"waw-5","host":"waw-1.pl.uncletopia.com","port":27055,"enabled":true,"region":"eu","cc":"pl","latitude":52.2297,"longitude":21.017532,"reserved":0,"last_update":"0001-01-01T00:00:00Z","name_a2s":"Uncletopia | Warsaw | 5 | Stopwatch Beta","protocol":17,"map":"koth_highpass","folder":"tf","game":"Team Fortress","app_id":440,"player_count":0,"max_players":24,"Bots":0,"server_type":"Dedicated","server_os":"Linux","password":true,"vac":true,"version":"7932396","steam_id":85568392925397854,"keywords":["cp","nocrits","nodmgspread","uncletopia"],"game_id":440,"stv_port":27056,"stv_name":"Uncletopia | Warsaw | 5 | Stopwatch Beta | STV","players":null},{"server_id":54,"name":"Uncletopia | Warsaw | 6 | Community","name_short":"waw-6","host":"waw-1.pl.uncletopia.com","port":27065,"enabled":true,"region":"eu","cc":"pl","latitude":52.2297,"longitude":21.017532,"reserved":0,"last_update":"0001-01-01T00:00:00Z","name_a2s":"Uncletopia | Warsaw | 6 | Community","protocol":17,"map":"pl_upward","folder":"tf","game":"Team Fortress","app_id":440,"player_count":0,"max_players":24,"Bots":0,"server_type":"Dedicated","server_os":"Linux","password":true,"vac":true,"version":"7932396","steam_id":85568392925397856,"keywords":["nocrits","nodmgspread","payload","uncletopia"],"game_id":440,"stv_port":27066,"stv_name":"Uncletopia | Warsaw | 6 | Community | STV","players":null}]}