{"status":true,"message":"","result":[{"server_id":9,"name":"Uncletopia | Atlanta | 1 | All Maps","name_short":"atl-1","host":"atl-1.us.uncletopia.com","port":27015,"enabled":true,"region":"us-east","cc":"us","latitude":33.753746,"longitude":-84.38633,"reserved":0,"last_update":"0001-01-01T00:00:00Z","name_a2s":"Uncletopia | Atlanta | 1 | All Maps","protocol":17,"map":"pl_upward","folder":"tf","game":"Team Fortress","app_id":440,"player_count":24,"max_players":24,"Bots":0,"server_type":"Dedicated","server_os":"Linux","password":true,"vac":true,"version":"7757534","steam_id":85568392924469982,"keywords":["nocrits","nodmgspread","payload","uncletopia"],"game_id":440,"stv_port":27016,"stv_name":"Uncletopia | Atlanta | 1 | All Maps | STV","players":[{"user_id":130,"name":"Jeffu (Gods highest sniper)","steam_id":76561198866893933,"connected_time":150000000000,"state":"active","ping":105},{"user_id":122,"name":"Fake","steam_id":76561198282894422,"connected_time":646000000000,"state":"active","ping":92},{"user_id":132,"name":"Romo","steam_id":76561198243101572,"connected_time":8000000000,"state":"active","ping":60},{"user_id":124,"name":"Sauce Boss","steam_id":76561198000156997,"connected_time":606000000000,"state":"active","ping":61},{"user_id":125,"name":"Jamiera","steam_id":76561198352802805,"connected_time":604000000000,"state":"active","ping":79},{"user_id":83,"name":"Buswolley","steam_id":76561197995205571,"connected_time":3358000000000,"state":"active","ping":104},{"user_id":118,"name":"ATL1 | on my hunting trip","steam_id":76561198315341646,"connected_time":1096000000000,"state":"active","ping":67},{"user_id":30,"name":"lil hog","steam_id":76561199230929836,"connected_time":7074000000000,"state":"active","ping":81},{"user_id":116,"name":"sassy loli","steam_id":76561198402316065,"connected_time":1426000000000,"state":"active","ping":93},{"user_id":114,"name":"Rio\u003c3","steam_id":76561198299175965,"connected_time":1565000000000,"state":"active","ping":59},{"user_id":129,"name":"erm, what the flip?","steam_id":76561198337692867,"connected_time":221000000000,"state":"active","ping":85},{"user_id":103,"name":"Soju","steam_id":76561198044130442,"connected_time":1940000000000,"state":"active","ping":85},{"user_id":110,"name":"BERBBLES","steam_id":76561198815107994,"connected_time":1724000000000,"state":"active","ping":70},{"user_id":123,"name":"Shame","steam_id":76561198100490994,"connected_time":641000000000,"state":"active","ping":59},{"user_id":126,"name":"dyllie1","steam_id":76561198075324940,"connected_time":600000000000,"state":"active","ping":80},{"user_id":65,"name":"Joey Wheelchair„ÉÉ","steam_id":76561198378921790,"connected_time":4856000000000,"state":"active","ping":68},{"user_id":111,"name":"Pennis the Menace","steam_id":76561198254878037,"connected_time":1723000000000,"state":"active","ping":83},{"user_id":52,"name":"BIG HOG","steam_id":76561198079923652,"connected_time":5977000000000,"state":"active","ping":67},{"user_id":98,"name":"Kurt Biscuitmaker","steam_id":76561198331701823,"connected_time":2489000000000,"state":"active","ping":85},{"user_id":84,"name":"Gordon Ramsay","steam_id":76561198123893900,"connected_time":3304000000000,"state":"active","ping":90},{"user_id":131,"name":"floofy","steam_id":76561198389769098,"connected_time":133000000000,"state":"active","ping":101},{"user_id":64,"name":"mashallah","steam_id":76561198075111427,"connected_time":5137000000000,"state":"active","ping":93},{"user_id":127,"name":"shake","steam_id":76561199064204750,"connected_time":600000000000,"state":"active","ping":77},{"user_id":128,"name":"Legit_Jaxer","steam_id":76561198172234053,"connected_time":382000000000,"state":"active","ping":105}]},{"server_id":104,"name":"Uncletopia | Atlanta | 2 | All Maps","name_short":"atl-2","host":"atl-1.us.uncletopia.com","port":27025,"enabled":true,"region":"us-east","cc":"us","latitude":33.753746,"longitude":-84.38633,"reserved":0,"last_update":"0001-01-01T00:00:00Z","name_a2s":"Uncletopia | Atlanta | 2 | All Maps","protocol":17,"map":"cp_dustbowl","folder":"tf","game":"Team Fortress","app_id":440,"player_count":0,"max_players":24,"Bots":0,"server_type":"Dedicated","server_os":"Linux","password":true,"vac":true,"version":"7757534","steam_id":85568392924469983,"keywords":["cp","nocrits","nodmgspread","uncletopia"],"game_id":440,"stv_port":27026,"stv_name":"Uncletopia | Atlanta | 2 | All Maps | STV","players":null},{"server_id":400,"name":"Uncletopia | Atlanta | 3 | Community","name_short":"atl-3","host":"atl-1.us.uncletopia.com","port":27035,"enabled":true,"region":"us-east","cc":"us","latitude":33.753746,"longitude":-84.38633,"reserved":0,"last_update":"0001-01-01T00:00:00Z","name_a2s":"Uncletopia | Atlanta | 3 | Community","protocol":17,"map":"workshop/cp_glassworks_rc6a.ugc454118349","folder":"tf","game":"Team Fortress","app_id":440,"player_count":0,"max_players":24,"Bots":0,"server_type":"Dedicated","server_os":"Linux","password":true,"vac":true,"version":"7757534","steam_id":85568392924515187,"keywords":["cp","nocrits","nodmgspread","uncletopia"],"game_id":440,"stv_port":27036,"stv_name":"Uncletopia | Atlanta | 3 | Community | STV","players":null},{"server_id":401,"name":"Uncletopia | Atlanta | 4 | No Payload","name_short":"atl-4","host":"atl-1.us.uncletopia.com","port":27045,"enabled":true,"region":"us-east","cc":"us","latitude":33.753746,"longitude":-84.38633,"reserved":0,"last_update":"0001-01-01T00:00:00Z","name_a2s":"","protocol":0,"map":"","folder":"","game":"","app_id":0,"player_count":0,"max_players":0,"Bots":0,"server_type":"","server_os":"","password":false,"vac":false,"version":"","steam_id":0,"keywords":null,"game_id":0,"stv_port":0,"stv_name":"","players":null},{"server_id":2,"name":"Uncletopia | Chicago | 1 | All Maps","name_short":"chi-1","host":"chi-1.us.uncletopia.com","port":27015,"enabled":true,"region":"us-central","cc":"us","latitude":41.881832,"longitude":-87.62318,"reserved":0,"last_update":"0001-01-01T00:00:00Z","name_a2s":"Uncletopia | Chicago | 1 | All Maps","protocol":17,"map":"cp_process_final","folder":"tf","game":"Team Fortress","app_id":440,"player_count":23,"max_players":24,"Bots":0,"server_type":"Dedicated","server_os":"Linux","password":true,"vac":true,"version":"7757534","steam_id":85568392924469984,"keywords":["cp","nocrits","nodmgspread","uncletopia"],"game_id":440,"stv_port":27016,"stv_name":"Uncletopia | Chicago | 1 | All Maps | STV","players":[{"user_id":197,"name":"jstn","steam_id":76561198845283665,"connected_time":712000000000,"state":"active","ping":67},{"user_id":156,"name":"DJ Spit","steam_id":76561198186637025,"connected_time":2770000000000,"state":"active","ping":88},{"user_id":165,"name":"Mookie Burns","steam_id":76561199202153909,"connected_time":2232000000000,"state":"active","ping":76},{"user_id":203,"name":"jema","steam_id":76561198276513608,"connected_time":227000000000,"state":"active","ping":165},{"user_id":189,"name":"Toasty","steam_id":76561198176700097,"connected_time":1028000000000,"state":"active","ping":96},{"user_id":191,"name":"robin","steam_id":76561198069380992,"connected_time":1013000000000,"state":"active","ping":90},{"user_id":184,"name":"Coffeemelon","steam_id":76561198285891257,"connected_time":1152000000000,"state":"active","ping":109},{"user_id":141,"name":"Ringo x Seiran","steam_id":76561198357437908,"connected_time":3637000000000,"state":"active","ping":58},{"user_id":149,"name":"Dillon Planter","steam_id":76561198118903188,"connected_time":3100000000000,"state":"active","ping":84},{"user_id":198,"name":"chaotic bug goblin creature","steam_id":76561198079437901,"connected_time":684000000000,"state":"active","ping":73},{"user_id":148,"name":"Ayylmao","steam_id":76561198104780147,"connected_time":3134000000000,"state":"active","ping":45},{"user_id":199,"name":"hatchetax","steam_id":76561199013337543,"connected_time":670000000000,"state":"active","ping":74},{"user_id":168,"name":"Jones","steam_id":76561198046037216,"connected_time":2099000000000,"state":"active","ping":82},{"user_id":200,"name":"lucky","steam_id":76561198323426623,"connected_time":660000000000,"state":"active","ping":98},{"user_id":193,"name":"Chuck Finley","steam_id":76561198027411284,"connected_time":997000000000,"state":"active","ping":83},{"user_id":170,"name":"SMHTMFTTF","steam_id":76561199079614516,"connected_time":2064000000000,"state":"active","ping":45},{"user_id":179,"name":"Cosmic Torgue","steam_id":76561198828724945,"connected_time":1424000000000,"state":"active","ping":85},{"user_id":194,"name":"big fish","steam_id":76561198186479818,"connected_time":996000000000,"state":"active","ping":111},{"user_id":181,"name":"ùñçùñäùñÜùñõùñäùñìùñü","steam_id":76561198017539604,"connected_time":1323000000000,"state":"active","ping":75},{"user_id":204,"name":"Capt.Swag","steam_id":76561198088340994,"connected_time":204000000000,"state":"active","ping":79},{"user_id":202,"name":"Sonidad","steam_id":76561198082763204,"connected_time":265000000000,"state":"active","ping":73},{"user_id":196,"name":"Walkiing","steam_id":76561198074473413,"connected_time":900000000000,"state":"active","ping":45},{"user_id":205,"name":"Piggy","steam_id":76561198000399862,"connected_time":139000000000,"state":"active","ping":112}]},{"server_id":106,"name":"Uncletopia | Chicago | 2 | All Maps","name_short":"chi-2","host":"chi-1.us.uncletopia.com","port":27025,"enabled":true,"region":"us-central","cc":"us","latitude":41.881832,"longitude":-87.62318,"reserved":0,"last_update":"0001-01-01T00:00:00Z","name_a2s":"Uncletopia | Chicago | 2 | All Maps","protocol":17,"map":"pl_badwater","folder":"tf","game":"Team Fortress","app_id":440,"player_count":24,"max_players":24,"Bots":0,"server_type":"Dedicated","server_os":"Linux","password":true,"vac":true,"version":"7757534","steam_id":85568392924469985,"keywords":["nocrits","nodmgspread","payload","uncletopia"],"game_id":440,"stv_port":27026,"stv_name":"Uncletopia | Chicago | 2 | All Maps | STV","players":[{"user_id":303,"name":"solace","steam_id":76561198077902438,"connected_time":528000000000,"state":"active","ping":75},{"user_id":309,"name":"Obsidian","steam_id":76561198173359229,"connected_time":124000000000,"state":"active","ping":174},{"user_id":286,"name":"Soundproof","steam_id":76561198133392504,"connected_time":1645000000000,"state":"active","ping":46},{"user_id":312,"name":"WalletADHD","steam_id":76561198081067377,"connected_time":74000000000,"state":"active","ping":60},{"user_id":305,"name":"Gamba","steam_id":76561198069264650,"connected_time":274000000000,"state":"active","ping":60},{"user_id":290,"name":"Mr. Dr Professor","steam_id":76561198059764701,"connected_time":1222000000000,"state":"active","ping":99},{"user_id":308,"name":"Prophet","steam_id":76561198134948582,"connected_time":154000000000,"state":"active","ping":89},{"user_id":271,"name":"The Last Thing","steam_id":76561198047192080,"connected_time":2960000000000,"state":"active","ping":83},{"user_id":299,"name":"cynics","steam_id":76561198086719843,"connected_time":853000000000,"state":"active","ping":66},{"user_id":269,"name":"Goober Gaming","steam_id":76561198095550617,"connected_time":3240000000000,"state":"active","ping":64},{"user_id":274,"name":"CJDGuy","steam_id":76561198213009545,"connected_time":2655000000000,"state":"active","ping":46},{"user_id":307,"name":"An Unhappy Clown","steam_id":76561198175516514,"connected_time":218000000000,"state":"active","ping":74},{"user_id":285,"name":"Poera666","steam_id":76561199054624957,"connected_time":1832000000000,"state":"active","ping":165},{"user_id":243,"name":"Tea","steam_id":76561198004133638,"connected_time":4990000000000,"state":"active","ping":143},{"user_id":292,"name":"Sodemo","steam_id":76561198074987146,"connected_time":1180000000000,"state":"active","ping":84},{"user_id":310,"name":"bingus","steam_id":76561198283992686,"connected_time":115000000000,"state":"active","ping":72},{"user_id":275,"name":"Non-Serious gaming(real)","steam_id":76561198059485070,"connected_time":2620000000000,"state":"active","ping":99},{"user_id":276,"name":"the doo doo man","steam_id":76561198057076267,"connected_time":2597000000000,"state":"active","ping":71},{"user_id":313,"name":"Malikar (fake)","steam_id":76561199037497493,"connected_time":52000000000,"state":"active","ping":56},{"user_id":293,"name":"PsychicKineticFlash192","steam_id":76561199074993594,"connected_time":1167000000000,"state":"active","ping":81},{"user_id":283,"name":"SturmTea","steam_id":76561198027371308,"connected_time":1983000000000,"state":"active","ping":75},{"user_id":294,"name":"pitbull named princess","steam_id":76561198880211576,"connected_time":1163000000000,"state":"active","ping":99},{"user_id":296,"name":"BigOrca54","steam_id":76561198181360271,"connected_time":1040000000000,"state":"active","ping":63},{"user_id":295,"name":"dave strider","steam_id":76561198065112186,"connected_time":1138000000000,"state":"active","ping":74}]},{"server_id":402,"name":"Uncletopia | Chicago | 3 | All Maps","name_short":"chi-3","host":"chi-1.us.uncletopia.com","port":27035,"enabled":true,"region":"us-central","cc":"us","latitude":41.881832,"longitude":-87.62318,"reserved":0,"last_update":"0001-01-01T00:00:00Z","name_a2s":"Uncletopia | Chicago | 3 | All Maps","protocol":17,"map":"koth_lakeside_final","folder":"tf","game":"Team Fortress","app_id":440,"player_count":0,"max_players":24,"Bots":0,"server_type":"Dedicated","server_os":"Linux","password":true,"vac":true,"version":"7757534","steam_id":85568392924515191,"keywords":["cp","nocrits","nodmgspread","uncletopia"],"game_id":440,"stv_port":27036,"stv_name":"Uncletopia | Chicago | 3 | All Maps | STV","players":null},{"server_id":403,"name":"Uncletopia | Chicago | 4 | All Maps","name_short":"chi-4","host":"chi-1.us.uncletopia.com","port":27045,"enabled":true,"region":"us-central","cc":"us","latitude":41.881832,"longitude":-87.62318,"reserved":0,"last_update":"0001-01-01T00:00:00Z","name_a2s":"Uncletopia | Chicago | 4 | All Maps","protocol":17,"map":"koth_lakeside_final","folder":"tf","game":"Team Fortress","app_id":440,"player_count":0,"max_players":24,"Bots":0,"server_type":"Dedicated","server_os":"Linux","password":true,"vac":true,"version":"7757534","steam_id":85568392924515193,"keywords":["cp","nocrits","nodmgspread","uncletopia"],"game_id":440,"stv_port":27046,"stv_name":"Uncletopia | Chicago | 4 | All Maps | STV","players":null},{"server_id":36,"name":"Uncletopia | Chicago | 5 | All Maps","name_short":"chi-5","host":"chi-2.us.uncletopia.com","port":27015,"enabled":true,"region":"us-central","cc":"us","latitude":41.881832,"longitude":-87.62318,"reserved":0,"last_update":"0001-01-01T00:00:00Z","name_a2s":"Uncletopia | Chicago | 5 | All Maps","protocol":17,"map":"koth_cascade","folder":"tf","game":"Team Fortress","app_id":440,"player_count":0,"max_players":24,"Bots":0,"server_type":"Dedicated","server_os":"Linux","password":true,"vac":true,"version":"7757534","steam_id":85568392924866362,"keywords":["cp","nocrits","nodmgspread","uncletopia"],"game_id":440,"stv_port":27016,"stv_name":"Uncletopia | Chicago | 5 | All Maps | STV","players":null},{"server_id":37,"name":"Uncletopia | Chicago | 6 | All Maps","name_short":"chi-6","host":"chi-2.us.uncletopia.com","port":27025,"enabled":true,"region":"us-central","cc":"us","latitude":41.881832,"longitude":-87.62318,"reserved":0,"last_update":"0001-01-01T00:00:00Z","name_a2s":"Uncletopia | Chicago | 6 | All Maps","protocol":17,"map":"pl_borneo","folder":"tf","game":"Team Fortress","app_id":440,"player_count":0,"max_players":24,"Bots":0,"server_type":"Dedicated","server_os":"Linux","password":true,"vac":true,"version":"7757534","steam_id":85568392924866363,"keywords":["nocrits","nodmgspread","payload","uncletopia"],"game_id":440,"stv_port":27026,"stv_name":"Uncletopia | Chicago | 6 | All Maps | STV","players":null},{"server_id":38,"name":"Uncletopia | Chicago | 7 | Stopwatch Beta","name_short":"chi-7","host":"chi-2.us.uncletopia.com","port":27035,"enabled":true,"region":"us-central","cc":"us","latitude":41.881832,"longitude":-87.62318,"reserved":0,"last_update":"0001-01-01T00:00:00Z","name_a2s":"Uncletopia | Chicago | 7 | Stopwatch Beta","protocol":17,"map":"pl_barnblitz","folder":"tf","game":"Team Fortress","app_id":440,"player_count":0,"max_players":24,"Bots":0,"server_type":"Dedicated","server_os":"Linux","password":true,"vac":true,"version":"7757534","steam_id":85568392924866364,"keywords":["nocrits","nodmgspread","payload","uncletopia"],"game_id":440,"stv_port":27036,"stv_name":"Uncletopia | Chicago | 7 | Stopwatch Beta | STV","players":null},{"server_id":39,"name":"Uncletopia | Chicago | 8 | Community","name_short":"chi-8","host":"chi-2.us.uncletopia.com","port":27045,"enabled":true,"region":"us-central","cc":"us","latitude":41.881832,"longitude":-87.62318,"reserved":0,"last_update":"0001-01-01T00:00:00Z","name_a2s":"Uncletopia | Chicago | 8 | Community","protocol":17,"map":"koth_cascade","folder":"tf","game":"Team Fortress","app_id":440,"player_count":0,"max_players":24,"Bots":0,"server_type":"Dedicated","server_os":"Linux","password":true,"vac":true,"version":"7757534","steam_id":85568392924866365,"keywords":["cp","nocrits","nodmgspread","uncletopia"],"game_id":440,"stv_port":27046,"stv_name":"Uncletopia | Chicago | 8 | Community | STV","players":null},{"server_id":8,"name":"Uncletopia | Dallas | 1 | All Maps","name_short":"dal-1","host":"dal-1.us.uncletopia.com","port":27015,"enabled":true,"region":"us-central","cc":"us","latitude":32.779167,"longitude":-96.80889,"reserved":0,"last_update":"0001-01-01T00:00:00Z","name_a2s":"Uncletopia | Dallas | 1 | All Maps","protocol":17,"map":"pl_swiftwater_final1","folder":"tf","game":"Team Fortress","app_id":440,"player_count":23,"max_players":24,"Bots":0,"server_type":"Dedicated","server_os":"Linux","password":true,"vac":true,"version":"7757534","steam_id":85568392924469986,"keywords":["nocrits","nodmgspread","payload","uncletopia"],"game_id":440,"stv_port":27016,"stv_name":"Uncletopia | Dallas | 1 | All Maps | STV","players":[{"user_id":257,"name":"Ac√≥manas","steam_id":76561199031977210,"connected_time":197000000000,"state":"active","ping":78},{"user_id":244,"name":"Osrio","steam_id":76561198083428069,"connected_time":1231000000000,"state":"active","ping":125},{"user_id":250,"name":"Cryonics","steam_id":76561198314197911,"connected_time":723000000000,"state":"active","ping":81},{"user_id":251,"name":"bloodhail","steam_id":76561198121633820,"connected_time":708000000000,"state":"active","ping":102},{"user_id":245,"name":"tired","steam_id":76561199445629071,"connected_time":1042000000000,"state":"active","ping":81},{"user_id":243,"name":"Á≤æÊ∂≤Blev BlevÁ≤æÊ∂≤","steam_id":76561198208972565,"connected_time":1291000000000,"state":"active","ping":101},{"user_id":261,"name":"Migda≈Ç","steam_id":76561198988067104,"connected_time":15000000000,"state":"spawning","ping":173},{"user_id":262,"name":"Crackmire","steam_id":76561199016285746,"connected_time":15000000000,"state":"spawning","ping":99},{"user_id":248,"name":"will uber light classes","steam_id":76561198117033273,"connected_time":930000000000,"state":"active","ping":158},{"user_id":254,"name":"‚ô• thedittoguy ‚ô•","steam_id":76561199013129784,"connected_time":482000000000,"state":"active","ping":48},{"user_id":138,"name":"SeaBass","steam_id":76561197982949108,"connected_time":11238000000000,"state":"active","ping":82},{"user_id":227,"name":"Rat_king","steam_id":76561199465689129,"connected_time":2637000000000,"state":"active","ping":46},{"user_id":30,"name":"‚ö¢","steam_id":76561199117637890,"connected_time":17641000000000,"state":"active","ping":70},{"user_id":263,"name":"turkeysarefriendsz","steam_id":76561199074521322,"connected_time":2000000000,"state":"spawning","ping":80},{"user_id":144,"name":"TTV/ChadMorningWood","steam_id":76561198139832291,"connected_time":10652000000000,"state":"active","ping":65},{"user_id":238,"name":"Carl","steam_id":76561198285931413,"connected_time":1625000000000,"state":"active","ping":60},{"user_id":211,"name":"PaC","steam_id":76561198081053203,"connected_time":4349000000000,"state":"spawning","ping":114},{"user_id":222,"name":"King","steam_id":76561198039763676,"connected_time":3069000000000,"state":"active","ping":68},{"user_id":249,"name":"Barack OBidoof","steam_id":76561198035142993,"connected_time":788000000000,"state":"active","ping":81},{"user_id":236,"name":"unsafequeen","steam_id":76561199088126900,"connected_time":1766000000000,"state":"active","ping":106},{"user_id":216,"name":"The sad vanilla","steam_id":76561198268621447,"connected_time":4011000000000,"state":"active","ping":94},{"user_id":239,"name":"drgreg","steam_id":76561198120363898,"connected_time":1617000000000,"state":"active","ping":100},{"user_id":253,"name":"matheo000","steam_id":76561198961555746,"connected_time":707000000000,"state":"active","ping":121}]},{"server_id":108,"name":"Uncletopia | Dallas | 2 | All Maps","name_short":"dal-2","host":"dal-1.us.uncletopia.com","port":27025,"enabled":true,"region":"us-central","cc":"us","latitude":32.779167,"longitude":-96.80889,"reserved":0,"last_update":"0001-01-01T00:00:00Z","name_a2s":"Uncletopia | Dallas | 2 | All Maps","protocol":17,"map":"pl_upward","folder":"tf","game":"Team Fortress","app_id":440,"player_count":0,"max_players":24,"Bots":0,"server_type":"Dedicated","server_os":"Linux","password":true,"vac":true,"version":"7757534","steam_id":85568392924469988,"keywords":["nocrits","nodmgspread","payload","uncletopia"],"game_id":440,"stv_port":27026,"stv_name":"Uncletopia | Dallas | 2 | All Maps | STV","players":null},{"server_id":5,"name":"Uncletopia | Frankfurt | 1 | All Maps","name_short":"frk-1","host":"frk-1.de.uncletopia.com","port":27015,"enabled":true,"region":"eu","cc":"de","latitude":50.110924,"longitude":8.682127,"reserved":0,"last_update":"0001-01-01T00:00:00Z","name_a2s":"Uncletopia | Frankfurt | 1 | All Maps","protocol":17,"map":"cp_sunshine","folder":"tf","game":"Team Fortress","app_id":440,"player_count":24,"max_players":24,"Bots":0,"server_type":"Dedicated","server_os":"Linux","password":true,"vac":true,"version":"7757534","steam_id":85568392924469989,"keywords":["cp","nocrits","nodmgspread","uncletopia"],"game_id":440,"stv_port":27016,"stv_name":"Uncletopia | Frankfurt | 1 | All Maps | STV","players":[{"user_id":645,"name":"Rz!","steam_id":76561198364380889,"connected_time":4703000000000,"state":"active","ping":131},{"user_id":599,"name":"LordTrap.exe","steam_id":76561198318089716,"connected_time":8232000000000,"state":"active","ping":52},{"user_id":693,"name":"pain train tf2","steam_id":76561198111568728,"connected_time":502000000000,"state":"active","ping":49},{"user_id":689,"name":"cof","steam_id":76561199128417805,"connected_time":891000000000,"state":"active","ping":70},{"user_id":684,"name":"maria.","steam_id":76561198398126607,"connected_time":1664000000000,"state":"active","ping":60},{"user_id":655,"name":"It`s Bartolo TIme","steam_id":76561198000557537,"connected_time":4117000000000,"state":"active","ping":74},{"user_id":701,"name":"Jara.","steam_id":76561197992207165,"connected_time":325000000000,"state":"active","ping":110},{"user_id":698,"name":"Egor Pomidor","steam_id":76561199175688390,"connected_time":382000000000,"state":"active","ping":75},{"user_id":618,"name":"BUREK od Sira","steam_id":76561198092589818,"connected_time":6574000000000,"state":"active","ping":71},{"user_id":694,"name":"pfear","steam_id":76561197999207328,"connected_time":441000000000,"state":"active","ping":73},{"user_id":688,"name":"LarsInABox","steam_id":76561198028329262,"connected_time":1289000000000,"state":"active","ping":71},{"user_id":685,"name":"Nicotine Relapse","steam_id":76561198284086634,"connected_time":1649000000000,"state":"active","ping":87},{"user_id":695,"name":"Vitamin Weee","steam_id":76561199183937747,"connected_time":403000000000,"state":"active","ping":78},{"user_id":690,"name":"Fat Pigeon","steam_id":76561198817940142,"connected_time":552000000000,"state":"active","ping":52},{"user_id":696,"name":"A stripper","steam_id":76561198034865891,"connected_time":394000000000,"state":"active","ping":65},{"user_id":676,"name":"elsuedi","steam_id":76561198074722832,"connected_time":2614000000000,"state":"active","ping":53},{"user_id":697,"name":"DarkFady","steam_id":76561198179099523,"connected_time":385000000000,"state":"active","ping":103},{"user_id":646,"name":"Vanilla","steam_id":76561199191214816,"connected_time":4629000000000,"state":"active","ping":62},{"user_id":657,"name":"WW3 Enjoyer","steam_id":76561198042593027,"connected_time":3966000000000,"state":"active","ping":87},{"user_id":699,"name":"Max","steam_id":76561198138959361,"connected_time":368000000000,"state":"active","ping":59},{"user_id":691,"name":"Robin ‚òÖ","steam_id":76561198124355408,"connected_time":546000000000,"state":"active","ping":99},{"user_id":702,"name":"Qwerty","steam_id":76561198023525894,"connected_time":276000000000,"state":"active","ping":87},{"user_id":621,"name":"Ôº≤ ÔºØ Ôº¢ Ôº¢ Ôº• Ôº≤ Ôº¥","steam_id":76561198134404830,"connected_time":6531000000000,"state":"active","ping":152},{"user_id":683,"name":"the least schizo med main","steam_id":76561198048530109,"connected_time":2002000000000,"state":"active","ping":75}]},{"server_id":110,"name":"Uncletopia | Frankfurt | 2 | All Maps","name_short":"frk-2","host":"frk-1.de.uncletopia.com","port":27025,"enabled":true,"region":"eu","cc":"de","latitude":50.110924,"longitude":8.682127,"reserved":0,"last_update":"0001-01-01T00:00:00Z","name_a2s":"Uncletopia | Frankfurt | 2 | All Maps","protocol":17,"map":"koth_highpass","folder":"tf","game":"Team Fortress","app_id":440,"player_count":6,"max_players":24,"Bots":0,"server_type":"Dedicated","server_os":"Linux","password":true,"vac":true,"version":"7757534","steam_id":85568392924469990,"keywords":["cp","nocrits","nodmgspread","uncletopia"],"game_id":440,"stv_port":27026,"stv_name":"Uncletopia | Frankfurt | 2 | All Maps | STV","players":[{"user_id":224,"name":"That_One_Useless_Guy","steam_id":76561199122356477,"connected_time":1179000000000,"state":"active","ping":70},{"user_id":221,"name":"fried","steam_id":76561198307522022,"connected_time":3101000000000,"state":"active","ping":47},{"user_id":225,"name":"Pan Pan","steam_id":76561199074670515,"connected_time":1168000000000,"state":"active","ping":98},{"user_id":223,"name":"Spatula lemmy","steam_id":76561199067354269,"connected_time":2043000000000,"state":"active","ping":120},{"user_id":226,"name":"ChickyCoop","steam_id":76561199072983488,"connected_time":519000000000,"state":"active","ping":70},{"user_id":227,"name":"bad at tf2 episode 2","steam_id":76561198002451113,"connected_time":207000000000,"state":"active","ping":97}]},{"server_id":308,"name":"Uncletopia | Frankfurt | 3 | All Maps","name_short":"frk-3","host":"frk-1.de.uncletopia.com","port":27035,"enabled":true,"region":"eu","cc":"de","latitude":50.110924,"longitude":8.682127,"reserved":0,"last_update":"0001-01-01T00:00:00Z","name_a2s":"Uncletopia | Frankfurt | 3 | All Maps","protocol":17,"map":"pl_borneo","folder":"tf","game":"Team Fortress","app_id":440,"player_count":24,"max_players":24,"Bots":0,"server_type":"Dedicated","server_os":"Linux","password":true,"vac":true,"version":"7757534","steam_id":85568392924504274,"keywords":["nocrits","nodmgspread","payload","uncletopia"],"game_id":440,"stv_port":27036,"stv_name":"Uncletopia | Frankfurt | 3 | All Maps | STV","players":[{"user_id":171,"name":"ToniGAM3S","steam_id":76561198128605351,"connected_time":578000000000,"state":"active","ping":59},{"user_id":187,"name":"Humle","steam_id":76561198056438772,"connected_time":201000000000,"state":"active","ping":66},{"user_id":183,"name":"Spectra","steam_id":76561198322555105,"connected_time":402000000000,"state":"active","ping":65},{"user_id":159,"name":"cursedbygod‚ô°","steam_id":76561198318291047,"connected_time":2011000000000,"state":"active","ping":110},{"user_id":77,"name":"Cleander","steam_id":76561198262207332,"connected_time":7877000000000,"state":"active","ping":45},{"user_id":161,"name":"Der Herr Doktor","steam_id":76561198119476089,"connected_time":1809000000000,"state":"active","ping":52},{"user_id":149,"name":"Fran","steam_id":76561199070516960,"connected_time":3310000000000,"state":"active","ping":63},{"user_id":173,"name":"awwnoh","steam_id":76561198059842276,"connected_time":564000000000,"state":"active","ping":80},{"user_id":174,"name":"Wardruna96","steam_id":76561199057083828,"connected_time":537000000000,"state":"active","ping":76},{"user_id":95,"name":"citronous","steam_id":76561198093290934,"connected_time":7080000000000,"state":"active","ping":57},{"user_id":170,"name":"PONCHO 90","steam_id":76561198412197820,"connected_time":923000000000,"state":"active","ping":80},{"user_id":175,"name":"CollDragon","steam_id":76561198067534450,"connected_time":499000000000,"state":"active","ping":141},{"user_id":181,"name":"Akane","steam_id":76561197990407312,"connected_time":444000000000,"state":"active","ping":67},{"user_id":185,"name":"tallen","steam_id":76561198061708595,"connected_time":324000000000,"state":"active","ping":83},{"user_id":188,"name":"Qui-Gon Jinn","steam_id":76561198853214333,"connected_time":51000000000,"state":"active","ping":46},{"user_id":177,"name":"Pootis Spencer","steam_id":76561198098267117,"connected_time":480000000000,"state":"active","ping":75},{"user_id":143,"name":"—É–≤—ã","steam_id":76561198172046813,"connected_time":3713000000000,"state":"active","ping":74},{"user_id":178,"name":"Slim3rs","steam_id":76561199088010585,"connected_time":473000000000,"state":"active","ping":180},{"user_id":131,"name":"Caliban","steam_id":76561197999696839,"connected_time":4141000000000,"state":"active","ping":100},{"user_id":179,"name":"EZPK","steam_id":76561197987474355,"connected_time":467000000000,"state":"active","ping":60},{"user_id":180,"name":"Grolemaster","steam_id":76561199226454635,"connected_time":453000000000,"state":"active","ping":67},{"user_id":135,"name":"B.batt","steam_id":76561198998684199,"connected_time":3941000000000,"state":"active","ping":121},{"user_id":121,"name":"metamikko","steam_id":76561198324704234,"connected_time":5034000000000,"state":"active","ping":127},{"user_id":186,"name":"G6 sherlock","steam_id":76561198802967796,"connected_time":256000000000,"state":"active","ping":124}]},{"server_id":309,"name":"Uncletopia | Frankfurt | 4 | All Maps","name_short":"frk-4","host":"frk-1.de.uncletopia.com","port":27045,"enabled":true,"region":"eu","cc":"de","latitude":50.110924,"longitude":8.682127,"reserved":0,"last_update":"0001-01-01T00:00:00Z","name_a2s":"Uncletopia | Frankfurt | 4 | All Maps","protocol":17,"map":"pl_badwater","folder":"tf","game":"Team Fortress","app_id":440,"player_count":23,"max_players":24,"Bots":0,"server_type":"Dedicated","server_os":"Linux","password":true,"vac":true,"version":"7757534","steam_id":85568392924504275,"keywords":["nocrits","nodmgspread","payload","uncletopia"],"game_id":440,"stv_port":27046,"stv_name":"Uncletopia | Frankfurt | 4 | All Maps | STV","players":[{"user_id":59,"name":"Syll","steam_id":76561198040736202,"connected_time":467000000000,"state":"active","ping":92},{"user_id":41,"name":"Mr. Mundy","steam_id":76561198132008918,"connected_time":985000000000,"state":"active","ping":73},{"user_id":11,"name":"piss man (real)","steam_id":76561198839843428,"connected_time":3417000000000,"state":"active","ping":114},{"user_id":21,"name":"Radegast the Brown","steam_id":76561198075489505,"connected_time":2279000000000,"state":"active","ping":60},{"user_id":13,"name":"that turkish mf#savetf2","steam_id":76561199352819594,"connected_time":3145000000000,"state":"active","ping":97},{"user_id":22,"name":"G1","steam_id":76561199097753630,"connected_time":2213000000000,"state":"active","ping":71},{"user_id":49,"name":"result","steam_id":76561198269200388,"connected_time":756000000000,"state":"active","ping":74},{"user_id":28,"name":"ran is running","steam_id":76561199443185667,"connected_time":1948000000000,"state":"active","ping":134},{"user_id":19,"name":"Raufaser","steam_id":76561199266632227,"connected_time":2656000000000,"state":"active","ping":57},{"user_id":38,"name":"W√ºstenfuchs","steam_id":76561198453885708,"connected_time":1137000000000,"state":"active","ping":70},{"user_id":62,"name":"Fluffy","steam_id":76561198084447725,"connected_time":134000000000,"state":"active","ping":46},{"user_id":63,"name":"Wonder of U","steam_id":76561198099433856,"connected_time":118000000000,"state":"active","ping":74},{"user_id":64,"name":"cherry","steam_id":76561199006915718,"connected_time":98000000000,"state":"active","ping":64},{"user_id":50,"name":"cs_italyjoseon_cso","steam_id":76561199062818404,"connected_time":750000000000,"state":"active","ping":58},{"user_id":42,"name":"Avast AntiPony 9445","steam_id":76561197992046533,"connected_time":973000000000,"state":"active","ping":45},{"user_id":61,"name":"—Ç–æ–ª—è","steam_id":76561199098518615,"connected_time":361000000000,"state":"active","ping":96},{"user_id":44,"name":"Dolcelatte","steam_id":76561198038501770,"connected_time":890000000000,"state":"active","ping":47},{"user_id":65,"name":"Mr. Mietsch","steam_id":76561198077516818,"connected_time":78000000000,"state":"active","ping":50},{"user_id":47,"name":"L1RG0","steam_id":76561198329274068,"connected_time":832000000000,"state":"active","ping":60},{"user_id":56,"name":"(wm) Das Fleisch","steam_id":76561198001250715,"connected_time":593000000000,"state":"active","ping":55},{"user_id":66,"name":"Kn√∂sta","steam_id":76561198143422139,"connected_time":65000000000,"state":"active","ping":105},{"user_id":54,"name":"where is my egg?","steam_id":76561198172542535,"connected_time":633000000000,"state":"active","ping":102},{"user_id":55,"name":"john fortress","steam_id":76561198013237629,"connected_time":608000000000,"state":"active","ping":110}]},{"server_id":310,"name":"Uncletopia | Frankfurt | 5 | All Maps","name_short":"frk-5","host":"frk-1.de.uncletopia.com","port":27055,"enabled":true,"region":"eu","cc":"de","latitude":50.110924,"longitude":8.682127,"reserved":0,"last_update":"0001-01-01T00:00:00Z","name_a2s":"Uncletopia | Frankfurt | 5 | All Maps","protocol":17,"map":"pl_badwater","folder":"tf","game":"Team Fortress","app_id":440,"player_count":24,"max_players":24,"Bots":0,"server_type":"Dedicated","server_os":"Linux","password":true,"vac":true,"version":"7757534","steam_id":85568392924504277,"keywords":["nocrits","nodmgspread","payload","uncletopia"],"game_id":440,"stv_port":27056,"stv_name":"Uncletopia | Frankfurt | 5 | All Maps | STV","players":[{"user_id":146,"name":"Gruby","steam_id":76561198879745824,"connected_time":595000000000,"state":"active","ping":61},{"user_id":149,"name":"VolcanicArts","steam_id":76561198063453246,"connected_time":332000000000,"state":"active","ping":61},{"user_id":111,"name":"Francisco","steam_id":76561198074614581,"connected_time":2496000000000,"state":"active","ping":75},{"user_id":126,"name":"siamang ape","steam_id":76561198366599617,"connected_time":1812000000000,"state":"active","ping":60},{"user_id":119,"name":"hud_saytext_time 0","steam_id":76561198010327228,"connected_time":2319000000000,"state":"active","ping":55},{"user_id":114,"name":"kuno","steam_id":76561198068081430,"connected_time":2457000000000,"state":"active","ping":53},{"user_id":151,"name":"Rask","steam_id":76561198052934944,"connected_time":255000000000,"state":"active","ping":97},{"user_id":138,"name":"Jughead","steam_id":76561198000355410,"connected_time":1077000000000,"state":"active","ping":57},{"user_id":152,"name":"BenteBent","steam_id":76561198297920637,"connected_time":38000000000,"state":"active","ping":41},{"user_id":140,"name":"lore","steam_id":76561198120984188,"connected_time":1005000000000,"state":"active","ping":62},{"user_id":130,"name":"Hamza Gaming","steam_id":76561198150448445,"connected_time":1666000000000,"state":"active","ping":63},{"user_id":134,"name":"Jevol","steam_id":76561199060223960,"connected_time":1290000000000,"state":"active","ping":102},{"user_id":123,"name":"Lyncurion","steam_id":76561199260022725,"connected_time":2105000000000,"state":"active","ping":82},{"user_id":120,"name":"Devil","steam_id":76561198129721935,"connected_time":2288000000000,"state":"active","ping":84},{"user_id":148,"name":"Tomfool","steam_id":76561197993256481,"connected_time":398000000000,"state":"active","ping":73},{"user_id":142,"name":"gort","steam_id":76561198060339391,"connected_time":826000000000,"state":"active","ping":43},{"user_id":147,"name":"ricky pee pee","steam_id":76561198152620745,"connected_time":548000000000,"state":"active","ping":70},{"user_id":102,"name":"XPullaHiiri","steam_id":76561198031652375,"connected_time":3106000000000,"state":"active","ping":84},{"user_id":121,"name":"Doctor Mobius","steam_id":76561197971281806,"connected_time":2235000000000,"state":"active","ping":66},{"user_id":144,"name":"snork","steam_id":76561198138386260,"connected_time":746000000000,"state":"active","ping":72},{"user_id":88,"name":"Kestrel","steam_id":76561198144033005,"connected_time":3901000000000,"state":"active","ping":66},{"user_id":150,"name":"DSL","steam_id":76561198186770547,"connected_time":297000000000,"state":"active","ping":96},{"user_id":90,"name":"milof","steam_id":76561198809199604,"connected_time":3730000000000,"state":"active","ping":68},{"user_id":145,"name":"FingerMan","steam_id":76561198004040091,"connected_time":677000000000,"state":"active","ping":64}]},{"server_id":311,"name":"Uncletopia | Frankfurt | 6 | All Maps","name_short":"frk-6","host":"frk-1.de.uncletopia.com","port":27065,"enabled":true,"region":"eu","cc":"de","latitude":50.110924,"longitude":8.682127,"reserved":0,"last_update":"0001-01-01T00:00:00Z","name_a2s":"Uncletopia | Frankfurt | 6 | All Maps","protocol":17,"map":"cp_well","folder":"tf","game":"Team Fortress","app_id":440,"player_count":22,"max_players":24,"Bots":0,"server_type":"Dedicated","server_os":"Linux","password":true,"vac":true,"version":"7757534","steam_id":85568392924504278,"keywords":["cp","nocrits","nodmgspread","uncletopia"],"game_id":440,"stv_port":27066,"stv_name":"Uncletopia | Frankfurt | 6 | All Maps | STV","players":[{"user_id":294,"name":"WAAGGHH Enjoyer","steam_id":76561198974205333,"connected_time":92000000000,"state":"active","ping":70},{"user_id":293,"name":"–Ø—Å–æ—Å –£–±–∏–±—É","steam_id":76561198291861707,"connected_time":139000000000,"state":"active","ping":131},{"user_id":226,"name":"syndenz","steam_id":76561198176063813,"connected_time":4854000000000,"state":"active","ping":60},{"user_id":295,"name":"Weenie Hut Jr's","steam_id":76561198050515739,"connected_time":65000000000,"state":"active","ping":60},{"user_id":243,"name":"lvl. 50 honkler","steam_id":76561198061688660,"connected_time":3699000000000,"state":"active","ping":105},{"user_id":290,"name":"Jeerven","steam_id":76561198259189841,"connected_time":412000000000,"state":"active","ping":64},{"user_id":193,"name":"sharkmax12312","steam_id":76561198996008569,"connected_time":6913000000000,"state":"active","ping":69},{"user_id":163,"name":"brokenphilip","steam_id":76561198080960604,"connected_time":10042000000000,"state":"active","ping":76},{"user_id":296,"name":"Doecheldorf","steam_id":76561198291628630,"connected_time":23000000000,"state":"spawning","ping":57},{"user_id":297,"name":"Mega Saturn","steam_id":76561198024750500,"connected_time":16000000000,"state":"spawning","ping":76},{"user_id":298,"name":"franco","steam_id":76561198113693551,"connected_time":10000000000,"state":"active","ping":163},{"user_id":271,"name":"Trans Cat GF","steam_id":76561198436817109,"connected_time":1896000000000,"state":"active","ping":73},{"user_id":281,"name":"GZimmer","steam_id":76561198088794767,"connected_time":1408000000000,"state":"active","ping":48},{"user_id":285,"name":"hasansaeedifar","steam_id":76561198974563618,"connected_time":972000000000,"state":"active","ping":163},{"user_id":267,"name":"Purple","steam_id":76561199032365015,"connected_time":2320000000000,"state":"active","ping":88},{"user_id":233,"name":"Pythor P. Chumsworth","steam_id":76561199220698123,"connected_time":4248000000000,"state":"active","ping":147},{"user_id":299,"name":"Raiko","steam_id":76561199042472732,"connected_time":9000000000,"state":"active","ping":118},{"user_id":287,"name":"Bocchi the Rock","steam_id":76561198801492001,"connected_time":616000000000,"state":"active","ping":83},{"user_id":300,"name":"MateMO","steam_id":76561198146180114,"connected_time":8000000000,"state":"spawning","ping":85},{"user_id":269,"name":"bob","steam_id":76561198424363858,"connected_time":2036000000000,"state":"active","ping":74},{"user_id":301,"name":"KptHalo","steam_id":76561197995341399,"connected_time":4000000000,"state":"spawning","ping":74},{"user_id":302,"name":"Old Hat","steam_id":76561197994673297,"connected_time":2000000000,"state":"spawning","ping":89}]},{"server_id":23,"name":"Uncletopia | Frankfurt | 7 | Stopwatch Beta","name_short":"frk-7","host":"frk-1.de.uncletopia.com","port":27075,"enabled":true,"region":"eu","cc":"de","latitude":50.110924,"longitude":8.682127,"reserved":0,"last_update":"0001-01-01T00:00:00Z","name_a2s":"Uncletopia | Frankfurt | 7 | Stopwatch Beta","protocol":17,"map":"workshop/koth_ramjam_rc1.ugc459778887","folder":"tf","game":"Team Fortress","app_id":440,"player_count":0,"max_players":24,"Bots":0,"server_type":"Dedicated","server_os":"Linux","password":true,"vac":true,"version":"7757534","steam_id":85568392924742827,"keywords":["cp","nocrits","nodmgspread","uncletopia"],"game_id":440,"stv_port":27076,"stv_name":"Uncletopia | Frankfurt | 7 | Stopwatch Beta | STV","players":null},{"server_id":24,"name":"Uncletopia | Frankfurt | 8 | Community","name_short":"frk-8","host":"frk-1.de.uncletopia.com","port":27085,"enabled":true,"region":"eu","cc":"de","latitude":50.110924,"longitude":8.682127,"reserved":0,"last_update":"0001-01-01T00:00:00Z","name_a2s":"Uncletopia | Frankfurt | 8 | Community","protocol":17,"map":"koth_lakeside_final","folder":"tf","game":"Team Fortress","app_id":440,"player_count":0,"max_players":24,"Bots":0,"server_type":"Dedicated","server_os":"Linux","password":true,"vac":true,"version":"7757534","steam_id":85568392924742828,"keywords":["cp","nocrits","nodmgspread","uncletopia"],"game_id":440,"stv_port":27086,"stv_name":"Uncletopia | Frankfurt | 8 | Community | STV","players":null},{"server_id":202,"name":"Uncletopia | Hong Kong | 1 | All Maps","name_short":"hgk-1","host":"hgk-1.hk.uncletopia.com","port":27015,"enabled":true,"region":"asia","cc":"hk","latitude":22.302711,"longitude":114.177216,"reserved":0,"last_update":"0001-01-01T00:00:00Z","name_a2s":"Uncletopia | Hong Kong | 1 | All Maps","protocol":17,"map":"cp_snakewater_final1","folder":"tf","game":"Team Fortress","app_id":440,"player_count":0,"max_players":24,"Bots":0,"server_type":"Dedicated","server_os":"Linux","password":true,"vac":true,"version":"7757534","steam_id":85568392924494504,"keywords":["cp","nocrits","nodmgspread","uncletopia"],"game_id":440,"stv_port":27016,"stv_name":"Uncletopia | Hong Kong | 1 | All Maps | STV","players":null},{"server_id":1,"name":"Uncletopia | Los Angeles | 1 | All Maps","name_short":"lax-1","host":"lax-1.us.uncletopia.com","port":27015,"enabled":true,"region":"us-west","cc":"us","latitude":33.94279,"longitude":-118.41004,"reserved":0,"last_update":"0001-01-01T00:00:00Z","name_a2s":"Uncletopia | Los Angeles | 1 | All Maps","protocol":17,"map":"koth_lakeside_final","folder":"tf","game":"Team Fortress","app_id":440,"player_count":0,"max_players":24,"Bots":0,"server_type":"Dedicated","server_os":"Linux","password":true,"vac":true,"version":"7757534","steam_id":85568392924469991,"keywords":["cp","nocrits","nodmgspread","uncletopia"],"game_id":440,"stv_port":27016,"stv_name":"Uncletopia | Los Angeles | 1 | All Maps | STV","players":null},{"server_id":112,"name":"Uncletopia | Los Angeles | 2 | All Maps","name_short":"lax-2","host":"lax-1.us.uncletopia.com","port":27025,"enabled":true,"region":"us-west","cc":"us","latitude":33.94279,"longitude":-118.41004,"reserved":0,"last_update":"0001-01-01T00:00:00Z","name_a2s":"Uncletopia | Los Angeles | 2 | All Maps","protocol":17,"map":"pl_badwater","folder":"tf","game":"Team Fortress","app_id":440,"player_count":0,"max_players":24,"Bots":0,"server_type":"Dedicated","server_os":"Linux","password":true,"vac":true,"version":"7757534","steam_id":85568392924469992,"keywords":["nocrits","nodmgspread","payload","uncletopia"],"game_id":440,"stv_port":27026,"stv_name":"Uncletopia | Los Angeles | 2 | All Maps | STV","players":null},{"server_id":324,"name":"Uncletopia | Los Angeles | 3 | All Maps","name_short":"lax-3","host":"lax-1.us.uncletopia.com","port":27035,"enabled":true,"region":"us-west","cc":"us","latitude":33.94279,"longitude":-118.41004,"reserved":0,"last_update":"0001-01-01T00:00:00Z","name_a2s":"Uncletopia | Los Angeles | 3 | All Maps","protocol":17,"map":"pl_barnblitz","folder":"tf","game":"Team Fortress","app_id":440,"player_count":0,"max_players":24,"Bots":0,"server_type":"Dedicated","server_os":"Linux","password":true,"vac":true,"version":"7757534","steam_id":85568392924510198,"keywords":["nocrits","nodmgspread","payload","uncletopia"],"game_id":440,"stv_port":27036,"stv_name":"Uncletopia | Los Angeles | 3 | All Maps | STV","players":null},{"server_id":25,"name":"Uncletopia | Los Angeles | 4 | Stopwatch Beta","name_short":"lax-4","host":"lax-1.us.uncletopia.com","port":27045,"enabled":true,"region":"us-west","cc":"us","latitude":33.94279,"longitude":-118.41004,"reserved":0,"last_update":"0001-01-01T00:00:00Z","name_a2s":"Uncletopia | Los Angeles | 4 | Stopwatch Beta","protocol":17,"map":"pl_swiftwater_final1","folder":"tf","game":"Team Fortress","app_id":440,"player_count":0,"max_players":24,"Bots":0,"server_type":"Dedicated","server_os":"Linux","password":true,"vac":true,"version":"7757534","steam_id":85568392924510199,"keywords":["nocrits","nodmgspread","payload","uncletopia"],"game_id":440,"stv_port":27046,"stv_name":"Uncletopia | Los Angeles | 4 | Stopwatch Beta | STV","players":null},{"server_id":11,"name":"Uncletopia | London | 1 | All Maps","name_short":"lon-1","host":"lon-1.uk.uncletopia.com","port":27015,"enabled":true,"region":"eu","cc":"gb","latitude":51.509865,"longitude":-0.118092,"reserved":0,"last_update":"0001-01-01T00:00:00Z","name_a2s":"Uncletopia | London | 1 | All Maps","protocol":17,"map":"pl_upward","folder":"tf","game":"Team Fortress","app_id":440,"player_count":24,"max_players":24,"Bots":0,"server_type":"Dedicated","server_os":"Linux","password":true,"vac":true,"version":"7757534","steam_id":85568392924367362,"keywords":["nocrits","nodmgspread","payload","uncletopia"],"game_id":440,"stv_port":27016,"stv_name":"Uncletopia | London | 1 | All Maps | STV","players":[{"user_id":412,"name":"Alfred Schroom","steam_id":76561198117990411,"connected_time":372000000000,"state":"active","ping":107},{"user_id":364,"name":"sinologist","steam_id":76561198080912087,"connected_time":4453000000000,"state":"active","ping":70},{"user_id":410,"name":"‚ô• aura ‚ô•","steam_id":76561198066258544,"connected_time":433000000000,"state":"active","ping":59},{"user_id":310,"name":"i am not schizophrenic","steam_id":76561198079277466,"connected_time":8263000000000,"state":"active","ping":71},{"user_id":411,"name":"kojitori","steam_id":76561198838072150,"connected_time":376000000000,"state":"active","ping":44},{"user_id":413,"name":"SpeddyMeddy","steam_id":76561197999693825,"connected_time":371000000000,"state":"active","ping":82},{"user_id":384,"name":"nudjura","steam_id":76561198281986139,"connected_time":2700000000000,"state":"active","ping":42},{"user_id":354,"name":"rigel_","steam_id":76561198148640847,"connected_time":4918000000000,"state":"active","ping":74},{"user_id":398,"name":"Hermitcrack","steam_id":76561198149216441,"connected_time":1499000000000,"state":"active","ping":75},{"user_id":292,"name":"Healix","steam_id":76561198130270161,"connected_time":9576000000000,"state":"active","ping":59},{"user_id":395,"name":"‚ú™ Danny","steam_id":76561198104483241,"connected_time":1730000000000,"state":"active","ping":51},{"user_id":396,"name":"Mapavri","steam_id":76561198370196400,"connected_time":1700000000000,"state":"active","ping":89},{"user_id":338,"name":"aibohpsnart","steam_id":76561198168207306,"connected_time":5815000000000,"state":"active","ping":96},{"user_id":409,"name":"Christmas Ham","steam_id":76561198119601623,"connected_time":661000000000,"state":"active","ping":54},{"user_id":399,"name":"LSKi","steam_id":76561198215470228,"connected_time":1452000000000,"state":"active","ping":56},{"user_id":377,"name":"agony","steam_id":76561199192434258,"connected_time":3569000000000,"state":"active","ping":89},{"user_id":402,"name":"imthegerman","steam_id":76561198053401077,"connected_time":1106000000000,"state":"active","ping":115},{"user_id":414,"name":"Arcader","steam_id":76561198109860110,"connected_time":370000000000,"state":"active","ping":73},{"user_id":281,"name":"Rose","steam_id":76561198043601838,"connected_time":10580000000000,"state":"active","ping":60},{"user_id":400,"name":"Baki ‡∂û","steam_id":76561198193615529,"connected_time":1450000000000,"state":"active","ping":62},{"user_id":415,"name":"Helon","steam_id":76561198050761682,"connected_time":344000000000,"state":"active","ping":67},{"user_id":401,"name":"El Gato Volador","steam_id":76561198021296882,"connected_time":1329000000000,"state":"active","ping":72},{"user_id":405,"name":"InfamousAxe","steam_id":76561198099504739,"connected_time":992000000000,"state":"active","ping":122},{"user_id":382,"name":"hellcase,com","steam_id":76561198089330547,"connected_time":2860000000000,"state":"active","ping":50}]},{"server_id":114,"name":"Uncletopia | London | 2 | All Maps","name_short":"lon-2","host":"lon-1.uk.uncletopia.com","port":27025,"enabled":true,"region":"eu","cc":"gb","latitude":51.509865,"longitude":-0.118092,"reserved":0,"last_update":"0001-01-01T00:00:00Z","name_a2s":"Uncletopia | London | 2 | All Maps","protocol":17,"map":"cp_snakewater_final1","folder":"tf","game":"Team Fortress","app_id":440,"player_count":5,"max_players":24,"Bots":0,"server_type":"Dedicated","server_os":"Linux","password":true,"vac":true,"version":"7757534","steam_id":85568392924470941,"keywords":["cp","nocrits","nodmgspread","uncletopia"],"game_id":440,"stv_port":27026,"stv_name":"Uncletopia | London | 2 | All Maps | STV","players":[{"user_id":230,"name":"Mato","steam_id":76561198267114673,"connected_time":64000000000,"state":"active","ping":68},{"user_id":228,"name":"Rez","steam_id":76561198410598772,"connected_time":364000000000,"state":"active","ping":53},{"user_id":225,"name":"Clovis","steam_id":76561198076881381,"connected_time":518000000000,"state":"active","ping":72},{"user_id":221,"name":"Latgaul","steam_id":76561199009145544,"connected_time":621000000000,"state":"active","ping":96},{"user_id":204,"name":"giorgos.malama2016","steam_id":76561198861203072,"connected_time":1523000000000,"state":"active","ping":102}]},{"server_id":320,"name":"Uncletopia | London | 3 | All Maps","name_short":"lon-3","host":"lon-1.uk.uncletopia.com","port":27035,"enabled":true,"region":"eu","cc":"gb","latitude":51.509865,"longitude":-0.118092,"reserved":0,"last_update":"0001-01-01T00:00:00Z","name_a2s":"Uncletopia | London | 3 | All Maps","protocol":17,"map":"pl_borneo","folder":"tf","game":"Team Fortress","app_id":440,"player_count":24,"max_players":24,"Bots":0,"server_type":"Dedicated","server_os":"Linux","password":true,"vac":true,"version":"7757534","steam_id":85568392924510192,"keywords":["nocrits","nodmgspread","payload","uncletopia"],"game_id":440,"stv_port":27036,"stv_name":"Uncletopia | London | 3 | All Maps | STV","players":[{"user_id":318,"name":"Glitch","steam_id":76561198309789756,"connected_time":2692000000000,"state":"active","ping":74},{"user_id":294,"name":"Fazarky","steam_id":76561199013370791,"connected_time":3594000000000,"state":"active","ping":55},{"user_id":325,"name":"zvekan","steam_id":76561198381101196,"connected_time":2532000000000,"state":"active","ping":65},{"user_id":339,"name":"lol","steam_id":76561198104438656,"connected_time":830000000000,"state":"active","ping":74},{"user_id":353,"name":"fector","steam_id":76561199204249586,"connected_time":172000000000,"state":"active","ping":130},{"user_id":293,"name":"Very bad dont rely on me","steam_id":76561198362116755,"connected_time":3727000000000,"state":"active","ping":154},{"user_id":335,"name":"flange","steam_id":76561198040182692,"connected_time":1365000000000,"state":"active","ping":42},{"user_id":340,"name":"Nimdok","steam_id":76561198052213644,"connected_time":820000000000,"state":"active","ping":136},{"user_id":347,"name":"Martyawesome23","steam_id":76561198236015392,"connected_time":657000000000,"state":"active","ping":120},{"user_id":342,"name":"The Death I Deservioli","steam_id":76561198320506848,"connected_time":798000000000,"state":"active","ping":50},{"user_id":298,"name":"Anonymous47007","steam_id":76561199005211417,"connected_time":3510000000000,"state":"active","ping":82},{"user_id":333,"name":"Rin-Nakaret","steam_id":76561197971051188,"connected_time":1412000000000,"state":"active","ping":58},{"user_id":341,"name":"Soerlssoelss√∂en","steam_id":76561197993060585,"connected_time":815000000000,"state":"active","ping":85},{"user_id":348,"name":"meatsoupcube","steam_id":76561198276802249,"connected_time":487000000000,"state":"active","ping":91},{"user_id":309,"name":"The Wolf Leader","steam_id":76561198038007462,"connected_time":3230000000000,"state":"active","ping":74},{"user_id":343,"name":"Creature from the piss drawer","steam_id":76561198055949151,"connected_time":793000000000,"state":"active","ping":45},{"user_id":313,"name":"Russenluster","steam_id":76561198118016220,"connected_time":3088000000000,"state":"active","ping":68},{"user_id":351,"name":"coo coo coo cha","steam_id":76561198007792525,"connected_time":236000000000,"state":"active","ping":33},{"user_id":269,"name":"Art","steam_id":76561198823514629,"connected_time":6550000000000,"state":"active","ping":135},{"user_id":305,"name":"bitkomet","steam_id":76561198058232147,"connected_time":3300000000000,"state":"active","ping":76},{"user_id":332,"name":"washed up","steam_id":76561198275742101,"connected_time":1480000000000,"state":"active","ping":70},{"user_id":345,"name":"Stabbyratbag","steam_id":76561198119531916,"connected_time":767000000000,"state":"active","ping":45},{"user_id":346,"name":"FUKTARD2005","steam_id":76561198839121591,"connected_time":729000000000,"state":"active","ping":62},{"user_id":352,"name":"stepbro","steam_id":76561198119607160,"connected_time":223000000000,"state":"active","ping":75}]},{"server_id":321,"name":"Uncletopia | London | 4 | All Maps","name_short":"lon-4","host":"lon-1.uk.uncletopia.com","port":27045,"enabled":true,"region":"eu","cc":"gb","latitude":51.509865,"longitude":-0.118092,"reserved":0,"last_update":"0001-01-01T00:00:00Z","name_a2s":"Uncletopia | London | 4 | All Maps","protocol":17,"map":"cp_mountainlab","folder":"tf","game":"Team Fortress","app_id":440,"player_count":0,"max_players":24,"Bots":0,"server_type":"Dedicated","server_os":"Linux","password":true,"vac":true,"version":"7757534","steam_id":85568392924510193,"keywords":["cp","nocrits","nodmgspread","uncletopia"],"game_id":440,"stv_port":27046,"stv_name":"Uncletopia | London | 4 | All Maps | STV","players":null},{"server_id":21,"name":"Uncletopia | London | 5 | All Maps","name_short":"lon-5","host":"lon-1.uk.uncletopia.com","port":27055,"enabled":true,"region":"eu","cc":"gb","latitude":51.509865,"longitude":-0.118092,"reserved":0,"last_update":"0001-01-01T00:00:00Z","name_a2s":"Uncletopia | London | 5 | All Maps","protocol":17,"map":"pl_upward","folder":"tf","game":"Team Fortress","app_id":440,"player_count":24,"max_players":24,"Bots":0,"server_type":"Dedicated","server_os":"Linux","password":true,"vac":true,"version":"7757534","steam_id":85568392924742829,"keywords":["nocrits","nodmgspread","payload","uncletopia"],"game_id":440,"stv_port":27056,"stv_name":"Uncletopia | London | 5 | All Maps | STV","players":[{"user_id":101,"name":"Cosmetic brain","steam_id":76561198055936410,"connected_time":314000000000,"state":"active","ping":76},{"user_id":63,"name":"B3Y0NDTH3M1ND","steam_id":76561198262637389,"connected_time":3050000000000,"state":"active","ping":87},{"user_id":86,"name":"idc","steam_id":76561198322087870,"connected_time":1343000000000,"state":"active","ping":112},{"user_id":102,"name":"axalotly-gaming","steam_id":76561199131971501,"connected_time":185000000000,"state":"active","ping":93},{"user_id":100,"name":"Hydnhof","steam_id":76561198120989805,"connected_time":349000000000,"state":"active","ping":69},{"user_id":84,"name":"akakez","steam_id":76561198095432821,"connected_time":1441000000000,"state":"active","ping":110},{"user_id":27,"name":"XANNUR","steam_id":76561198255004930,"connected_time":4746000000000,"state":"active","ping":45},{"user_id":96,"name":"Irme","steam_id":76561198161590299,"connected_time":670000000000,"state":"active","ping":79},{"user_id":103,"name":"Jamming to 1914","steam_id":76561198257383813,"connected_time":171000000000,"state":"active","ping":45},{"user_id":29,"name":"Adi Tagbar","steam_id":76561198255130741,"connected_time":4658000000000,"state":"active","ping":60},{"user_id":108,"name":"Raiko","steam_id":76561199042472732,"connected_time":19000000000,"state":"connecting","ping":0},{"user_id":19,"name":"kektuse","steam_id":76561198088426580,"connected_time":5418000000000,"state":"active","ping":61},{"user_id":104,"name":"bigmonkeyminer06857","steam_id":76561198857396812,"connected_time":150000000000,"state":"active","ping":52},{"user_id":90,"name":"lipaul777","steam_id":76561199090751367,"connected_time":1209000000000,"state":"active","ping":72},{"user_id":91,"name":"Polarity","steam_id":76561198220120544,"connected_time":1134000000000,"state":"active","ping":80},{"user_id":109,"name":"Ziltoid","steam_id":76561198020753675,"connected_time":1000000000,"state":"spawning","ping":49},{"user_id":53,"name":"Onvee","steam_id":76561198205342551,"connected_time":3791000000000,"state":"active","ping":62},{"user_id":33,"name":"Piquesque","steam_id":76561198286763046,"connected_time":4536000000000,"state":"active","ping":106},{"user_id":68,"name":"After8","steam_id":76561198090750865,"connected_time":2861000000000,"state":"active","ping":77},{"user_id":105,"name":"Tank","steam_id":76561199059174576,"connected_time":148000000000,"state":"active","ping":173},{"user_id":106,"name":"Largo","steam_id":76561198844368927,"connected_time":141000000000,"state":"active","ping":72},{"user_id":79,"name":"Mike Oxmells-Grim","steam_id":76561198206218692,"connected_time":2284000000000,"state":"active","ping":70},{"user_id":94,"name":"nvmHastee","steam_id":76561199371458295,"connected_time":953000000000,"state":"active","ping":84},{"user_id":99,"name":"24/7 lofi hip hop beats","steam_id":76561198130597374,"connected_time":427000000000,"state":"active","ping":67}]},{"server_id":22,"name":"Uncletopia | London | 6 | All Maps","name_short":"lon-6","host":"lon-1.uk.uncletopia.com","port":27065,"enabled":true,"region":"eu","cc":"gb","latitude":51.509865,"longitude":-0.118092,"reserved":0,"last_update":"0001-01-01T00:00:00Z","name_a2s":"Uncletopia | London | 6 | All Maps","protocol":17,"map":"pl_frontier_final","folder":"tf","game":"Team Fortress","app_id":440,"player_count":0,"max_players":24,"Bots":0,"server_type":"Dedicated","server_os":"Linux","password":true,"vac":true,"version":"7757534","steam_id":85568392924742830,"keywords":["nocrits","nodmgspread","payload","uncletopia"],"game_id":440,"stv_port":27066,"stv_name":"Uncletopia | London | 6 | All Maps | STV","players":null},{"server_id":40,"name":"Uncletopia | London | 7 | No Payload","name_short":"lon-7","host":"lon-1.uk.uncletopia.com","port":27075,"enabled":true,"region":"eu","cc":"gb","latitude":51.509865,"longitude":-0.118092,"reserved":0,"last_update":"0001-01-01T00:00:00Z","name_a2s":"Uncletopia | London | 7 | No Payload","protocol":17,"map":"cp_gravelpit","folder":"tf","game":"Team Fortress","app_id":440,"player_count":0,"max_players":24,"Bots":0,"server_type":"Dedicated","server_os":"Linux","password":true,"vac":true,"version":"7757534","steam_id":85568392924964314,"keywords":["cp","nocrits","nodmgspread","uncletopia"],"game_id":440,"stv_port":27076,"stv_name":"Uncletopia | London | 7 | No Payload | STV","players":null},{"server_id":41,"name":"Uncletopia | London | 8 | Community","name_short":"lon-8","host":"lon-1.uk.uncletopia.com","port":27085,"enabled":true,"region":"eu","cc":"gb","latitude":51.509865,"longitude":-0.118092,"reserved":0,"last_update":"0001-01-01T00:00:00Z","name_a2s":"Uncletopia | London | 8 | Community","protocol":17,"map":"pl_barnblitz","folder":"tf","game":"Team Fortress","app_id":440,"player_count":0,"max_players":24,"Bots":0,"server_type":"Dedicated","server_os":"Linux","password":true,"vac":true,"version":"7757534","steam_id":85568392924964315,"keywords":["nocrits","nodmgspread","payload","uncletopia"],"game_id":440,"stv_port":27086,"stv_name":"Uncletopia | London | 8 | Community | STV","players":null},{"server_id":300,"name":"Uncletopia | Montr√©al | 1 | All Maps","name_short":"mtl-1","host":"mtl-1.ca.uncletopia.com","port":27015,"enabled":true,"region":"us-east","cc":"ca","latitude":45.50889,"longitude":-73.56167,"reserved":0,"last_update":"0001-01-01T00:00:00Z","name_a2s":"Uncletopia | Montr√©al | 1 | All Maps","protocol":17,"map":"cp_altitude","folder":"tf","game":"Team Fortress","app_id":440,"player_count":0,"max_players":24,"Bots":0,"server_type":"Dedicated","server_os":"Linux","password":true,"vac":true,"version":"7757534","steam_id":85568392924500087,"keywords":["cp","nocrits","nodmgspread","uncletopia"],"game_id":440,"stv_port":27016,"stv_name":"Uncletopia | Montr√©al | 1 | All Maps | STV","players":null},{"server_id":301,"name":"Uncletopia | Montr√©al | 2 | All Maps","name_short":"mtl-2","host":"mtl-1.ca.uncletopia.com","port":27025,"enabled":true,"region":"us-east","cc":"ca","latitude":45.50889,"longitude":-73.56167,"reserved":0,"last_update":"0001-01-01T00:00:00Z","name_a2s":"Uncletopia | Montr√©al | 2 | All Maps","protocol":17,"map":"pl_snowycoast","folder":"tf","game":"Team Fortress","app_id":440,"player_count":0,"max_players":24,"Bots":0,"server_type":"Dedicated","server_os":"Linux","password":true,"vac":true,"version":"7757534","steam_id":85568392924500088,"keywords":["nocrits","nodmgspread","payload","uncletopia"],"game_id":440,"stv_port":27026,"stv_name":"Uncletopia | Montr√©al | 2 | All Maps | STV","players":null},{"server_id":302,"name":"Uncletopia | Montr√©al | 3 | All Maps","name_short":"mtl-3","host":"mtl-1.ca.uncletopia.com","port":27035,"enabled":true,"region":"us-east","cc":"ca","latitude":45.50889,"longitude":-73.56167,"reserved":0,"last_update":"0001-01-01T00:00:00Z","name_a2s":"Uncletopia | Montr√©al | 3 | All Maps","protocol":17,"map":"pl_swiftwater_final1","folder":"tf","game":"Team Fortress","app_id":440,"player_count":0,"max_players":24,"Bots":0,"server_type":"Dedicated","server_os":"Linux","password":true,"vac":true,"version":"7757534","steam_id":85568392924500089,"keywords":["nocrits","nodmgspread","payload","uncletopia"],"game_id":440,"stv_port":27036,"stv_name":"Uncletopia | Montr√©al | 3 | All Maps | STV","players":null},{"server_id":303,"name":"Uncletopia | Montr√©al | 4 | No Payload","name_short":"mtl-4","host":"mtl-1.ca.uncletopia.com","port":27045,"enabled":true,"region":"us-east","cc":"ca","latitude":45.50889,"longitude":-73.56167,"reserved":0,"last_update":"0001-01-01T00:00:00Z","name_a2s":"Uncletopia | Montr√©al | 4 | No Payload","protocol":17,"map":"pl_pier","folder":"tf","game":"Team Fortress","app_id":440,"player_count":0,"max_players":24,"Bots":0,"server_type":"Dedicated","server_os":"Linux","password":true,"vac":true,"version":"7757534","steam_id":85568392924500090,"keywords":["nocrits","nodmgspread","payload","uncletopia"],"game_id":440,"stv_port":27046,"stv_name":"Uncletopia | Montr√©al | 4 | No Payload | STV","players":null},{"server_id":13,"name":"Uncletopia | New York City | 1 | All Maps","name_short":"nyc-1","host":"nyc-1.us.uncletopia.com","port":27015,"enabled":true,"region":"us-east","cc":"us","latitude":40.73061,"longitude":-73.93524,"reserved":0,"last_update":"0001-01-01T00:00:00Z","name_a2s":"Uncletopia | New York City | 1 | All Maps","protocol":17,"map":"pl_badwater","folder":"tf","game":"Team Fortress","app_id":440,"player_count":23,"max_players":24,"Bots":0,"server_type":"Dedicated","server_os":"Linux","password":true,"vac":true,"version":"7757534","steam_id":85568392924469993,"keywords":["nocrits","nodmgspread","payload","uncletopia"],"game_id":440,"stv_port":27016,"stv_name":"Uncletopia | New York City | 1 | All Maps | STV","players":[{"user_id":166,"name":"Registered Vex Offender","steam_id":76561198986082661,"connected_time":2158000000000,"state":"active","ping":130},{"user_id":133,"name":"„ÄåÍú±·¥õ…™…¥·¥ã è„Äç","steam_id":76561198190323610,"connected_time":3660000000000,"state":"active","ping":75},{"user_id":178,"name":"Mario","steam_id":76561198321794277,"connected_time":1586000000000,"state":"active","ping":69},{"user_id":132,"name":"qwerg","steam_id":76561198107191794,"connected_time":3775000000000,"state":"active","ping":60},{"user_id":128,"name":"Tranquiliyan","steam_id":76561199176155186,"connected_time":4054000000000,"state":"active","ping":110},{"user_id":134,"name":"Wattle","steam_id":76561198036756626,"connected_time":3606000000000,"state":"active","ping":51},{"user_id":185,"name":"Hasid cs","steam_id":76561198091585491,"connected_time":1272000000000,"state":"active","ping":35},{"user_id":136,"name":"Reed","steam_id":76561198048226025,"connected_time":3436000000000,"state":"active","ping":77},{"user_id":190,"name":"DSM-IVCE","steam_id":76561199438515797,"connected_time":464000000000,"state":"active","ping":118},{"user_id":168,"name":"kirkland signature sex","steam_id":76561199077027954,"connected_time":2001000000000,"state":"active","ping":70},{"user_id":172,"name":"ticklemytush","steam_id":76561199206080182,"connected_time":1888000000000,"state":"active","ping":64},{"user_id":194,"name":"QWERTY_KKL","steam_id":76561199156419203,"connected_time":2000000000,"state":"spawning","ping":47},{"user_id":187,"name":"i am fatphobic(i LOVE gains)","steam_id":76561198241082898,"connected_time":514000000000,"state":"active","ping":84},{"user_id":164,"name":"AvernusDescent","steam_id":76561198132198247,"connected_time":2399000000000,"state":"active","ping":51},{"user_id":177,"name":"Pettifogging Milksop","steam_id":76561198074560331,"connected_time":1700000000000,"state":"active","ping":87},{"user_id":183,"name":"Stebus","steam_id":76561198081393336,"connected_time":1324000000000,"state":"active","ping":54},{"user_id":189,"name":"barbara","steam_id":76561198072417792,"connected_time":497000000000,"state":"active","ping":97},{"user_id":152,"name":"your local forecast","steam_id":76561198042243083,"connected_time":2895000000000,"state":"active","ping":45},{"user_id":193,"name":"Green_GarBear","steam_id":76561199468912415,"connected_time":41000000000,"state":"active","ping":126},{"user_id":188,"name":"inflation","steam_id":76561198090626597,"connected_time":509000000000,"state":"active","ping":50},{"user_id":155,"name":"10KO!","steam_id":76561199134895220,"connected_time":2839000000000,"state":"active","ping":50},{"user_id":176,"name":"Tailsmonster12","steam_id":76561198399989261,"connected_time":1772000000000,"state":"active","ping":46},{"user_id":158,"name":"Femboy Gigachad","steam_id":76561199385233153,"connected_time":2676000000000,"state":"active","ping":41}]},{"server_id":14,"name":"Uncletopia | New York City | 2 | All Maps","name_short":"nyc-2","host":"nyc-1.us.uncletopia.com","port":27025,"enabled":true,"region":"us-east","cc":"us","latitude":40.73061,"longitude":-73.93524,"reserved":0,"last_update":"0001-01-01T00:00:00Z","name_a2s":"Uncletopia | New York City | 2 | All Maps","protocol":17,"map":"pl_badwater","folder":"tf","game":"Team Fortress","app_id":440,"player_count":0,"max_players":24,"Bots":0,"server_type":"Dedicated","server_os":"Linux","password":true,"vac":true,"version":"7757534","steam_id":85568392924469994,"keywords":["nocrits","nodmgspread","payload","uncletopia"],"game_id":440,"stv_port":27026,"stv_name":"Uncletopia | New York City | 2 | All Maps | STV","players":null},{"server_id":15,"name":"Uncletopia | New York City | 3 | Stopwatch Beta","name_short":"nyc-3","host":"nyc-1.us.uncletopia.com","port":27035,"enabled":true,"region":"us-east","cc":"us","latitude":40.73061,"longitude":-73.93524,"reserved":0,"last_update":"0001-01-01T00:00:00Z","name_a2s":"Uncletopia | New York City | 3 | Stopwatch Beta","protocol":17,"map":"pl_upward","folder":"tf","game":"Team Fortress","app_id":440,"player_count":0,"max_players":24,"Bots":0,"server_type":"Dedicated","server_os":"Linux","password":true,"vac":true,"version":"7757534","steam_id":85568392924742820,"keywords":["nocrits","nodmgspread","payload","uncletopia"],"game_id":440,"stv_port":27036,"stv_name":"Uncletopia | New York City | 3 | Stopwatch Beta | STV","players":null},{"server_id":16,"name":"Uncletopia | New York City | 4 | Community","name_short":"nyc-4","host":"nyc-1.us.uncletopia.com","port":27045,"enabled":true,"region":"us-east","cc":"us","latitude":40.73061,"longitude":-73.93524,"reserved":0,"last_update":"0001-01-01T00:00:00Z","name_a2s":"Uncletopia | New York City | 4 | Community","protocol":17,"map":"workshop/koth_ashville_final.ugc2130459942","folder":"tf","game":"Team Fortress","app_id":440,"player_count":0,"max_players":24,"Bots":0,"server_type":"Dedicated","server_os":"Linux","password":true,"vac":true,"version":"7757534","steam_id":85568392924742821,"keywords":["cp","nocrits","nodmgspread","uncletopia"],"game_id":440,"stv_port":27046,"stv_name":"Uncletopia | New York City | 4 | Community | STV","players":null},{"server_id":142,"name":"Uncletopia | S√£o Paulo | 1 | All Maps","name_short":"sao-1","host":"sao-1.br.uncletopia.com","port":27015,"enabled":true,"region":"sa","cc":"br","latitude":-23.533773,"longitude":-46.62529,"reserved":0,"last_update":"0001-01-01T00:00:00Z","name_a2s":"Uncletopia | S√£o Paulo | 1 | All Maps","protocol":17,"map":"koth_viaduct","folder":"tf","game":"Team Fortress","app_id":440,"player_count":0,"max_players":24,"Bots":0,"server_type":"Dedicated","server_os":"Linux","password":true,"vac":true,"version":"7757534","steam_id":85568392924469996,"keywords":["cp","nocrits","nodmgspread","uncletopia"],"game_id":440,"stv_port":27016,"stv_name":"Uncletopia | S√£o Paulo | 1 | All Maps | STV","players":null},{"server_id":143,"name":"Uncletopia | S√£o Paulo | 2 | All Maps","name_short":"sao-2","host":"sao-2.br.uncletopia.com","port":27015,"enabled":true,"region":"sa","cc":"br","latitude":-23.533773,"longitude":-46.62529,"reserved":0,"last_update":"0001-01-01T00:00:00Z","name_a2s":"Uncletopia | S√£o Paulo | 2 | All Maps","protocol":17,"map":"pl_borneo","folder":"tf","game":"Team Fortress","app_id":440,"player_count":0,"max_players":24,"Bots":0,"server_type":"Dedicated","server_os":"Linux","password":true,"vac":true,"version":"7757534","steam_id":85568392924485349,"keywords":["nocrits","nodmgspread","payload","uncletopia"],"game_id":440,"stv_port":27016,"stv_name":"Uncletopia | S√£o Paulo | 2 | All Maps | STV","players":null},{"server_id":7,"name":"Uncletopia | Seattle | 1 | All Maps","name_short":"sea-1","host":"sea-1.us.uncletopia.com","port":27015,"enabled":true,"region":"us-west","cc":"us","latitude":47.608013,"longitude":-122.33517,"reserved":0,"last_update":"0001-01-01T00:00:00Z","name_a2s":"Uncletopia | Seattle | 1 | All Maps","protocol":17,"map":"cp_sunshine","folder":"tf","game":"Team Fortress","app_id":440,"player_count":24,"max_players":24,"Bots":0,"server_type":"Dedicated","server_os":"Linux","password":true,"vac":true,"version":"7757534","steam_id":85568392924469997,"keywords":["cp","nocrits","nodmgspread","uncletopia"],"game_id":440,"stv_port":27016,"stv_name":"Uncletopia | Seattle | 1 | All Maps | STV","players":[{"user_id":93,"name":"Scorpianswag","steam_id":76561198260651036,"connected_time":7603000000000,"state":"active","ping":72},{"user_id":207,"name":"neet","steam_id":76561197968115168,"connected_time":549000000000,"state":"active","ping":107},{"user_id":185,"name":"RC Cola ¬Æ","steam_id":76561198165074941,"connected_time":946000000000,"state":"active","ping":80},{"user_id":188,"name":"Randumb","steam_id":76561197995583747,"connected_time":902000000000,"state":"active","ping":88},{"user_id":186,"name":"Why am I the only person who","steam_id":76561198139634916,"connected_time":940000000000,"state":"active","ping":37},{"user_id":184,"name":"roxases","steam_id":76561198119759490,"connected_time":950000000000,"state":"active","ping":130},{"user_id":138,"name":"Treekincko","steam_id":76561198047995911,"connected_time":4115000000000,"state":"active","ping":42},{"user_id":173,"name":"t.tv/FamilyGuyFunnyMoments277","steam_id":76561198416047580,"connected_time":1655000000000,"state":"active","ping":112},{"user_id":211,"name":"Rango","steam_id":76561198067275912,"connected_time":268000000000,"state":"active","ping":95},{"user_id":160,"name":"gmagnum","steam_id":76561199034260371,"connected_time":2338000000000,"state":"active","ping":75},{"user_id":212,"name":"Majoroka","steam_id":76561199123217191,"connected_time":250000000000,"state":"active","ping":107},{"user_id":157,"name":"HiFivr","steam_id":76561198285190162,"connected_time":2962000000000,"state":"active","ping":66},{"user_id":202,"name":"ORANGE","steam_id":76561198000401769,"connected_time":604000000000,"state":"active","ping":57},{"user_id":91,"name":"mumbles(muted)","steam_id":76561197994528974,"connected_time":7702000000000,"state":"active","ping":78},{"user_id":179,"name":"Highground","steam_id":76561199197544789,"connected_time":1196000000000,"state":"active","ping":159},{"user_id":182,"name":"soda","steam_id":76561198105924953,"connected_time":967000000000,"state":"active","ping":74},{"user_id":206,"name":"Shwee","steam_id":76561199439625082,"connected_time":574000000000,"state":"active","ping":101},{"user_id":208,"name":"tf3aflyingmouse","steam_id":76561198058134934,"connected_time":502000000000,"state":"active","ping":99},{"user_id":210,"name":"joe rippa","steam_id":76561198170402666,"connected_time":440000000000,"state":"active","ping":74},{"user_id":176,"name":"professional twelve year old","steam_id":76561198858796870,"connected_time":1531000000000,"state":"active","ping":44},{"user_id":174,"name":"Andrew","steam_id":76561198070615190,"connected_time":1636000000000,"state":"active","ping":75},{"user_id":167,"name":"COOKIE","steam_id":76561198041406246,"connected_time":2091000000000,"state":"active","ping":151},{"user_id":195,"name":"Gary Budussy","steam_id":76561197969793969,"connected_time":708000000000,"state":"active","ping":87},{"user_id":181,"name":"blue_tristan03","steam_id":76561199468377688,"connected_time":1059000000000,"state":"active","ping":75}]},{"server_id":119,"name":"Uncletopia | Seattle | 2 | All Maps","name_short":"sea-2","host":"sea-1.us.uncletopia.com","port":27025,"enabled":true,"region":"us-west","cc":"us","latitude":47.608013,"longitude":-122.33517,"reserved":0,"last_update":"0001-01-01T00:00:00Z","name_a2s":"Uncletopia | Seattle | 2 | All Maps","protocol":17,"map":"pl_badwater","folder":"tf","game":"Team Fortress","app_id":440,"player_count":0,"max_players":24,"Bots":0,"server_type":"Dedicated","server_os":"Linux","password":true,"vac":true,"version":"7757534","steam_id":85568392924469998,"keywords":["nocrits","nodmgspread","payload","uncletopia"],"game_id":440,"stv_port":27026,"stv_name":"Uncletopia | Seattle | 2 | All Maps | STV","players":null},{"server_id":406,"name":"Uncletopia | Seattle | 3 | Stopwatch Beta","name_short":"sea-3","host":"sea-1.us.uncletopia.com","port":27035,"enabled":true,"region":"us-west","cc":"us","latitude":47.608013,"longitude":-122.33517,"reserved":0,"last_update":"0001-01-01T00:00:00Z","name_a2s":"Uncletopia | Seattle | 3 | Stopwatch Beta","protocol":17,"map":"cp_dustbowl","folder":"tf","game":"Team Fortress","app_id":440,"player_count":0,"max_players":24,"Bots":0,"server_type":"Dedicated","server_os":"Linux","password":true,"vac":true,"version":"7757534","steam_id":85568392924515217,"keywords":["cp","nocrits","nodmgspread","uncletopia"],"game_id":440,"stv_port":27036,"stv_name":"Uncletopia | Seattle | 3 | Stopwatch Beta | STV","players":null},{"server_id":17,"name":"Uncletopia | San Francisco | 1 | All Maps","name_short":"sfo-1","host":"sfo-1.us.uncletopia.com","port":27015,"enabled":true,"region":"us-west","cc":"us","latitude":37.77397,"longitude":-122.4313,"reserved":0,"last_update":"0001-01-01T00:00:00Z","name_a2s":"Uncletopia | San Francisco | 1 | All Maps","protocol":17,"map":"koth_cascade","folder":"tf","game":"Team Fortress","app_id":440,"player_count":0,"max_players":24,"Bots":0,"server_type":"Dedicated","server_os":"Linux","password":true,"vac":true,"version":"7757534","steam_id":85568392924469999,"keywords":["cp","nocrits","nodmgspread","uncletopia"],"game_id":440,"stv_port":27016,"stv_name":"Uncletopia | San Francisco | 1 | All Maps | STV","players":null},{"server_id":18,"name":"Uncletopia | San Francisco | 2 | All Maps","name_short":"sfo-2","host":"sfo-1.us.uncletopia.com","port":27025,"enabled":true,"region":"us-west","cc":"us","latitude":37.77397,"longitude":-122.4313,"reserved":0,"last_update":"0001-01-01T00:00:00Z","name_a2s":"Uncletopia | San Francisco | 2 | All Maps","protocol":17,"map":"koth_highpass","folder":"tf","game":"Team Fortress","app_id":440,"player_count":0,"max_players":24,"Bots":0,"server_type":"Dedicated","server_os":"Linux","password":true,"vac":true,"version":"7757534","steam_id":85568392924470000,"keywords":["cp","nocrits","nodmgspread","uncletopia"],"game_id":440,"stv_port":27026,"stv_name":"Uncletopia | San Francisco | 2 | All Maps | STV","players":null},{"server_id":19,"name":"Uncletopia | San Francisco | 3 | Stopwatch Beta","name_short":"sfo-3","host":"sfo-1.us.uncletopia.com","port":27035,"enabled":true,"region":"us-west","cc":"us","latitude":37.77397,"longitude":-122.4313,"reserved":0,"last_update":"0001-01-01T00:00:00Z","name_a2s":"Uncletopia | San Francisco | 3 | Stopwatch Beta","protocol":17,"map":"koth_lakeside_final","folder":"tf","game":"Team Fortress","app_id":440,"player_count":0,"max_players":24,"Bots":0,"server_type":"Dedicated","server_os":"Linux","password":true,"vac":true,"version":"7757534","steam_id":85568392924742824,"keywords":["cp","nocrits","nodmgspread","uncletopia"],"game_id":440,"stv_port":27036,"stv_name":"Uncletopia | San Francisco | 3 | Stopwatch Beta | STV","players":null},{"server_id":20,"name":"Uncletopia | San Francisco | 4 | Community","name_short":"sfo-4","host":"sfo-1.us.uncletopia.com","port":27045,"enabled":true,"region":"us-west","cc":"us","latitude":37.77397,"longitude":-122.4313,"reserved":0,"last_update":"0001-01-01T00:00:00Z","name_a2s":"Uncletopia | San Francisco | 4 | Community","protocol":17,"map":"cp_altitude","folder":"tf","game":"Team Fortress","app_id":440,"player_count":0,"max_players":24,"Bots":0,"server_type":"Dedicated","server_os":"Linux","password":true,"vac":true,"version":"7757534","steam_id":85568392924742826,"keywords":["cp","nocrits","nodmgspread","uncletopia"],"game_id":440,"stv_port":27046,"stv_name":"Uncletopia | San Francisco | 4 | Community | STV","players":null},{"server_id":141,"name":"Uncletopia | Sydney | 1 | All Maps","name_short":"syd-1","host":"syd-1.au.uncletopia.com","port":27015,"enabled":true,"region":"au","cc":"au","latitude":-33.865143,"longitude":151.2099,"reserved":0,"last_update":"0001-01-01T00:00:00Z","name_a2s":"Uncletopia | Sydney | 1 | All Maps","protocol":17,"map":"pl_borneo","folder":"tf","game":"Team Fortress","app_id":440,"player_count":4,"max_players":24,"Bots":0,"server_type":"Dedicated","server_os":"Linux","password":true,"vac":true,"version":"7757534","steam_id":85568392924470001,"keywords":["nocrits","nodmgspread","payload","uncletopia"],"game_id":440,"stv_port":27016,"stv_name":"Uncletopia | Sydney | 1 | All Maps | STV","players":[{"user_id":951,"name":"Atner","steam_id":76561198442934454,"connected_time":5618000000000,"state":"active","ping":89},{"user_id":952,"name":"MR Martian","steam_id":76561198157854561,"connected_time":5616000000000,"state":"active","ping":89},{"user_id":953,"name":"Anthrosaurus","steam_id":76561198355031984,"connected_time":5567000000000,"state":"active","ping":99},{"user_id":959,"name":"Stew","steam_id":76561198195625243,"connected_time":1516000000000,"state":"active","ping":87}]},{"server_id":123,"name":"Uncletopia | Sydney | 2 | All Maps","name_short":"syd-2","host":"syd-1.au.uncletopia.com","port":27025,"enabled":true,"region":"au","cc":"au","latitude":-33.865143,"longitude":151.2099,"reserved":0,"last_update":"0001-01-01T00:00:00Z","name_a2s":"Uncletopia | Sydney | 2 | All Maps","protocol":17,"map":"plr_hightower","folder":"tf","game":"Team Fortress","app_id":440,"player_count":0,"max_players":24,"Bots":0,"server_type":"Dedicated","server_os":"Linux","password":true,"vac":true,"version":"7757534","steam_id":85568392924470002,"keywords":["nocrits","nodmgspread","payload","uncletopia"],"game_id":440,"stv_port":27026,"stv_name":"Uncletopia | Sydney | 2 | All Maps | STV","players":null},{"server_id":395,"name":"Uncletopia | Sydney | 3 | All Maps","name_short":"syd-3","host":"syd-1.au.uncletopia.com","port":27035,"enabled":true,"region":"au","cc":"au","latitude":-33.865143,"longitude":151.2099,"reserved":0,"last_update":"0001-01-01T00:00:00Z","name_a2s":"Uncletopia | Sydney | 3 | All Maps","protocol":17,"map":"koth_viaduct","folder":"tf","game":"Team Fortress","app_id":440,"player_count":0,"max_players":24,"Bots":0,"server_type":"Dedicated","server_os":"Linux","password":true,"vac":true,"version":"7757534","steam_id":85568392925194467,"keywords":["cp","nocrits","nodmgspread","uncletopia"],"game_id":440,"stv_port":27036,"stv_name":"Uncletopia | Sydney | 3 | All Maps | STV","players":null},{"server_id":396,"name":"Uncletopia | Sydney | 4 | All Maps","name_short":"syd-4","host":"syd-1.au.uncletopia.com","port":27045,"enabled":true,"region":"au","cc":"au","latitude":-33.865143,"longitude":151.2099,"reserved":0,"last_update":"0001-01-01T00:00:00Z","name_a2s":"Uncletopia | Sydney | 4 | All Maps","protocol":17,"map":"koth_cascade","folder":"tf","game":"Team Fortress","app_id":440,"player_count":0,"max_players":24,"Bots":0,"server_type":"Dedicated","server_os":"Linux","password":true,"vac":true,"version":"7757534","steam_id":85568392925397958,"keywords":["cp","nocrits","nodmgspread","uncletopia"],"game_id":440,"stv_port":27046,"stv_name":"Uncletopia | Sydney | 4 | All Maps | STV","players":null},{"server_id":58,"name":"Uncletopia | Sydney | 5 | Stopwatch Beta","name_short":"syd-5","host":"syd-1.au.uncletopia.com","port":27055,"enabled":true,"region":"au","cc":"au","latitude":-33.865143,"longitude":151.2099,"reserved":0,"last_update":"0001-01-01T00:00:00Z","name_a2s":"Uncletopia | Sydney | 5 | Stopwatch Beta","protocol":17,"map":"workshop/koth_product_final.ugc454272353","folder":"tf","game":"Team Fortress","app_id":440,"player_count":0,"max_players":24,"Bots":0,"server_type":"Dedicated","server_os":"Linux","password":true,"vac":true,"version":"7757534","steam_id":85568392925397959,"keywords":["cp","nocrits","nodmgspread","uncletopia"],"game_id":440,"stv_port":27056,"stv_name":"Uncletopia | Sydney | 5 | Stopwatch Beta | STV","players":null},{"server_id":59,"name":"Uncletopia | Sydney | 6 | Community","name_short":"syd-6","host":"syd-1.au.uncletopia.com","port":27065,"enabled":true,"region":"au","cc":"au","latitude":-33.865143,"longitude":151.2099,"reserved":0,"last_update":"0001-01-01T00:00:00Z","name_a2s":"Uncletopia | Sydney | 6 | Community","protocol":17,"map":"workshop/pl_corrode_rc2.ugc546577989","folder":"tf","game":"Team Fortress","app_id":440,"player_count":0,"max_players":24,"Bots":0,"server_type":"Dedicated","server_os":"Linux","password":true,"vac":true,"version":"7757534","steam_id":85568392925397960,"keywords":["nocrits","nodmgspread","payload","uncletopia"],"game_id":440,"stv_port":27066,"stv_name":"Uncletopia | Sydney | 6 | Community | STV","players":null},{"server_id":49,"name":"Uncletopia | Warsaw | 1 | All Maps","name_short":"waw-1","host":"waw-1.pl.uncletopia.com","port":27015,"enabled":true,"region":"eu","cc":"pl","latitude":52.2297,"longitude":21.017532,"reserved":0,"last_update":"0001-01-01T00:00:00Z","name_a2s":"","protocol":0,"map":"","folder":"","game":"","app_id":0,"player_count":0,"max_players":0,"Bots":0,"server_type":"","server_os":"","password":false,"vac":false,"version":"","steam_id":0,"keywords":null,"game_id":0,"stv_port":0,"stv_name":"","players":null},{"server_id":50,"name":"Uncletopia | Warsaw | 2 | All Maps","name_short":"waw-2","host":"waw-1.pl.uncletopia.com","port":27025,"enabled":true,"region":"eu","cc":"pl","latitude":52.2297,"longitude":21.017532,"reserved":0,"last_update":"0001-01-01T00:00:00Z","name_a2s":"Uncletopia | Warsaw | 2 | All Maps","protocol":17,"map":"koth_viaduct","folder":"tf","game":"Team Fortress","app_id":440,"player_count":0,"max_players":24,"Bots":0,"server_type":"Dedicated","server_os":"Linux","password":true,"vac":true,"version":"7757534","steam_id":85568392925397851,"keywords":["cp","nocrits","nodmgspread","uncletopia"],"game_id":440,"stv_port":27026,"stv_name":"Uncletopia | Warsaw | 2 | All Maps | STV","players":null},{"server_id":51,"name":"Uncletopia | Warsaw | 3 | All Maps","name_short":"waw-3","host":"waw-1.pl.uncletopia.com","port":27035,"enabled":true,"region":"eu","cc":"pl","latitude":52.2297,"longitude":21.017532,"reserved":0,"last_update":"0001-01-01T00:00:00Z","name_a2s":"Uncletopia | Warsaw | 3 | All Maps","protocol":17,"map":"pl_swiftwater_final1","folder":"tf","game":"Team Fortress","app_id":440,"player_count":0,"max_players":24,"Bots":0,"server_type":"Dedicated","server_os":"Linux","password":true,"vac":true,"version":"7757534","steam_id":85568392925397852,"keywords":["nocrits","nodmgspread","payload","uncletopia"],"game_id":440,"stv_port":27036,"stv_name":"Uncletopia | Warsaw | 3 | All Maps | STV","players":null},{"server_id":52,"name":"Uncletopia | Warsaw | 4 | All Maps","name_short":"waw-4","host":"waw-1.pl.uncletopia.com","port":27045,"enabled":true,"region":"eu","cc":"pl","latitude":52.2297,"longitude":21.017532,"reserved":0,"last_update":"0001-01-01T00:00:00Z","name_a2s":"Uncletopia | Warsaw | 4 | All Maps","protocol":17,"map":"koth_lakeside_final","folder":"tf","game":"Team Fortress","app_id":440,"player_count":0,"max_players":24,"Bots":0,"server_type":"Dedicated","server_os":"Linux","password":true,"vac":true,"version":"7757534","steam_id":85568392925397853,"keywords":["cp","nocrits","nodmgspread","uncletopia"],"game_id":440,"stv_port":27046,"stv_name":"Uncletopia | Warsaw | 4 | All Maps | STV","players":null},{"server_id":53,"name":"Uncletopia | Warsaw | 5 | Stopwatch Beta","name_short":"waw-5","host":"waw-1.pl.uncletopia.com","port":27055,"enabled":true,"region":"eu","cc":"pl","latitude":52.2297,"longitude":21.017532,"reserved":0,"last_update":"0001-01-01T00:00:00Z","name_a2s":"Uncletopia | Warsaw | 5 | Stopwatch Beta","protocol":17,"map":"pl_borneo","folder":"tf","game":"Team Fortress","app_id":440,"player_count":0,"max_players":24,"Bots":0,"server_type":"Dedicated","server_os":"Linux","password":true,"vac":true,"version":"7757534","steam_id":85568392925397854,"keywords":["nocrits","nodmgspread","payload","uncletopia"],"game_id":440,"stv_port":27056,"stv_name":"Uncletopia | Warsaw | 5 | Stopwatch Beta | STV","players":null},{"server_id":54,"name":"Uncletopia | Warsaw | 6 | Community","name_short":"waw-6","host":"waw-1.pl.uncletopia.com","port":27065,"enabled":true,"region":"eu","cc":"pl","latitude":52.2297,"longitude":21.017532,"reserved":0,"last_update":"0001-01-01T00:00:00Z","name_a2s":"Uncletopia | Warsaw | 6 | Community","protocol":17,"map":"koth_lakeside_final","folder":"tf","game":"Team Fortress","app_id":440,"player_count":0,"max_players":24,"Bots":0,"server_type":"Dedicated","server_os":"Linux","password":true,"vac":true,"version":"7757534","steam_id":85568392925397856,"keywords":["cp","nocrits","nodmgspread","uncletopia"],"game_id":440,"stv_port":27066,"stv_name":"Uncletopia | Warsaw | 6 | Community | STV","players":null}]}