{"status":true,"message":"","result":[{"server_id":9,"name":"Uncletopia | Atlanta | 1 | All Maps","name_short":"atl-1","host":"atl-1.us.uncletopia.com","port":27015,"enabled":true,"region":"us-east","cc":"us","latitude":33.753746,"longitude":-84.38633,"reserved":0,"last_update":"0001-01-01T00:00:00Z","name_a2s":"Uncletopia | Atlanta | 1 | All Maps","protocol":17,"map":"pl_swiftwater_final1","folder":"tf","game":"Team Fortress","app_id":440,"player_count":0,"max_players":24,"Bots":0,"server_type":"Dedicated","server_os":"Linux","password":true,"vac":true,"version":"7757534","steam_id":85568392924469982,"keywords":["nocrits","nodmgspread","payload","uncletopia"],"game_id":440,"stv_port":27016,"stv_name":"Uncletopia | Atlanta | 1 | All Maps | STV","players":null},{"server_id":400,"name":"Uncletopia | Atlanta | 3 | Community","name_short":"atl-3","host":"atl-1.us.uncletopia.com","port":27035,"enabled":true,"region":"us-east","cc":"us","latitude":33.753746,"longitude":-84.38633,"reserved":0,"last_update":"0001-01-01T00:00:00Z","name_a2s":"Uncletopia | Atlanta | 3 | Community","protocol":17,"map":"workshop/pl_vigil_rc9.ugc1266210012","folder":"tf","game":"Team Fortress","app_id":440,"player_count":0,"max_players":24,"Bots":0,"server_type":"Dedicated","server_os":"Linux","password":true,"vac":true,"version":"7757534","steam_id":85568392924515187,"keywords":["nocrits","nodmgspread","payload","uncletopia"],"game_id":440,"stv_port":27036,"stv_name":"Uncletopia | Atlanta | 3 | Community | STV","players":null},{"server_id":401,"name":"Uncletopia | Atlanta | 4 | No Payload","name_short":"atl-4","host":"atl-1.us.uncletopia.com","port":27045,"enabled":true,"region":"us-east","cc":"us","latitude":33.753746,"longitude":-84.38633,"reserved":0,"last_update":"0001-01-01T00:00:00Z","name_a2s":"","protocol":0,"map":"","folder":"","game":"","app_id":0,"player_count":0,"max_players":0,"Bots":0,"server_type":"","server_os":"","password":false,"vac":false,"version":"","steam_id":0,"keywords":null,"game_id":0,"stv_port":0,"stv_name":"","players":null},{"server_id":2,"name":"Uncletopia | Chicago | 1 | All Maps","name_short":"chi-1","host":"chi-1.us.uncletopia.com","port":27015,"enabled":true,"region":"us-central","cc":"us","latitude":41.881832,"longitude":-87.62318,"reserved":0,"last_update":"0001-01-01T00:00:00Z","name_a2s":"Uncletopia | Chicago | 1 | All Maps","protocol":17,"map":"koth_cascade","folder":"tf","game":"Team Fortress","app_id":440,"player_count":0,"max_players":24,"Bots":0,"server_type":"Dedicated","server_os":"Linux","password":true,"vac":true,"version":"7757534","steam_id":85568392924469984,"keywords":["cp","nocrits","nodmgspread","uncletopia"],"game_id":440,"stv_port":27016,"stv_name":"Uncletopia | Chicago | 1 | All Maps | STV","players":null},{"server_id":106,"name":"Uncletopia | Chicago | 2 | All Maps","name_short":"chi-2","host":"chi-1.us.uncletopia.com","port":27025,"enabled":true,"region":"us-central","cc":"us","latitude":41.881832,"longitude":-87.62318,"reserved":0,"last_update":"0001-01-01T00:00:00Z","name_a2s":"Uncletopia | Chicago | 2 | All Maps","protocol":17,"map":"pl_pier","folder":"tf","game":"Team Fortress","app_id":440,"player_count":24,"max_players":24,"Bots":0,"server_type":"Dedicated","server_os":"Linux","password":true,"vac":true,"version":"7757534","steam_id":85568392924469985,"keywords":["nocrits","nodmgspread","payload","uncletopia"],"game_id":440,"stv_port":27026,"stv_name":"Uncletopia | Chicago | 2 | All Maps | STV","players":[{"user_id":372,"name":"leonardo doujinshi","steam_id":76561198025810326,"connected_time":2119000000000,"state":"active","ping":68},{"user_id":395,"name":"Bo Stunkulus","steam_id":76561198829326796,"connected_time":883000000000,"state":"active","ping":128},{"user_id":381,"name":"Medic gaming","steam_id":76561199053687718,"connected_time":1703000000000,"state":"active","ping":123},{"user_id":394,"name":"Provocator","steam_id":76561197961830410,"connected_time":1101000000000,"state":"active","ping":74},{"user_id":367,"name":"A bowl of cereal","steam_id":76561198237348656,"connected_time":2226000000000,"state":"active","ping":113},{"user_id":374,"name":"aaron","steam_id":76561198308883028,"connected_time":2071000000000,"state":"active","ping":110},{"user_id":368,"name":"Omni","steam_id":76561198035774007,"connected_time":2223000000000,"state":"active","ping":82},{"user_id":393,"name":"unlucky","steam_id":76561199204822104,"connected_time":1131000000000,"state":"active","ping":106},{"user_id":255,"name":"blue gatorade","steam_id":76561198413125750,"connected_time":6440000000000,"state":"active","ping":65},{"user_id":256,"name":"roo the observer","steam_id":76561198120684348,"connected_time":6430000000000,"state":"active","ping":47},{"user_id":387,"name":"Raizen","steam_id":76561199092445367,"connected_time":1411000000000,"state":"active","ping":51},{"user_id":375,"name":"creepycrawler","steam_id":76561198352016831,"connected_time":1931000000000,"state":"active","ping":60},{"user_id":390,"name":"Resistance","steam_id":76561198146782074,"connected_time":1321000000000,"state":"active","ping":50},{"user_id":370,"name":"Lucy","steam_id":76561198032590343,"connected_time":2197000000000,"state":"active","ping":89},{"user_id":396,"name":"kris736","steam_id":76561198038208255,"connected_time":852000000000,"state":"active","ping":59},{"user_id":397,"name":"im overdosing on copium","steam_id":76561198319442494,"connected_time":827000000000,"state":"active","ping":107},{"user_id":380,"name":"Zombie Girl","steam_id":76561198093327371,"connected_time":1718000000000,"state":"active","ping":135},{"user_id":398,"name":"The Announcer's Feet","steam_id":76561199443456893,"connected_time":820000000000,"state":"active","ping":74},{"user_id":363,"name":"Luxcraz","steam_id":76561198035278349,"connected_time":2646000000000,"state":"active","ping":58},{"user_id":399,"name":"mao zaddy","steam_id":76561198283687382,"connected_time":783000000000,"state":"active","ping":75},{"user_id":400,"name":"kermitcreeper(ZAZA)","steam_id":76561199222829972,"connected_time":726000000000,"state":"active","ping":58},{"user_id":392,"name":"Cooksandcleans™","steam_id":76561198049696128,"connected_time":1183000000000,"state":"active","ping":79},{"user_id":383,"name":"Omegasutoraiki","steam_id":76561198154972862,"connected_time":1614000000000,"state":"active","ping":73},{"user_id":335,"name":"kilroy_39","steam_id":76561198205173325,"connected_time":4631000000000,"state":"active","ping":94}]},{"server_id":402,"name":"Uncletopia | Chicago | 3 | All Maps","name_short":"chi-3","host":"chi-1.us.uncletopia.com","port":27035,"enabled":true,"region":"us-central","cc":"us","latitude":41.881832,"longitude":-87.62318,"reserved":0,"last_update":"0001-01-01T00:00:00Z","name_a2s":"Uncletopia | Chicago | 3 | All Maps","protocol":17,"map":"koth_viaduct","folder":"tf","game":"Team Fortress","app_id":440,"player_count":0,"max_players":24,"Bots":0,"server_type":"Dedicated","server_os":"Linux","password":true,"vac":true,"version":"7757534","steam_id":85568392924515191,"keywords":["cp","nocrits","nodmgspread","uncletopia"],"game_id":440,"stv_port":27036,"stv_name":"Uncletopia | Chicago | 3 | All Maps | STV","players":null},{"server_id":403,"name":"Uncletopia | Chicago | 4 | All Maps","name_short":"chi-4","host":"chi-1.us.uncletopia.com","port":27045,"enabled":true,"region":"us-central","cc":"us","latitude":41.881832,"longitude":-87.62318,"reserved":0,"last_update":"0001-01-01T00:00:00Z","name_a2s":"Uncletopia | Chicago | 4 | All Maps","protocol":17,"map":"pl_snowycoast","folder":"tf","game":"Team Fortress","app_id":440,"player_count":0,"max_players":24,"Bots":0,"server_type":"Dedicated","server_os":"Linux","password":true,"vac":true,"version":"7757534","steam_id":85568392924515193,"keywords":["nocrits","nodmgspread","payload","uncletopia"],"game_id":440,"stv_port":27046,"stv_name":"Uncletopia | Chicago | 4 | All Maps | STV","players":null},{"server_id":36,"name":"Uncletopia | Chicago | 5 | All Maps","name_short":"chi-5","host":"chi-2.us.uncletopia.com","port":27015,"enabled":true,"region":"us-central","cc":"us","latitude":41.881832,"longitude":-87.62318,"reserved":0,"last_update":"0001-01-01T00:00:00Z","name_a2s":"Uncletopia | Chicago | 5 | All Maps","protocol":17,"map":"cp_process_final","folder":"tf","game":"Team Fortress","app_id":440,"player_count":0,"max_players":24,"Bots":0,"server_type":"Dedicated","server_os":"Linux","password":true,"vac":true,"version":"7757534","steam_id":85568392924866362,"keywords":["cp","nocrits","nodmgspread","uncletopia"],"game_id":440,"stv_port":27016,"stv_name":"Uncletopia | Chicago | 5 | All Maps | STV","players":null},{"server_id":37,"name":"Uncletopia | Chicago | 6 | All Maps","name_short":"chi-6","host":"chi-2.us.uncletopia.com","port":27025,"enabled":true,"region":"us-central","cc":"us","latitude":41.881832,"longitude":-87.62318,"reserved":0,"last_update":"0001-01-01T00:00:00Z","name_a2s":"Uncletopia | Chicago | 6 | All Maps","protocol":17,"map":"koth_highpass","folder":"tf","game":"Team Fortress","app_id":440,"player_count":0,"max_players":24,"Bots":0,"server_type":"Dedicated","server_os":"Linux","password":true,"vac":true,"version":"7757534","steam_id":85568392924866363,"keywords":["cp","nocrits","nodmgspread","uncletopia"],"game_id":440,"stv_port":27026,"stv_name":"Uncletopia | Chicago | 6 | All Maps | STV","players":null},{"server_id":38,"name":"Uncletopia | Chicago | 7 | Stopwatch Beta","name_short":"chi-7","host":"chi-2.us.uncletopia.com","port":27035,"enabled":true,"region":"us-central","cc":"us","latitude":41.881832,"longitude":-87.62318,"reserved":0,"last_update":"0001-01-01T00:00:00Z","name_a2s":"Uncletopia | Chicago | 7 | Stopwatch Beta","protocol":17,"map":"koth_viaduct","folder":"tf","game":"Team Fortress","app_id":440,"player_count":0,"max_players":24,"Bots":0,"server_type":"Dedicated","server_os":"Linux","password":true,"vac":true,"version":"7757534","steam_id":85568392924866364,"keywords":["cp","nocrits","nodmgspread","uncletopia"],"game_id":440,"stv_port":27036,"stv_name":"Uncletopia | Chicago | 7 | Stopwatch Beta | STV","players":null},{"server_id":39,"name":"Uncletopia | Chicago | 8 | Community","name_short":"chi-8","host":"chi-2.us.uncletopia.com","port":27045,"enabled":true,"region":"us-central","cc":"us","latitude":41.881832,"longitude":-87.62318,"reserved":0,"last_update":"0001-01-01T00:00:00Z","name_a2s":"Uncletopia | Chicago | 8 | Community","protocol":17,"map":"workshop/koth_trenchfoot_b1a.ugc731436616","folder":"tf","game":"Team Fortress","app_id":440,"player_count":0,"max_players":24,"Bots":0,"server_type":"Dedicated","server_os":"Linux","password":true,"vac":true,"version":"7757534","steam_id":85568392924866365,"keywords":["cp","nocrits","nodmgspread","uncletopia"],"game_id":440,"stv_port":27046,"stv_name":"Uncletopia | Chicago | 8 | Community | STV","players":null},{"server_id":8,"name":"Uncletopia | Dallas | 1 | All Maps","name_short":"dal-1","host":"dal-1.us.uncletopia.com","port":27015,"enabled":true,"region":"us-central","cc":"us","latitude":32.779167,"longitude":-96.80889,"reserved":0,"last_update":"0001-01-01T00:00:00Z","name_a2s":"Uncletopia | Dallas | 1 | All Maps","protocol":17,"map":"pl_snowycoast","folder":"tf","game":"Team Fortress","app_id":440,"player_count":5,"max_players":24,"Bots":0,"server_type":"Dedicated","server_os":"Linux","password":true,"vac":true,"version":"7757534","steam_id":85568392924469986,"keywords":["nocrits","nodmgspread","payload","uncletopia"],"game_id":440,"stv_port":27016,"stv_name":"Uncletopia | Dallas | 1 | All Maps | STV","players":[{"user_id":569,"name":"[يهودي] Bill Clinton [אל","steam_id":76561198163291190,"connected_time":351000000000,"state":"active","ping":83},{"user_id":568,"name":"Mizken","steam_id":76561199019512124,"connected_time":423000000000,"state":"active","ping":202},{"user_id":564,"name":"Dor_atar","steam_id":76561198973980542,"connected_time":2930000000000,"state":"active","ping":183},{"user_id":565,"name":"HeliosTXG","steam_id":76561198096625364,"connected_time":2595000000000,"state":"active","ping":52},{"user_id":571,"name":"unchmiri","steam_id":76561199181659125,"connected_time":237000000000,"state":"active","ping":47}]},{"server_id":108,"name":"Uncletopia | Dallas | 2 | All Maps","name_short":"dal-2","host":"dal-1.us.uncletopia.com","port":27025,"enabled":true,"region":"us-central","cc":"us","latitude":32.779167,"longitude":-96.80889,"reserved":0,"last_update":"0001-01-01T00:00:00Z","name_a2s":"Uncletopia | Dallas | 2 | All Maps","protocol":17,"map":"koth_highpass","folder":"tf","game":"Team Fortress","app_id":440,"player_count":0,"max_players":24,"Bots":0,"server_type":"Dedicated","server_os":"Linux","password":true,"vac":true,"version":"7757534","steam_id":85568392924469988,"keywords":["cp","nocrits","nodmgspread","uncletopia"],"game_id":440,"stv_port":27026,"stv_name":"Uncletopia | Dallas | 2 | All Maps | STV","players":null},{"server_id":5,"name":"Uncletopia | Frankfurt | 1 | All Maps","name_short":"frk-1","host":"frk-1.de.uncletopia.com","port":27015,"enabled":true,"region":"eu","cc":"de","latitude":50.110924,"longitude":8.682127,"reserved":0,"last_update":"0001-01-01T00:00:00Z","name_a2s":"Uncletopia | Frankfurt | 1 | All Maps","protocol":17,"map":"pl_frontier_final","folder":"tf","game":"Team Fortress","app_id":440,"player_count":24,"max_players":24,"Bots":0,"server_type":"Dedicated","server_os":"Linux","password":true,"vac":true,"version":"7757534","steam_id":85568392924469989,"keywords":["nocrits","nodmgspread","payload","uncletopia"],"game_id":440,"stv_port":27016,"stv_name":"Uncletopia | Frankfurt | 1 | All Maps | STV","players":[{"user_id":6,"name":"AwZooom","steam_id":76561198154061149,"connected_time":4560000000000,"state":"active","ping":42},{"user_id":7,"name":"Mike Rizzowski","steam_id":76561198798657045,"connected_time":4489000000000,"state":"active","ping":75},{"user_id":66,"name":"justgvbe","steam_id":76561199193230375,"connected_time":48000000000,"state":"active","ping":58},{"user_id":49,"name":"Groose","steam_id":76561198261094295,"connected_time":1256000000000,"state":"active","ping":60},{"user_id":12,"name":"...","steam_id":76561198969234594,"connected_time":3311000000000,"state":"active","ping":69},{"user_id":13,"name":"Rambi","steam_id":76561199058078505,"connected_time":3067000000000,"state":"active","ping":154},{"user_id":56,"name":"Connor McFilip","steam_id":76561198107965067,"connected_time":849000000000,"state":"active","ping":55},{"user_id":37,"name":"Kanksteli","steam_id":76561198035919109,"connected_time":1924000000000,"state":"active","ping":68},{"user_id":61,"name":"Oxer","steam_id":76561198055942412,"connected_time":519000000000,"state":"active","ping":89},{"user_id":21,"name":"CRAZY VIKING","steam_id":76561198061440669,"connected_time":2373000000000,"state":"active","ping":61},{"user_id":40,"name":"galaxy","steam_id":76561198164819022,"connected_time":1825000000000,"state":"active","ping":63},{"user_id":23,"name":"burger","steam_id":76561198071674964,"connected_time":2350000000000,"state":"active","ping":67},{"user_id":58,"name":"blindcinema_","steam_id":76561198026908105,"connected_time":783000000000,"state":"active","ping":64},{"user_id":47,"name":"Virigos","steam_id":76561198322441994,"connected_time":1368000000000,"state":"active","ping":60},{"user_id":41,"name":"I was good before.","steam_id":76561198187045217,"connected_time":1803000000000,"state":"active","ping":80},{"user_id":27,"name":"Corpus Christi","steam_id":76561198417999443,"connected_time":2235000000000,"state":"active","ping":91},{"user_id":57,"name":"♫★Xriasp★♫","steam_id":76561198104721321,"connected_time":849000000000,"state":"active","ping":73},{"user_id":34,"name":"dollar foot long","steam_id":76561199250808808,"connected_time":2014000000000,"state":"active","ping":77},{"user_id":62,"name":"jones","steam_id":76561198044434971,"connected_time":362000000000,"state":"active","ping":59},{"user_id":36,"name":"Asfreild","steam_id":76561198055901120,"connected_time":1963000000000,"state":"active","ping":74},{"user_id":42,"name":"spearfishNL","steam_id":76561199077022985,"connected_time":1744000000000,"state":"active","ping":60},{"user_id":65,"name":"lofimonkeyjazz","steam_id":76561198117059662,"connected_time":163000000000,"state":"active","ping":84},{"user_id":44,"name":"SocialistBacon","steam_id":76561198055872267,"connected_time":1702000000000,"state":"active","ping":68}]},{"server_id":110,"name":"Uncletopia | Frankfurt | 2 | All Maps","name_short":"frk-2","host":"frk-1.de.uncletopia.com","port":27025,"enabled":true,"region":"eu","cc":"de","latitude":50.110924,"longitude":8.682127,"reserved":0,"last_update":"0001-01-01T00:00:00Z","name_a2s":"Uncletopia | Frankfurt | 2 | All Maps","protocol":17,"map":"pl_upward","folder":"tf","game":"Team Fortress","app_id":440,"player_count":23,"max_players":24,"Bots":0,"server_type":"Dedicated","server_os":"Linux","password":true,"vac":true,"version":"7757534","steam_id":85568392924469990,"keywords":["nocrits","nodmgspread","payload","uncletopia"],"game_id":440,"stv_port":27026,"stv_name":"Uncletopia | Frankfurt | 2 | All Maps | STV","players":[{"user_id":195,"name":"1 death = 1 dip","steam_id":76561198081559669,"connected_time":1953000000000,"state":"active","ping":75},{"user_id":188,"name":"Luna","steam_id":76561199140738350,"connected_time":3108000000000,"state":"active","ping":48},{"user_id":216,"name":"Chrikin","steam_id":76561198416301532,"connected_time":136000000000,"state":"active","ping":168},{"user_id":203,"name":"on1on (pickled)","steam_id":76561197995304137,"connected_time":1209000000000,"state":"active","ping":58},{"user_id":197,"name":"hud_saytext_time 0","steam_id":76561198010327228,"connected_time":1913000000000,"state":"active","ping":57},{"user_id":194,"name":"GIA","steam_id":76561199216124328,"connected_time":2067000000000,"state":"active","ping":65},{"user_id":182,"name":"ChickyCoop","steam_id":76561199072983488,"connected_time":3547000000000,"state":"active","ping":76},{"user_id":221,"name":"moon","steam_id":76561199212557251,"connected_time":99000000000,"state":"active","ping":117},{"user_id":210,"name":"axl #pizdaaim","steam_id":76561198991661832,"connected_time":564000000000,"state":"active","ping":64},{"user_id":204,"name":"Potat Master |Potato Industries","steam_id":76561199112380553,"connected_time":1206000000000,"state":"active","ping":86},{"user_id":215,"name":"Gardvord","steam_id":76561198120715753,"connected_time":143000000000,"state":"active","ping":82},{"user_id":211,"name":"Miloš","steam_id":76561198129684105,"connected_time":553000000000,"state":"active","ping":64},{"user_id":219,"name":"DocTwoEight","steam_id":76561198153488940,"connected_time":115000000000,"state":"active","ping":65},{"user_id":222,"name":"Dr.Ned","steam_id":76561198017055175,"connected_time":99000000000,"state":"active","ping":75},{"user_id":212,"name":"Chambersite","steam_id":76561198197022399,"connected_time":515000000000,"state":"active","ping":60},{"user_id":153,"name":"Zatusrex","steam_id":76561198104147805,"connected_time":5646000000000,"state":"active","ping":75},{"user_id":223,"name":"W.","steam_id":76561198444036574,"connected_time":94000000000,"state":"active","ping":61},{"user_id":159,"name":"Enigmus","steam_id":76561197994063627,"connected_time":5483000000000,"state":"active","ping":85},{"user_id":213,"name":"FighterX9","steam_id":76561198832500806,"connected_time":507000000000,"state":"active","ping":165},{"user_id":193,"name":"erobrine2","steam_id":76561198173218318,"connected_time":2171000000000,"state":"active","ping":54},{"user_id":224,"name":"TryTane","steam_id":76561198133293111,"connected_time":44000000000,"state":"active","ping":45},{"user_id":160,"name":"glyph","steam_id":76561197980736364,"connected_time":5468000000000,"state":"active","ping":76},{"user_id":214,"name":"wadiyatalkinabeet","steam_id":76561198045505082,"connected_time":325000000000,"state":"active","ping":62}]},{"server_id":308,"name":"Uncletopia | Frankfurt | 3 | All Maps","name_short":"frk-3","host":"frk-1.de.uncletopia.com","port":27035,"enabled":true,"region":"eu","cc":"de","latitude":50.110924,"longitude":8.682127,"reserved":0,"last_update":"0001-01-01T00:00:00Z","name_a2s":"Uncletopia | Frankfurt | 3 | All Maps","protocol":17,"map":"pl_borneo","folder":"tf","game":"Team Fortress","app_id":440,"player_count":0,"max_players":24,"Bots":0,"server_type":"Dedicated","server_os":"Linux","password":true,"vac":true,"version":"7757534","steam_id":85568392924504274,"keywords":["nocrits","nodmgspread","payload","uncletopia"],"game_id":440,"stv_port":27036,"stv_name":"Uncletopia | Frankfurt | 3 | All Maps | STV","players":null},{"server_id":309,"name":"Uncletopia | Frankfurt | 4 | All Maps","name_short":"frk-4","host":"frk-1.de.uncletopia.com","port":27045,"enabled":true,"region":"eu","cc":"de","latitude":50.110924,"longitude":8.682127,"reserved":0,"last_update":"0001-01-01T00:00:00Z","name_a2s":"Uncletopia | Frankfurt | 4 | All Maps","protocol":17,"map":"pl_pier","folder":"tf","game":"Team Fortress","app_id":440,"player_count":0,"max_players":24,"Bots":0,"server_type":"Dedicated","server_os":"Linux","password":true,"vac":true,"version":"7757534","steam_id":85568392924504275,"keywords":["nocrits","nodmgspread","payload","uncletopia"],"game_id":440,"stv_port":27046,"stv_name":"Uncletopia | Frankfurt | 4 | All Maps | STV","players":null},{"server_id":310,"name":"Uncletopia | Frankfurt | 5 | All Maps","name_short":"frk-5","host":"frk-1.de.uncletopia.com","port":27055,"enabled":true,"region":"eu","cc":"de","latitude":50.110924,"longitude":8.682127,"reserved":0,"last_update":"0001-01-01T00:00:00Z","name_a2s":"Uncletopia | Frankfurt | 5 | All Maps","protocol":17,"map":"pl_swiftwater_final1","folder":"tf","game":"Team Fortress","app_id":440,"player_count":0,"max_players":24,"Bots":0,"server_type":"Dedicated","server_os":"Linux","password":true,"vac":true,"version":"7757534","steam_id":85568392924504277,"keywords":["nocrits","nodmgspread","payload","uncletopia"],"game_id":440,"stv_port":27056,"stv_name":"Uncletopia | Frankfurt | 5 | All Maps | STV","players":null},{"server_id":311,"name":"Uncletopia | Frankfurt | 6 | All Maps","name_short":"frk-6","host":"frk-1.de.uncletopia.com","port":27065,"enabled":true,"region":"eu","cc":"de","latitude":50.110924,"longitude":8.682127,"reserved":0,"last_update":"0001-01-01T00:00:00Z","name_a2s":"Uncletopia | Frankfurt | 6 | All Maps","protocol":17,"map":"pl_barnblitz","folder":"tf","game":"Team Fortress","app_id":440,"player_count":0,"max_players":24,"Bots":0,"server_type":"Dedicated","server_os":"Linux","password":true,"vac":true,"version":"7757534","steam_id":85568392924504278,"keywords":["nocrits","nodmgspread","payload","uncletopia"],"game_id":440,"stv_port":27066,"stv_name":"Uncletopia | Frankfurt | 6 | All Maps | STV","players":null},{"server_id":23,"name":"Uncletopia | Frankfurt | 7 | Stopwatch Beta","name_short":"frk-7","host":"frk-1.de.uncletopia.com","port":27075,"enabled":true,"region":"eu","cc":"de","latitude":50.110924,"longitude":8.682127,"reserved":0,"last_update":"0001-01-01T00:00:00Z","name_a2s":"Uncletopia | Frankfurt | 7 | Stopwatch Beta","protocol":17,"map":"pl_borneo","folder":"tf","game":"Team Fortress","app_id":440,"player_count":0,"max_players":24,"Bots":0,"server_type":"Dedicated","server_os":"Linux","password":true,"vac":true,"version":"7757534","steam_id":85568392924742827,"keywords":["nocrits","nodmgspread","payload","uncletopia"],"game_id":440,"stv_port":27076,"stv_name":"Uncletopia | Frankfurt | 7 | Stopwatch Beta | STV","players":null},{"server_id":24,"name":"Uncletopia | Frankfurt | 8 | Community","name_short":"frk-8","host":"frk-1.de.uncletopia.com","port":27085,"enabled":true,"region":"eu","cc":"de","latitude":50.110924,"longitude":8.682127,"reserved":0,"last_update":"0001-01-01T00:00:00Z","name_a2s":"Uncletopia | Frankfurt | 8 | Community","protocol":17,"map":"koth_viaduct","folder":"tf","game":"Team Fortress","app_id":440,"player_count":0,"max_players":24,"Bots":0,"server_type":"Dedicated","server_os":"Linux","password":true,"vac":true,"version":"7757534","steam_id":85568392924742828,"keywords":["cp","nocrits","nodmgspread","uncletopia"],"game_id":440,"stv_port":27086,"stv_name":"Uncletopia | Frankfurt | 8 | Community | STV","players":null},{"server_id":202,"name":"Uncletopia | Hong Kong | 1 | All Maps","name_short":"hgk-1","host":"hgk-1.hk.uncletopia.com","port":27015,"enabled":true,"region":"asia","cc":"hk","latitude":22.302711,"longitude":114.177216,"reserved":0,"last_update":"0001-01-01T00:00:00Z","name_a2s":"Uncletopia | Hong Kong | 1 | All Maps","protocol":17,"map":"pl_barnblitz","folder":"tf","game":"Team Fortress","app_id":440,"player_count":24,"max_players":24,"Bots":0,"server_type":"Dedicated","server_os":"Linux","password":true,"vac":true,"version":"7757534","steam_id":85568392924494504,"keywords":["nocrits","nodmgspread","payload","uncletopia"],"game_id":440,"stv_port":27016,"stv_name":"Uncletopia | Hong Kong | 1 | All Maps | STV","players":[{"user_id":233,"name":"Darknight","steam_id":76561199090139287,"connected_time":7441000000000,"state":"active","ping":96},{"user_id":271,"name":"Smile :)","steam_id":76561199125493462,"connected_time":1145000000000,"state":"active","ping":100},{"user_id":227,"name":"Taokaka","steam_id":76561198158666692,"connected_time":8440000000000,"state":"active","ping":42},{"user_id":277,"name":"+","steam_id":76561198121311286,"connected_time":519000000000,"state":"active","ping":74},{"user_id":257,"name":"Dr. Piss Rat","steam_id":76561199074809838,"connected_time":2050000000000,"state":"active","ping":79},{"user_id":279,"name":"sauceyert","steam_id":76561199085409122,"connected_time":275000000000,"state":"active","ping":65},{"user_id":251,"name":"Kirov airship","steam_id":76561199024960087,"connected_time":3019000000000,"state":"active","ping":57},{"user_id":270,"name":"Puddin","steam_id":76561198140052918,"connected_time":1196000000000,"state":"active","ping":100},{"user_id":236,"name":"van that kidnapped you","steam_id":76561198147851090,"connected_time":7262000000000,"state":"active","ping":89},{"user_id":162,"name":"Noyour","steam_id":76561198323259830,"connected_time":14626000000000,"state":"active","ping":110},{"user_id":260,"name":"帕","steam_id":76561198439343999,"connected_time":1998000000000,"state":"active","ping":77},{"user_id":147,"name":"linne","steam_id":76561198230213828,"connected_time":15477000000000,"state":"active","ping":60},{"user_id":258,"name":"Stupid B l #saveTF2","steam_id":76561198131423270,"connected_time":2045000000000,"state":"active","ping":104},{"user_id":272,"name":"煙海 | Enkai","steam_id":76561198050460825,"connected_time":1131000000000,"state":"active","ping":76},{"user_id":268,"name":"Bertengkar","steam_id":76561198213031155,"connected_time":1504000000000,"state":"active","ping":101},{"user_id":278,"name":"Pillboi","steam_id":76561198011172886,"connected_time":508000000000,"state":"active","ping":42},{"user_id":255,"name":"P","steam_id":76561198304514505,"connected_time":2057000000000,"state":"active","ping":71},{"user_id":245,"name":"water tastes good","steam_id":76561199375947670,"connected_time":3776000000000,"state":"active","ping":78},{"user_id":274,"name":"Azi","steam_id":76561198147872523,"connected_time":582000000000,"state":"active","ping":62},{"user_id":248,"name":"✧BaKa BAzooKA✧(◕▿◕ )","steam_id":76561198061628689,"connected_time":3756000000000,"state":"active","ping":54},{"user_id":241,"name":"corpse_cadaver","steam_id":76561199225360457,"connected_time":6167000000000,"state":"active","ping":69},{"user_id":223,"name":"Urotsuki","steam_id":76561198074339034,"connected_time":8462000000000,"state":"active","ping":79},{"user_id":249,"name":"3wfFbdrjEze5d2G","steam_id":76561198435900451,"connected_time":3749000000000,"state":"active","ping":118},{"user_id":143,"name":"kid named kidnap","steam_id":76561199146847474,"connected_time":16063000000000,"state":"active","ping":59}]},{"server_id":1,"name":"Uncletopia | Los Angeles | 1 | All Maps","name_short":"lax-1","host":"lax-1.us.uncletopia.com","port":27015,"enabled":true,"region":"us-west","cc":"us","latitude":33.94279,"longitude":-118.41004,"reserved":0,"last_update":"0001-01-01T00:00:00Z","name_a2s":"Uncletopia | Los Angeles | 1 | All Maps","protocol":17,"map":"pl_barnblitz","folder":"tf","game":"Team Fortress","app_id":440,"player_count":14,"max_players":24,"Bots":0,"server_type":"Dedicated","server_os":"Linux","password":true,"vac":true,"version":"7757534","steam_id":85568392924469991,"keywords":["nocrits","nodmgspread","payload","uncletopia"],"game_id":440,"stv_port":27016,"stv_name":"Uncletopia | Los Angeles | 1 | All Maps | STV","players":[{"user_id":334,"name":"Big Honk","steam_id":76561198268755194,"connected_time":725000000000,"state":"active","ping":50},{"user_id":335,"name":"Lychee","steam_id":76561198403878342,"connected_time":665000000000,"state":"active","ping":46},{"user_id":312,"name":"perkaperkins","steam_id":76561198870734551,"connected_time":2090000000000,"state":"active","ping":75},{"user_id":269,"name":"hart","steam_id":76561198046073848,"connected_time":4146000000000,"state":"active","ping":71},{"user_id":326,"name":"cringy","steam_id":76561198323000455,"connected_time":1467000000000,"state":"active","ping":56},{"user_id":298,"name":"HiggsBoson","steam_id":76561198356538323,"connected_time":2507000000000,"state":"active","ping":67},{"user_id":300,"name":"Titocheeto","steam_id":76561198994684924,"connected_time":2451000000000,"state":"active","ping":106},{"user_id":338,"name":"pigswill","steam_id":76561197999081865,"connected_time":316000000000,"state":"active","ping":120},{"user_id":308,"name":"Tech Deck","steam_id":76561199070437675,"connected_time":2163000000000,"state":"active","ping":56},{"user_id":322,"name":"Slippery","steam_id":76561199469441947,"connected_time":1691000000000,"state":"active","ping":106},{"user_id":318,"name":"0ll0","steam_id":76561198841446030,"connected_time":1965000000000,"state":"active","ping":43},{"user_id":299,"name":"Sakisano","steam_id":76561198245814880,"connected_time":2488000000000,"state":"active","ping":105},{"user_id":319,"name":"Creature","steam_id":76561198194585781,"connected_time":1941000000000,"state":"active","ping":50},{"user_id":294,"name":"b♥bb[Y!]","steam_id":76561198029549729,"connected_time":2972000000000,"state":"active","ping":46}]},{"server_id":112,"name":"Uncletopia | Los Angeles | 2 | All Maps","name_short":"lax-2","host":"lax-1.us.uncletopia.com","port":27025,"enabled":true,"region":"us-west","cc":"us","latitude":33.94279,"longitude":-118.41004,"reserved":0,"last_update":"0001-01-01T00:00:00Z","name_a2s":"Uncletopia | Los Angeles | 2 | All Maps","protocol":17,"map":"cp_process_final","folder":"tf","game":"Team Fortress","app_id":440,"player_count":0,"max_players":24,"Bots":0,"server_type":"Dedicated","server_os":"Linux","password":true,"vac":true,"version":"7757534","steam_id":85568392924469992,"keywords":["cp","nocrits","nodmgspread","uncletopia"],"game_id":440,"stv_port":27026,"stv_name":"Uncletopia | Los Angeles | 2 | All Maps | STV","players":null},{"server_id":324,"name":"Uncletopia | Los Angeles | 3 | All Maps","name_short":"lax-3","host":"lax-1.us.uncletopia.com","port":27035,"enabled":true,"region":"us-west","cc":"us","latitude":33.94279,"longitude":-118.41004,"reserved":0,"last_update":"0001-01-01T00:00:00Z","name_a2s":"Uncletopia | Los Angeles | 3 | All Maps","protocol":17,"map":"pl_upward","folder":"tf","game":"Team Fortress","app_id":440,"player_count":0,"max_players":24,"Bots":0,"server_type":"Dedicated","server_os":"Linux","password":true,"vac":true,"version":"7757534","steam_id":85568392924510198,"keywords":["nocrits","nodmgspread","payload","uncletopia"],"game_id":440,"stv_port":27036,"stv_name":"Uncletopia | Los Angeles | 3 | All Maps | STV","players":null},{"server_id":25,"name":"Uncletopia | Los Angeles | 4 | Stopwatch Beta","name_short":"lax-4","host":"lax-1.us.uncletopia.com","port":27045,"enabled":true,"region":"us-west","cc":"us","latitude":33.94279,"longitude":-118.41004,"reserved":0,"last_update":"0001-01-01T00:00:00Z","name_a2s":"Uncletopia | Los Angeles | 4 | Stopwatch Beta","protocol":17,"map":"cp_dustbowl","folder":"tf","game":"Team Fortress","app_id":440,"player_count":0,"max_players":24,"Bots":0,"server_type":"Dedicated","server_os":"Linux","password":true,"vac":true,"version":"7757534","steam_id":85568392924510199,"keywords":["cp","nocrits","nodmgspread","uncletopia"],"game_id":440,"stv_port":27046,"stv_name":"Uncletopia | Los Angeles | 4 | Stopwatch Beta | STV","players":null},{"server_id":11,"name":"Uncletopia | London | 1 | All Maps","name_short":"lon-1","host":"lon-1.uk.uncletopia.com","port":27015,"enabled":true,"region":"eu","cc":"gb","latitude":51.509865,"longitude":-0.118092,"reserved":0,"last_update":"0001-01-01T00:00:00Z","name_a2s":"Uncletopia | London | 1 | All Maps","protocol":17,"map":"pl_pier","folder":"tf","game":"Team Fortress","app_id":440,"player_count":0,"max_players":24,"Bots":0,"server_type":"Dedicated","server_os":"Linux","password":true,"vac":true,"version":"7757534","steam_id":85568392924367362,"keywords":["nocrits","nodmgspread","payload","uncletopia"],"game_id":440,"stv_port":27016,"stv_name":"Uncletopia | London | 1 | All Maps | STV","players":null},{"server_id":114,"name":"Uncletopia | London | 2 | All Maps","name_short":"lon-2","host":"lon-1.uk.uncletopia.com","port":27025,"enabled":true,"region":"eu","cc":"gb","latitude":51.509865,"longitude":-0.118092,"reserved":0,"last_update":"0001-01-01T00:00:00Z","name_a2s":"Uncletopia | London | 2 | All Maps","protocol":17,"map":"pl_pier","folder":"tf","game":"Team Fortress","app_id":440,"player_count":0,"max_players":24,"Bots":0,"server_type":"Dedicated","server_os":"Linux","password":true,"vac":true,"version":"7757534","steam_id":85568392924470941,"keywords":["nocrits","nodmgspread","payload","uncletopia"],"game_id":440,"stv_port":27026,"stv_name":"Uncletopia | London | 2 | All Maps | STV","players":null},{"server_id":320,"name":"Uncletopia | London | 3 | All Maps","name_short":"lon-3","host":"lon-1.uk.uncletopia.com","port":27035,"enabled":true,"region":"eu","cc":"gb","latitude":51.509865,"longitude":-0.118092,"reserved":0,"last_update":"0001-01-01T00:00:00Z","name_a2s":"Uncletopia | London | 3 | All Maps","protocol":17,"map":"pl_borneo","folder":"tf","game":"Team Fortress","app_id":440,"player_count":19,"max_players":24,"Bots":0,"server_type":"Dedicated","server_os":"Linux","password":true,"vac":true,"version":"7757534","steam_id":85568392924510192,"keywords":["nocrits","nodmgspread","payload","uncletopia"],"game_id":440,"stv_port":27036,"stv_name":"Uncletopia | London | 3 | All Maps | STV","players":[{"user_id":28,"name":"KOMENTATOR","steam_id":76561198361101790,"connected_time":2241000000000,"state":"spawning","ping":63},{"user_id":53,"name":"TheFlames","steam_id":76561198179314694,"connected_time":502000000000,"state":"spawning","ping":57},{"user_id":68,"name":"Magica","steam_id":76561198965200359,"connected_time":122000000000,"state":"active","ping":72},{"user_id":69,"name":"BlinkedUp","steam_id":76561198249985618,"connected_time":115000000000,"state":"spawning","ping":55},{"user_id":35,"name":"MattyCzek","steam_id":76561198881990395,"connected_time":1495000000000,"state":"spawning","ping":67},{"user_id":67,"name":"John Daly","steam_id":76561197993849325,"connected_time":161000000000,"state":"active","ping":90},{"user_id":50,"name":"Yanniki","steam_id":76561197986058110,"connected_time":567000000000,"state":"active","ping":67},{"user_id":38,"name":"Zogg","steam_id":76561198352683491,"connected_time":1239000000000,"state":"spawning","ping":39},{"user_id":40,"name":"Cosmetic brain","steam_id":76561198055936410,"connected_time":1062000000000,"state":"active","ping":85},{"user_id":45,"name":"gjhkgfkjfh","steam_id":76561198031181349,"connected_time":759000000000,"state":"active","ping":146},{"user_id":47,"name":"balanced diet","steam_id":76561198240320806,"connected_time":667000000000,"state":"active","ping":76},{"user_id":48,"name":"redditsexdefender","steam_id":76561198255904077,"connected_time":636000000000,"state":"active","ping":155},{"user_id":49,"name":"SpyCrab  Erik Twice","steam_id":76561198009710309,"connected_time":591000000000,"state":"spawning","ping":54},{"user_id":54,"name":"Monkey Boss","steam_id":76561198249012916,"connected_time":492000000000,"state":"active","ping":45},{"user_id":57,"name":"giant coconut nut","steam_id":76561199174202147,"connected_time":439000000000,"state":"active","ping":67},{"user_id":58,"name":"Pingus","steam_id":76561198164880756,"connected_time":432000000000,"state":"active","ping":82},{"user_id":59,"name":"Quinton Heckroth","steam_id":76561197979780972,"connected_time":430000000000,"state":"active","ping":60},{"user_id":62,"name":"Jimortal","steam_id":76561198342426856,"connected_time":366000000000,"state":"active","ping":54},{"user_id":61,"name":"Marcos","steam_id":76561198798925721,"connected_time":418000000000,"state":"active","ping":85}]},{"server_id":321,"name":"Uncletopia | London | 4 | All Maps","name_short":"lon-4","host":"lon-1.uk.uncletopia.com","port":27045,"enabled":true,"region":"eu","cc":"gb","latitude":51.509865,"longitude":-0.118092,"reserved":0,"last_update":"0001-01-01T00:00:00Z","name_a2s":"Uncletopia | London | 4 | All Maps","protocol":17,"map":"pl_barnblitz","folder":"tf","game":"Team Fortress","app_id":440,"player_count":0,"max_players":24,"Bots":0,"server_type":"Dedicated","server_os":"Linux","password":true,"vac":true,"version":"7757534","steam_id":85568392924510193,"keywords":["nocrits","nodmgspread","payload","uncletopia"],"game_id":440,"stv_port":27046,"stv_name":"Uncletopia | London | 4 | All Maps | STV","players":null},{"server_id":21,"name":"Uncletopia | London | 5 | All Maps","name_short":"lon-5","host":"lon-1.uk.uncletopia.com","port":27055,"enabled":true,"region":"eu","cc":"gb","latitude":51.509865,"longitude":-0.118092,"reserved":0,"last_update":"0001-01-01T00:00:00Z","name_a2s":"Uncletopia | London | 5 | All Maps","protocol":17,"map":"pl_pier","folder":"tf","game":"Team Fortress","app_id":440,"player_count":0,"max_players":24,"Bots":0,"server_type":"Dedicated","server_os":"Linux","password":true,"vac":true,"version":"7757534","steam_id":85568392924742829,"keywords":["nocrits","nodmgspread","payload","uncletopia"],"game_id":440,"stv_port":27056,"stv_name":"Uncletopia | London | 5 | All Maps | STV","players":null},{"server_id":22,"name":"Uncletopia | London | 6 | All Maps","name_short":"lon-6","host":"lon-1.uk.uncletopia.com","port":27065,"enabled":true,"region":"eu","cc":"gb","latitude":51.509865,"longitude":-0.118092,"reserved":0,"last_update":"0001-01-01T00:00:00Z","name_a2s":"Uncletopia | London | 6 | All Maps","protocol":17,"map":"koth_highpass","folder":"tf","game":"Team Fortress","app_id":440,"player_count":0,"max_players":24,"Bots":0,"server_type":"Dedicated","server_os":"Linux","password":true,"vac":true,"version":"7757534","steam_id":85568392924742830,"keywords":["cp","nocrits","nodmgspread","uncletopia"],"game_id":440,"stv_port":27066,"stv_name":"Uncletopia | London | 6 | All Maps | STV","players":null},{"server_id":40,"name":"Uncletopia | London | 7 | No Payload","name_short":"lon-7","host":"lon-1.uk.uncletopia.com","port":27075,"enabled":true,"region":"eu","cc":"gb","latitude":51.509865,"longitude":-0.118092,"reserved":0,"last_update":"0001-01-01T00:00:00Z","name_a2s":"Uncletopia | London | 7 | No Payload","protocol":17,"map":"koth_highpass","folder":"tf","game":"Team Fortress","app_id":440,"player_count":0,"max_players":24,"Bots":0,"server_type":"Dedicated","server_os":"Linux","password":true,"vac":true,"version":"7757534","steam_id":85568392924964314,"keywords":["cp","nocrits","nodmgspread","uncletopia"],"game_id":440,"stv_port":27076,"stv_name":"Uncletopia | London | 7 | No Payload | STV","players":null},{"server_id":41,"name":"Uncletopia | London | 8 | Community","name_short":"lon-8","host":"lon-1.uk.uncletopia.com","port":27085,"enabled":true,"region":"eu","cc":"gb","latitude":51.509865,"longitude":-0.118092,"reserved":0,"last_update":"0001-01-01T00:00:00Z","name_a2s":"Uncletopia | London | 8 | Community","protocol":17,"map":"cp_altitude","folder":"tf","game":"Team Fortress","app_id":440,"player_count":0,"max_players":24,"Bots":0,"server_type":"Dedicated","server_os":"Linux","password":true,"vac":true,"version":"7757534","steam_id":85568392924964315,"keywords":["cp","nocrits","nodmgspread","uncletopia"],"game_id":440,"stv_port":27086,"stv_name":"Uncletopia | London | 8 | Community | STV","players":null},{"server_id":300,"name":"Uncletopia | Montréal | 1 | All Maps","name_short":"mtl-1","host":"mtl-1.ca.uncletopia.com","port":27015,"enabled":true,"region":"us-east","cc":"ca","latitude":45.50889,"longitude":-73.56167,"reserved":0,"last_update":"0001-01-01T00:00:00Z","name_a2s":"Uncletopia | Montréal | 1 | All Maps","protocol":17,"map":"koth_highpass","folder":"tf","game":"Team Fortress","app_id":440,"player_count":0,"max_players":24,"Bots":0,"server_type":"Dedicated","server_os":"Linux","password":true,"vac":true,"version":"7757534","steam_id":85568392924500087,"keywords":["cp","nocrits","nodmgspread","uncletopia"],"game_id":440,"stv_port":27016,"stv_name":"Uncletopia | Montréal | 1 | All Maps | STV","players":null},{"server_id":301,"name":"Uncletopia | Montréal | 2 | All Maps","name_short":"mtl-2","host":"mtl-1.ca.uncletopia.com","port":27025,"enabled":true,"region":"us-east","cc":"ca","latitude":45.50889,"longitude":-73.56167,"reserved":0,"last_update":"0001-01-01T00:00:00Z","name_a2s":"Uncletopia | Montréal | 2 | All Maps","protocol":17,"map":"cp_process_final","folder":"tf","game":"Team Fortress","app_id":440,"player_count":0,"max_players":24,"Bots":0,"server_type":"Dedicated","server_os":"Linux","password":true,"vac":true,"version":"7757534","steam_id":85568392924500088,"keywords":["cp","nocrits","nodmgspread","uncletopia"],"game_id":440,"stv_port":27026,"stv_name":"Uncletopia | Montréal | 2 | All Maps | STV","players":null},{"server_id":302,"name":"Uncletopia | Montréal | 3 | All Maps","name_short":"mtl-3","host":"mtl-1.ca.uncletopia.com","port":27035,"enabled":true,"region":"us-east","cc":"ca","latitude":45.50889,"longitude":-73.56167,"reserved":0,"last_update":"0001-01-01T00:00:00Z","name_a2s":"Uncletopia | Montréal | 3 | All Maps","protocol":17,"map":"pl_frontier_final","folder":"tf","game":"Team Fortress","app_id":440,"player_count":0,"max_players":24,"Bots":0,"server_type":"Dedicated","server_os":"Linux","password":true,"vac":true,"version":"7757534","steam_id":85568392924500089,"keywords":["nocrits","nodmgspread","payload","uncletopia"],"game_id":440,"stv_port":27036,"stv_name":"Uncletopia | Montréal | 3 | All Maps | STV","players":null},{"server_id":303,"name":"Uncletopia | Montréal | 4 | No Payload","name_short":"mtl-4","host":"mtl-1.ca.uncletopia.com","port":27045,"enabled":true,"region":"us-east","cc":"ca","latitude":45.50889,"longitude":-73.56167,"reserved":0,"last_update":"0001-01-01T00:00:00Z","name_a2s":"Uncletopia | Montréal | 4 | No Payload","protocol":17,"map":"cp_steel","folder":"tf","game":"Team Fortress","app_id":440,"player_count":0,"max_players":24,"Bots":0,"server_type":"Dedicated","server_os":"Linux","password":true,"vac":true,"version":"7757534","steam_id":85568392924500090,"keywords":["cp","nocrits","nodmgspread","uncletopia"],"game_id":440,"stv_port":27046,"stv_name":"Uncletopia | Montréal | 4 | No Payload | STV","players":null},{"server_id":13,"name":"Uncletopia | New York City | 1 | All Maps","name_short":"nyc-1","host":"nyc-1.us.uncletopia.com","port":27015,"enabled":true,"region":"us-east","cc":"us","latitude":40.73061,"longitude":-73.93524,"reserved":0,"last_update":"0001-01-01T00:00:00Z","name_a2s":"Uncletopia | New York City | 1 | All Maps","protocol":17,"map":"cp_process_final","folder":"tf","game":"Team Fortress","app_id":440,"player_count":0,"max_players":24,"Bots":0,"server_type":"Dedicated","server_os":"Linux","password":true,"vac":true,"version":"7757534","steam_id":85568392924469993,"keywords":["cp","nocrits","nodmgspread","uncletopia"],"game_id":440,"stv_port":27016,"stv_name":"Uncletopia | New York City | 1 | All Maps | STV","players":null},{"server_id":14,"name":"Uncletopia | New York City | 2 | All Maps","name_short":"nyc-2","host":"nyc-1.us.uncletopia.com","port":27025,"enabled":true,"region":"us-east","cc":"us","latitude":40.73061,"longitude":-73.93524,"reserved":0,"last_update":"0001-01-01T00:00:00Z","name_a2s":"Uncletopia | New York City | 2 | All Maps","protocol":17,"map":"cp_altitude","folder":"tf","game":"Team Fortress","app_id":440,"player_count":0,"max_players":24,"Bots":0,"server_type":"Dedicated","server_os":"Linux","password":true,"vac":true,"version":"7757534","steam_id":85568392924469994,"keywords":["cp","nocrits","nodmgspread","uncletopia"],"game_id":440,"stv_port":27026,"stv_name":"Uncletopia | New York City | 2 | All Maps | STV","players":null},{"server_id":15,"name":"Uncletopia | New York City | 3 | Stopwatch Beta","name_short":"nyc-3","host":"nyc-1.us.uncletopia.com","port":27035,"enabled":true,"region":"us-east","cc":"us","latitude":40.73061,"longitude":-73.93524,"reserved":0,"last_update":"0001-01-01T00:00:00Z","name_a2s":"Uncletopia | New York City | 3 | Stopwatch Beta","protocol":17,"map":"cp_gullywash_final1","folder":"tf","game":"Team Fortress","app_id":440,"player_count":0,"max_players":24,"Bots":0,"server_type":"Dedicated","server_os":"Linux","password":true,"vac":true,"version":"7757534","steam_id":85568392924742820,"keywords":["cp","nocrits","nodmgspread","uncletopia"],"game_id":440,"stv_port":27036,"stv_name":"Uncletopia | New York City | 3 | Stopwatch Beta | STV","players":null},{"server_id":16,"name":"Uncletopia | New York City | 4 | Community","name_short":"nyc-4","host":"nyc-1.us.uncletopia.com","port":27045,"enabled":true,"region":"us-east","cc":"us","latitude":40.73061,"longitude":-73.93524,"reserved":0,"last_update":"0001-01-01T00:00:00Z","name_a2s":"Uncletopia | New York City | 4 | Community","protocol":17,"map":"workshop/koth_ashville_final.ugc2130459942","folder":"tf","game":"Team Fortress","app_id":440,"player_count":0,"max_players":24,"Bots":0,"server_type":"Dedicated","server_os":"Linux","password":true,"vac":true,"version":"7757534","steam_id":85568392924742821,"keywords":["cp","nocrits","nodmgspread","uncletopia"],"game_id":440,"stv_port":27046,"stv_name":"Uncletopia | New York City | 4 | Community | STV","players":null},{"server_id":142,"name":"Uncletopia | São Paulo | 1 | All Maps","name_short":"sao-1","host":"sao-1.br.uncletopia.com","port":27015,"enabled":true,"region":"sa","cc":"br","latitude":-23.533773,"longitude":-46.62529,"reserved":0,"last_update":"0001-01-01T00:00:00Z","name_a2s":"Uncletopia | São Paulo | 1 | All Maps","protocol":17,"map":"cp_altitude","folder":"tf","game":"Team Fortress","app_id":440,"player_count":0,"max_players":24,"Bots":0,"server_type":"Dedicated","server_os":"Linux","password":true,"vac":true,"version":"7757534","steam_id":85568392924469996,"keywords":["cp","nocrits","nodmgspread","uncletopia"],"game_id":440,"stv_port":27016,"stv_name":"Uncletopia | São Paulo | 1 | All Maps | STV","players":null},{"server_id":143,"name":"Uncletopia | São Paulo | 2 | All Maps","name_short":"sao-2","host":"sao-2.br.uncletopia.com","port":27015,"enabled":true,"region":"sa","cc":"br","latitude":-23.533773,"longitude":-46.62529,"reserved":0,"last_update":"0001-01-01T00:00:00Z","name_a2s":"Uncletopia | São Paulo | 2 | All Maps","protocol":17,"map":"koth_viaduct","folder":"tf","game":"Team Fortress","app_id":440,"player_count":0,"max_players":24,"Bots":0,"server_type":"Dedicated","server_os":"Linux","password":true,"vac":true,"version":"7757534","steam_id":85568392924485349,"keywords":["cp","nocrits","nodmgspread","uncletopia"],"game_id":440,"stv_port":27016,"stv_name":"Uncletopia | São Paulo | 2 | All Maps | STV","players":null},{"server_id":7,"name":"Uncletopia | Seattle | 1 | All Maps","name_short":"sea-1","host":"sea-1.us.uncletopia.com","port":27015,"enabled":true,"region":"us-west","cc":"us","latitude":47.608013,"longitude":-122.33517,"reserved":0,"last_update":"0001-01-01T00:00:00Z","name_a2s":"Uncletopia | Seattle | 1 | All Maps","protocol":17,"map":"pl_pier","folder":"tf","game":"Team Fortress","app_id":440,"player_count":20,"max_players":24,"Bots":0,"server_type":"Dedicated","server_os":"Linux","password":true,"vac":true,"version":"7757534","steam_id":85568392924469997,"keywords":["nocrits","nodmgspread","payload","uncletopia"],"game_id":440,"stv_port":27016,"stv_name":"Uncletopia | Seattle | 1 | All Maps | STV","players":[{"user_id":334,"name":"muffinman12126","steam_id":76561199471924109,"connected_time":316000000000,"state":"active","ping":108},{"user_id":337,"name":"ExplosiveGamer21","steam_id":76561198132370955,"connected_time":126000000000,"state":"active","ping":106},{"user_id":321,"name":"Lemmers235","steam_id":76561199192668922,"connected_time":1090000000000,"state":"active","ping":90},{"user_id":336,"name":"Antzen","steam_id":76561198041343470,"connected_time":186000000000,"state":"active","ping":63},{"user_id":331,"name":"INFINITE","steam_id":76561197971285557,"connected_time":462000000000,"state":"active","ping":111},{"user_id":318,"name":"Cunny Warrior 77","steam_id":76561198811760680,"connected_time":1231000000000,"state":"active","ping":81},{"user_id":276,"name":"chrischrischris3018@yahoo.com","steam_id":76561198137316053,"connected_time":3784000000000,"state":"active","ping":117},{"user_id":267,"name":"ScoutBox","steam_id":76561198111539895,"connected_time":4153000000000,"state":"active","ping":75},{"user_id":311,"name":"[TrC] Nosy","steam_id":76561197978859310,"connected_time":1883000000000,"state":"active","ping":55},{"user_id":325,"name":"BoomieMcBoomPants","steam_id":76561198144516828,"connected_time":973000000000,"state":"active","ping":74},{"user_id":338,"name":"summerof69","steam_id":76561198069049410,"connected_time":96000000000,"state":"active","ping":91},{"user_id":269,"name":"Zee❤","steam_id":76561198274550638,"connected_time":4130000000000,"state":"active","ping":113},{"user_id":277,"name":"Celia [ +/- ] ✔","steam_id":76561198067164431,"connected_time":3779000000000,"state":"active","ping":68},{"user_id":312,"name":"mumbles","steam_id":76561197994528974,"connected_time":1597000000000,"state":"active","ping":77},{"user_id":310,"name":"El pandora","steam_id":76561198075490385,"connected_time":2085000000000,"state":"active","ping":75},{"user_id":339,"name":"Nalyk","steam_id":76561198043886843,"connected_time":79000000000,"state":"active","ping":53},{"user_id":319,"name":"Enchanced","steam_id":76561198797393854,"connected_time":1223000000000,"state":"active","ping":53},{"user_id":329,"name":"cloaker tf2","steam_id":76561199222119901,"connected_time":744000000000,"state":"active","ping":47},{"user_id":286,"name":"IzzyHoP","steam_id":76561197995927883,"connected_time":3600000000000,"state":"active","ping":56},{"user_id":328,"name":"murph","steam_id":76561197973805634,"connected_time":834000000000,"state":"active","ping":80}]},{"server_id":119,"name":"Uncletopia | Seattle | 2 | All Maps","name_short":"sea-2","host":"sea-1.us.uncletopia.com","port":27025,"enabled":true,"region":"us-west","cc":"us","latitude":47.608013,"longitude":-122.33517,"reserved":0,"last_update":"0001-01-01T00:00:00Z","name_a2s":"Uncletopia | Seattle | 2 | All Maps","protocol":17,"map":"koth_viaduct","folder":"tf","game":"Team Fortress","app_id":440,"player_count":3,"max_players":24,"Bots":0,"server_type":"Dedicated","server_os":"Linux","password":true,"vac":true,"version":"7757534","steam_id":85568392924469998,"keywords":["cp","nocrits","nodmgspread","uncletopia"],"game_id":440,"stv_port":27026,"stv_name":"Uncletopia | Seattle | 2 | All Maps | STV","players":[{"user_id":366,"name":"Ediot","steam_id":76561199349494096,"connected_time":1671000000000,"state":"active","ping":134},{"user_id":368,"name":"qt ⁧discord.gg/Hdq8uH4Knc","steam_id":76561199473726949,"connected_time":109000000000,"state":"active","ping":212},{"user_id":367,"name":"ChuChu","steam_id":76561199443647976,"connected_time":1669000000000,"state":"active","ping":90}]},{"server_id":406,"name":"Uncletopia | Seattle | 3 | Stopwatch Beta","name_short":"sea-3","host":"sea-1.us.uncletopia.com","port":27035,"enabled":true,"region":"us-west","cc":"us","latitude":47.608013,"longitude":-122.33517,"reserved":0,"last_update":"0001-01-01T00:00:00Z","name_a2s":"Uncletopia | Seattle | 3 | Stopwatch Beta","protocol":17,"map":"pl_swiftwater_final1","folder":"tf","game":"Team Fortress","app_id":440,"player_count":0,"max_players":24,"Bots":0,"server_type":"Dedicated","server_os":"Linux","password":true,"vac":true,"version":"7757534","steam_id":85568392924515217,"keywords":["nocrits","nodmgspread","payload","uncletopia"],"game_id":440,"stv_port":27036,"stv_name":"Uncletopia | Seattle | 3 | Stopwatch Beta | STV","players":null},{"server_id":17,"name":"Uncletopia | San Francisco | 1 | All Maps","name_short":"sfo-1","host":"sfo-1.us.uncletopia.com","port":27015,"enabled":true,"region":"us-west","cc":"us","latitude":37.77397,"longitude":-122.4313,"reserved":0,"last_update":"0001-01-01T00:00:00Z","name_a2s":"Uncletopia | San Francisco | 1 | All Maps","protocol":17,"map":"pl_swiftwater_final1","folder":"tf","game":"Team Fortress","app_id":440,"player_count":23,"max_players":24,"Bots":0,"server_type":"Dedicated","server_os":"Linux","password":true,"vac":true,"version":"7757534","steam_id":85568392924469999,"keywords":["nocrits","nodmgspread","payload","uncletopia"],"game_id":440,"stv_port":27016,"stv_name":"Uncletopia | San Francisco | 1 | All Maps | STV","players":[{"user_id":480,"name":"chocolat3823","steam_id":76561199249875689,"connected_time":236000000000,"state":"active","ping":43},{"user_id":447,"name":"Syrup","steam_id":76561198335677073,"connected_time":2644000000000,"state":"active","ping":60},{"user_id":440,"name":"façade","steam_id":76561199157009256,"connected_time":2858000000000,"state":"active","ping":44},{"user_id":408,"name":"flop","steam_id":76561199230528008,"connected_time":4674000000000,"state":"active","ping":72},{"user_id":461,"name":"Vampire","steam_id":76561198162559558,"connected_time":1194000000000,"state":"active","ping":91},{"user_id":466,"name":"m","steam_id":76561198127631900,"connected_time":824000000000,"state":"active","ping":46},{"user_id":478,"name":"Goob","steam_id":76561198256918638,"connected_time":287000000000,"state":"active","ping":46},{"user_id":470,"name":"TheGreatDong","steam_id":76561198000634178,"connected_time":659000000000,"state":"active","ping":58},{"user_id":467,"name":"Stargriefer190","steam_id":76561198996425356,"connected_time":794000000000,"state":"active","ping":132},{"user_id":479,"name":"SpongeBucket","steam_id":76561198393553085,"connected_time":278000000000,"state":"active","ping":82},{"user_id":469,"name":"Foobert","steam_id":76561199229577594,"connected_time":718000000000,"state":"active","ping":63},{"user_id":468,"name":"Foomky","steam_id":76561198131241932,"connected_time":764000000000,"state":"active","ping":60},{"user_id":481,"name":"dysesthesia","steam_id":76561198027159018,"connected_time":231000000000,"state":"active","ping":139},{"user_id":483,"name":"Vespen","steam_id":76561198259984019,"connected_time":172000000000,"state":"active","ping":59},{"user_id":472,"name":"DoomoPelota","steam_id":76561198326462587,"connected_time":650000000000,"state":"active","ping":111},{"user_id":377,"name":"me","steam_id":76561199468285784,"connected_time":7027000000000,"state":"active","ping":36},{"user_id":484,"name":"old slimey ichabod","steam_id":76561198043900518,"connected_time":143000000000,"state":"active","ping":124},{"user_id":454,"name":"twin","steam_id":76561198055626638,"connected_time":1843000000000,"state":"active","ping":152},{"user_id":456,"name":"bepsu","steam_id":76561198826566231,"connected_time":1615000000000,"state":"active","ping":75},{"user_id":473,"name":"mritea","steam_id":76561198872799796,"connected_time":603000000000,"state":"active","ping":103},{"user_id":474,"name":"shiggy","steam_id":76561199078150714,"connected_time":447000000000,"state":"active","ping":65},{"user_id":476,"name":"chaos","steam_id":76561198055462404,"connected_time":334000000000,"state":"active","ping":52},{"user_id":375,"name":"roger roger","steam_id":76561198130032444,"connected_time":7556000000000,"state":"active","ping":62}]},{"server_id":18,"name":"Uncletopia | San Francisco | 2 | All Maps","name_short":"sfo-2","host":"sfo-1.us.uncletopia.com","port":27025,"enabled":true,"region":"us-west","cc":"us","latitude":37.77397,"longitude":-122.4313,"reserved":0,"last_update":"0001-01-01T00:00:00Z","name_a2s":"Uncletopia | San Francisco | 2 | All Maps","protocol":17,"map":"pl_swiftwater_final1","folder":"tf","game":"Team Fortress","app_id":440,"player_count":0,"max_players":24,"Bots":0,"server_type":"Dedicated","server_os":"Linux","password":true,"vac":true,"version":"7757534","steam_id":85568392924470000,"keywords":["nocrits","nodmgspread","payload","uncletopia"],"game_id":440,"stv_port":27026,"stv_name":"Uncletopia | San Francisco | 2 | All Maps | STV","players":null},{"server_id":19,"name":"Uncletopia | San Francisco | 3 | Stopwatch Beta","name_short":"sfo-3","host":"sfo-1.us.uncletopia.com","port":27035,"enabled":true,"region":"us-west","cc":"us","latitude":37.77397,"longitude":-122.4313,"reserved":0,"last_update":"0001-01-01T00:00:00Z","name_a2s":"Uncletopia | San Francisco | 3 | Stopwatch Beta","protocol":17,"map":"workshop/koth_ramjam_rc1.ugc459778887","folder":"tf","game":"Team Fortress","app_id":440,"player_count":0,"max_players":24,"Bots":0,"server_type":"Dedicated","server_os":"Linux","password":true,"vac":true,"version":"7757534","steam_id":85568392924742824,"keywords":["cp","nocrits","nodmgspread","uncletopia"],"game_id":440,"stv_port":27036,"stv_name":"Uncletopia | San Francisco | 3 | Stopwatch Beta | STV","players":null},{"server_id":20,"name":"Uncletopia | San Francisco | 4 | Community","name_short":"sfo-4","host":"sfo-1.us.uncletopia.com","port":27045,"enabled":true,"region":"us-west","cc":"us","latitude":37.77397,"longitude":-122.4313,"reserved":0,"last_update":"0001-01-01T00:00:00Z","name_a2s":"Uncletopia | San Francisco | 4 | Community","protocol":17,"map":"workshop/pl_corrode_rc2.ugc546577989","folder":"tf","game":"Team Fortress","app_id":440,"player_count":0,"max_players":24,"Bots":0,"server_type":"Dedicated","server_os":"Linux","password":true,"vac":true,"version":"7757534","steam_id":85568392924742826,"keywords":["nocrits","nodmgspread","payload","uncletopia"],"game_id":440,"stv_port":27046,"stv_name":"Uncletopia | San Francisco | 4 | Community | STV","players":null},{"server_id":141,"name":"Uncletopia | Sydney | 1 | All Maps","name_short":"syd-1","host":"syd-1.au.uncletopia.com","port":27015,"enabled":true,"region":"au","cc":"au","latitude":-33.865143,"longitude":151.2099,"reserved":0,"last_update":"0001-01-01T00:00:00Z","name_a2s":"Uncletopia | Sydney | 1 | All Maps","protocol":17,"map":"cp_process_final","folder":"tf","game":"Team Fortress","app_id":440,"player_count":0,"max_players":24,"Bots":0,"server_type":"Dedicated","server_os":"Linux","password":true,"vac":true,"version":"7757534","steam_id":85568392924470001,"keywords":["cp","nocrits","nodmgspread","uncletopia"],"game_id":440,"stv_port":27016,"stv_name":"Uncletopia | Sydney | 1 | All Maps | STV","players":null},{"server_id":123,"name":"Uncletopia | Sydney | 2 | All Maps","name_short":"syd-2","host":"syd-1.au.uncletopia.com","port":27025,"enabled":true,"region":"au","cc":"au","latitude":-33.865143,"longitude":151.2099,"reserved":0,"last_update":"0001-01-01T00:00:00Z","name_a2s":"Uncletopia | Sydney | 2 | All Maps","protocol":17,"map":"pl_thundermountain","folder":"tf","game":"Team Fortress","app_id":440,"player_count":24,"max_players":24,"Bots":0,"server_type":"Dedicated","server_os":"Linux","password":true,"vac":true,"version":"7757534","steam_id":85568392924470002,"keywords":["nocrits","nodmgspread","payload","uncletopia"],"game_id":440,"stv_port":27026,"stv_name":"Uncletopia | Sydney | 2 | All Maps | STV","players":[{"user_id":348,"name":"beet","steam_id":76561198097873940,"connected_time":5712000000000,"state":"active","ping":49},{"user_id":408,"name":"Zeron","steam_id":76561198125778202,"connected_time":96000000000,"state":"active","ping":52},{"user_id":386,"name":"Oysenberry","steam_id":76561198125443335,"connected_time":1742000000000,"state":"active","ping":42},{"user_id":361,"name":"soupy","steam_id":76561198073734936,"connected_time":3977000000000,"state":"active","ping":86},{"user_id":374,"name":"Apteryx","steam_id":76561197976460834,"connected_time":2967000000000,"state":"active","ping":63},{"user_id":378,"name":"FrOStY","steam_id":76561198088155805,"connected_time":2578000000000,"state":"active","ping":69},{"user_id":320,"name":"Charm","steam_id":76561198028891054,"connected_time":7496000000000,"state":"active","ping":60},{"user_id":388,"name":"saudi ambassador messi","steam_id":76561198031293430,"connected_time":1630000000000,"state":"active","ping":86},{"user_id":394,"name":"Flaveus","steam_id":76561197996567542,"connected_time":928000000000,"state":"active","ping":69},{"user_id":391,"name":"Geagg427","steam_id":76561198450749766,"connected_time":972000000000,"state":"active","ping":101},{"user_id":407,"name":"piratespy22","steam_id":76561198042198744,"connected_time":282000000000,"state":"active","ping":47},{"user_id":400,"name":"Pew pew pew!","steam_id":76561198004120277,"connected_time":506000000000,"state":"active","ping":45},{"user_id":398,"name":"Toad","steam_id":76561199081848498,"connected_time":736000000000,"state":"active","ping":63},{"user_id":379,"name":"Corrupt","steam_id":76561198008567328,"connected_time":2578000000000,"state":"active","ping":102},{"user_id":403,"name":"Frog Friend","steam_id":76561198054505772,"connected_time":470000000000,"state":"active","ping":61},{"user_id":399,"name":"Jacob","steam_id":76561198059341907,"connected_time":573000000000,"state":"active","ping":46},{"user_id":376,"name":"Doctor Estonia","steam_id":76561198057365089,"connected_time":2594000000000,"state":"active","ping":95},{"user_id":351,"name":"Shadow Puppeteer","steam_id":76561198151121997,"connected_time":5512000000000,"state":"active","ping":74},{"user_id":405,"name":"IZ*","steam_id":76561198834621927,"connected_time":370000000000,"state":"active","ping":142},{"user_id":325,"name":"The Fesh Pince Of Blair","steam_id":76561198124442611,"connected_time":7123000000000,"state":"active","ping":85},{"user_id":301,"name":"LightningBlock","steam_id":76561198289997742,"connected_time":8876000000000,"state":"active","ping":40},{"user_id":380,"name":"Toody","steam_id":76561198212656752,"connected_time":2577000000000,"state":"active","ping":45},{"user_id":343,"name":"Jamie2Cool","steam_id":76561198155695809,"connected_time":5965000000000,"state":"active","ping":86},{"user_id":393,"name":"Hally","steam_id":76561198045236233,"connected_time":959000000000,"state":"active","ping":54}]},{"server_id":395,"name":"Uncletopia | Sydney | 3 | All Maps","name_short":"syd-3","host":"syd-1.au.uncletopia.com","port":27035,"enabled":true,"region":"au","cc":"au","latitude":-33.865143,"longitude":151.2099,"reserved":0,"last_update":"0001-01-01T00:00:00Z","name_a2s":"Uncletopia | Sydney | 3 | All Maps","protocol":17,"map":"pl_barnblitz","folder":"tf","game":"Team Fortress","app_id":440,"player_count":0,"max_players":24,"Bots":0,"server_type":"Dedicated","server_os":"Linux","password":true,"vac":true,"version":"7757534","steam_id":85568392925194467,"keywords":["nocrits","nodmgspread","payload","uncletopia"],"game_id":440,"stv_port":27036,"stv_name":"Uncletopia | Sydney | 3 | All Maps | STV","players":null},{"server_id":396,"name":"Uncletopia | Sydney | 4 | All Maps","name_short":"syd-4","host":"syd-1.au.uncletopia.com","port":27045,"enabled":true,"region":"au","cc":"au","latitude":-33.865143,"longitude":151.2099,"reserved":0,"last_update":"0001-01-01T00:00:00Z","name_a2s":"Uncletopia | Sydney | 4 | All Maps","protocol":17,"map":"koth_viaduct","folder":"tf","game":"Team Fortress","app_id":440,"player_count":0,"max_players":24,"Bots":0,"server_type":"Dedicated","server_os":"Linux","password":true,"vac":true,"version":"7757534","steam_id":85568392925397958,"keywords":["cp","nocrits","nodmgspread","uncletopia"],"game_id":440,"stv_port":27046,"stv_name":"Uncletopia | Sydney | 4 | All Maps | STV","players":null},{"server_id":58,"name":"Uncletopia | Sydney | 5 | Stopwatch Beta","name_short":"syd-5","host":"syd-1.au.uncletopia.com","port":27055,"enabled":true,"region":"au","cc":"au","latitude":-33.865143,"longitude":151.2099,"reserved":0,"last_update":"0001-01-01T00:00:00Z","name_a2s":"Uncletopia | Sydney | 5 | Stopwatch Beta","protocol":17,"map":"koth_cascade","folder":"tf","game":"Team Fortress","app_id":440,"player_count":0,"max_players":24,"Bots":0,"server_type":"Dedicated","server_os":"Linux","password":true,"vac":true,"version":"7757534","steam_id":85568392925397959,"keywords":["cp","nocrits","nodmgspread","uncletopia"],"game_id":440,"stv_port":27056,"stv_name":"Uncletopia | Sydney | 5 | Stopwatch Beta | STV","players":null},{"server_id":59,"name":"Uncletopia | Sydney | 6 | Community","name_short":"syd-6","host":"syd-1.au.uncletopia.com","port":27065,"enabled":true,"region":"au","cc":"au","latitude":-33.865143,"longitude":151.2099,"reserved":0,"last_update":"0001-01-01T00:00:00Z","name_a2s":"Uncletopia | Sydney | 6 | Community","protocol":17,"map":"workshop/cp_mannbase_rc2a.ugc1900737467","folder":"tf","game":"Team Fortress","app_id":440,"player_count":3,"max_players":24,"Bots":0,"server_type":"Dedicated","server_os":"Linux","password":true,"vac":true,"version":"7757534","steam_id":85568392925397960,"keywords":["cp","nocrits","nodmgspread","uncletopia"],"game_id":440,"stv_port":27066,"stv_name":"Uncletopia | Sydney | 6 | Community | STV","players":[{"user_id":9,"name":"Branko","steam_id":76561199262196710,"connected_time":4435000000000,"state":"active","ping":43},{"user_id":26,"name":"floop flub","steam_id":76561198418968979,"connected_time":665000000000,"state":"active","ping":111},{"user_id":28,"name":"The Bisoneer TF2","steam_id":76561199446773766,"connected_time":119000000000,"state":"active","ping":92}]},{"server_id":49,"name":"Uncletopia | Warsaw | 1 | All Maps","name_short":"waw-1","host":"waw-1.pl.uncletopia.com","port":27015,"enabled":true,"region":"eu","cc":"pl","latitude":52.2297,"longitude":21.017532,"reserved":0,"last_update":"0001-01-01T00:00:00Z","name_a2s":"","protocol":0,"map":"","folder":"","game":"","app_id":0,"player_count":0,"max_players":0,"Bots":0,"server_type":"","server_os":"","password":false,"vac":false,"version":"","steam_id":0,"keywords":null,"game_id":0,"stv_port":0,"stv_name":"","players":null},{"server_id":50,"name":"Uncletopia | Warsaw | 2 | All Maps","name_short":"waw-2","host":"waw-1.pl.uncletopia.com","port":27025,"enabled":true,"region":"eu","cc":"pl","latitude":52.2297,"longitude":21.017532,"reserved":0,"last_update":"0001-01-01T00:00:00Z","name_a2s":"Uncletopia | Warsaw | 2 | All Maps","protocol":17,"map":"pl_upward","folder":"tf","game":"Team Fortress","app_id":440,"player_count":0,"max_players":24,"Bots":0,"server_type":"Dedicated","server_os":"Linux","password":true,"vac":true,"version":"7757534","steam_id":85568392925397851,"keywords":["nocrits","nodmgspread","payload","uncletopia"],"game_id":440,"stv_port":27026,"stv_name":"Uncletopia | Warsaw | 2 | All Maps | STV","players":null},{"server_id":51,"name":"Uncletopia | Warsaw | 3 | All Maps","name_short":"waw-3","host":"waw-1.pl.uncletopia.com","port":27035,"enabled":true,"region":"eu","cc":"pl","latitude":52.2297,"longitude":21.017532,"reserved":0,"last_update":"0001-01-01T00:00:00Z","name_a2s":"Uncletopia | Warsaw | 3 | All Maps","protocol":17,"map":"pl_barnblitz","folder":"tf","game":"Team Fortress","app_id":440,"player_count":0,"max_players":24,"Bots":0,"server_type":"Dedicated","server_os":"Linux","password":true,"vac":true,"version":"7757534","steam_id":85568392925397852,"keywords":["nocrits","nodmgspread","payload","uncletopia"],"game_id":440,"stv_port":27036,"stv_name":"Uncletopia | Warsaw | 3 | All Maps | STV","players":null},{"server_id":52,"name":"Uncletopia | Warsaw | 4 | All Maps","name_short":"waw-4","host":"waw-1.pl.uncletopia.com","port":27045,"enabled":true,"region":"eu","cc":"pl","latitude":52.2297,"longitude":21.017532,"reserved":0,"last_update":"0001-01-01T00:00:00Z","name_a2s":"Uncletopia | Warsaw | 4 | All Maps","protocol":17,"map":"cp_altitude","folder":"tf","game":"Team Fortress","app_id":440,"player_count":0,"max_players":24,"Bots":0,"server_type":"Dedicated","server_os":"Linux","password":true,"vac":true,"version":"7757534","steam_id":85568392925397853,"keywords":["cp","nocrits","nodmgspread","uncletopia"],"game_id":440,"stv_port":27046,"stv_name":"Uncletopia | Warsaw | 4 | All Maps | STV","players":null},{"server_id":53,"name":"Uncletopia | Warsaw | 5 | Stopwatch Beta","name_short":"waw-5","host":"waw-1.pl.uncletopia.com","port":27055,"enabled":true,"region":"eu","cc":"pl","latitude":52.2297,"longitude":21.017532,"reserved":0,"last_update":"0001-01-01T00:00:00Z","name_a2s":"Uncletopia | Warsaw | 5 | Stopwatch Beta","protocol":17,"map":"pl_pier","folder":"tf","game":"Team Fortress","app_id":440,"player_count":0,"max_players":24,"Bots":0,"server_type":"Dedicated","server_os":"Linux","password":true,"vac":true,"version":"7757534","steam_id":85568392925397854,"keywords":["nocrits","nodmgspread","payload","uncletopia"],"game_id":440,"stv_port":27056,"stv_name":"Uncletopia | Warsaw | 5 | Stopwatch Beta | STV","players":null},{"server_id":54,"name":"Uncletopia | Warsaw | 6 | Community","name_short":"waw-6","host":"waw-1.pl.uncletopia.com","port":27065,"enabled":true,"region":"eu","cc":"pl","latitude":52.2297,"longitude":21.017532,"reserved":0,"last_update":"0001-01-01T00:00:00Z","name_a2s":"Uncletopia | Warsaw | 6 | Community","protocol":17,"map":"koth_highpass","folder":"tf","game":"Team Fortress","app_id":440,"player_count":0,"max_players":24,"Bots":0,"server_type":"Dedicated","server_os":"Linux","password":true,"vac":true,"version":"7757534","steam_id":85568392925397856,"keywords":["cp","nocrits","nodmgspread","uncletopia"],"game_id":440,"stv_port":27066,"stv_name":"Uncletopia | Warsaw | 6 | Community | STV","players":null}]}