{"status":true,"message":"","result":[{"server_id":9,"name":"Uncletopia | Atlanta | 1 | All Maps","name_short":"atl-1","host":"atl-1.us.uncletopia.com","port":27015,"enabled":true,"region":"us-east","cc":"us","latitude":33.753746,"longitude":-84.38633,"reserved":0,"last_update":"0001-01-01T00:00:00Z","name_a2s":"Uncletopia | Atlanta | 1 | All Maps","protocol":17,"map":"cp_steel","folder":"tf","game":"Team Fortress","app_id":440,"player_count":24,"max_players":24,"Bots":0,"server_type":"Dedicated","server_os":"Linux","password":true,"vac":true,"version":"7757534","steam_id":85568392924469982,"keywords":["cp","nocrits","nodmgspread","uncletopia"],"game_id":440,"stv_port":27016,"stv_name":"Uncletopia | Atlanta | 1 | All Maps | STV","players":[{"user_id":97,"name":"scrapheap","steam_id":76561198202407087,"connected_time":1984000000000,"state":"active","ping":92},{"user_id":106,"name":"fuckterry","steam_id":76561198271957738,"connected_time":1746000000000,"state":"active","ping":57},{"user_id":91,"name":"Mury","steam_id":76561198069743049,"connected_time":2141000000000,"state":"active","ping":88},{"user_id":96,"name":"A Man Named Pancho","steam_id":76561197984895522,"connected_time":2007000000000,"state":"active","ping":124},{"user_id":87,"name":"Left-4-bread","steam_id":76561198032076153,"connected_time":2665000000000,"state":"active","ping":86},{"user_id":84,"name":"BBBobby","steam_id":76561198172863973,"connected_time":2968000000000,"state":"active","ping":82},{"user_id":94,"name":"Lemur","steam_id":76561198065300466,"connected_time":2026000000000,"state":"active","ping":75},{"user_id":121,"name":"-Joker-","steam_id":76561198865501612,"connected_time":10000000000,"state":"spawning","ping":72},{"user_id":113,"name":"MIA1 | TuaTooter","steam_id":76561198133033974,"connected_time":1045000000000,"state":"active","ping":78},{"user_id":99,"name":"rathotel","steam_id":76561198208126512,"connected_time":1925000000000,"state":"active","ping":76},{"user_id":108,"name":"yomokha","steam_id":76561198063175935,"connected_time":1565000000000,"state":"active","ping":59},{"user_id":19,"name":"MEDIC!","steam_id":76561198149344029,"connected_time":8399000000000,"state":"active","ping":67},{"user_id":110,"name":"Vision Spiya","steam_id":76561198095923905,"connected_time":1367000000000,"state":"active","ping":70},{"user_id":111,"name":"Skuntle Bingoid","steam_id":76561198046942778,"connected_time":1348000000000,"state":"active","ping":125},{"user_id":112,"name":"Tyler\u0026Fingers","steam_id":76561198085154485,"connected_time":1248000000000,"state":"active","ping":85},{"user_id":78,"name":"Ashes!","steam_id":76561197998475441,"connected_time":3129000000000,"state":"active","ping":91},{"user_id":101,"name":"moodi catgirl","steam_id":76561198124028045,"connected_time":1923000000000,"state":"active","ping":82},{"user_id":64,"name":"bhop","steam_id":76561198064885639,"connected_time":4538000000000,"state":"active","ping":75},{"user_id":115,"name":"airballer","steam_id":76561198165899125,"connected_time":579000000000,"state":"active","ping":74},{"user_id":116,"name":"luxin","steam_id":76561198399383047,"connected_time":574000000000,"state":"active","ping":48},{"user_id":105,"name":"jstn","steam_id":76561198845283665,"connected_time":1764000000000,"state":"active","ping":57},{"user_id":37,"name":"catboy phroliax","steam_id":76561198207075529,"connected_time":7276000000000,"state":"active","ping":87},{"user_id":109,"name":"themankeys","steam_id":76561198149339536,"connected_time":1441000000000,"state":"active","ping":97},{"user_id":119,"name":"Chris Pratt's pocket spaghetti","steam_id":76561198138347045,"connected_time":491000000000,"state":"active","ping":61}]},{"server_id":400,"name":"Uncletopia | Atlanta | 3 | Stopwatch Beta","name_short":"atl-3","host":"atl-1.us.uncletopia.com","port":27035,"enabled":true,"region":"us-east","cc":"us","latitude":33.753746,"longitude":-84.38633,"reserved":0,"last_update":"0001-01-01T00:00:00Z","name_a2s":"Uncletopia | Atlanta | 3 | Stopwatch Beta","protocol":17,"map":"pl_upward","folder":"tf","game":"Team Fortress","app_id":440,"player_count":0,"max_players":24,"Bots":0,"server_type":"Dedicated","server_os":"Linux","password":true,"vac":true,"version":"7757534","steam_id":85568392924515187,"keywords":["nocrits","nodmgspread","payload","uncletopia"],"game_id":440,"stv_port":27036,"stv_name":"Uncletopia | Atlanta | 3 | Stopwatch Beta | STV","players":null},{"server_id":401,"name":"Uncletopia | Atlanta | 4 | No Payload","name_short":"atl-4","host":"atl-1.us.uncletopia.com","port":27045,"enabled":true,"region":"us-east","cc":"us","latitude":33.753746,"longitude":-84.38633,"reserved":0,"last_update":"0001-01-01T00:00:00Z","name_a2s":"Uncletopia | Atlanta | 4 | No Payload","protocol":17,"map":"pl_pier","folder":"tf","game":"Team Fortress","app_id":440,"player_count":0,"max_players":24,"Bots":0,"server_type":"Dedicated","server_os":"Linux","password":true,"vac":true,"version":"7723704","steam_id":85568392924515188,"keywords":["nocrits","nodmgspread","payload","uncletopia"],"game_id":440,"stv_port":27046,"stv_name":"Uncletopia | Atlanta | 4 | No Payload | STV","players":null},{"server_id":2,"name":"Uncletopia | Chicago | 1 | All Maps","name_short":"chi-1","host":"chi-1.us.uncletopia.com","port":27015,"enabled":true,"region":"us-central","cc":"us","latitude":41.881832,"longitude":-87.62318,"reserved":0,"last_update":"0001-01-01T00:00:00Z","name_a2s":"Uncletopia | Chicago | 1 | All Maps","protocol":17,"map":"koth_highpass","folder":"tf","game":"Team Fortress","app_id":440,"player_count":24,"max_players":24,"Bots":0,"server_type":"Dedicated","server_os":"Linux","password":true,"vac":true,"version":"7757534","steam_id":85568392924469984,"keywords":["cp","nocrits","nodmgspread","uncletopia"],"game_id":440,"stv_port":27016,"stv_name":"Uncletopia | Chicago | 1 | All Maps | STV","players":[{"user_id":103,"name":"Ssefseff","steam_id":76561198110495978,"connected_time":196000000000,"state":"active","ping":66},{"user_id":90,"name":"PENJAMIN CITY HISTORIAN","steam_id":76561198116572221,"connected_time":1346000000000,"state":"active","ping":59},{"user_id":52,"name":"SomeScuffedKid","steam_id":76561198086113234,"connected_time":4204000000000,"state":"active","ping":70},{"user_id":46,"name":"Sloppy Joe (Extra Sauce)","steam_id":76561198359703432,"connected_time":4593000000000,"state":"active","ping":91},{"user_id":83,"name":"Guacodile","steam_id":76561198153626419,"connected_time":1965000000000,"state":"active","ping":85},{"user_id":102,"name":"moe","steam_id":76561198929586245,"connected_time":238000000000,"state":"active","ping":93},{"user_id":66,"name":"Rx Auntie","steam_id":76561198051618393,"connected_time":3296000000000,"state":"active","ping":64},{"user_id":61,"name":"SenTreats","steam_id":76561198085835841,"connected_time":3790000000000,"state":"active","ping":113},{"user_id":77,"name":"tA.CHRONIC","steam_id":76561197960760990,"connected_time":2554000000000,"state":"active","ping":48},{"user_id":94,"name":"Censing Auto, The Challenger","steam_id":76561198060926681,"connected_time":657000000000,"state":"active","ping":63},{"user_id":84,"name":"maS","steam_id":76561198033846407,"connected_time":1379000000000,"state":"active","ping":65},{"user_id":104,"name":"Smeller","steam_id":76561198041767882,"connected_time":134000000000,"state":"active","ping":50},{"user_id":97,"name":"Yukon Cornelius","steam_id":76561198261512781,"connected_time":439000000000,"state":"active","ping":88},{"user_id":71,"name":"apcsmoore","steam_id":76561199124727793,"connected_time":3084000000000,"state":"active","ping":81},{"user_id":72,"name":"Phantom_03","steam_id":76561198217929829,"connected_time":3075000000000,"state":"active","ping":105},{"user_id":81,"name":"Ras","steam_id":76561198123546775,"connected_time":1973000000000,"state":"active","ping":73},{"user_id":100,"name":"Mr.Poopy Pants","steam_id":76561199037703635,"connected_time":258000000000,"state":"active","ping":69},{"user_id":101,"name":"cologne","steam_id":76561198069600113,"connected_time":252000000000,"state":"active","ping":60},{"user_id":75,"name":"cillow","steam_id":76561198060201542,"connected_time":2913000000000,"state":"active","ping":62},{"user_id":91,"name":"leumas","steam_id":76561198240408540,"connected_time":1258000000000,"state":"active","ping":97},{"user_id":88,"name":"dtnk","steam_id":76561199007189876,"connected_time":1356000000000,"state":"active","ping":64},{"user_id":98,"name":"A Getaway Submarine","steam_id":76561199145662306,"connected_time":309000000000,"state":"active","ping":92},{"user_id":82,"name":"NerdCuddles","steam_id":76561198078915242,"connected_time":1971000000000,"state":"active","ping":55},{"user_id":93,"name":"Craig Isonychia","steam_id":76561198272013678,"connected_time":1053000000000,"state":"active","ping":72}]},{"server_id":106,"name":"Uncletopia | Chicago | 2 | All Maps","name_short":"chi-2","host":"chi-1.us.uncletopia.com","port":27025,"enabled":true,"region":"us-central","cc":"us","latitude":41.881832,"longitude":-87.62318,"reserved":0,"last_update":"0001-01-01T00:00:00Z","name_a2s":"Uncletopia | Chicago | 2 | All Maps","protocol":17,"map":"plr_pipeline","folder":"tf","game":"Team Fortress","app_id":440,"player_count":22,"max_players":24,"Bots":0,"server_type":"Dedicated","server_os":"Linux","password":true,"vac":true,"version":"7757534","steam_id":85568392924469985,"keywords":["nocrits","nodmgspread","payload","uncletopia"],"game_id":440,"stv_port":27026,"stv_name":"Uncletopia | Chicago | 2 | All Maps | STV","players":[{"user_id":21,"name":"BangusHonkle","steam_id":76561198218887511,"connected_time":1442000000000,"state":"active","ping":86},{"user_id":49,"name":"CPUnit","steam_id":76561198162881878,"connected_time":50000000000,"state":"active","ping":78},{"user_id":24,"name":"Danse","steam_id":76561198065545203,"connected_time":1367000000000,"state":"active","ping":168},{"user_id":50,"name":"floppy muppet","steam_id":76561198003076261,"connected_time":39000000000,"state":"active","ping":76},{"user_id":52,"name":"turn around","steam_id":76561198046526036,"connected_time":21000000000,"state":"spawning","ping":90},{"user_id":28,"name":"Hi! I'm Chunk  ï ‚Ä¢·¥•‚Ä¢ î","steam_id":76561197968103161,"connected_time":975000000000,"state":"active","ping":62},{"user_id":29,"name":"CykoCI","steam_id":76561199069161030,"connected_time":966000000000,"state":"active","ping":98},{"user_id":30,"name":"pinglefingle","steam_id":76561198216580197,"connected_time":844000000000,"state":"active","ping":76},{"user_id":31,"name":"IZZYMOONBOW SNEAKYPONY","steam_id":76561198315902147,"connected_time":824000000000,"state":"active","ping":61},{"user_id":51,"name":"Î™∞?Î£®","steam_id":76561198046055673,"connected_time":33000000000,"state":"active","ping":76},{"user_id":48,"name":"œ™.averted","steam_id":76561198067784310,"connected_time":167000000000,"state":"active","ping":69},{"user_id":39,"name":"Paragonment","steam_id":76561198243844662,"connected_time":613000000000,"state":"active","ping":72},{"user_id":37,"name":"trans rights","steam_id":76561198044183038,"connected_time":670000000000,"state":"active","ping":67},{"user_id":38,"name":"Dr. Jigglebones","steam_id":76561197995352645,"connected_time":645000000000,"state":"active","ping":72},{"user_id":40,"name":"cyclops","steam_id":76561197970370198,"connected_time":611000000000,"state":"active","ping":53},{"user_id":41,"name":"Coyote Bongwater","steam_id":76561198046271554,"connected_time":603000000000,"state":"active","ping":120},{"user_id":42,"name":"Redbows22","steam_id":76561199452479390,"connected_time":600000000000,"state":"active","ping":86},{"user_id":43,"name":"XDHAXEXD","steam_id":76561199100292874,"connected_time":589000000000,"state":"active","ping":165},{"user_id":44,"name":"ELSMEKERITO Droggi","steam_id":76561198093553760,"connected_time":584000000000,"state":"active","ping":178},{"user_id":45,"name":"donkey konga","steam_id":76561198078221418,"connected_time":580000000000,"state":"active","ping":75},{"user_id":46,"name":"SuperFresh","steam_id":76561198200723198,"connected_time":567000000000,"state":"active","ping":43},{"user_id":47,"name":"·πΩ‚ßâ cookie","steam_id":76561197998884823,"connected_time":563000000000,"state":"active","ping":57}]},{"server_id":402,"name":"Uncletopia | Chicago | 3 | All Maps","name_short":"chi-3","host":"chi-1.us.uncletopia.com","port":27035,"enabled":true,"region":"us-central","cc":"us","latitude":41.881832,"longitude":-87.62318,"reserved":0,"last_update":"0001-01-01T00:00:00Z","name_a2s":"Uncletopia | Chicago | 3 | All Maps","protocol":17,"map":"cp_snakewater_final1","folder":"tf","game":"Team Fortress","app_id":440,"player_count":0,"max_players":24,"Bots":0,"server_type":"Dedicated","server_os":"Linux","password":true,"vac":true,"version":"7757534","steam_id":85568392924515191,"keywords":["cp","nocrits","nodmgspread","uncletopia"],"game_id":440,"stv_port":27036,"stv_name":"Uncletopia | Chicago | 3 | All Maps | STV","players":null},{"server_id":403,"name":"Uncletopia | Chicago | 4 | All Maps","name_short":"chi-4","host":"chi-1.us.uncletopia.com","port":27045,"enabled":true,"region":"us-central","cc":"us","latitude":41.881832,"longitude":-87.62318,"reserved":0,"last_update":"0001-01-01T00:00:00Z","name_a2s":"Uncletopia | Chicago | 4 | All Maps","protocol":17,"map":"pl_badwater","folder":"tf","game":"Team Fortress","app_id":440,"player_count":24,"max_players":24,"Bots":0,"server_type":"Dedicated","server_os":"Linux","password":true,"vac":true,"version":"7757534","steam_id":85568392924515193,"keywords":["nocrits","nodmgspread","payload","uncletopia"],"game_id":440,"stv_port":27046,"stv_name":"Uncletopia | Chicago | 4 | All Maps | STV","players":[{"user_id":382,"name":"Kasane","steam_id":76561198209006780,"connected_time":1064000000000,"state":"active","ping":84},{"user_id":371,"name":"icm2008","steam_id":76561199277408836,"connected_time":1182000000000,"state":"active","ping":89},{"user_id":407,"name":"kallen","steam_id":76561198838043440,"connected_time":108000000000,"state":"active","ping":60},{"user_id":376,"name":"Cyanid3","steam_id":76561198259972621,"connected_time":1121000000000,"state":"active","ping":114},{"user_id":398,"name":"BigBubble42","steam_id":76561198136286123,"connected_time":584000000000,"state":"active","ping":57},{"user_id":387,"name":"Herr M√ºller","steam_id":76561198064876829,"connected_time":908000000000,"state":"active","ping":98},{"user_id":403,"name":"DeathHero61","steam_id":76561198168937896,"connected_time":317000000000,"state":"active","ping":102},{"user_id":399,"name":"R0","steam_id":76561198136861017,"connected_time":565000000000,"state":"active","ping":70},{"user_id":378,"name":"Lackie Lun","steam_id":76561198219035947,"connected_time":1114000000000,"state":"active","ping":57},{"user_id":385,"name":"{[F.H]} Hydroida","steam_id":76561197999797274,"connected_time":1013000000000,"state":"active","ping":60},{"user_id":267,"name":"Zen Skye","steam_id":76561198114452552,"connected_time":11128000000000,"state":"active","ping":68},{"user_id":379,"name":"Michaelpc1","steam_id":76561198088365519,"connected_time":1111000000000,"state":"active","ping":88},{"user_id":353,"name":"Kurt Biscuitmaker","steam_id":76561198331701823,"connected_time":4236000000000,"state":"active","ping":82},{"user_id":400,"name":"Andraw","steam_id":76561198057499385,"connected_time":549000000000,"state":"active","ping":61},{"user_id":396,"name":"Fr–∞nk","steam_id":76561198150754556,"connected_time":669000000000,"state":"active","ping":37},{"user_id":386,"name":"G6 1920","steam_id":76561198111669774,"connected_time":996000000000,"state":"active","ping":48},{"user_id":361,"name":"WhiteBladeZero","steam_id":76561198862514815,"connected_time":2987000000000,"state":"active","ping":72},{"user_id":404,"name":"John Dungus (the real one)","steam_id":76561198049191027,"connected_time":311000000000,"state":"active","ping":58},{"user_id":397,"name":"LalitoTV","steam_id":76561198334302951,"connected_time":660000000000,"state":"active","ping":120},{"user_id":394,"name":"Reverie","steam_id":76561198987005784,"connected_time":803000000000,"state":"active","ping":59},{"user_id":360,"name":"Nephs","steam_id":76561198136763403,"connected_time":3635000000000,"state":"active","ping":71},{"user_id":384,"name":"Lichy","steam_id":76561198310682841,"connected_time":1034000000000,"state":"active","ping":56},{"user_id":370,"name":"Quatts","steam_id":76561198051482153,"connected_time":1271000000000,"state":"active","ping":56},{"user_id":405,"name":"The Super Mario Bros. Movie","steam_id":76561198871692156,"connected_time":311000000000,"state":"active","ping":102}]},{"server_id":36,"name":"Uncletopia | Chicago | 5 | All Maps","name_short":"chi-5","host":"chi-2.us.uncletopia.com","port":27015,"enabled":true,"region":"us-central","cc":"us","latitude":41.881832,"longitude":-87.62318,"reserved":0,"last_update":"0001-01-01T00:00:00Z","name_a2s":"Uncletopia | Chicago | 5 | All Maps","protocol":17,"map":"koth_cascade","folder":"tf","game":"Team Fortress","app_id":440,"player_count":0,"max_players":24,"Bots":0,"server_type":"Dedicated","server_os":"Linux","password":true,"vac":true,"version":"7757534","steam_id":85568392924866362,"keywords":["cp","nocrits","nodmgspread","uncletopia"],"game_id":440,"stv_port":27016,"stv_name":"Uncletopia | Chicago | 5 | All Maps | STV","players":null},{"server_id":37,"name":"Uncletopia | Chicago | 6 | All Maps","name_short":"chi-6","host":"chi-2.us.uncletopia.com","port":27025,"enabled":true,"region":"us-central","cc":"us","latitude":41.881832,"longitude":-87.62318,"reserved":0,"last_update":"0001-01-01T00:00:00Z","name_a2s":"Uncletopia | Chicago | 6 | All Maps","protocol":17,"map":"cp_gullywash_final1","folder":"tf","game":"Team Fortress","app_id":440,"player_count":0,"max_players":24,"Bots":0,"server_type":"Dedicated","server_os":"Linux","password":true,"vac":true,"version":"7757534","steam_id":85568392924866363,"keywords":["cp","nocrits","nodmgspread","uncletopia"],"game_id":440,"stv_port":27026,"stv_name":"Uncletopia | Chicago | 6 | All Maps | STV","players":null},{"server_id":38,"name":"Uncletopia | Chicago | 7 | Stopwatch Beta","name_short":"chi-7","host":"chi-2.us.uncletopia.com","port":27035,"enabled":true,"region":"us-central","cc":"us","latitude":41.881832,"longitude":-87.62318,"reserved":0,"last_update":"0001-01-01T00:00:00Z","name_a2s":"Uncletopia | Chicago | 7 | Stopwatch Beta","protocol":17,"map":"pl_borneo","folder":"tf","game":"Team Fortress","app_id":440,"player_count":0,"max_players":24,"Bots":0,"server_type":"Dedicated","server_os":"Linux","password":true,"vac":true,"version":"7757534","steam_id":85568392924866364,"keywords":["nocrits","nodmgspread","payload","uncletopia"],"game_id":440,"stv_port":27036,"stv_name":"Uncletopia | Chicago | 7 | Stopwatch Beta | STV","players":null},{"server_id":39,"name":"Uncletopia | Chicago | 8 | Community","name_short":"chi-8","host":"chi-2.us.uncletopia.com","port":27045,"enabled":true,"region":"us-central","cc":"us","latitude":41.881832,"longitude":-87.62318,"reserved":0,"last_update":"0001-01-01T00:00:00Z","name_a2s":"Uncletopia | Chicago | 8 | Community","protocol":17,"map":"workshop/koth_synthetic_rc6a.ugc1549817316","folder":"tf","game":"Team Fortress","app_id":440,"player_count":0,"max_players":24,"Bots":0,"server_type":"Dedicated","server_os":"Linux","password":true,"vac":true,"version":"7757534","steam_id":85568392924866365,"keywords":["cp","nocrits","nodmgspread","uncletopia"],"game_id":440,"stv_port":27046,"stv_name":"Uncletopia | Chicago | 8 | Community | STV","players":null},{"server_id":8,"name":"Uncletopia | Dallas | 1 | All Maps","name_short":"dal-1","host":"dal-1.us.uncletopia.com","port":27015,"enabled":true,"region":"us-central","cc":"us","latitude":32.779167,"longitude":-96.80889,"reserved":0,"last_update":"0001-01-01T00:00:00Z","name_a2s":"Uncletopia | Dallas | 1 | All Maps","protocol":17,"map":"pl_snowycoast","folder":"tf","game":"Team Fortress","app_id":440,"player_count":24,"max_players":24,"Bots":0,"server_type":"Dedicated","server_os":"Linux","password":true,"vac":true,"version":"7757534","steam_id":85568392924469986,"keywords":["nocrits","nodmgspread","payload","uncletopia"],"game_id":440,"stv_port":27016,"stv_name":"Uncletopia | Dallas | 1 | All Maps | STV","players":[{"user_id":150,"name":"benson","steam_id":76561198105075752,"connected_time":2827000000000,"state":"active","ping":80},{"user_id":189,"name":"Faust main","steam_id":76561198971799149,"connected_time":1320000000000,"state":"active","ping":74},{"user_id":211,"name":"Walnut","steam_id":76561198320544849,"connected_time":289000000000,"state":"active","ping":91},{"user_id":190,"name":"nines","steam_id":76561198078992548,"connected_time":1292000000000,"state":"active","ping":75},{"user_id":179,"name":"bolainassr0","steam_id":76561199079078845,"connected_time":1731000000000,"state":"active","ping":111},{"user_id":206,"name":"bendera","steam_id":76561197965486503,"connected_time":880000000000,"state":"active","ping":87},{"user_id":203,"name":"muddy","steam_id":76561198035015260,"connected_time":927000000000,"state":"active","ping":73},{"user_id":212,"name":"Tyrone","steam_id":76561198189429665,"connected_time":175000000000,"state":"active","ping":68},{"user_id":196,"name":"sexo","steam_id":76561199088284199,"connected_time":1171000000000,"state":"active","ping":167},{"user_id":201,"name":"McFallenOne","steam_id":76561199178575029,"connected_time":1026000000000,"state":"active","ping":72},{"user_id":172,"name":"thunderous prophet","steam_id":76561198131166135,"connected_time":1830000000000,"state":"active","ping":90},{"user_id":193,"name":"–≥—Ä—É—Å—Ç–Ω—ã–π","steam_id":76561198274550638,"connected_time":1258000000000,"state":"active","ping":59},{"user_id":204,"name":"Oomitch","steam_id":76561198071702759,"connected_time":916000000000,"state":"active","ping":107},{"user_id":213,"name":"tum","steam_id":76561198084712019,"connected_time":91000000000,"state":"active","ping":80},{"user_id":74,"name":"Chad the Sex Haver","steam_id":76561198058236528,"connected_time":8026000000000,"state":"active","ping":65},{"user_id":173,"name":"TothBrush","steam_id":76561198028254471,"connected_time":1813000000000,"state":"active","ping":71},{"user_id":174,"name":"SweetLou","steam_id":76561198064569582,"connected_time":1813000000000,"state":"active","ping":76},{"user_id":175,"name":"NyanDragon","steam_id":76561198067854858,"connected_time":1805000000000,"state":"active","ping":90},{"user_id":208,"name":"Comic","steam_id":76561198268254154,"connected_time":371000000000,"state":"active","ping":94},{"user_id":162,"name":"Robomandude","steam_id":76561198043909566,"connected_time":2467000000000,"state":"active","ping":58},{"user_id":202,"name":"Sup m8","steam_id":76561198081659121,"connected_time":981000000000,"state":"active","ping":61},{"user_id":200,"name":"Pancetta's vore window","steam_id":76561198428086758,"connected_time":1112000000000,"state":"active","ping":97},{"user_id":167,"name":"Nani?","steam_id":76561198130982692,"connected_time":2208000000000,"state":"active","ping":73},{"user_id":168,"name":"Tim the Enchanter","steam_id":76561197970503120,"connected_time":2129000000000,"state":"active","ping":56}]},{"server_id":108,"name":"Uncletopia | Dallas | 2 | All Maps","name_short":"dal-2","host":"dal-1.us.uncletopia.com","port":27025,"enabled":true,"region":"us-central","cc":"us","latitude":32.779167,"longitude":-96.80889,"reserved":0,"last_update":"0001-01-01T00:00:00Z","name_a2s":"Uncletopia | Dallas | 2 | All Maps","protocol":17,"map":"cp_gorge","folder":"tf","game":"Team Fortress","app_id":440,"player_count":24,"max_players":24,"Bots":0,"server_type":"Dedicated","server_os":"Linux","password":true,"vac":true,"version":"7757534","steam_id":85568392924469988,"keywords":["cp","nocrits","nodmgspread","uncletopia"],"game_id":440,"stv_port":27026,"stv_name":"Uncletopia | Dallas | 2 | All Maps | STV","players":[{"user_id":198,"name":"AlaNo","steam_id":76561198133099582,"connected_time":4314000000000,"state":"active","ping":75},{"user_id":223,"name":"Kurobine","steam_id":76561198172101254,"connected_time":2656000000000,"state":"active","ping":181},{"user_id":246,"name":"Kervin","steam_id":76561198087832178,"connected_time":794000000000,"state":"active","ping":48},{"user_id":146,"name":"yitz","steam_id":76561198375575841,"connected_time":9175000000000,"state":"active","ping":75},{"user_id":248,"name":"CatFish Scott","steam_id":76561198066165331,"connected_time":682000000000,"state":"active","ping":55},{"user_id":224,"name":"Molly","steam_id":76561198327905969,"connected_time":2598000000000,"state":"active","ping":148},{"user_id":225,"name":"üíùMidnightüíù","steam_id":76561198112806540,"connected_time":2592000000000,"state":"active","ping":60},{"user_id":236,"name":"Vinny K","steam_id":76561199080135821,"connected_time":1900000000000,"state":"active","ping":81},{"user_id":244,"name":"HE‚ÄôS IN THE GODDAMN WALLS","steam_id":76561198363267009,"connected_time":814000000000,"state":"active","ping":45},{"user_id":241,"name":"Turtle","steam_id":76561198262110064,"connected_time":1250000000000,"state":"active","ping":70},{"user_id":193,"name":"How to kill bill a bitch","steam_id":76561198004882625,"connected_time":5026000000000,"state":"active","ping":75},{"user_id":219,"name":"Protoshake","steam_id":76561198840276176,"connected_time":3227000000000,"state":"active","ping":53},{"user_id":214,"name":"DOMO_MR_ROBOTO","steam_id":76561198077108345,"connected_time":3455000000000,"state":"active","ping":89},{"user_id":226,"name":"Soju","steam_id":76561198044130442,"connected_time":2578000000000,"state":"active","ping":47},{"user_id":252,"name":"Rat Smacker","steam_id":76561199090197628,"connected_time":393000000000,"state":"active","ping":65},{"user_id":249,"name":"clyde gaming","steam_id":76561198064407564,"connected_time":601000000000,"state":"active","ping":52},{"user_id":247,"name":"Demoman With One Joke","steam_id":76561197993467034,"connected_time":750000000000,"state":"active","ping":60},{"user_id":177,"name":"Muse","steam_id":76561198177715869,"connected_time":6592000000000,"state":"active","ping":69},{"user_id":239,"name":"Flaurosa | twitch.tv","steam_id":76561198193606823,"connected_time":1399000000000,"state":"active","ping":65},{"user_id":253,"name":"prodbyepic","steam_id":76561198853066534,"connected_time":371000000000,"state":"active","ping":84},{"user_id":250,"name":"yu","steam_id":76561198397848370,"connected_time":555000000000,"state":"active","ping":75},{"user_id":251,"name":"mikey | I'm Burning Bright!","steam_id":76561198985847893,"connected_time":507000000000,"state":"active","ping":45},{"user_id":210,"name":"crow","steam_id":76561198046802071,"connected_time":3776000000000,"state":"active","ping":55},{"user_id":147,"name":"PigeonGirlMera","steam_id":76561198080830664,"connected_time":9008000000000,"state":"active","ping":101}]},{"server_id":5,"name":"Uncletopia | Frankfurt | 1 | All Maps","name_short":"frk-1","host":"frk-1.de.uncletopia.com","port":27015,"enabled":true,"region":"eu","cc":"de","latitude":50.110924,"longitude":8.682127,"reserved":0,"last_update":"0001-01-01T00:00:00Z","name_a2s":"Uncletopia | Frankfurt | 1 | All Maps","protocol":17,"map":"pl_barnblitz","folder":"tf","game":"Team Fortress","app_id":440,"player_count":24,"max_players":24,"Bots":0,"server_type":"Dedicated","server_os":"Linux","password":true,"vac":true,"version":"7757534","steam_id":85568392924469989,"keywords":["nocrits","nodmgspread","payload","uncletopia"],"game_id":440,"stv_port":27016,"stv_name":"Uncletopia | Frankfurt | 1 | All Maps | STV","players":[{"user_id":415,"name":"Artemis","steam_id":76561198199091801,"connected_time":1536000000000,"state":"active","ping":51},{"user_id":365,"name":"Serton‚ôù","steam_id":76561198011061126,"connected_time":4902000000000,"state":"active","ping":89},{"user_id":424,"name":"Carrot","steam_id":76561198119340863,"connected_time":1202000000000,"state":"active","ping":51},{"user_id":447,"name":"RIFT","steam_id":76561198991622379,"connected_time":65000000000,"state":"active","ping":56},{"user_id":406,"name":"tallen","steam_id":76561198061708595,"connected_time":2436000000000,"state":"active","ping":78},{"user_id":375,"name":"It hurts when i pee (fake?)","steam_id":76561198139404261,"connected_time":4272000000000,"state":"active","ping":56},{"user_id":399,"name":"FaceMonster6995","steam_id":76561198371605521,"connected_time":2638000000000,"state":"active","ping":163},{"user_id":445,"name":"dddd","steam_id":76561198120894372,"connected_time":166000000000,"state":"active","ping":107},{"user_id":367,"name":"Sanctified","steam_id":76561198057092208,"connected_time":4869000000000,"state":"active","ping":60},{"user_id":422,"name":"Mr_Gamr211","steam_id":76561198960079818,"connected_time":1286000000000,"state":"active","ping":120},{"user_id":426,"name":"Û†Ä°Û†Ä°","steam_id":76561198015585266,"connected_time":1113000000000,"state":"active","ping":91},{"user_id":434,"name":"–¥–∂–µ–≥–µ–º–∏ —Ö—ç–ø–∫–∏–Ω–≥—Å","steam_id":76561198131531394,"connected_time":502000000000,"state":"active","ping":89},{"user_id":442,"name":"Carter","steam_id":76561198005243938,"connected_time":267000000000,"state":"active","ping":76},{"user_id":396,"name":"daphnit (she/they)","steam_id":76561198021596004,"connected_time":2694000000000,"state":"active","ping":58},{"user_id":435,"name":"Avoonix","steam_id":76561198186954897,"connected_time":492000000000,"state":"active","ping":66},{"user_id":398,"name":"Tolfo!","steam_id":76561198080052291,"connected_time":2689000000000,"state":"active","ping":56},{"user_id":440,"name":"marci","steam_id":76561198046777197,"connected_time":343000000000,"state":"active","ping":85},{"user_id":400,"name":"Palex","steam_id":76561198093219465,"connected_time":2627000000000,"state":"active","ping":61},{"user_id":425,"name":"moser23","steam_id":76561197960543171,"connected_time":1202000000000,"state":"active","ping":50},{"user_id":402,"name":"invis","steam_id":76561198120668070,"connected_time":2620000000000,"state":"active","ping":62},{"user_id":446,"name":"Rafalexis","steam_id":76561198055792457,"connected_time":152000000000,"state":"active","ping":73},{"user_id":431,"name":"DREADNAWGHT","steam_id":76561198000973506,"connected_time":900000000000,"state":"active","ping":70},{"user_id":437,"name":"Zezaid","steam_id":76561199031452227,"connected_time":445000000000,"state":"active","ping":62},{"user_id":438,"name":"angel","steam_id":76561198121408313,"connected_time":441000000000,"state":"active","ping":72}]},{"server_id":110,"name":"Uncletopia | Frankfurt | 2 | All Maps","name_short":"frk-2","host":"frk-1.de.uncletopia.com","port":27025,"enabled":true,"region":"eu","cc":"de","latitude":50.110924,"longitude":8.682127,"reserved":0,"last_update":"0001-01-01T00:00:00Z","name_a2s":"Uncletopia | Frankfurt | 2 | All Maps","protocol":17,"map":"pl_snowycoast","folder":"tf","game":"Team Fortress","app_id":440,"player_count":24,"max_players":24,"Bots":0,"server_type":"Dedicated","server_os":"Linux","password":true,"vac":true,"version":"7757534","steam_id":85568392924469990,"keywords":["nocrits","nodmgspread","payload","uncletopia"],"game_id":440,"stv_port":27026,"stv_name":"Uncletopia | Frankfurt | 2 | All Maps | STV","players":[{"user_id":193,"name":"full gays","steam_id":76561198111134021,"connected_time":4002000000000,"state":"active","ping":72},{"user_id":188,"name":"jebac disa","steam_id":76561197995572935,"connected_time":4480000000000,"state":"active","ping":81},{"user_id":231,"name":"Where Is My Mind","steam_id":76561199407781293,"connected_time":800000000000,"state":"active","ping":87},{"user_id":171,"name":"The Mask","steam_id":76561198040009439,"connected_time":5868000000000,"state":"active","ping":72},{"user_id":232,"name":"TJ1212","steam_id":76561199013575313,"connected_time":780000000000,"state":"active","ping":75},{"user_id":159,"name":"ketchup","steam_id":76561199106095521,"connected_time":6518000000000,"state":"active","ping":65},{"user_id":89,"name":"ransuS","steam_id":76561198352769801,"connected_time":10514000000000,"state":"active","ping":69},{"user_id":176,"name":"thefatcontroller","steam_id":76561199332965146,"connected_time":5556000000000,"state":"active","ping":103},{"user_id":241,"name":"j100j","steam_id":76561198338726444,"connected_time":528000000000,"state":"active","ping":101},{"user_id":208,"name":"Poor Fucking Infantry","steam_id":76561198055978522,"connected_time":2572000000000,"state":"active","ping":60},{"user_id":235,"name":"Jhin","steam_id":76561198070137469,"connected_time":755000000000,"state":"active","ping":91},{"user_id":221,"name":"Despair","steam_id":76561198259487481,"connected_time":1422000000000,"state":"active","ping":74},{"user_id":242,"name":"GEP Gun","steam_id":76561197981821003,"connected_time":422000000000,"state":"active","ping":68},{"user_id":233,"name":"Vitun Jonne","steam_id":76561198401737380,"connected_time":779000000000,"state":"active","ping":59},{"user_id":236,"name":"Hydnhof","steam_id":76561198120989805,"connected_time":749000000000,"state":"active","ping":66},{"user_id":228,"name":"„Äå‚óÜRaku‚Ä¢ „Äç","steam_id":76561198059283183,"connected_time":812000000000,"state":"active","ping":82},{"user_id":234,"name":"spesmarine42","steam_id":76561199404806029,"connected_time":774000000000,"state":"active","ping":92},{"user_id":215,"name":"lobzade","steam_id":76561198195685370,"connected_time":2087000000000,"state":"active","ping":56},{"user_id":220,"name":"ÍßÅ‡ºíXenon‡ºíÍßÇ","steam_id":76561198120502313,"connected_time":1690000000000,"state":"active","ping":66},{"user_id":240,"name":"lore","steam_id":76561198120984188,"connected_time":566000000000,"state":"active","ping":67},{"user_id":237,"name":"DuckGod","steam_id":76561198333027986,"connected_time":713000000000,"state":"active","ping":68},{"user_id":222,"name":"foo","steam_id":76561198042000263,"connected_time":1397000000000,"state":"active","ping":77},{"user_id":238,"name":"willo","steam_id":76561198034442999,"connected_time":701000000000,"state":"active","ping":73},{"user_id":239,"name":"‚òÖpoyo‚òÖ","steam_id":76561198150078959,"connected_time":700000000000,"state":"active","ping":64}]},{"server_id":308,"name":"Uncletopia | Frankfurt | 3 | All Maps","name_short":"frk-3","host":"frk-1.de.uncletopia.com","port":27035,"enabled":true,"region":"eu","cc":"de","latitude":50.110924,"longitude":8.682127,"reserved":0,"last_update":"0001-01-01T00:00:00Z","name_a2s":"Uncletopia | Frankfurt | 3 | All Maps","protocol":17,"map":"pl_frontier_final","folder":"tf","game":"Team Fortress","app_id":440,"player_count":24,"max_players":24,"Bots":0,"server_type":"Dedicated","server_os":"Linux","password":true,"vac":true,"version":"7757534","steam_id":85568392924504274,"keywords":["nocrits","nodmgspread","payload","uncletopia"],"game_id":440,"stv_port":27036,"stv_name":"Uncletopia | Frankfurt | 3 | All Maps | STV","players":[{"user_id":417,"name":"Sweat Plantation","steam_id":76561198025086883,"connected_time":10779000000000,"state":"active","ping":82},{"user_id":514,"name":"Seargant Snagge","steam_id":76561198055227276,"connected_time":1611000000000,"state":"active","ping":86},{"user_id":493,"name":"emko√ß","steam_id":76561198846782346,"connected_time":3628000000000,"state":"active","ping":106},{"user_id":505,"name":"The Wolf Leader","steam_id":76561198038007462,"connected_time":2833000000000,"state":"active","ping":67},{"user_id":518,"name":"Wasyl","steam_id":76561198097427305,"connected_time":1145000000000,"state":"active","ping":90},{"user_id":507,"name":"nynon","steam_id":76561197998432126,"connected_time":2726000000000,"state":"active","ping":88},{"user_id":519,"name":"‡∂ûbominasus 2137  #SaveTF2","steam_id":76561198030062981,"connected_time":981000000000,"state":"active","ping":65},{"user_id":511,"name":"tf2 snake","steam_id":76561198193971167,"connected_time":2586000000000,"state":"active","ping":58},{"user_id":471,"name":"Megasecret","steam_id":76561198055378025,"connected_time":4719000000000,"state":"active","ping":88},{"user_id":496,"name":"Tlad2","steam_id":76561198854897667,"connected_time":3593000000000,"state":"active","ping":77},{"user_id":525,"name":"wickEd_","steam_id":76561198048068999,"connected_time":886000000000,"state":"active","ping":164},{"user_id":527,"name":"Ben Doverr","steam_id":76561198034264020,"connected_time":633000000000,"state":"active","ping":117},{"user_id":513,"name":"mishka.*","steam_id":76561198040003628,"connected_time":1639000000000,"state":"active","ping":68},{"user_id":521,"name":"FlameTheGame","steam_id":76561198841108519,"connected_time":951000000000,"state":"active","ping":88},{"user_id":522,"name":"Raatel","steam_id":76561198370703651,"connected_time":936000000000,"state":"active","ping":78},{"user_id":510,"name":"Kaj0605","steam_id":76561198399198869,"connected_time":2639000000000,"state":"active","ping":76},{"user_id":491,"name":"Octoblue64","steam_id":76561198388997283,"connected_time":3701000000000,"state":"active","ping":72},{"user_id":516,"name":"Goblin (level-5)","steam_id":76561198058211873,"connected_time":1397000000000,"state":"active","ping":47},{"user_id":523,"name":"Skeletros","steam_id":76561198130969152,"connected_time":928000000000,"state":"active","ping":131},{"user_id":524,"name":"ChesseKnight","steam_id":76561198102476339,"connected_time":917000000000,"state":"active","ping":85},{"user_id":517,"name":"SIR MEPHEDRONE","steam_id":76561198302623594,"connected_time":1148000000000,"state":"active","ping":95},{"user_id":526,"name":"Leah","steam_id":76561198064681443,"connected_time":886000000000,"state":"active","ping":76},{"user_id":509,"name":"The Captain","steam_id":76561198136877350,"connected_time":2681000000000,"state":"active","ping":80},{"user_id":473,"name":"SgtRookie","steam_id":76561198030230427,"connected_time":4719000000000,"state":"active","ping":92}]},{"server_id":309,"name":"Uncletopia | Frankfurt | 4 | All Maps","name_short":"frk-4","host":"frk-1.de.uncletopia.com","port":27045,"enabled":true,"region":"eu","cc":"de","latitude":50.110924,"longitude":8.682127,"reserved":0,"last_update":"0001-01-01T00:00:00Z","name_a2s":"Uncletopia | Frankfurt | 4 | All Maps","protocol":17,"map":"pl_badwater","folder":"tf","game":"Team Fortress","app_id":440,"player_count":24,"max_players":24,"Bots":0,"server_type":"Dedicated","server_os":"Linux","password":true,"vac":true,"version":"7757534","steam_id":85568392924504275,"keywords":["nocrits","nodmgspread","payload","uncletopia"],"game_id":440,"stv_port":27046,"stv_name":"Uncletopia | Frankfurt | 4 | All Maps | STV","players":[{"user_id":87,"name":"Explosive_kink","steam_id":76561198998702838,"connected_time":502000000000,"state":"active","ping":71},{"user_id":60,"name":"prot√´in","steam_id":76561197998423616,"connected_time":2637000000000,"state":"active","ping":75},{"user_id":61,"name":"fregaropa","steam_id":76561198150806166,"connected_time":2623000000000,"state":"active","ping":85},{"user_id":67,"name":"–•–æ—á—É –≤ –°—Ö–µ–º–µ–º—ã","steam_id":76561198102091599,"connected_time":2255000000000,"state":"active","ping":110},{"user_id":76,"name":"Michael","steam_id":76561198003146906,"connected_time":1307000000000,"state":"active","ping":57},{"user_id":37,"name":"Ged","steam_id":76561198079288943,"connected_time":3231000000000,"state":"active","ping":117},{"user_id":80,"name":"BeepBoop","steam_id":76561198159099436,"connected_time":1136000000000,"state":"active","ping":64},{"user_id":82,"name":"Pingutaro","steam_id":76561198112803718,"connected_time":973000000000,"state":"active","ping":75},{"user_id":93,"name":"Yoio","steam_id":76561198326661498,"connected_time":181000000000,"state":"active","ping":81},{"user_id":92,"name":"PuttePossu","steam_id":76561198350078793,"connected_time":188000000000,"state":"active","ping":95},{"user_id":89,"name":"kag","steam_id":76561198059813166,"connected_time":458000000000,"state":"active","ping":61},{"user_id":91,"name":"Udinese Dion","steam_id":76561198067931573,"connected_time":234000000000,"state":"active","ping":45},{"user_id":77,"name":"SupMatey","steam_id":76561198184641117,"connected_time":1281000000000,"state":"active","ping":145},{"user_id":84,"name":"twoo","steam_id":76561198206810997,"connected_time":621000000000,"state":"active","ping":79},{"user_id":46,"name":"Paddyhammer","steam_id":76561198073195747,"connected_time":2966000000000,"state":"active","ping":69},{"user_id":47,"name":"Hexagon","steam_id":76561198151205758,"connected_time":2964000000000,"state":"active","ping":48},{"user_id":85,"name":"SpeddyMeddy","steam_id":76561197999693825,"connected_time":619000000000,"state":"active","ping":69},{"user_id":78,"name":".Ô±ûÔ±ûÔ±ûÔ±ûÔ±ûÔ±ûÔ±ûÔ±ûÔ±ûÔ±û","steam_id":76561198256821358,"connected_time":1276000000000,"state":"active","ping":60},{"user_id":73,"name":"Sniffz_2","steam_id":76561199433459491,"connected_time":1639000000000,"state":"active","ping":68},{"user_id":94,"name":"Egtu","steam_id":76561198013757235,"connected_time":91000000000,"state":"active","ping":61},{"user_id":69,"name":"Mr. Mundy","steam_id":76561198132008918,"connected_time":2182000000000,"state":"active","ping":73},{"user_id":54,"name":"Duke Fishlord","steam_id":76561198079928327,"connected_time":2893000000000,"state":"active","ping":60},{"user_id":75,"name":"risetime","steam_id":76561199232442508,"connected_time":1344000000000,"state":"active","ping":75},{"user_id":79,"name":"KyraMelody","steam_id":76561198030308767,"connected_time":1270000000000,"state":"active","ping":56}]},{"server_id":310,"name":"Uncletopia | Frankfurt | 5 | All Maps","name_short":"frk-5","host":"frk-1.de.uncletopia.com","port":27055,"enabled":true,"region":"eu","cc":"de","latitude":50.110924,"longitude":8.682127,"reserved":0,"last_update":"0001-01-01T00:00:00Z","name_a2s":"Uncletopia | Frankfurt | 5 | All Maps","protocol":17,"map":"cp_sunshine","folder":"tf","game":"Team Fortress","app_id":440,"player_count":0,"max_players":24,"Bots":0,"server_type":"Dedicated","server_os":"Linux","password":true,"vac":true,"version":"7757534","steam_id":85568392924504277,"keywords":["cp","nocrits","nodmgspread","uncletopia"],"game_id":440,"stv_port":27056,"stv_name":"Uncletopia | Frankfurt | 5 | All Maps | STV","players":null},{"server_id":311,"name":"Uncletopia | Frankfurt | 6 | All Maps","name_short":"frk-6","host":"frk-1.de.uncletopia.com","port":27065,"enabled":true,"region":"eu","cc":"de","latitude":50.110924,"longitude":8.682127,"reserved":0,"last_update":"0001-01-01T00:00:00Z","name_a2s":"Uncletopia | Frankfurt | 6 | All Maps","protocol":17,"map":"pl_pier","folder":"tf","game":"Team Fortress","app_id":440,"player_count":24,"max_players":24,"Bots":0,"server_type":"Dedicated","server_os":"Linux","password":true,"vac":true,"version":"7757534","steam_id":85568392924504278,"keywords":["nocrits","nodmgspread","payload","uncletopia"],"game_id":440,"stv_port":27066,"stv_name":"Uncletopia | Frankfurt | 6 | All Maps | STV","players":[{"user_id":407,"name":"Menty","steam_id":76561198036748212,"connected_time":3506000000000,"state":"active","ping":47},{"user_id":434,"name":"vadim_kotler","steam_id":76561199016634369,"connected_time":1101000000000,"state":"active","ping":110},{"user_id":435,"name":"Uwannahaveago","steam_id":76561198294686298,"connected_time":1071000000000,"state":"active","ping":62},{"user_id":418,"name":"toust","steam_id":76561199103417422,"connected_time":2570000000000,"state":"active","ping":58},{"user_id":425,"name":"addicted to many drugs","steam_id":76561199042470246,"connected_time":2233000000000,"state":"active","ping":58},{"user_id":430,"name":"Penis Contortionist","steam_id":76561198073663784,"connected_time":1831000000000,"state":"active","ping":53},{"user_id":441,"name":"static","steam_id":76561198836825741,"connected_time":952000000000,"state":"active","ping":60},{"user_id":446,"name":"Mars","steam_id":76561198156073462,"connected_time":854000000000,"state":"active","ping":78},{"user_id":447,"name":"Swedish Vegan","steam_id":76561198042775020,"connected_time":823000000000,"state":"active","ping":80},{"user_id":433,"name":"kotamine","steam_id":76561198068907991,"connected_time":1106000000000,"state":"active","ping":71},{"user_id":451,"name":"miev","steam_id":76561198078278737,"connected_time":179000000000,"state":"active","ping":64},{"user_id":428,"name":"lupe","steam_id":76561198079813788,"connected_time":1971000000000,"state":"active","ping":60},{"user_id":422,"name":"reik","steam_id":76561198075239099,"connected_time":2526000000000,"state":"active","ping":61},{"user_id":437,"name":"Na'vi Misato (by popular demand","steam_id":76561198130860698,"connected_time":1058000000000,"state":"active","ping":64},{"user_id":429,"name":"UnknownHero","steam_id":76561198864766392,"connected_time":1907000000000,"state":"active","ping":102},{"user_id":438,"name":"Goodb ye","steam_id":76561198862683773,"connected_time":1049000000000,"state":"active","ping":82},{"user_id":442,"name":"L.M.","steam_id":76561198836754631,"connected_time":940000000000,"state":"active","ping":56},{"user_id":268,"name":"john fortress","steam_id":76561198013237629,"connected_time":13662000000000,"state":"active","ping":110},{"user_id":444,"name":"Cosmic Gamer","steam_id":76561198027357981,"connected_time":887000000000,"state":"active","ping":96},{"user_id":412,"name":"whathefox","steam_id":76561197983055690,"connected_time":2864000000000,"state":"active","ping":93},{"user_id":445,"name":"Accident","steam_id":76561198115160396,"connected_time":887000000000,"state":"active","ping":66},{"user_id":373,"name":"Brass beast heavy","steam_id":76561198274197623,"connected_time":6092000000000,"state":"active","ping":72},{"user_id":432,"name":"Senator Armstrong","steam_id":76561198984346408,"connected_time":1773000000000,"state":"active","ping":74},{"user_id":449,"name":"Torttu","steam_id":76561198013980029,"connected_time":412000000000,"state":"active","ping":63}]},{"server_id":23,"name":"Uncletopia | Frankfurt | 7 | Stopwatch Beta","name_short":"frk-7","host":"frk-1.de.uncletopia.com","port":27075,"enabled":true,"region":"eu","cc":"de","latitude":50.110924,"longitude":8.682127,"reserved":0,"last_update":"0001-01-01T00:00:00Z","name_a2s":"Uncletopia | Frankfurt | 7 | Stopwatch Beta","protocol":17,"map":"cp_snakewater_final1","folder":"tf","game":"Team Fortress","app_id":440,"player_count":24,"max_players":24,"Bots":0,"server_type":"Dedicated","server_os":"Linux","password":true,"vac":true,"version":"7757534","steam_id":85568392924742827,"keywords":["cp","nocrits","nodmgspread","uncletopia"],"game_id":440,"stv_port":27076,"stv_name":"Uncletopia | Frankfurt | 7 | Stopwatch Beta | STV","players":[{"user_id":158,"name":"JC","steam_id":76561198029213352,"connected_time":1778000000000,"state":"active","ping":49},{"user_id":65,"name":"banaani","steam_id":76561198322322739,"connected_time":5393000000000,"state":"active","ping":90},{"user_id":179,"name":"DeleteTrickster","steam_id":76561198397120242,"connected_time":815000000000,"state":"active","ping":86},{"user_id":176,"name":"Medic #savetf2","steam_id":76561198400657925,"connected_time":1160000000000,"state":"active","ping":103},{"user_id":186,"name":"NotBadli","steam_id":76561199012880172,"connected_time":262000000000,"state":"active","ping":69},{"user_id":181,"name":"Minority Gaming","steam_id":76561198307551499,"connected_time":390000000000,"state":"active","ping":61},{"user_id":78,"name":"·óúÀ∞·óú","steam_id":76561198148074472,"connected_time":4709000000000,"state":"active","ping":45},{"user_id":79,"name":"silly silicone eater","steam_id":76561198147277460,"connected_time":4703000000000,"state":"active","ping":60},{"user_id":118,"name":"tm","steam_id":76561198256619964,"connected_time":3609000000000,"state":"active","ping":80},{"user_id":170,"name":"bAdmon","steam_id":76561197961785793,"connected_time":1507000000000,"state":"active","ping":56},{"user_id":66,"name":"Yoda","steam_id":76561198802789400,"connected_time":5342000000000,"state":"active","ping":76},{"user_id":182,"name":"Samlikekristaps","steam_id":76561198888033938,"connected_time":369000000000,"state":"active","ping":71},{"user_id":162,"name":"Catboy 9S gaming","steam_id":76561197999024118,"connected_time":1617000000000,"state":"active","ping":75},{"user_id":178,"name":"Deva Path","steam_id":76561198085763542,"connected_time":859000000000,"state":"active","ping":72},{"user_id":187,"name":"Lag","steam_id":76561198159360376,"connected_time":230000000000,"state":"active","ping":61},{"user_id":129,"name":"Topme","steam_id":76561198091734693,"connected_time":3317000000000,"state":"active","ping":90},{"user_id":169,"name":"salatkas","steam_id":76561198033237090,"connected_time":1510000000000,"state":"active","ping":45},{"user_id":177,"name":"1couver","steam_id":76561198168553215,"connected_time":1039000000000,"state":"active","ping":97},{"user_id":188,"name":"Majami","steam_id":76561198054365738,"connected_time":150000000000,"state":"active","ping":80},{"user_id":166,"name":"roblan11","steam_id":76561198066839258,"connected_time":1530000000000,"state":"active","ping":59},{"user_id":183,"name":"NikaRand","steam_id":76561199023979662,"connected_time":328000000000,"state":"active","ping":117},{"user_id":171,"name":"Dispenser (Lopata)","steam_id":76561198820264239,"connected_time":1492000000000,"state":"active","ping":89},{"user_id":173,"name":"ducks","steam_id":76561198148378654,"connected_time":1470000000000,"state":"active","ping":104},{"user_id":185,"name":"thisisthewhat","steam_id":76561199407448443,"connected_time":311000000000,"state":"active","ping":73}]},{"server_id":24,"name":"Uncletopia | Frankfurt | 8 | Community","name_short":"frk-8","host":"frk-1.de.uncletopia.com","port":27085,"enabled":true,"region":"eu","cc":"de","latitude":50.110924,"longitude":8.682127,"reserved":0,"last_update":"0001-01-01T00:00:00Z","name_a2s":"Uncletopia | Frankfurt | 8 | Community","protocol":17,"map":"workshop/cp_overgrown_rc7b.ugc503939302","folder":"tf","game":"Team Fortress","app_id":440,"player_count":24,"max_players":24,"Bots":0,"server_type":"Dedicated","server_os":"Linux","password":true,"vac":true,"version":"7757534","steam_id":85568392924742828,"keywords":["cp","nocrits","nodmgspread","uncletopia"],"game_id":440,"stv_port":27086,"stv_name":"Uncletopia | Frankfurt | 8 | Community | STV","players":[{"user_id":323,"name":"washed up","steam_id":76561198275742101,"connected_time":1411000000000,"state":"active","ping":50},{"user_id":277,"name":"fungi","steam_id":76561198131497451,"connected_time":4416000000000,"state":"active","ping":102},{"user_id":274,"name":"LionKing","steam_id":76561198023399545,"connected_time":4614000000000,"state":"active","ping":50},{"user_id":245,"name":"Welder","steam_id":76561198355300561,"connected_time":6157000000000,"state":"active","ping":67},{"user_id":291,"name":"UFeindschiff[CW]","steam_id":76561198026514712,"connected_time":3093000000000,"state":"active","ping":67},{"user_id":273,"name":"Dizzy","steam_id":76561198010192462,"connected_time":4640000000000,"state":"active","ping":57},{"user_id":333,"name":"Gamer","steam_id":76561198032359132,"connected_time":154000000000,"state":"active","ping":60},{"user_id":281,"name":"Obsidian","steam_id":76561198173359229,"connected_time":3908000000000,"state":"active","ping":86},{"user_id":332,"name":"gojoel","steam_id":76561198251181946,"connected_time":240000000000,"state":"active","ping":49},{"user_id":288,"name":"tekt","steam_id":76561198044554387,"connected_time":3172000000000,"state":"active","ping":105},{"user_id":324,"name":"beckler","steam_id":76561198029266963,"connected_time":1240000000000,"state":"active","ping":47},{"user_id":309,"name":"kase1OOO","steam_id":76561199230550975,"connected_time":2284000000000,"state":"active","ping":72},{"user_id":313,"name":"Wire  Bash","steam_id":76561198033268371,"connected_time":1991000000000,"state":"active","ping":60},{"user_id":286,"name":"Acucutl","steam_id":76561198133867096,"connected_time":3461000000000,"state":"active","ping":82},{"user_id":321,"name":"Pain","steam_id":76561198106997949,"connected_time":1488000000000,"state":"active","ping":75},{"user_id":246,"name":"twitch.tv/red_naxela","steam_id":76561197998803950,"connected_time":6122000000000,"state":"active","ping":55},{"user_id":227,"name":"√°rv√≠zt≈±r≈ë t√ºk√∂rf√∫r√≥g√©p","steam_id":76561198296643061,"connected_time":6937000000000,"state":"active","ping":66},{"user_id":315,"name":"heatburn","steam_id":76561198019001992,"connected_time":1805000000000,"state":"active","ping":72},{"user_id":305,"name":"upisfree","steam_id":76561198064037857,"connected_time":2496000000000,"state":"active","ping":138},{"user_id":322,"name":"Eing","steam_id":76561198253125820,"connected_time":1479000000000,"state":"active","ping":65},{"user_id":329,"name":"saalvberg","steam_id":76561199409062000,"connected_time":318000000000,"state":"active","ping":72},{"user_id":334,"name":"benifis163","steam_id":76561198420973492,"connected_time":131000000000,"state":"active","ping":106},{"user_id":318,"name":"Gjs√∂ekakeurhdkfisgjchjateyvxsr","steam_id":76561198220571256,"connected_time":1731000000000,"state":"active","ping":57},{"user_id":270,"name":"sup3rfr3ddy.","steam_id":76561198119371683,"connected_time":4978000000000,"state":"active","ping":47}]},{"server_id":202,"name":"Uncletopia | Hong Kong | 1 | All Maps","name_short":"hgk-1","host":"hgk-1.hk.uncletopia.com","port":27015,"enabled":true,"region":"asia","cc":"hk","latitude":22.302711,"longitude":114.177216,"reserved":0,"last_update":"0001-01-01T00:00:00Z","name_a2s":"Uncletopia | Hong Kong | 1 | All Maps","protocol":17,"map":"cp_altitude","folder":"tf","game":"Team Fortress","app_id":440,"player_count":0,"max_players":24,"Bots":0,"server_type":"Dedicated","server_os":"Linux","password":true,"vac":true,"version":"7757534","steam_id":85568392924494504,"keywords":["cp","nocrits","nodmgspread","uncletopia"],"game_id":440,"stv_port":27016,"stv_name":"Uncletopia | Hong Kong | 1 | All Maps | STV","players":null},{"server_id":1,"name":"Uncletopia | Los Angeles | 1 | All Maps","name_short":"lax-1","host":"lax-1.us.uncletopia.com","port":27015,"enabled":true,"region":"us-west","cc":"us","latitude":33.94279,"longitude":-118.41004,"reserved":0,"last_update":"0001-01-01T00:00:00Z","name_a2s":"Uncletopia | Los Angeles | 1 | All Maps","protocol":17,"map":"pl_pier","folder":"tf","game":"Team Fortress","app_id":440,"player_count":0,"max_players":24,"Bots":0,"server_type":"Dedicated","server_os":"Linux","password":true,"vac":true,"version":"7757534","steam_id":85568392924469991,"keywords":["nocrits","nodmgspread","payload","uncletopia"],"game_id":440,"stv_port":27016,"stv_name":"Uncletopia | Los Angeles | 1 | All Maps | STV","players":null},{"server_id":112,"name":"Uncletopia | Los Angeles | 2 | All Maps","name_short":"lax-2","host":"lax-1.us.uncletopia.com","port":27025,"enabled":true,"region":"us-west","cc":"us","latitude":33.94279,"longitude":-118.41004,"reserved":0,"last_update":"0001-01-01T00:00:00Z","name_a2s":"Uncletopia | Los Angeles | 2 | All Maps","protocol":17,"map":"cp_mountainlab","folder":"tf","game":"Team Fortress","app_id":440,"player_count":0,"max_players":24,"Bots":0,"server_type":"Dedicated","server_os":"Linux","password":true,"vac":true,"version":"7757534","steam_id":85568392924469992,"keywords":["cp","nocrits","nodmgspread","uncletopia"],"game_id":440,"stv_port":27026,"stv_name":"Uncletopia | Los Angeles | 2 | All Maps | STV","players":null},{"server_id":324,"name":"Uncletopia | Los Angeles | 3 | All Maps","name_short":"lax-3","host":"lax-1.us.uncletopia.com","port":27035,"enabled":true,"region":"us-west","cc":"us","latitude":33.94279,"longitude":-118.41004,"reserved":0,"last_update":"0001-01-01T00:00:00Z","name_a2s":"Uncletopia | Los Angeles | 3 | All Maps","protocol":17,"map":"koth_cascade","folder":"tf","game":"Team Fortress","app_id":440,"player_count":0,"max_players":24,"Bots":0,"server_type":"Dedicated","server_os":"Linux","password":true,"vac":true,"version":"7757534","steam_id":85568392924510198,"keywords":["cp","nocrits","nodmgspread","uncletopia"],"game_id":440,"stv_port":27036,"stv_name":"Uncletopia | Los Angeles | 3 | All Maps | STV","players":null},{"server_id":25,"name":"Uncletopia | Los Angeles | 4 | Stopwatch Beta","name_short":"lax-4","host":"lax-1.us.uncletopia.com","port":27045,"enabled":true,"region":"us-west","cc":"us","latitude":33.94279,"longitude":-118.41004,"reserved":0,"last_update":"0001-01-01T00:00:00Z","name_a2s":"Uncletopia | Los Angeles | 4 | Stopwatch Beta","protocol":17,"map":"koth_viaduct","folder":"tf","game":"Team Fortress","app_id":440,"player_count":0,"max_players":24,"Bots":0,"server_type":"Dedicated","server_os":"Linux","password":true,"vac":true,"version":"7757534","steam_id":85568392924510199,"keywords":["cp","nocrits","nodmgspread","uncletopia"],"game_id":440,"stv_port":27046,"stv_name":"Uncletopia | Los Angeles | 4 | Stopwatch Beta | STV","players":null},{"server_id":11,"name":"Uncletopia | London | 1 | All Maps","name_short":"lon-1","host":"lon-1.uk.uncletopia.com","port":27015,"enabled":true,"region":"eu","cc":"gb","latitude":51.509865,"longitude":-0.118092,"reserved":0,"last_update":"0001-01-01T00:00:00Z","name_a2s":"Uncletopia | London | 1 | All Maps","protocol":17,"map":"koth_viaduct","folder":"tf","game":"Team Fortress","app_id":440,"player_count":24,"max_players":24,"Bots":0,"server_type":"Dedicated","server_os":"Linux","password":true,"vac":true,"version":"7757534","steam_id":85568392924367362,"keywords":["cp","nocrits","nodmgspread","uncletopia"],"game_id":440,"stv_port":27016,"stv_name":"Uncletopia | London | 1 | All Maps | STV","players":[{"user_id":264,"name":"Spanish Shy Cat","steam_id":76561198808819694,"connected_time":2402000000000,"state":"active","ping":55},{"user_id":266,"name":"zigg","steam_id":76561198149501776,"connected_time":2173000000000,"state":"active","ping":57},{"user_id":257,"name":"epic gamer moment","steam_id":76561198299515070,"connected_time":3080000000000,"state":"active","ping":90},{"user_id":292,"name":"weaselmeister","steam_id":76561199059841173,"connected_time":15000000000,"state":"active","ping":50},{"user_id":288,"name":"NOne","steam_id":76561198002359947,"connected_time":205000000000,"state":"active","ping":88},{"user_id":279,"name":"Vitamin Weee","steam_id":76561199183937747,"connected_time":796000000000,"state":"active","ping":97},{"user_id":281,"name":"kbbq","steam_id":76561198346638308,"connected_time":695000000000,"state":"active","ping":49},{"user_id":277,"name":"Live Rodent","steam_id":76561198170027465,"connected_time":1178000000000,"state":"active","ping":148},{"user_id":230,"name":"‚ú™ J","steam_id":76561198094911581,"connected_time":5312000000000,"state":"active","ping":54},{"user_id":260,"name":"MarioThePlumber","steam_id":76561198314229530,"connected_time":2886000000000,"state":"active","ping":81},{"user_id":274,"name":"the_fume","steam_id":76561198236015392,"connected_time":1187000000000,"state":"active","ping":120},{"user_id":267,"name":"Aurora","steam_id":76561199385280253,"connected_time":2167000000000,"state":"active","ping":123},{"user_id":245,"name":"Dom.","steam_id":76561199065917088,"connected_time":4497000000000,"state":"active","ping":60},{"user_id":287,"name":"Dirty Joe","steam_id":76561198142418870,"connected_time":429000000000,"state":"active","ping":47},{"user_id":283,"name":"Apox","steam_id":76561198008005377,"connected_time":672000000000,"state":"active","ping":63},{"user_id":284,"name":"Mac","steam_id":76561198799155931,"connected_time":640000000000,"state":"active","ping":61},{"user_id":291,"name":"Durham.","steam_id":76561199013125141,"connected_time":60000000000,"state":"active","ping":64},{"user_id":278,"name":"Cobb Salads","steam_id":76561197971140507,"connected_time":1094000000000,"state":"active","ping":86},{"user_id":177,"name":"nudjura","steam_id":76561198281986139,"connected_time":9595000000000,"state":"active","ping":47},{"user_id":286,"name":"Cave","steam_id":76561198423147900,"connected_time":550000000000,"state":"active","ping":47},{"user_id":280,"name":"Aaron","steam_id":76561197990046953,"connected_time":749000000000,"state":"active","ping":69},{"user_id":272,"name":"Frazzle","steam_id":76561198262577951,"connected_time":1193000000000,"state":"active","ping":67},{"user_id":271,"name":"Jofiah/TTV","steam_id":76561197977233962,"connected_time":1195000000000,"state":"active","ping":49},{"user_id":285,"name":"dubysa","steam_id":76561198079774530,"connected_time":633000000000,"state":"active","ping":80}]},{"server_id":114,"name":"Uncletopia | London | 2 | All Maps","name_short":"lon-2","host":"lon-1.uk.uncletopia.com","port":27025,"enabled":true,"region":"eu","cc":"gb","latitude":51.509865,"longitude":-0.118092,"reserved":0,"last_update":"0001-01-01T00:00:00Z","name_a2s":"Uncletopia | London | 2 | All Maps","protocol":17,"map":"pl_badwater","folder":"tf","game":"Team Fortress","app_id":440,"player_count":24,"max_players":24,"Bots":0,"server_type":"Dedicated","server_os":"Linux","password":true,"vac":true,"version":"7757534","steam_id":85568392924470941,"keywords":["nocrits","nodmgspread","payload","uncletopia"],"game_id":440,"stv_port":27026,"stv_name":"Uncletopia | London | 2 | All Maps | STV","players":[{"user_id":481,"name":"Uncle Owen","steam_id":76561198157999291,"connected_time":4617000000000,"state":"active","ping":87},{"user_id":541,"name":"Oak","steam_id":76561198067315672,"connected_time":1613000000000,"state":"active","ping":46},{"user_id":527,"name":"Owlet","steam_id":76561198065613974,"connected_time":2373000000000,"state":"active","ping":71},{"user_id":547,"name":"BladedBloom4611","steam_id":76561198416655215,"connected_time":559000000000,"state":"active","ping":56},{"user_id":442,"name":"big retard player","steam_id":76561198342570528,"connected_time":6506000000000,"state":"active","ping":71},{"user_id":550,"name":"Amon Gus","steam_id":76561199094540960,"connected_time":353000000000,"state":"active","ping":71},{"user_id":539,"name":"Noob_with_source","steam_id":76561198870362103,"connected_time":1859000000000,"state":"active","ping":58},{"user_id":499,"name":"joecalmatt","steam_id":76561198172552015,"connected_time":3399000000000,"state":"active","ping":45},{"user_id":530,"name":"skilltissues","steam_id":76561198025828664,"connected_time":2339000000000,"state":"active","ping":60},{"user_id":555,"name":":S","steam_id":76561198804511716,"connected_time":1000000000,"state":"spawning","ping":85},{"user_id":546,"name":"lawrencefishdom","steam_id":76561199190918059,"connected_time":706000000000,"state":"active","ping":58},{"user_id":531,"name":"76561199261365750","steam_id":76561199261365750,"connected_time":2335000000000,"state":"active","ping":119},{"user_id":505,"name":"Estrogen Overdoser","steam_id":76561198288776967,"connected_time":3173000000000,"state":"active","ping":75},{"user_id":542,"name":"DocTwoEight","steam_id":76561198153488940,"connected_time":1473000000000,"state":"active","ping":75},{"user_id":518,"name":"Flyingmeadow","steam_id":76561198144687723,"connected_time":2704000000000,"state":"active","ping":132},{"user_id":553,"name":"read me bedtime story","steam_id":76561198196853610,"connected_time":223000000000,"state":"active","ping":57},{"user_id":538,"name":"degu","steam_id":76561198180823942,"connected_time":2060000000000,"state":"active","ping":82},{"user_id":551,"name":"Laxslow","steam_id":76561198065361846,"connected_time":350000000000,"state":"active","ping":74},{"user_id":532,"name":"Innocent Bystander","steam_id":76561198259885007,"connected_time":2273000000000,"state":"active","ping":58},{"user_id":543,"name":"Le Bon Toutou","steam_id":76561198300902712,"connected_time":1441000000000,"state":"active","ping":80},{"user_id":545,"name":"scuM--","steam_id":76561198273679047,"connected_time":1101000000000,"state":"active","ping":51},{"user_id":461,"name":"Etwakee","steam_id":76561199467698234,"connected_time":5589000000000,"state":"active","ping":56},{"user_id":511,"name":"godmodule","steam_id":76561198165995444,"connected_time":2986000000000,"state":"active","ping":81},{"user_id":554,"name":"Sipsu","steam_id":76561198059424107,"connected_time":82000000000,"state":"active","ping":82}]},{"server_id":320,"name":"Uncletopia | London | 3 | All Maps","name_short":"lon-3","host":"lon-1.uk.uncletopia.com","port":27035,"enabled":true,"region":"eu","cc":"gb","latitude":51.509865,"longitude":-0.118092,"reserved":0,"last_update":"0001-01-01T00:00:00Z","name_a2s":"Uncletopia | London | 3 | All Maps","protocol":17,"map":"pl_barnblitz","folder":"tf","game":"Team Fortress","app_id":440,"player_count":24,"max_players":24,"Bots":0,"server_type":"Dedicated","server_os":"Linux","password":true,"vac":true,"version":"7757534","steam_id":85568392924510192,"keywords":["nocrits","nodmgspread","payload","uncletopia"],"game_id":440,"stv_port":27036,"stv_name":"Uncletopia | London | 3 | All Maps | STV","players":[{"user_id":137,"name":"wag wag lids","steam_id":76561198259668029,"connected_time":188000000000,"state":"active","ping":52},{"user_id":134,"name":"Joseph Stalin","steam_id":76561198033199746,"connected_time":804000000000,"state":"active","ping":52},{"user_id":93,"name":"Grandma","steam_id":76561198042593027,"connected_time":3360000000000,"state":"active","ping":103},{"user_id":138,"name":"Pussy Piazza","steam_id":76561198914610283,"connected_time":163000000000,"state":"active","ping":81},{"user_id":114,"name":"Dinges360","steam_id":76561198042032834,"connected_time":1413000000000,"state":"active","ping":46},{"user_id":129,"name":"Wade Wilson's Spoilt C4","steam_id":76561198013884709,"connected_time":1108000000000,"state":"active","ping":81},{"user_id":139,"name":"Speibsackerl","steam_id":76561198058135257,"connected_time":152000000000,"state":"active","ping":73},{"user_id":21,"name":"roggzerz","steam_id":76561198056170459,"connected_time":6652000000000,"state":"active","ping":65},{"user_id":22,"name":"JacksJuicyBuns","steam_id":76561198401125801,"connected_time":6626000000000,"state":"active","ping":79},{"user_id":135,"name":"Svilar","steam_id":76561198828348612,"connected_time":497000000000,"state":"active","ping":76},{"user_id":112,"name":"friendly + happy Babs","steam_id":76561198314919758,"connected_time":1673000000000,"state":"active","ping":56},{"user_id":140,"name":"‚ôö jar","steam_id":76561198156384007,"connected_time":116000000000,"state":"active","ping":53},{"user_id":76,"name":"RoXeUr-KaMiKaZe","steam_id":76561197998204782,"connected_time":3956000000000,"state":"active","ping":55},{"user_id":141,"name":"Wise Mystical Tree","steam_id":76561199010555072,"connected_time":115000000000,"state":"active","ping":97},{"user_id":73,"name":"Desmodau","steam_id":76561198059342621,"connected_time":4094000000000,"state":"active","ping":68},{"user_id":116,"name":"S E X P R E S I D E N T","steam_id":76561198139714370,"connected_time":1400000000000,"state":"active","ping":75},{"user_id":120,"name":"Jonas Destark","steam_id":76561198030327441,"connected_time":1360000000000,"state":"active","ping":57},{"user_id":142,"name":"ashsbhop","steam_id":76561199155075476,"connected_time":96000000000,"state":"active","ping":92},{"user_id":131,"name":"Milosz52","steam_id":76561199060940204,"connected_time":948000000000,"state":"active","ping":87},{"user_id":128,"name":"British Disapproval","steam_id":76561198001375260,"connected_time":1147000000000,"state":"active","ping":57},{"user_id":61,"name":"Icetanker","steam_id":76561198094189764,"connected_time":4886000000000,"state":"active","ping":52},{"user_id":132,"name":"[MAZA] Dr.Tesla","steam_id":76561198044946815,"connected_time":906000000000,"state":"active","ping":98},{"user_id":143,"name":"lolmurphyy","steam_id":76561198143068715,"connected_time":72000000000,"state":"active","ping":40},{"user_id":124,"name":"let me cook","steam_id":76561198010380786,"connected_time":1325000000000,"state":"active","ping":44}]},{"server_id":321,"name":"Uncletopia | London | 4 | All Maps","name_short":"lon-4","host":"lon-1.uk.uncletopia.com","port":27045,"enabled":true,"region":"eu","cc":"gb","latitude":51.509865,"longitude":-0.118092,"reserved":0,"last_update":"0001-01-01T00:00:00Z","name_a2s":"Uncletopia | London | 4 | All Maps","protocol":17,"map":"pl_badwater","folder":"tf","game":"Team Fortress","app_id":440,"player_count":24,"max_players":24,"Bots":0,"server_type":"Dedicated","server_os":"Linux","password":true,"vac":true,"version":"7757534","steam_id":85568392924510193,"keywords":["nocrits","nodmgspread","payload","uncletopia"],"game_id":440,"stv_port":27046,"stv_name":"Uncletopia | London | 4 | All Maps | STV","players":[{"user_id":36,"name":"TSx* Osa__PL","steam_id":76561198027016799,"connected_time":435000000000,"state":"active","ping":75},{"user_id":41,"name":"donal rump","steam_id":76561198136239861,"connected_time":364000000000,"state":"active","ping":47},{"user_id":31,"name":"Dr. Uberschwein","steam_id":76561198111367431,"connected_time":633000000000,"state":"active","ping":103},{"user_id":25,"name":"Cillian","steam_id":76561199046965320,"connected_time":881000000000,"state":"active","ping":69},{"user_id":18,"name":"tactical783","steam_id":76561199051688560,"connected_time":1057000000000,"state":"active","ping":64},{"user_id":17,"name":"twitch.tv/biofun_","steam_id":76561198170609049,"connected_time":1135000000000,"state":"active","ping":67},{"user_id":19,"name":"teach me Chespai","steam_id":76561198097507847,"connected_time":1043000000000,"state":"active","ping":88},{"user_id":20,"name":"Cheshireycat","steam_id":76561198067204908,"connected_time":1035000000000,"state":"active","ping":50},{"user_id":48,"name":"Gnag Suaton","steam_id":76561198889292341,"connected_time":137000000000,"state":"active","ping":70},{"user_id":22,"name":"Lewylow","steam_id":76561198005425686,"connected_time":935000000000,"state":"active","ping":86},{"user_id":32,"name":"nmei lbreen","steam_id":76561198845550388,"connected_time":614000000000,"state":"active","ping":115},{"user_id":24,"name":"Neo Testament","steam_id":76561199049633351,"connected_time":916000000000,"state":"active","ping":80},{"user_id":26,"name":"Hariboz","steam_id":76561198244468102,"connected_time":841000000000,"state":"active","ping":43},{"user_id":27,"name":"KFC Enjoyer","steam_id":76561198840259819,"connected_time":835000000000,"state":"active","ping":60},{"user_id":28,"name":"aGreedGryphon","steam_id":76561198245175308,"connected_time":821000000000,"state":"active","ping":75},{"user_id":38,"name":"Old Hat","steam_id":76561197994673297,"connected_time":384000000000,"state":"active","ping":62},{"user_id":30,"name":"Professional Rib Stealer","steam_id":76561198358029722,"connected_time":785000000000,"state":"active","ping":61},{"user_id":33,"name":"Jess‚ô•","steam_id":76561198137106459,"connected_time":607000000000,"state":"active","ping":59},{"user_id":39,"name":"TSx* Naxer","steam_id":76561198011986779,"connected_time":379000000000,"state":"active","ping":75},{"user_id":49,"name":"davlevan","steam_id":76561198090848620,"connected_time":25000000000,"state":"active","ping":73},{"user_id":46,"name":"Dakkafex","steam_id":76561198020254869,"connected_time":218000000000,"state":"active","ping":46},{"user_id":47,"name":"Beamz","steam_id":76561198014230017,"connected_time":204000000000,"state":"active","ping":161},{"user_id":43,"name":"Max","steam_id":76561198029412126,"connected_time":327000000000,"state":"active","ping":70},{"user_id":50,"name":"\u003e_\u003c","steam_id":76561198096189399,"connected_time":6000000000,"state":"spawning","ping":63}]},{"server_id":21,"name":"Uncletopia | London | 5 | All Maps","name_short":"lon-5","host":"lon-1.uk.uncletopia.com","port":27055,"enabled":true,"region":"eu","cc":"gb","latitude":51.509865,"longitude":-0.118092,"reserved":0,"last_update":"0001-01-01T00:00:00Z","name_a2s":"Uncletopia | London | 5 | All Maps","protocol":17,"map":"pl_pier","folder":"tf","game":"Team Fortress","app_id":440,"player_count":24,"max_players":24,"Bots":0,"server_type":"Dedicated","server_os":"Linux","password":true,"vac":true,"version":"7757534","steam_id":85568392924742829,"keywords":["nocrits","nodmgspread","payload","uncletopia"],"game_id":440,"stv_port":27056,"stv_name":"Uncletopia | London | 5 | All Maps | STV","players":[{"user_id":157,"name":"oto0559","steam_id":76561198024716361,"connected_time":3812000000000,"state":"active","ping":114},{"user_id":143,"name":"b_a1Ln","steam_id":76561198135213739,"connected_time":4272000000000,"state":"active","ping":102},{"user_id":205,"name":"Daoloth, Render of the Veils","steam_id":76561198115106008,"connected_time":138000000000,"state":"active","ping":43},{"user_id":162,"name":"MaFFeNnas","steam_id":76561198218780229,"connected_time":3325000000000,"state":"active","ping":105},{"user_id":186,"name":"duq","steam_id":76561198073016365,"connected_time":1133000000000,"state":"active","ping":92},{"user_id":201,"name":"major snags","steam_id":76561198308393015,"connected_time":508000000000,"state":"active","ping":50},{"user_id":196,"name":"Sunshine","steam_id":76561198885528098,"connected_time":766000000000,"state":"active","ping":120},{"user_id":204,"name":"walking plane","steam_id":76561198146779559,"connected_time":216000000000,"state":"active","ping":89},{"user_id":197,"name":"Quack","steam_id":76561198080069237,"connected_time":687000000000,"state":"active","ping":102},{"user_id":152,"name":"Toasted Toby","steam_id":76561198002139581,"connected_time":3935000000000,"state":"active","ping":69},{"user_id":184,"name":"d00bie","steam_id":76561198025295218,"connected_time":1168000000000,"state":"active","ping":80},{"user_id":202,"name":"kiki","steam_id":76561198838277022,"connected_time":360000000000,"state":"active","ping":77},{"user_id":180,"name":"Le Pepp","steam_id":76561198042427803,"connected_time":1548000000000,"state":"active","ping":54},{"user_id":193,"name":"Castellan","steam_id":76561197994861142,"connected_time":839000000000,"state":"active","ping":70},{"user_id":161,"name":"Adam","steam_id":76561198024698968,"connected_time":3329000000000,"state":"active","ping":66},{"user_id":185,"name":"hud_saytext_time 0","steam_id":76561198010327228,"connected_time":1155000000000,"state":"active","ping":70},{"user_id":174,"name":"Gardvord","steam_id":76561198120715753,"connected_time":2152000000000,"state":"active","ping":77},{"user_id":198,"name":"Craig Crusade","steam_id":76561199225918086,"connected_time":680000000000,"state":"active","ping":67},{"user_id":97,"name":"MakCuMka_AneJlcuHka","steam_id":76561198892412012,"connected_time":7396000000000,"state":"active","ping":122},{"user_id":199,"name":"Carol Olston","steam_id":76561198080257273,"connected_time":672000000000,"state":"active","ping":44},{"user_id":167,"name":"Phiphler","steam_id":76561197994055715,"connected_time":3045000000000,"state":"active","ping":58},{"user_id":181,"name":"invertO","steam_id":76561198142244174,"connected_time":1544000000000,"state":"active","ping":60},{"user_id":175,"name":"zinzyk","steam_id":76561198128011822,"connected_time":2129000000000,"state":"active","ping":67},{"user_id":200,"name":"Pinhers","steam_id":76561198291077862,"connected_time":670000000000,"state":"active","ping":82}]},{"server_id":22,"name":"Uncletopia | London | 6 | All Maps","name_short":"lon-6","host":"lon-1.uk.uncletopia.com","port":27065,"enabled":true,"region":"eu","cc":"gb","latitude":51.509865,"longitude":-0.118092,"reserved":0,"last_update":"0001-01-01T00:00:00Z","name_a2s":"Uncletopia | London | 6 | All Maps","protocol":17,"map":"pl_barnblitz","folder":"tf","game":"Team Fortress","app_id":440,"player_count":21,"max_players":24,"Bots":0,"server_type":"Dedicated","server_os":"Linux","password":true,"vac":true,"version":"7757534","steam_id":85568392924742830,"keywords":["nocrits","nodmgspread","payload","uncletopia"],"game_id":440,"stv_port":27066,"stv_name":"Uncletopia | London | 6 | All Maps | STV","players":[{"user_id":663,"name":"ivanmixo","steam_id":76561198160213989,"connected_time":218000000000,"state":"active","ping":74},{"user_id":641,"name":"average f2p","steam_id":76561199136308055,"connected_time":1779000000000,"state":"active","ping":51},{"user_id":643,"name":"NRC","steam_id":76561198136403335,"connected_time":1772000000000,"state":"active","ping":51},{"user_id":636,"name":"Flal","steam_id":76561198453819816,"connected_time":2007000000000,"state":"active","ping":67},{"user_id":650,"name":"Sobluu","steam_id":76561199000038510,"connected_time":1701000000000,"state":"active","ping":81},{"user_id":667,"name":"Swiss-Stone","steam_id":76561198090399998,"connected_time":8000000000,"state":"spawning","ping":51},{"user_id":644,"name":"clover","steam_id":76561198110834194,"connected_time":1761000000000,"state":"active","ping":55},{"user_id":628,"name":"JohnarasGamer1","steam_id":76561198365929872,"connected_time":2522000000000,"state":"active","ping":95},{"user_id":665,"name":"Mikesch2001","steam_id":76561198162945160,"connected_time":27000000000,"state":"active","ping":80},{"user_id":660,"name":"harry","steam_id":76561198365118514,"connected_time":1006000000000,"state":"active","ping":125},{"user_id":567,"name":"tanyathsus","steam_id":76561198089522447,"connected_time":6864000000000,"state":"active","ping":62},{"user_id":638,"name":"Falconetti","steam_id":76561198029930580,"connected_time":1906000000000,"state":"active","ping":67},{"user_id":529,"name":"—Ç–æ–ª—è","steam_id":76561199098518615,"connected_time":8568000000000,"state":"active","ping":100},{"user_id":647,"name":"TomasBLABLA","steam_id":76561198401803408,"connected_time":1747000000000,"state":"active","ping":45},{"user_id":662,"name":"Z√§rorg","steam_id":76561198016645701,"connected_time":805000000000,"state":"active","ping":54},{"user_id":666,"name":"Immovable Gonzalez","steam_id":76561198072233046,"connected_time":25000000000,"state":"active","ping":84},{"user_id":629,"name":"Toast Nook","steam_id":76561199093949301,"connected_time":2449000000000,"state":"active","ping":85},{"user_id":661,"name":".quickfast.","steam_id":76561199438900919,"connected_time":960000000000,"state":"active","ping":42},{"user_id":657,"name":"Raku","steam_id":76561198398959735,"connected_time":1192000000000,"state":"active","ping":71},{"user_id":572,"name":"cop killer","steam_id":76561198039966198,"connected_time":6643000000000,"state":"active","ping":75},{"user_id":607,"name":"The Man of Myriad","steam_id":76561198273702611,"connected_time":4817000000000,"state":"active","ping":66}]},{"server_id":40,"name":"Uncletopia | London | 7 | No Payload","name_short":"lon-7","host":"lon-1.uk.uncletopia.com","port":27075,"enabled":true,"region":"eu","cc":"gb","latitude":51.509865,"longitude":-0.118092,"reserved":0,"last_update":"0001-01-01T00:00:00Z","name_a2s":"Uncletopia | London | 7 | No Payload","protocol":17,"map":"cp_fastlane","folder":"tf","game":"Team Fortress","app_id":440,"player_count":5,"max_players":24,"Bots":0,"server_type":"Dedicated","server_os":"Linux","password":true,"vac":true,"version":"7757534","steam_id":85568392924964314,"keywords":["cp","nocrits","nodmgspread","uncletopia"],"game_id":440,"stv_port":27076,"stv_name":"Uncletopia | London | 7 | No Payload | STV","players":[{"user_id":15,"name":"GezmeRR TF2","steam_id":76561198043814532,"connected_time":62000000000,"state":"active","ping":58},{"user_id":16,"name":"Lord","steam_id":76561198065021271,"connected_time":43000000000,"state":"active","ping":74},{"user_id":17,"name":"DragonXneoN","steam_id":76561198005974781,"connected_time":18000000000,"state":"spawning","ping":107},{"user_id":18,"name":"Lord Commissar Drac","steam_id":76561198030371218,"connected_time":17000000000,"state":"active","ping":70},{"user_id":19,"name":"[hoodie]","steam_id":76561198105408624,"connected_time":7000000000,"state":"active","ping":374}]},{"server_id":41,"name":"Uncletopia | London | 8 | Community","name_short":"lon-8","host":"lon-1.uk.uncletopia.com","port":27085,"enabled":true,"region":"eu","cc":"gb","latitude":51.509865,"longitude":-0.118092,"reserved":0,"last_update":"0001-01-01T00:00:00Z","name_a2s":"Uncletopia | London | 8 | Community","protocol":17,"map":"workshop/cp_caldera_rc2.ugc2834196889","folder":"tf","game":"Team Fortress","app_id":440,"player_count":2,"max_players":24,"Bots":0,"server_type":"Dedicated","server_os":"Linux","password":true,"vac":true,"version":"7757534","steam_id":85568392924964315,"keywords":["cp","nocrits","nodmgspread","uncletopia"],"game_id":440,"stv_port":27086,"stv_name":"Uncletopia | London | 8 | Community | STV","players":[{"user_id":12,"name":"ran is running","steam_id":76561199443185667,"connected_time":817000000000,"state":"active","ping":137},{"user_id":11,"name":"justin_ (f2p) (real)","steam_id":76561198839843428,"connected_time":889000000000,"state":"active","ping":121}]},{"server_id":300,"name":"Uncletopia | Montr√©al | 1 | All Maps","name_short":"mtl-1","host":"mtl-1.ca.uncletopia.com","port":27015,"enabled":true,"region":"us-east","cc":"ca","latitude":45.50889,"longitude":-73.56167,"reserved":0,"last_update":"0001-01-01T00:00:00Z","name_a2s":"Uncletopia | Montr√©al | 1 | All Maps","protocol":17,"map":"pl_upward","folder":"tf","game":"Team Fortress","app_id":440,"player_count":0,"max_players":24,"Bots":0,"server_type":"Dedicated","server_os":"Linux","password":true,"vac":true,"version":"7757534","steam_id":85568392924500087,"keywords":["nocrits","nodmgspread","payload","uncletopia"],"game_id":440,"stv_port":27016,"stv_name":"Uncletopia | Montr√©al | 1 | All Maps | STV","players":null},{"server_id":301,"name":"Uncletopia | Montr√©al | 2 | All Maps","name_short":"mtl-2","host":"mtl-1.ca.uncletopia.com","port":27025,"enabled":true,"region":"us-east","cc":"ca","latitude":45.50889,"longitude":-73.56167,"reserved":0,"last_update":"0001-01-01T00:00:00Z","name_a2s":"Uncletopia | Montr√©al | 2 | All Maps","protocol":17,"map":"pl_borneo","folder":"tf","game":"Team Fortress","app_id":440,"player_count":0,"max_players":24,"Bots":0,"server_type":"Dedicated","server_os":"Linux","password":true,"vac":true,"version":"7757534","steam_id":85568392924500088,"keywords":["nocrits","nodmgspread","payload","uncletopia"],"game_id":440,"stv_port":27026,"stv_name":"Uncletopia | Montr√©al | 2 | All Maps | STV","players":null},{"server_id":302,"name":"Uncletopia | Montr√©al | 3 | All Maps","name_short":"mtl-3","host":"mtl-1.ca.uncletopia.com","port":27035,"enabled":true,"region":"us-east","cc":"ca","latitude":45.50889,"longitude":-73.56167,"reserved":0,"last_update":"0001-01-01T00:00:00Z","name_a2s":"Uncletopia | Montr√©al | 3 | All Maps","protocol":17,"map":"cp_sunshine","folder":"tf","game":"Team Fortress","app_id":440,"player_count":0,"max_players":24,"Bots":0,"server_type":"Dedicated","server_os":"Linux","password":true,"vac":true,"version":"7757534","steam_id":85568392924500089,"keywords":["cp","nocrits","nodmgspread","uncletopia"],"game_id":440,"stv_port":27036,"stv_name":"Uncletopia | Montr√©al | 3 | All Maps | STV","players":null},{"server_id":303,"name":"Uncletopia | Montr√©al | 4 | No Payload","name_short":"mtl-4","host":"mtl-1.ca.uncletopia.com","port":27045,"enabled":true,"region":"us-east","cc":"ca","latitude":45.50889,"longitude":-73.56167,"reserved":0,"last_update":"0001-01-01T00:00:00Z","name_a2s":"Uncletopia | Montr√©al | 4 | No Payload","protocol":17,"map":"koth_lakeside_final","folder":"tf","game":"Team Fortress","app_id":440,"player_count":0,"max_players":24,"Bots":0,"server_type":"Dedicated","server_os":"Linux","password":true,"vac":true,"version":"7757534","steam_id":85568392924500090,"keywords":["cp","nocrits","nodmgspread","uncletopia"],"game_id":440,"stv_port":27046,"stv_name":"Uncletopia | Montr√©al | 4 | No Payload | STV","players":null},{"server_id":13,"name":"Uncletopia | New York City | 1 | All Maps","name_short":"nyc-1","host":"nyc-1.us.uncletopia.com","port":27015,"enabled":true,"region":"us-east","cc":"us","latitude":40.73061,"longitude":-73.93524,"reserved":0,"last_update":"0001-01-01T00:00:00Z","name_a2s":"Uncletopia | New York City | 1 | All Maps","protocol":17,"map":"cp_dustbowl","folder":"tf","game":"Team Fortress","app_id":440,"player_count":24,"max_players":24,"Bots":0,"server_type":"Dedicated","server_os":"Linux","password":true,"vac":true,"version":"7757534","steam_id":85568392924469993,"keywords":["cp","nocrits","nodmgspread","uncletopia"],"game_id":440,"stv_port":27016,"stv_name":"Uncletopia | New York City | 1 | All Maps | STV","players":[{"user_id":270,"name":"THE NUT","steam_id":76561198067813626,"connected_time":1905000000000,"state":"active","ping":111},{"user_id":298,"name":"ElBentz","steam_id":76561199059582221,"connected_time":325000000000,"state":"active","ping":123},{"user_id":303,"name":"pine beetle","steam_id":76561197960794303,"connected_time":117000000000,"state":"active","ping":137},{"user_id":246,"name":"hashmap","steam_id":76561198043794014,"connected_time":4050000000000,"state":"active","ping":62},{"user_id":276,"name":"JaeWoods","steam_id":76561199467132709,"connected_time":1813000000000,"state":"active","ping":80},{"user_id":299,"name":"AAAAAAAAAAAAAAAAAAAAAAAAAAAAAAA","steam_id":76561198817866879,"connected_time":233000000000,"state":"active","ping":64},{"user_id":269,"name":"It's FoolMoon","steam_id":76561198153344375,"connected_time":2157000000000,"state":"active","ping":44},{"user_id":293,"name":"Kritzburgh","steam_id":76561198149466938,"connected_time":570000000000,"state":"active","ping":46},{"user_id":295,"name":"the12xu","steam_id":76561198197086561,"connected_time":520000000000,"state":"active","ping":58},{"user_id":294,"name":"\u003cLuckyCharms\u003e","steam_id":76561199261405155,"connected_time":569000000000,"state":"active","ping":116},{"user_id":275,"name":"suspostor","steam_id":76561198200554173,"connected_time":1844000000000,"state":"active","ping":56},{"user_id":274,"name":"Bubz","steam_id":76561199013499631,"connected_time":1850000000000,"state":"active","ping":80},{"user_id":296,"name":"Somebody's muppet","steam_id":76561198435307688,"connected_time":372000000000,"state":"active","ping":124},{"user_id":282,"name":"Your Dad","steam_id":76561199273830609,"connected_time":1613000000000,"state":"active","ping":122},{"user_id":279,"name":"Ceiling Man","steam_id":76561198003959902,"connected_time":1788000000000,"state":"active","ping":39},{"user_id":297,"name":"Visual Depression","steam_id":76561198825918366,"connected_time":362000000000,"state":"active","ping":100},{"user_id":301,"name":"Chicanery","steam_id":76561198977589038,"connected_time":169000000000,"state":"active","ping":99},{"user_id":300,"name":"MooN","steam_id":76561198149206391,"connected_time":201000000000,"state":"active","ping":71},{"user_id":305,"name":"jerma comendo um pastel","steam_id":76561198367052513,"connected_time":14000000000,"state":"spawning","ping":179},{"user_id":302,"name":"faxxy","steam_id":76561198079621240,"connected_time":138000000000,"state":"active","ping":78},{"user_id":283,"name":"Notorious Criminal Prawo Jazdy","steam_id":76561198339011254,"connected_time":1527000000000,"state":"active","ping":91},{"user_id":292,"name":"SaucySage--","steam_id":76561199389817605,"connected_time":648000000000,"state":"active","ping":83},{"user_id":304,"name":"Squid121","steam_id":76561198038832034,"connected_time":114000000000,"state":"active","ping":117},{"user_id":268,"name":"Ace Attorney","steam_id":76561198133011705,"connected_time":2401000000000,"state":"active","ping":44}]},{"server_id":14,"name":"Uncletopia | New York City | 2 | All Maps","name_short":"nyc-2","host":"nyc-1.us.uncletopia.com","port":27025,"enabled":true,"region":"us-east","cc":"us","latitude":40.73061,"longitude":-73.93524,"reserved":0,"last_update":"0001-01-01T00:00:00Z","name_a2s":"Uncletopia | New York City | 2 | All Maps","protocol":17,"map":"koth_viaduct","folder":"tf","game":"Team Fortress","app_id":440,"player_count":0,"max_players":24,"Bots":0,"server_type":"Dedicated","server_os":"Linux","password":true,"vac":true,"version":"7757534","steam_id":85568392924469994,"keywords":["cp","nocrits","nodmgspread","uncletopia"],"game_id":440,"stv_port":27026,"stv_name":"Uncletopia | New York City | 2 | All Maps | STV","players":null},{"server_id":15,"name":"Uncletopia | New York City | 3 | Stopwatch Beta","name_short":"nyc-3","host":"nyc-1.us.uncletopia.com","port":27035,"enabled":true,"region":"us-east","cc":"us","latitude":40.73061,"longitude":-73.93524,"reserved":0,"last_update":"0001-01-01T00:00:00Z","name_a2s":"Uncletopia | New York City | 3 | Stopwatch Beta","protocol":17,"map":"koth_lakeside_final","folder":"tf","game":"Team Fortress","app_id":440,"player_count":0,"max_players":24,"Bots":0,"server_type":"Dedicated","server_os":"Linux","password":true,"vac":true,"version":"7757534","steam_id":85568392924742820,"keywords":["cp","nocrits","nodmgspread","uncletopia"],"game_id":440,"stv_port":27036,"stv_name":"Uncletopia | New York City | 3 | Stopwatch Beta | STV","players":null},{"server_id":16,"name":"Uncletopia | New York City | 4 | Community","name_short":"nyc-4","host":"nyc-1.us.uncletopia.com","port":27045,"enabled":true,"region":"us-east","cc":"us","latitude":40.73061,"longitude":-73.93524,"reserved":0,"last_update":"0001-01-01T00:00:00Z","name_a2s":"Uncletopia | New York City | 4 | Community","protocol":17,"map":"pl_borneo","folder":"tf","game":"Team Fortress","app_id":440,"player_count":0,"max_players":24,"Bots":0,"server_type":"Dedicated","server_os":"Linux","password":true,"vac":true,"version":"7757534","steam_id":85568392924742821,"keywords":["nocrits","nodmgspread","payload","uncletopia"],"game_id":440,"stv_port":27046,"stv_name":"Uncletopia | New York City | 4 | Community | STV","players":null},{"server_id":142,"name":"Uncletopia | S√£o Paulo | 1 | All Maps","name_short":"sao-1","host":"sao-1.br.uncletopia.com","port":27015,"enabled":true,"region":"sa","cc":"br","latitude":-23.533773,"longitude":-46.62529,"reserved":0,"last_update":"0001-01-01T00:00:00Z","name_a2s":"Uncletopia | S√£o Paulo | 1 | All Maps","protocol":17,"map":"pl_upward","folder":"tf","game":"Team Fortress","app_id":440,"player_count":0,"max_players":24,"Bots":0,"server_type":"Dedicated","server_os":"Linux","password":true,"vac":true,"version":"7757534","steam_id":85568392924469996,"keywords":["nocrits","nodmgspread","payload","uncletopia"],"game_id":440,"stv_port":27016,"stv_name":"Uncletopia | S√£o Paulo | 1 | All Maps | STV","players":null},{"server_id":143,"name":"Uncletopia | S√£o Paulo | 2 | All Maps","name_short":"sao-2","host":"sao-2.br.uncletopia.com","port":27015,"enabled":true,"region":"sa","cc":"br","latitude":-23.533773,"longitude":-46.62529,"reserved":0,"last_update":"0001-01-01T00:00:00Z","name_a2s":"Uncletopia | S√£o Paulo | 2 | All Maps","protocol":17,"map":"koth_lakeside_final","folder":"tf","game":"Team Fortress","app_id":440,"player_count":3,"max_players":24,"Bots":0,"server_type":"Dedicated","server_os":"Linux","password":true,"vac":true,"version":"7757534","steam_id":85568392924485349,"keywords":["cp","nocrits","nodmgspread","uncletopia"],"game_id":440,"stv_port":27016,"stv_name":"Uncletopia | S√£o Paulo | 2 | All Maps | STV","players":[{"user_id":20,"name":"guarda-chuva","steam_id":76561198078694330,"connected_time":1790000000000,"state":"active","ping":268},{"user_id":24,"name":"Tert_14","steam_id":76561198185952289,"connected_time":455000000000,"state":"active","ping":66},{"user_id":23,"name":":\u003e","steam_id":76561198317090330,"connected_time":542000000000,"state":"active","ping":59}]},{"server_id":7,"name":"Uncletopia | Seattle | 1 | All Maps","name_short":"sea-1","host":"sea-1.us.uncletopia.com","port":27015,"enabled":true,"region":"us-west","cc":"us","latitude":47.608013,"longitude":-122.33517,"reserved":0,"last_update":"0001-01-01T00:00:00Z","name_a2s":"Uncletopia | Seattle | 1 | All Maps","protocol":17,"map":"pl_badwater","folder":"tf","game":"Team Fortress","app_id":440,"player_count":24,"max_players":24,"Bots":0,"server_type":"Dedicated","server_os":"Linux","password":true,"vac":true,"version":"7757534","steam_id":85568392924469997,"keywords":["nocrits","nodmgspread","payload","uncletopia"],"game_id":440,"stv_port":27016,"stv_name":"Uncletopia | Seattle | 1 | All Maps | STV","players":[{"user_id":73,"name":"Naffers","steam_id":76561198195957335,"connected_time":1565000000000,"state":"active","ping":46},{"user_id":75,"name":"raejena","steam_id":76561199116101968,"connected_time":1465000000000,"state":"active","ping":75},{"user_id":76,"name":"guy","steam_id":76561198196443262,"connected_time":1426000000000,"state":"active","ping":72},{"user_id":23,"name":"Username","steam_id":76561198855586261,"connected_time":4968000000000,"state":"active","ping":61},{"user_id":59,"name":"jayeskae","steam_id":76561198144220801,"connected_time":3364000000000,"state":"active","ping":48},{"user_id":66,"name":"Klone","steam_id":76561198854485605,"connected_time":2831000000000,"state":"active","ping":73},{"user_id":65,"name":"Watatsuki no Yorihime","steam_id":76561198063315650,"connected_time":2934000000000,"state":"active","ping":84},{"user_id":25,"name":"Dry Gin","steam_id":76561198196503877,"connected_time":4802000000000,"state":"active","ping":46},{"user_id":84,"name":"Dimple","steam_id":76561198980324190,"connected_time":300000000000,"state":"active","ping":48},{"user_id":60,"name":"ORANGE","steam_id":76561198000401769,"connected_time":3261000000000,"state":"active","ping":47},{"user_id":74,"name":"trackpad gaming | f2p","steam_id":76561198840414371,"connected_time":1561000000000,"state":"active","ping":56},{"user_id":82,"name":"COOL master_9","steam_id":76561198073041151,"connected_time":884000000000,"state":"active","ping":102},{"user_id":64,"name":"Satori Komeiji","steam_id":76561198158211423,"connected_time":3098000000000,"state":"active","ping":72},{"user_id":34,"name":"The Horselords and Animal Gods","steam_id":76561197975094050,"connected_time":4129000000000,"state":"active","ping":89},{"user_id":83,"name":"DK360","steam_id":76561198796783094,"connected_time":504000000000,"state":"active","ping":61},{"user_id":45,"name":"gorf 3","steam_id":76561198196909319,"connected_time":3630000000000,"state":"active","ping":58},{"user_id":70,"name":"Bubbamanme","steam_id":76561198119778504,"connected_time":1692000000000,"state":"active","ping":58},{"user_id":72,"name":"swag","steam_id":76561198094615739,"connected_time":1569000000000,"state":"active","ping":87},{"user_id":46,"name":"KING NOOT NOOT","steam_id":76561198087847585,"connected_time":3622000000000,"state":"active","ping":145},{"user_id":77,"name":"ToxicPossum","steam_id":76561198071420746,"connected_time":1421000000000,"state":"active","ping":66},{"user_id":58,"name":"me","steam_id":76561199468285784,"connected_time":3393000000000,"state":"active","ping":59},{"user_id":80,"name":"76561198212421513","steam_id":76561198212421513,"connected_time":1181000000000,"state":"active","ping":75},{"user_id":81,"name":"fLock","steam_id":76561198091578187,"connected_time":1164000000000,"state":"active","ping":106},{"user_id":55,"name":"AmiableNebula","steam_id":76561198094306627,"connected_time":3488000000000,"state":"active","ping":81}]},{"server_id":119,"name":"Uncletopia | Seattle | 2 | All Maps","name_short":"sea-2","host":"sea-1.us.uncletopia.com","port":27025,"enabled":true,"region":"us-west","cc":"us","latitude":47.608013,"longitude":-122.33517,"reserved":0,"last_update":"0001-01-01T00:00:00Z","name_a2s":"Uncletopia | Seattle | 2 | All Maps","protocol":17,"map":"cp_dustbowl","folder":"tf","game":"Team Fortress","app_id":440,"player_count":2,"max_players":24,"Bots":0,"server_type":"Dedicated","server_os":"Linux","password":true,"vac":true,"version":"7757534","steam_id":85568392924469998,"keywords":["cp","nocrits","nodmgspread","uncletopia"],"game_id":440,"stv_port":27026,"stv_name":"Uncletopia | Seattle | 2 | All Maps | STV","players":[{"user_id":3,"name":"Birdman743","steam_id":76561198799636748,"connected_time":987000000000,"state":"active","ping":51},{"user_id":6,"name":"StarGuyVI","steam_id":76561199366304746,"connected_time":218000000000,"state":"active","ping":128}]},{"server_id":406,"name":"Uncletopia | Seattle | 3 | Stopwatch Beta","name_short":"sea-3","host":"sea-1.us.uncletopia.com","port":27035,"enabled":true,"region":"us-west","cc":"us","latitude":47.608013,"longitude":-122.33517,"reserved":0,"last_update":"0001-01-01T00:00:00Z","name_a2s":"Uncletopia | Seattle | 3 | Stopwatch Beta","protocol":17,"map":"cp_sunshine","folder":"tf","game":"Team Fortress","app_id":440,"player_count":0,"max_players":24,"Bots":0,"server_type":"Dedicated","server_os":"Linux","password":true,"vac":true,"version":"7757534","steam_id":85568392924515217,"keywords":["cp","nocrits","nodmgspread","uncletopia"],"game_id":440,"stv_port":27036,"stv_name":"Uncletopia | Seattle | 3 | Stopwatch Beta | STV","players":null},{"server_id":17,"name":"Uncletopia | San Francisco | 1 | All Maps","name_short":"sfo-1","host":"sfo-1.us.uncletopia.com","port":27015,"enabled":true,"region":"us-west","cc":"us","latitude":37.77397,"longitude":-122.4313,"reserved":0,"last_update":"0001-01-01T00:00:00Z","name_a2s":"Uncletopia | San Francisco | 1 | All Maps","protocol":17,"map":"pl_pier","folder":"tf","game":"Team Fortress","app_id":440,"player_count":0,"max_players":24,"Bots":0,"server_type":"Dedicated","server_os":"Linux","password":true,"vac":true,"version":"7757534","steam_id":85568392924469999,"keywords":["nocrits","nodmgspread","payload","uncletopia"],"game_id":440,"stv_port":27016,"stv_name":"Uncletopia | San Francisco | 1 | All Maps | STV","players":null},{"server_id":18,"name":"Uncletopia | San Francisco | 2 | All Maps","name_short":"sfo-2","host":"sfo-1.us.uncletopia.com","port":27025,"enabled":true,"region":"us-west","cc":"us","latitude":37.77397,"longitude":-122.4313,"reserved":0,"last_update":"0001-01-01T00:00:00Z","name_a2s":"Uncletopia | San Francisco | 2 | All Maps","protocol":17,"map":"pl_pier","folder":"tf","game":"Team Fortress","app_id":440,"player_count":0,"max_players":24,"Bots":0,"server_type":"Dedicated","server_os":"Linux","password":true,"vac":true,"version":"7757534","steam_id":85568392924470000,"keywords":["nocrits","nodmgspread","payload","uncletopia"],"game_id":440,"stv_port":27026,"stv_name":"Uncletopia | San Francisco | 2 | All Maps | STV","players":null},{"server_id":19,"name":"Uncletopia | San Francisco | 3 | Stopwatch Beta","name_short":"sfo-3","host":"sfo-1.us.uncletopia.com","port":27035,"enabled":true,"region":"us-west","cc":"us","latitude":37.77397,"longitude":-122.4313,"reserved":0,"last_update":"0001-01-01T00:00:00Z","name_a2s":"Uncletopia | San Francisco | 3 | Stopwatch Beta","protocol":17,"map":"koth_viaduct","folder":"tf","game":"Team Fortress","app_id":440,"player_count":0,"max_players":24,"Bots":0,"server_type":"Dedicated","server_os":"Linux","password":true,"vac":true,"version":"7757534","steam_id":85568392924742824,"keywords":["cp","nocrits","nodmgspread","uncletopia"],"game_id":440,"stv_port":27036,"stv_name":"Uncletopia | San Francisco | 3 | Stopwatch Beta | STV","players":null},{"server_id":20,"name":"Uncletopia | San Francisco | 4 | Community","name_short":"sfo-4","host":"sfo-1.us.uncletopia.com","port":27045,"enabled":true,"region":"us-west","cc":"us","latitude":37.77397,"longitude":-122.4313,"reserved":0,"last_update":"0001-01-01T00:00:00Z","name_a2s":"Uncletopia | San Francisco | 4 | Community","protocol":17,"map":"pl_borneo","folder":"tf","game":"Team Fortress","app_id":440,"player_count":0,"max_players":24,"Bots":0,"server_type":"Dedicated","server_os":"Linux","password":true,"vac":true,"version":"7757534","steam_id":85568392924742826,"keywords":["nocrits","nodmgspread","payload","uncletopia"],"game_id":440,"stv_port":27046,"stv_name":"Uncletopia | San Francisco | 4 | Community | STV","players":null},{"server_id":141,"name":"Uncletopia | Sydney | 1 | All Maps","name_short":"syd-1","host":"syd-1.au.uncletopia.com","port":27015,"enabled":true,"region":"au","cc":"au","latitude":-33.865143,"longitude":151.2099,"reserved":0,"last_update":"0001-01-01T00:00:00Z","name_a2s":"Uncletopia | Sydney | 1 | All Maps","protocol":17,"map":"koth_lakeside_final","folder":"tf","game":"Team Fortress","app_id":440,"player_count":0,"max_players":24,"Bots":0,"server_type":"Dedicated","server_os":"Linux","password":true,"vac":true,"version":"7757534","steam_id":85568392924470001,"keywords":["cp","nocrits","nodmgspread","uncletopia"],"game_id":440,"stv_port":27016,"stv_name":"Uncletopia | Sydney | 1 | All Maps | STV","players":null},{"server_id":123,"name":"Uncletopia | Sydney | 2 | All Maps","name_short":"syd-2","host":"syd-1.au.uncletopia.com","port":27025,"enabled":true,"region":"au","cc":"au","latitude":-33.865143,"longitude":151.2099,"reserved":0,"last_update":"0001-01-01T00:00:00Z","name_a2s":"Uncletopia | Sydney | 2 | All Maps","protocol":17,"map":"koth_viaduct","folder":"tf","game":"Team Fortress","app_id":440,"player_count":0,"max_players":24,"Bots":0,"server_type":"Dedicated","server_os":"Linux","password":true,"vac":true,"version":"7757534","steam_id":85568392924470002,"keywords":["cp","nocrits","nodmgspread","uncletopia"],"game_id":440,"stv_port":27026,"stv_name":"Uncletopia | Sydney | 2 | All Maps | STV","players":null},{"server_id":395,"name":"Uncletopia | Sydney | 3 | All Maps","name_short":"syd-3","host":"syd-1.au.uncletopia.com","port":27035,"enabled":true,"region":"au","cc":"au","latitude":-33.865143,"longitude":151.2099,"reserved":0,"last_update":"0001-01-01T00:00:00Z","name_a2s":"Uncletopia | Sydney | 3 | All Maps","protocol":17,"map":"koth_viaduct","folder":"tf","game":"Team Fortress","app_id":440,"player_count":0,"max_players":24,"Bots":0,"server_type":"Dedicated","server_os":"Linux","password":true,"vac":true,"version":"7757534","steam_id":85568392925194467,"keywords":["cp","nocrits","nodmgspread","uncletopia"],"game_id":440,"stv_port":27036,"stv_name":"Uncletopia | Sydney | 3 | All Maps | STV","players":null},{"server_id":396,"name":"Uncletopia | Sydney | 4 | All Maps","name_short":"syd-4","host":"syd-1.au.uncletopia.com","port":27045,"enabled":true,"region":"au","cc":"au","latitude":-33.865143,"longitude":151.2099,"reserved":0,"last_update":"0001-01-01T00:00:00Z","name_a2s":"Uncletopia | Sydney | 4 | All Maps","protocol":17,"map":"cp_snakewater_final1","folder":"tf","game":"Team Fortress","app_id":440,"player_count":0,"max_players":24,"Bots":0,"server_type":"Dedicated","server_os":"Linux","password":true,"vac":true,"version":"7757534","steam_id":85568392925397958,"keywords":["cp","nocrits","nodmgspread","uncletopia"],"game_id":440,"stv_port":27046,"stv_name":"Uncletopia | Sydney | 4 | All Maps | STV","players":null},{"server_id":58,"name":"Uncletopia | Sydney | 5 | Stopwatch Beta","name_short":"syd-5","host":"syd-1.au.uncletopia.com","port":27055,"enabled":true,"region":"au","cc":"au","latitude":-33.865143,"longitude":151.2099,"reserved":0,"last_update":"0001-01-01T00:00:00Z","name_a2s":"Uncletopia | Sydney | 5 | Stopwatch Beta","protocol":17,"map":"pl_barnblitz","folder":"tf","game":"Team Fortress","app_id":440,"player_count":0,"max_players":24,"Bots":0,"server_type":"Dedicated","server_os":"Linux","password":true,"vac":true,"version":"7757534","steam_id":85568392925397959,"keywords":["nocrits","nodmgspread","payload","uncletopia"],"game_id":440,"stv_port":27056,"stv_name":"Uncletopia | Sydney | 5 | Stopwatch Beta | STV","players":null},{"server_id":59,"name":"Uncletopia | Sydney | 6 | Community","name_short":"syd-6","host":"syd-1.au.uncletopia.com","port":27065,"enabled":true,"region":"au","cc":"au","latitude":-33.865143,"longitude":151.2099,"reserved":0,"last_update":"0001-01-01T00:00:00Z","name_a2s":"Uncletopia | Sydney | 6 | Community","protocol":17,"map":"cp_mountainlab","folder":"tf","game":"Team Fortress","app_id":440,"player_count":0,"max_players":24,"Bots":0,"server_type":"Dedicated","server_os":"Linux","password":true,"vac":true,"version":"7757534","steam_id":85568392925397960,"keywords":["cp","nocrits","nodmgspread","uncletopia"],"game_id":440,"stv_port":27066,"stv_name":"Uncletopia | Sydney | 6 | Community | STV","players":null},{"server_id":49,"name":"Uncletopia | Warsaw | 1 | All Maps","name_short":"waw-1","host":"waw-1.pl.uncletopia.com","port":27015,"enabled":true,"region":"eu","cc":"pl","latitude":52.2297,"longitude":21.017532,"reserved":0,"last_update":"0001-01-01T00:00:00Z","name_a2s":"","protocol":0,"map":"","folder":"","game":"","app_id":0,"player_count":0,"max_players":0,"Bots":0,"server_type":"","server_os":"","password":false,"vac":false,"version":"","steam_id":0,"keywords":null,"game_id":0,"stv_port":0,"stv_name":"","players":null},{"server_id":50,"name":"Uncletopia | Warsaw | 2 | All Maps","name_short":"waw-2","host":"waw-1.pl.uncletopia.com","port":27025,"enabled":true,"region":"eu","cc":"pl","latitude":52.2297,"longitude":21.017532,"reserved":0,"last_update":"0001-01-01T00:00:00Z","name_a2s":"Uncletopia | Warsaw | 2 | All Maps","protocol":17,"map":"koth_harvest_final","folder":"tf","game":"Team Fortress","app_id":440,"player_count":0,"max_players":24,"Bots":0,"server_type":"Dedicated","server_os":"Linux","password":true,"vac":true,"version":"7757534","steam_id":85568392925397851,"keywords":["cp","nocrits","nodmgspread","uncletopia"],"game_id":440,"stv_port":27026,"stv_name":"Uncletopia | Warsaw | 2 | All Maps | STV","players":null},{"server_id":51,"name":"Uncletopia | Warsaw | 3 | All Maps","name_short":"waw-3","host":"waw-1.pl.uncletopia.com","port":27035,"enabled":true,"region":"eu","cc":"pl","latitude":52.2297,"longitude":21.017532,"reserved":0,"last_update":"0001-01-01T00:00:00Z","name_a2s":"Uncletopia | Warsaw | 3 | All Maps","protocol":17,"map":"koth_viaduct","folder":"tf","game":"Team Fortress","app_id":440,"player_count":0,"max_players":24,"Bots":0,"server_type":"Dedicated","server_os":"Linux","password":true,"vac":true,"version":"7757534","steam_id":85568392925397852,"keywords":["cp","nocrits","nodmgspread","uncletopia"],"game_id":440,"stv_port":27036,"stv_name":"Uncletopia | Warsaw | 3 | All Maps | STV","players":null},{"server_id":52,"name":"Uncletopia | Warsaw | 4 | All Maps","name_short":"waw-4","host":"waw-1.pl.uncletopia.com","port":27045,"enabled":true,"region":"eu","cc":"pl","latitude":52.2297,"longitude":21.017532,"reserved":0,"last_update":"0001-01-01T00:00:00Z","name_a2s":"Uncletopia | Warsaw | 4 | All Maps","protocol":17,"map":"koth_cascade","folder":"tf","game":"Team Fortress","app_id":440,"player_count":0,"max_players":24,"Bots":0,"server_type":"Dedicated","server_os":"Linux","password":true,"vac":true,"version":"7757534","steam_id":85568392925397853,"keywords":["cp","nocrits","nodmgspread","uncletopia"],"game_id":440,"stv_port":27046,"stv_name":"Uncletopia | Warsaw | 4 | All Maps | STV","players":null},{"server_id":53,"name":"Uncletopia | Warsaw | 5 | Stopwatch Beta","name_short":"waw-5","host":"waw-1.pl.uncletopia.com","port":27055,"enabled":true,"region":"eu","cc":"pl","latitude":52.2297,"longitude":21.017532,"reserved":0,"last_update":"0001-01-01T00:00:00Z","name_a2s":"Uncletopia | Warsaw | 5 | Stopwatch Beta","protocol":17,"map":"pl_upward","folder":"tf","game":"Team Fortress","app_id":440,"player_count":0,"max_players":24,"Bots":0,"server_type":"Dedicated","server_os":"Linux","password":true,"vac":true,"version":"7757534","steam_id":85568392925397854,"keywords":["nocrits","nodmgspread","payload","uncletopia"],"game_id":440,"stv_port":27056,"stv_name":"Uncletopia | Warsaw | 5 | Stopwatch Beta | STV","players":null},{"server_id":54,"name":"Uncletopia | Warsaw | 6 | Community","name_short":"waw-6","host":"waw-1.pl.uncletopia.com","port":27065,"enabled":true,"region":"eu","cc":"pl","latitude":52.2297,"longitude":21.017532,"reserved":0,"last_update":"0001-01-01T00:00:00Z","name_a2s":"Uncletopia | Warsaw | 6 | Community","protocol":17,"map":"workshop/cp_logjam_rc12.ugc454812035","folder":"tf","game":"Team Fortress","app_id":440,"player_count":1,"max_players":24,"Bots":0,"server_type":"Dedicated","server_os":"Linux","password":true,"vac":true,"version":"7757534","steam_id":85568392925397856,"keywords":["cp","nocrits","nodmgspread","uncletopia"],"game_id":440,"stv_port":27066,"stv_name":"Uncletopia | Warsaw | 6 | Community | STV","players":[{"user_id":9,"name":"Denialman (Muted)","steam_id":76561198309182092,"connected_time":126000000000,"state":"spawning","ping":82}]}]}