{"status":true,"message":"","result":[{"server_id":9,"name":"Uncletopia | Atlanta | 1 | All Maps","name_short":"atl-1","host":"atl-1.us.uncletopia.com","port":27015,"enabled":true,"region":"us-east","cc":"us","latitude":33.753746,"longitude":-84.38633,"reserved":0,"last_update":"0001-01-01T00:00:00Z","name_a2s":"Uncletopia | Atlanta | 1 | All Maps","protocol":17,"map":"pl_frontier_final","folder":"tf","game":"Team Fortress","app_id":440,"player_count":22,"max_players":24,"Bots":0,"server_type":"Dedicated","server_os":"Linux","password":true,"vac":true,"version":"7882260","steam_id":85568392924469982,"keywords":["nocrits","nodmgspread","payload","uncletopia"],"game_id":440,"stv_port":27016,"stv_name":"Uncletopia | Atlanta | 1 | All Maps | STV","players":[{"user_id":456,"name":"Manganese","steam_id":76561198117480134,"connected_time":2581000000000,"state":"active","ping":92},{"user_id":534,"name":"Ġ1 ♦ Synth","steam_id":76561198058660228,"connected_time":822000000000,"state":"active","ping":61},{"user_id":266,"name":"Jowstin","steam_id":76561198170040755,"connected_time":5869000000000,"state":"active","ping":105},{"user_id":552,"name":"xX_HimboSwallower_Xx","steam_id":76561198016029965,"connected_time":353000000000,"state":"active","ping":81},{"user_id":525,"name":"Overlord","steam_id":76561198004425258,"connected_time":960000000000,"state":"active","ping":91},{"user_id":554,"name":"DuskDragon911","steam_id":76561198996036702,"connected_time":248000000000,"state":"active","ping":129},{"user_id":314,"name":"Tree45","steam_id":76561198143698408,"connected_time":4966000000000,"state":"active","ping":115},{"user_id":527,"name":"Nikki","steam_id":76561199485086969,"connected_time":914000000000,"state":"active","ping":139},{"user_id":458,"name":"mer5277","steam_id":76561198192171041,"connected_time":2545000000000,"state":"active","ping":163},{"user_id":540,"name":"Gustavo Fring","steam_id":76561198132807405,"connected_time":698000000000,"state":"active","ping":109},{"user_id":535,"name":"Wutzitmatter","steam_id":76561198067140513,"connected_time":802000000000,"state":"active","ping":134},{"user_id":562,"name":"Mythical","steam_id":76561198362275997,"connected_time":72000000000,"state":"active","ping":125},{"user_id":564,"name":"rican312","steam_id":76561198841770570,"connected_time":15000000000,"state":"spawning","ping":122},{"user_id":537,"name":"TOYSIPO2","steam_id":76561198042183304,"connected_time":767000000000,"state":"active","ping":91},{"user_id":284,"name":"Saerom","steam_id":76561198795935618,"connected_time":5608000000000,"state":"active","ping":108},{"user_id":273,"name":"bass pro shops","steam_id":76561198874094914,"connected_time":5770000000000,"state":"active","ping":116},{"user_id":565,"name":"hierodule","steam_id":76561198023229665,"connected_time":7000000000,"state":"spawning","ping":114},{"user_id":530,"name":"Purple","steam_id":76561199099386211,"connected_time":888000000000,"state":"active","ping":78},{"user_id":369,"name":"Le0901","steam_id":76561198372891244,"connected_time":3856000000000,"state":"active","ping":131},{"user_id":547,"name":"Silverkeys","steam_id":76561197986012496,"connected_time":460000000000,"state":"active","ping":98},{"user_id":473,"name":"Maybe","steam_id":76561198268304564,"connected_time":2253000000000,"state":"active","ping":128},{"user_id":448,"name":"Astrozombeez","steam_id":76561198113754079,"connected_time":2797000000000,"state":"active","ping":132}]},{"server_id":104,"name":"Uncletopia | Atlanta | 2 | All Maps","name_short":"atl-2","host":"atl-1.us.uncletopia.com","port":27025,"enabled":true,"region":"us-east","cc":"us","latitude":33.753746,"longitude":-84.38633,"reserved":0,"last_update":"0001-01-01T00:00:00Z","name_a2s":"Uncletopia | Atlanta | 2 | All Maps","protocol":17,"map":"pl_badwater","folder":"tf","game":"Team Fortress","app_id":440,"player_count":22,"max_players":24,"Bots":0,"server_type":"Dedicated","server_os":"Linux","password":true,"vac":true,"version":"7882260","steam_id":85568392924469983,"keywords":["nocrits","nodmgspread","payload","uncletopia"],"game_id":440,"stv_port":27026,"stv_name":"Uncletopia | Atlanta | 2 | All Maps | STV","players":[{"user_id":382,"name":"living in mushroom park","steam_id":76561198097588802,"connected_time":19000000000,"state":"active","ping":91},{"user_id":363,"name":"menonamed","steam_id":76561198199564382,"connected_time":489000000000,"state":"active","ping":80},{"user_id":367,"name":"Heavy Main","steam_id":76561198333746778,"connected_time":358000000000,"state":"active","ping":122},{"user_id":369,"name":"crack addict","steam_id":76561198091488783,"connected_time":214000000000,"state":"active","ping":77},{"user_id":356,"name":"Gump","steam_id":76561197995129241,"connected_time":713000000000,"state":"active","ping":91},{"user_id":316,"name":"CivilWarMike","steam_id":76561198141188839,"connected_time":2212000000000,"state":"active","ping":72},{"user_id":383,"name":"Xpooky","steam_id":76561198053372186,"connected_time":15000000000,"state":"spawning","ping":108},{"user_id":371,"name":"THICCBEEF GRANDPA","steam_id":76561197993550572,"connected_time":192000000000,"state":"active","ping":103},{"user_id":364,"name":"RokkitFrog","steam_id":76561198046465850,"connected_time":450000000000,"state":"active","ping":103},{"user_id":380,"name":"Kronk","steam_id":76561198063092125,"connected_time":71000000000,"state":"active","ping":102},{"user_id":381,"name":"FuglyPickle","steam_id":76561198052588446,"connected_time":67000000000,"state":"active","ping":107},{"user_id":328,"name":"Glorified Super Soaker","steam_id":76561199078324894,"connected_time":1111000000000,"state":"active","ping":88},{"user_id":329,"name":"GameboyAdvancedSPMobileHotspot","steam_id":76561198413739460,"connected_time":1093000000000,"state":"active","ping":129},{"user_id":332,"name":"GodandTitans","steam_id":76561198070070155,"connected_time":1072000000000,"state":"active","ping":122},{"user_id":372,"name":"crotuslovershanks","steam_id":76561199091300223,"connected_time":192000000000,"state":"active","ping":107},{"user_id":384,"name":"raduski","steam_id":76561198795699119,"connected_time":10000000000,"state":"spawning","ping":134},{"user_id":379,"name":"Testiclees Peesaschmidt","steam_id":76561198050582941,"connected_time":79000000000,"state":"active","ping":103},{"user_id":385,"name":"Thane","steam_id":76561198867766237,"connected_time":9000000000,"state":"spawning","ping":103},{"user_id":377,"name":"noahjwarner09","steam_id":76561199444479988,"connected_time":118000000000,"state":"active","ping":106},{"user_id":350,"name":"bobdabuil3er","steam_id":76561199203014888,"connected_time":775000000000,"state":"active","ping":112},{"user_id":386,"name":"pee fartress poo","steam_id":76561198063152319,"connected_time":7000000000,"state":"spawning","ping":101},{"user_id":351,"name":"KodaDaBear","steam_id":76561199022882665,"connected_time":759000000000,"state":"active","ping":86}]},{"server_id":400,"name":"Uncletopia | Atlanta | 3 | Community","name_short":"atl-3","host":"atl-1.us.uncletopia.com","port":27035,"enabled":true,"region":"us-east","cc":"us","latitude":33.753746,"longitude":-84.38633,"reserved":0,"last_update":"0001-01-01T00:00:00Z","name_a2s":"Uncletopia | Atlanta | 3 | Community","protocol":17,"map":"workshop/pl_fifthcurve_rc1.ugc648227046","folder":"tf","game":"Team Fortress","app_id":440,"player_count":0,"max_players":24,"Bots":0,"server_type":"Dedicated","server_os":"Linux","password":true,"vac":true,"version":"7882260","steam_id":85568392924515187,"keywords":["nocrits","nodmgspread","payload","uncletopia"],"game_id":440,"stv_port":27036,"stv_name":"Uncletopia | Atlanta | 3 | Community | STV","players":null},{"server_id":401,"name":"Uncletopia | Atlanta | 4 | No Payload","name_short":"atl-4","host":"atl-1.us.uncletopia.com","port":27045,"enabled":true,"region":"us-east","cc":"us","latitude":33.753746,"longitude":-84.38633,"reserved":0,"last_update":"0001-01-01T00:00:00Z","name_a2s":"","protocol":0,"map":"","folder":"","game":"","app_id":0,"player_count":0,"max_players":0,"Bots":0,"server_type":"","server_os":"","password":false,"vac":false,"version":"","steam_id":0,"keywords":null,"game_id":0,"stv_port":0,"stv_name":"","players":null},{"server_id":2,"name":"Uncletopia | Chicago | 1 | All Maps","name_short":"chi-1","host":"chi-1.us.uncletopia.com","port":27015,"enabled":true,"region":"us-central","cc":"us","latitude":41.881832,"longitude":-87.62318,"reserved":0,"last_update":"0001-01-01T00:00:00Z","name_a2s":"Uncletopia | Chicago | 1 | All Maps","protocol":17,"map":"cp_sunshine","folder":"tf","game":"Team Fortress","app_id":440,"player_count":24,"max_players":24,"Bots":0,"server_type":"Dedicated","server_os":"Linux","password":true,"vac":true,"version":"7882260","steam_id":85568392924469984,"keywords":["cp","nocrits","nodmgspread","uncletopia"],"game_id":440,"stv_port":27016,"stv_name":"Uncletopia | Chicago | 1 | All Maps | STV","players":[{"user_id":539,"name":"This is hat is one of a kind","steam_id":76561198065649195,"connected_time":3489000000000,"state":"active","ping":91},{"user_id":556,"name":"NUt","steam_id":76561198031007966,"connected_time":2651000000000,"state":"active","ping":74},{"user_id":591,"name":"Zoot","steam_id":76561198121944243,"connected_time":269000000000,"state":"active","ping":77},{"user_id":565,"name":"Captain S. Forrest","steam_id":76561198062463029,"connected_time":2067000000000,"state":"active","ping":64},{"user_id":563,"name":"Homunculus Gambino","steam_id":76561198158433378,"connected_time":2234000000000,"state":"active","ping":71},{"user_id":567,"name":"fudge lord","steam_id":76561198118318422,"connected_time":2052000000000,"state":"active","ping":92},{"user_id":588,"name":"thecal","steam_id":76561198307893384,"connected_time":458000000000,"state":"active","ping":47},{"user_id":583,"name":"Lil Birb","steam_id":76561198041046100,"connected_time":624000000000,"state":"active","ping":75},{"user_id":584,"name":"HoaroBatty","steam_id":76561198120361221,"connected_time":611000000000,"state":"active","ping":74},{"user_id":566,"name":"Astoriae!","steam_id":76561199090168858,"connected_time":2064000000000,"state":"active","ping":66},{"user_id":573,"name":"Moshi Man","steam_id":76561198038249762,"connected_time":1987000000000,"state":"active","ping":45},{"user_id":571,"name":"CasTR34","steam_id":76561198381561291,"connected_time":2006000000000,"state":"active","ping":90},{"user_id":587,"name":"Doomeister","steam_id":76561198070277587,"connected_time":472000000000,"state":"active","ping":112},{"user_id":564,"name":"Evan","steam_id":76561197972292926,"connected_time":2147000000000,"state":"active","ping":74},{"user_id":549,"name":"spy wit da autism","steam_id":76561198400058665,"connected_time":2799000000000,"state":"active","ping":78},{"user_id":589,"name":"Riddle","steam_id":76561198892207399,"connected_time":419000000000,"state":"active","ping":64},{"user_id":545,"name":"aiming with drawing tablet","steam_id":76561198397662124,"connected_time":3174000000000,"state":"active","ping":87},{"user_id":544,"name":"Gabinator32","steam_id":76561198872467183,"connected_time":3194000000000,"state":"active","ping":45},{"user_id":572,"name":"Space Lizard","steam_id":76561198056798193,"connected_time":1995000000000,"state":"active","ping":72},{"user_id":547,"name":"Your Local Queer Librarian","steam_id":76561198013077080,"connected_time":2803000000000,"state":"active","ping":52},{"user_id":590,"name":"Mister Frank","steam_id":76561198161473385,"connected_time":355000000000,"state":"active","ping":66},{"user_id":576,"name":"Luke","steam_id":76561198090671431,"connected_time":1885000000000,"state":"active","ping":74},{"user_id":548,"name":"Farm3rJh0nson","steam_id":76561199166153873,"connected_time":2803000000000,"state":"active","ping":83},{"user_id":581,"name":"feenman","steam_id":76561199383834799,"connected_time":762000000000,"state":"active","ping":95}]},{"server_id":106,"name":"Uncletopia | Chicago | 2 | All Maps","name_short":"chi-2","host":"chi-1.us.uncletopia.com","port":27025,"enabled":true,"region":"us-central","cc":"us","latitude":41.881832,"longitude":-87.62318,"reserved":0,"last_update":"0001-01-01T00:00:00Z","name_a2s":"Uncletopia | Chicago | 2 | All Maps","protocol":17,"map":"pl_pier","folder":"tf","game":"Team Fortress","app_id":440,"player_count":24,"max_players":24,"Bots":0,"server_type":"Dedicated","server_os":"Linux","password":true,"vac":true,"version":"7882260","steam_id":85568392924469985,"keywords":["nocrits","nodmgspread","payload","uncletopia"],"game_id":440,"stv_port":27026,"stv_name":"Uncletopia | Chicago | 2 | All Maps | STV","players":[{"user_id":556,"name":"doughboy","steam_id":76561198219012928,"connected_time":394000000000,"state":"active","ping":105},{"user_id":498,"name":"8bean","steam_id":76561198239138132,"connected_time":5633000000000,"state":"active","ping":59},{"user_id":518,"name":"Jill the Owl","steam_id":76561197999210583,"connected_time":4256000000000,"state":"active","ping":73},{"user_id":547,"name":"leumas","steam_id":76561198240408540,"connected_time":614000000000,"state":"active","ping":84},{"user_id":563,"name":"Animal Slices","steam_id":76561198137545511,"connected_time":126000000000,"state":"active","ping":56},{"user_id":536,"name":"cfs._","steam_id":76561198052978969,"connected_time":2638000000000,"state":"active","ping":61},{"user_id":564,"name":"Sharky Smooth","steam_id":76561198094759458,"connected_time":117000000000,"state":"active","ping":59},{"user_id":549,"name":"matpat morgue scandal","steam_id":76561199161322235,"connected_time":580000000000,"state":"active","ping":60},{"user_id":519,"name":"jolo","steam_id":76561198042831480,"connected_time":4126000000000,"state":"active","ping":75},{"user_id":550,"name":"Jel1440","steam_id":76561198179045366,"connected_time":559000000000,"state":"active","ping":46},{"user_id":559,"name":"whimsical little creature","steam_id":76561198271710504,"connected_time":296000000000,"state":"active","ping":55},{"user_id":545,"name":"aphexjh","steam_id":76561197985854658,"connected_time":937000000000,"state":"active","ping":56},{"user_id":562,"name":"2L84U","steam_id":76561198079176017,"connected_time":171000000000,"state":"active","ping":84},{"user_id":551,"name":"Blitzy","steam_id":76561198149472890,"connected_time":520000000000,"state":"active","ping":75},{"user_id":522,"name":"workin for snapple","steam_id":76561198013732450,"connected_time":3726000000000,"state":"active","ping":48},{"user_id":560,"name":"Mr. Crispy Lips","steam_id":76561198028157625,"connected_time":287000000000,"state":"active","ping":85},{"user_id":542,"name":"Mr. Tickle","steam_id":76561198126684647,"connected_time":1693000000000,"state":"active","ping":61},{"user_id":553,"name":"Tractor Trevor #farmville","steam_id":76561198138221795,"connected_time":490000000000,"state":"active","ping":109},{"user_id":523,"name":"\u003c3Elise\u003c3","steam_id":76561198146435005,"connected_time":3726000000000,"state":"active","ping":87},{"user_id":544,"name":"Poyo Boyo","steam_id":76561198010201227,"connected_time":1059000000000,"state":"active","ping":82},{"user_id":565,"name":"borzier","steam_id":76561198069190432,"connected_time":105000000000,"state":"active","ping":74},{"user_id":566,"name":"Path_The_Finder","steam_id":76561198380416031,"connected_time":76000000000,"state":"active","ping":92},{"user_id":534,"name":"MDMA","steam_id":76561198155990611,"connected_time":2673000000000,"state":"active","ping":112},{"user_id":538,"name":"Parth Makeo","steam_id":76561198002516581,"connected_time":2303000000000,"state":"active","ping":50}]},{"server_id":402,"name":"Uncletopia | Chicago | 3 | All Maps","name_short":"chi-3","host":"chi-1.us.uncletopia.com","port":27035,"enabled":true,"region":"us-central","cc":"us","latitude":41.881832,"longitude":-87.62318,"reserved":0,"last_update":"0001-01-01T00:00:00Z","name_a2s":"Uncletopia | Chicago | 3 | All Maps","protocol":17,"map":"cp_process_final","folder":"tf","game":"Team Fortress","app_id":440,"player_count":24,"max_players":24,"Bots":0,"server_type":"Dedicated","server_os":"Linux","password":true,"vac":true,"version":"7882260","steam_id":85568392924515191,"keywords":["cp","nocrits","nodmgspread","uncletopia"],"game_id":440,"stv_port":27036,"stv_name":"Uncletopia | Chicago | 3 | All Maps | STV","players":[{"user_id":643,"name":"k1tty","steam_id":76561198869348268,"connected_time":899000000000,"state":"active","ping":100},{"user_id":626,"name":"C4K3","steam_id":76561197996963285,"connected_time":2447000000000,"state":"active","ping":74},{"user_id":528,"name":"TheFriendlyPybro","steam_id":76561198119425604,"connected_time":9249000000000,"state":"active","ping":69},{"user_id":678,"name":"James","steam_id":76561198077251918,"connected_time":294000000000,"state":"active","ping":90},{"user_id":612,"name":"carlos.t","steam_id":76561198849981462,"connected_time":2846000000000,"state":"active","ping":62},{"user_id":633,"name":"Rafl","steam_id":76561198055222756,"connected_time":1718000000000,"state":"active","ping":64},{"user_id":683,"name":"stompin out the store gucci bra","steam_id":76561198079416036,"connected_time":55000000000,"state":"active","ping":40},{"user_id":601,"name":"J.G. Klaus","steam_id":76561198001111196,"connected_time":3782000000000,"state":"active","ping":59},{"user_id":679,"name":"Begrip","steam_id":76561198091990094,"connected_time":292000000000,"state":"active","ping":69},{"user_id":636,"name":"JetZ","steam_id":76561199122488957,"connected_time":1076000000000,"state":"active","ping":67},{"user_id":634,"name":"l4d2 marshall","steam_id":76561198042570322,"connected_time":1640000000000,"state":"active","ping":57},{"user_id":614,"name":"Gubbington","steam_id":76561198959381302,"connected_time":2792000000000,"state":"active","ping":103},{"user_id":589,"name":"eat Pant","steam_id":76561197974965536,"connected_time":4271000000000,"state":"active","ping":54},{"user_id":684,"name":"Method Mon Mothma","steam_id":76561197976110189,"connected_time":32000000000,"state":"active","ping":71},{"user_id":639,"name":"dark souls boss","steam_id":76561198316610724,"connected_time":1035000000000,"state":"active","ping":92},{"user_id":641,"name":"canakblasteran","steam_id":76561199472518822,"connected_time":1009000000000,"state":"active","ping":104},{"user_id":622,"name":"crashymicsplody","steam_id":76561198213916765,"connected_time":2636000000000,"state":"active","ping":62},{"user_id":618,"name":"TwelvePackofSaltyBones","steam_id":76561198224764664,"connected_time":2757000000000,"state":"active","ping":53},{"user_id":635,"name":"Jo","steam_id":76561198060447015,"connected_time":1637000000000,"state":"active","ping":78},{"user_id":620,"name":"Cog","steam_id":76561198119812649,"connected_time":2691000000000,"state":"active","ping":63},{"user_id":628,"name":"HanakoToast","steam_id":76561198045233131,"connected_time":2328000000000,"state":"active","ping":119},{"user_id":623,"name":"dicksnip","steam_id":76561198356515396,"connected_time":2629000000000,"state":"active","ping":77},{"user_id":677,"name":"freyja","steam_id":76561198249206656,"connected_time":566000000000,"state":"active","ping":75},{"user_id":629,"name":"bluebluepickles","steam_id":76561198119503953,"connected_time":2311000000000,"state":"active","ping":55}]},{"server_id":403,"name":"Uncletopia | Chicago | 4 | All Maps","name_short":"chi-4","host":"chi-1.us.uncletopia.com","port":27045,"enabled":true,"region":"us-central","cc":"us","latitude":41.881832,"longitude":-87.62318,"reserved":0,"last_update":"0001-01-01T00:00:00Z","name_a2s":"Uncletopia | Chicago | 4 | All Maps","protocol":17,"map":"pl_pier","folder":"tf","game":"Team Fortress","app_id":440,"player_count":24,"max_players":24,"Bots":0,"server_type":"Dedicated","server_os":"Linux","password":true,"vac":true,"version":"7882260","steam_id":85568392924515193,"keywords":["nocrits","nodmgspread","payload","uncletopia"],"game_id":440,"stv_port":27046,"stv_name":"Uncletopia | Chicago | 4 | All Maps | STV","players":[{"user_id":414,"name":"search trollface on google","steam_id":76561198143132686,"connected_time":4530000000000,"state":"active","ping":83},{"user_id":452,"name":"Psykid12","steam_id":76561198061488258,"connected_time":2080000000000,"state":"active","ping":81},{"user_id":469,"name":"Colin102004","steam_id":76561198202384334,"connected_time":740000000000,"state":"active","ping":52},{"user_id":468,"name":"troll","steam_id":76561198040890252,"connected_time":1125000000000,"state":"active","ping":70},{"user_id":470,"name":"scrub","steam_id":76561198284916494,"connected_time":707000000000,"state":"active","ping":47},{"user_id":463,"name":"GeekyNerd54","steam_id":76561198314982395,"connected_time":1818000000000,"state":"active","ping":46},{"user_id":471,"name":"NovaSc6ut","steam_id":76561198277163301,"connected_time":647000000000,"state":"active","ping":71},{"user_id":446,"name":"CraigHawksbill","steam_id":76561199000670185,"connected_time":2725000000000,"state":"active","ping":79},{"user_id":369,"name":"underworld","steam_id":76561198173047169,"connected_time":6898000000000,"state":"active","ping":60},{"user_id":456,"name":"a table","steam_id":76561198158461279,"connected_time":1959000000000,"state":"active","ping":60},{"user_id":464,"name":"Apetometrist","steam_id":76561198045391635,"connected_time":1753000000000,"state":"active","ping":64},{"user_id":435,"name":"Oddball","steam_id":76561198040440984,"connected_time":3386000000000,"state":"active","ping":68},{"user_id":475,"name":"Bird of Paradise","steam_id":76561198891152046,"connected_time":12000000000,"state":"active","ping":135},{"user_id":458,"name":"LordOfTheNoobs","steam_id":76561197962697523,"connected_time":1942000000000,"state":"active","ping":74},{"user_id":472,"name":"Klip","steam_id":76561198316254429,"connected_time":623000000000,"state":"active","ping":77},{"user_id":451,"name":"SPIRE_FAN","steam_id":76561198001486573,"connected_time":2151000000000,"state":"active","ping":61},{"user_id":462,"name":"Epicmullen","steam_id":76561198259850795,"connected_time":1870000000000,"state":"active","ping":68},{"user_id":434,"name":"Doctor Dick Golden-Dingus","steam_id":76561198930116758,"connected_time":3387000000000,"state":"active","ping":30},{"user_id":399,"name":"aleksei","steam_id":76561199061380038,"connected_time":5009000000000,"state":"active","ping":71},{"user_id":436,"name":"smog","steam_id":76561198072179483,"connected_time":3382000000000,"state":"active","ping":90},{"user_id":473,"name":"Takeover","steam_id":76561197996081461,"connected_time":618000000000,"state":"active","ping":60},{"user_id":466,"name":"Lazulf","steam_id":76561198041410859,"connected_time":1491000000000,"state":"active","ping":104},{"user_id":406,"name":"totoro","steam_id":76561198210420871,"connected_time":4845000000000,"state":"active","ping":47},{"user_id":461,"name":"t","steam_id":76561198175988929,"connected_time":1908000000000,"state":"active","ping":66}]},{"server_id":36,"name":"Uncletopia | Chicago | 5 | All Maps","name_short":"chi-5","host":"chi-2.us.uncletopia.com","port":27015,"enabled":true,"region":"us-central","cc":"us","latitude":41.881832,"longitude":-87.62318,"reserved":0,"last_update":"0001-01-01T00:00:00Z","name_a2s":"Uncletopia | Chicago | 5 | All Maps","protocol":17,"map":"pl_frontier_final","folder":"tf","game":"Team Fortress","app_id":440,"player_count":24,"max_players":24,"Bots":0,"server_type":"Dedicated","server_os":"Linux","password":true,"vac":true,"version":"7882260","steam_id":85568392924866362,"keywords":["nocrits","nodmgspread","payload","uncletopia"],"game_id":440,"stv_port":27016,"stv_name":"Uncletopia | Chicago | 5 | All Maps | STV","players":[{"user_id":580,"name":"Kai","steam_id":76561199122866511,"connected_time":99000000000,"state":"active","ping":116},{"user_id":560,"name":"SnazzyCelestial","steam_id":76561198328763813,"connected_time":898000000000,"state":"active","ping":82},{"user_id":549,"name":"PoisonIvy","steam_id":76561198072384574,"connected_time":1815000000000,"state":"active","ping":53},{"user_id":564,"name":"d'oh i missed","steam_id":76561198145320480,"connected_time":539000000000,"state":"active","ping":97},{"user_id":561,"name":"Stapler","steam_id":76561198099295077,"connected_time":886000000000,"state":"active","ping":92},{"user_id":562,"name":"Arche234","steam_id":76561198302695001,"connected_time":748000000000,"state":"active","ping":98},{"user_id":572,"name":"Sean Bae","steam_id":76561198036909521,"connected_time":228000000000,"state":"active","ping":73},{"user_id":553,"name":"comfy","steam_id":76561198258640604,"connected_time":1452000000000,"state":"active","ping":94},{"user_id":581,"name":"Nen","steam_id":76561198893347370,"connected_time":90000000000,"state":"active","ping":107},{"user_id":540,"name":"Quantum Sauce","steam_id":76561198164034337,"connected_time":2195000000000,"state":"active","ping":60},{"user_id":578,"name":"Snoogs","steam_id":76561198444880931,"connected_time":115000000000,"state":"active","ping":69},{"user_id":567,"name":"Blindpeek","steam_id":76561198329193255,"connected_time":445000000000,"state":"active","ping":91},{"user_id":555,"name":"Space⭐Taffy","steam_id":76561198002271720,"connected_time":1360000000000,"state":"active","ping":73},{"user_id":583,"name":"Holiday Fartcruise","steam_id":76561198043851584,"connected_time":25000000000,"state":"active","ping":189},{"user_id":531,"name":"6t26j","steam_id":76561198278282836,"connected_time":2602000000000,"state":"active","ping":45},{"user_id":573,"name":"Gay Cake","steam_id":76561198004388831,"connected_time":228000000000,"state":"active","ping":71},{"user_id":584,"name":"Yimi","steam_id":76561198097984345,"connected_time":18000000000,"state":"spawning","ping":101},{"user_id":550,"name":"Xii","steam_id":76561198860209947,"connected_time":1752000000000,"state":"active","ping":50},{"user_id":500,"name":"HOTA","steam_id":76561199002778841,"connected_time":4735000000000,"state":"active","ping":75},{"user_id":575,"name":"Featherless Biped","steam_id":76561198034171721,"connected_time":210000000000,"state":"active","ping":66},{"user_id":547,"name":"Puke Skyfucker","steam_id":76561198012846213,"connected_time":1957000000000,"state":"active","ping":72},{"user_id":557,"name":"tardigrade gaming","steam_id":76561198260329055,"connected_time":1109000000000,"state":"active","ping":97},{"user_id":548,"name":"PenutButterPirate","steam_id":76561198252962312,"connected_time":1869000000000,"state":"active","ping":66},{"user_id":559,"name":"Hideo","steam_id":76561198390777019,"connected_time":958000000000,"state":"active","ping":104}]},{"server_id":37,"name":"Uncletopia | Chicago | 6 | All Maps","name_short":"chi-6","host":"chi-2.us.uncletopia.com","port":27025,"enabled":true,"region":"us-central","cc":"us","latitude":41.881832,"longitude":-87.62318,"reserved":0,"last_update":"0001-01-01T00:00:00Z","name_a2s":"Uncletopia | Chicago | 6 | All Maps","protocol":17,"map":"pl_barnblitz","folder":"tf","game":"Team Fortress","app_id":440,"player_count":24,"max_players":24,"Bots":0,"server_type":"Dedicated","server_os":"Linux","password":true,"vac":true,"version":"7882260","steam_id":85568392924866363,"keywords":["nocrits","nodmgspread","payload","uncletopia"],"game_id":440,"stv_port":27026,"stv_name":"Uncletopia | Chicago | 6 | All Maps | STV","players":[{"user_id":501,"name":"Vampire","steam_id":76561198162559558,"connected_time":461000000000,"state":"active","ping":55},{"user_id":511,"name":"lanoc","steam_id":76561198055415367,"connected_time":64000000000,"state":"active","ping":60},{"user_id":427,"name":"InchMan","steam_id":76561198272658825,"connected_time":7597000000000,"state":"active","ping":80},{"user_id":502,"name":"basmati jarate","steam_id":76561198319442494,"connected_time":433000000000,"state":"active","ping":109},{"user_id":503,"name":"Orion","steam_id":76561198000418837,"connected_time":431000000000,"state":"active","ping":82},{"user_id":497,"name":"Digitic","steam_id":76561198080295536,"connected_time":1360000000000,"state":"active","ping":79},{"user_id":504,"name":"Bheem","steam_id":76561198170453459,"connected_time":414000000000,"state":"active","ping":81},{"user_id":489,"name":"Dusken","steam_id":76561198020696265,"connected_time":1855000000000,"state":"active","ping":63},{"user_id":487,"name":"Bag","steam_id":76561198012395490,"connected_time":1929000000000,"state":"active","ping":72},{"user_id":472,"name":"Heathcliff","steam_id":76561198044288534,"connected_time":4442000000000,"state":"active","ping":89},{"user_id":496,"name":"Samitch","steam_id":76561198038247982,"connected_time":1437000000000,"state":"active","ping":61},{"user_id":505,"name":"heart of darkness","steam_id":76561198092044952,"connected_time":335000000000,"state":"active","ping":92},{"user_id":495,"name":"cyclops","steam_id":76561197970370198,"connected_time":1579000000000,"state":"active","ping":55},{"user_id":438,"name":"DigitalWizard","steam_id":76561198085936715,"connected_time":7111000000000,"state":"active","ping":95},{"user_id":500,"name":"Mastermind","steam_id":76561198127783432,"connected_time":474000000000,"state":"active","ping":69},{"user_id":510,"name":"sithreis","steam_id":76561198000564263,"connected_time":84000000000,"state":"active","ping":73},{"user_id":467,"name":"Leaderofthe00fkins","steam_id":76561198281999872,"connected_time":5274000000000,"state":"active","ping":105},{"user_id":494,"name":"Generic_Soda","steam_id":76561197993528721,"connected_time":1715000000000,"state":"active","ping":61},{"user_id":499,"name":"comet sooicidy","steam_id":76561198025173479,"connected_time":832000000000,"state":"active","ping":98},{"user_id":453,"name":"get rotated idiot","steam_id":76561198045724540,"connected_time":5865000000000,"state":"active","ping":121},{"user_id":508,"name":"Stonemuffin5922","steam_id":76561199387549094,"connected_time":186000000000,"state":"active","ping":81},{"user_id":512,"name":"Dullahan","steam_id":76561198119668908,"connected_time":10000000000,"state":"active","ping":122},{"user_id":382,"name":"DoubleX2000","steam_id":76561198164134387,"connected_time":11234000000000,"state":"active","ping":111},{"user_id":443,"name":"Steve Greentop","steam_id":76561198119426892,"connected_time":7062000000000,"state":"active","ping":61}]},{"server_id":38,"name":"Uncletopia | Chicago | 7 | Stopwatch Beta","name_short":"chi-7","host":"chi-2.us.uncletopia.com","port":27035,"enabled":true,"region":"us-central","cc":"us","latitude":41.881832,"longitude":-87.62318,"reserved":0,"last_update":"0001-01-01T00:00:00Z","name_a2s":"Uncletopia | Chicago | 7 | Stopwatch Beta","protocol":17,"map":"koth_lakeside_final","folder":"tf","game":"Team Fortress","app_id":440,"player_count":0,"max_players":24,"Bots":0,"server_type":"Dedicated","server_os":"Linux","password":true,"vac":true,"version":"7882260","steam_id":85568392924866364,"keywords":["cp","nocrits","nodmgspread","uncletopia"],"game_id":440,"stv_port":27036,"stv_name":"Uncletopia | Chicago | 7 | Stopwatch Beta | STV","players":null},{"server_id":39,"name":"Uncletopia | Chicago | 8 | Community","name_short":"chi-8","host":"chi-2.us.uncletopia.com","port":27045,"enabled":true,"region":"us-central","cc":"us","latitude":41.881832,"longitude":-87.62318,"reserved":0,"last_update":"0001-01-01T00:00:00Z","name_a2s":"Uncletopia | Chicago | 8 | Community","protocol":17,"map":"workshop/koth_slaughter_rc1.ugc1712845210","folder":"tf","game":"Team Fortress","app_id":440,"player_count":20,"max_players":24,"Bots":0,"server_type":"Dedicated","server_os":"Linux","password":true,"vac":true,"version":"7882260","steam_id":85568392924866365,"keywords":["cp","nocrits","nodmgspread","uncletopia"],"game_id":440,"stv_port":27046,"stv_name":"Uncletopia | Chicago | 8 | Community | STV","players":[{"user_id":207,"name":"jojoalex3033","steam_id":76561199261371620,"connected_time":845000000000,"state":"active","ping":82},{"user_id":175,"name":"the pest","steam_id":76561198826298849,"connected_time":2133000000000,"state":"active","ping":102},{"user_id":194,"name":"K.O. Stradivarius","steam_id":76561198974913245,"connected_time":1244000000000,"state":"active","ping":70},{"user_id":177,"name":"perc 10","steam_id":76561198116471653,"connected_time":2029000000000,"state":"active","ping":98},{"user_id":145,"name":"Van","steam_id":76561198073518712,"connected_time":3831000000000,"state":"active","ping":59},{"user_id":178,"name":"(Voice) God","steam_id":76561198118605824,"connected_time":1990000000000,"state":"active","ping":70},{"user_id":198,"name":"ethanf","steam_id":76561198103930234,"connected_time":1105000000000,"state":"active","ping":52},{"user_id":170,"name":"IMM0RTAL","steam_id":76561198013747901,"connected_time":2587000000000,"state":"active","ping":72},{"user_id":182,"name":"GiraffeMan","steam_id":76561198042104084,"connected_time":1822000000000,"state":"active","ping":73},{"user_id":199,"name":"Intel® HouseFire™ Technology","steam_id":76561198399943008,"connected_time":1076000000000,"state":"active","ping":115},{"user_id":211,"name":"Cats in 3D","steam_id":76561198048051416,"connected_time":137000000000,"state":"active","ping":63},{"user_id":201,"name":"IKOVKY/TTV","steam_id":76561198138035040,"connected_time":1037000000000,"state":"active","ping":38},{"user_id":157,"name":"Mario","steam_id":76561198321794277,"connected_time":3541000000000,"state":"active","ping":55},{"user_id":202,"name":"Professional Brohamad","steam_id":76561198824025210,"connected_time":1024000000000,"state":"active","ping":49},{"user_id":181,"name":"[gamers against weed] fuck","steam_id":76561198294753180,"connected_time":1874000000000,"state":"active","ping":69},{"user_id":203,"name":"YEE","steam_id":76561198317068510,"connected_time":1023000000000,"state":"active","ping":52},{"user_id":162,"name":"dairy delinquent","steam_id":76561198971552734,"connected_time":3439000000000,"state":"active","ping":75},{"user_id":210,"name":"Dr. Robotniks Mean Bean Machine","steam_id":76561198047980627,"connected_time":509000000000,"state":"active","ping":53},{"user_id":206,"name":"Quadruple Baconator with Cheese","steam_id":76561198264534509,"connected_time":882000000000,"state":"active","ping":70},{"user_id":208,"name":"Field Marshal Kermit Von Frog","steam_id":76561198098493337,"connected_time":819000000000,"state":"active","ping":62}]},{"server_id":8,"name":"Uncletopia | Dallas | 1 | All Maps","name_short":"dal-1","host":"dal-1.us.uncletopia.com","port":27015,"enabled":true,"region":"us-central","cc":"us","latitude":32.779167,"longitude":-96.80889,"reserved":0,"last_update":"0001-01-01T00:00:00Z","name_a2s":"Uncletopia | Dallas | 1 | All Maps","protocol":17,"map":"pl_badwater","folder":"tf","game":"Team Fortress","app_id":440,"player_count":24,"max_players":24,"Bots":0,"server_type":"Dedicated","server_os":"Linux","password":true,"vac":true,"version":"7882260","steam_id":85568392924469986,"keywords":["nocrits","nodmgspread","payload","uncletopia"],"game_id":440,"stv_port":27016,"stv_name":"Uncletopia | Dallas | 1 | All Maps | STV","players":[{"user_id":695,"name":"Grilled Jizo","steam_id":76561199250875340,"connected_time":554000000000,"state":"active","ping":105},{"user_id":655,"name":"errant","steam_id":76561197961758410,"connected_time":4654000000000,"state":"active","ping":39},{"user_id":694,"name":"Flashtasm","steam_id":76561198026635660,"connected_time":580000000000,"state":"active","ping":85},{"user_id":692,"name":"Red","steam_id":76561198031865869,"connected_time":653000000000,"state":"active","ping":64},{"user_id":675,"name":"mkl","steam_id":76561197986401685,"connected_time":1997000000000,"state":"active","ping":59},{"user_id":670,"name":"Tokiw","steam_id":76561197996334383,"connected_time":2717000000000,"state":"active","ping":72},{"user_id":665,"name":"plink","steam_id":76561198057829889,"connected_time":2802000000000,"state":"active","ping":54},{"user_id":599,"name":"Top-G Man","steam_id":76561199122152458,"connected_time":8510000000000,"state":"active","ping":70},{"user_id":677,"name":"Drapph","steam_id":76561199384213314,"connected_time":1924000000000,"state":"active","ping":99},{"user_id":684,"name":"AtomicSexMachine","steam_id":76561198886585159,"connected_time":1200000000000,"state":"active","ping":56},{"user_id":700,"name":"Ghetto Smosh Fan","steam_id":76561198097272509,"connected_time":23000000000,"state":"active","ping":51},{"user_id":698,"name":"The Cool Man","steam_id":76561198096420556,"connected_time":469000000000,"state":"active","ping":78},{"user_id":666,"name":"dailydiamond","steam_id":76561199123582502,"connected_time":2742000000000,"state":"active","ping":112},{"user_id":589,"name":"Bogey","steam_id":76561198096227944,"connected_time":9090000000000,"state":"active","ping":42},{"user_id":673,"name":"SteeredAxe","steam_id":76561198081309492,"connected_time":2291000000000,"state":"active","ping":75},{"user_id":685,"name":"Saul Goodman (real)","steam_id":76561198057374871,"connected_time":1187000000000,"state":"active","ping":90},{"user_id":658,"name":"brains","steam_id":76561198197388678,"connected_time":4199000000000,"state":"active","ping":78},{"user_id":699,"name":"momb","steam_id":76561198142234038,"connected_time":440000000000,"state":"active","ping":86},{"user_id":678,"name":"I am a mooshroom","steam_id":76561198104198295,"connected_time":1919000000000,"state":"active","ping":68},{"user_id":661,"name":"Xavibite","steam_id":76561198209380493,"connected_time":3732000000000,"state":"active","ping":76},{"user_id":681,"name":"iluvtoust","steam_id":76561198869269207,"connected_time":1893000000000,"state":"active","ping":45},{"user_id":686,"name":"NIИ","steam_id":76561198042444734,"connected_time":1185000000000,"state":"active","ping":71},{"user_id":688,"name":"LivingRaccoon","steam_id":76561198035425632,"connected_time":1119000000000,"state":"active","ping":80},{"user_id":650,"name":"Wine, Good sir?","steam_id":76561198413806134,"connected_time":5230000000000,"state":"active","ping":59}]},{"server_id":108,"name":"Uncletopia | Dallas | 2 | All Maps","name_short":"dal-2","host":"dal-1.us.uncletopia.com","port":27025,"enabled":true,"region":"us-central","cc":"us","latitude":32.779167,"longitude":-96.80889,"reserved":0,"last_update":"0001-01-01T00:00:00Z","name_a2s":"Uncletopia | Dallas | 2 | All Maps","protocol":17,"map":"cp_freight_final1","folder":"tf","game":"Team Fortress","app_id":440,"player_count":24,"max_players":24,"Bots":0,"server_type":"Dedicated","server_os":"Linux","password":true,"vac":true,"version":"7882260","steam_id":85568392924469988,"keywords":["cp","nocrits","nodmgspread","uncletopia"],"game_id":440,"stv_port":27026,"stv_name":"Uncletopia | Dallas | 2 | All Maps | STV","players":[{"user_id":476,"name":"scrapheap","steam_id":76561198202407087,"connected_time":362000000000,"state":"active","ping":99},{"user_id":473,"name":"Petrichor","steam_id":76561198323397375,"connected_time":483000000000,"state":"active","ping":89},{"user_id":462,"name":"BB Lorexav","steam_id":76561198207565988,"connected_time":1450000000000,"state":"active","ping":92},{"user_id":467,"name":"☂Bliffenstimmers☂","steam_id":76561198059984896,"connected_time":1385000000000,"state":"active","ping":61},{"user_id":469,"name":"M17 | newbie.tf","steam_id":76561198124771378,"connected_time":1225000000000,"state":"active","ping":71},{"user_id":445,"name":"bungacowa","steam_id":76561198979176018,"connected_time":3384000000000,"state":"active","ping":88},{"user_id":448,"name":"Karmayeli","steam_id":76561198978162758,"connected_time":3298000000000,"state":"active","ping":113},{"user_id":454,"name":"taylor swift","steam_id":76561198151135298,"connected_time":2555000000000,"state":"active","ping":71},{"user_id":470,"name":"Phat Cat","steam_id":76561198123017274,"connected_time":1126000000000,"state":"active","ping":77},{"user_id":422,"name":"Miro","steam_id":76561198936412406,"connected_time":4932000000000,"state":"active","ping":74},{"user_id":446,"name":"Dispenser","steam_id":76561199264073138,"connected_time":3378000000000,"state":"active","ping":65},{"user_id":441,"name":"Kerpal45","steam_id":76561198153340350,"connected_time":3858000000000,"state":"active","ping":95},{"user_id":474,"name":"zeplinnn","steam_id":76561198301300987,"connected_time":456000000000,"state":"active","ping":86},{"user_id":477,"name":"Clawkikker","steam_id":76561198269433962,"connected_time":303000000000,"state":"active","ping":40},{"user_id":479,"name":"MeatShield 2000","steam_id":76561199375192850,"connected_time":135000000000,"state":"active","ping":124},{"user_id":471,"name":"Theory-Y","steam_id":76561198116419931,"connected_time":1115000000000,"state":"active","ping":113},{"user_id":480,"name":"bogus","steam_id":76561198377555279,"connected_time":124000000000,"state":"active","ping":88},{"user_id":447,"name":"JoTemple","steam_id":76561198086031174,"connected_time":3364000000000,"state":"active","ping":86},{"user_id":344,"name":"Sableye","steam_id":76561198061247147,"connected_time":10275000000000,"state":"active","ping":75},{"user_id":456,"name":"Big Oil","steam_id":76561199238964574,"connected_time":2536000000000,"state":"active","ping":87},{"user_id":443,"name":"Marc Antony","steam_id":76561198011366517,"connected_time":3767000000000,"state":"active","ping":76},{"user_id":432,"name":"tylerCHALEX","steam_id":76561199024451937,"connected_time":4362000000000,"state":"active","ping":57},{"user_id":427,"name":"DeckofDragons","steam_id":76561198057398213,"connected_time":4688000000000,"state":"active","ping":78},{"user_id":466,"name":"Tomoko2001","steam_id":76561198047117990,"connected_time":1391000000000,"state":"active","ping":70}]},{"server_id":5,"name":"Uncletopia | Frankfurt | 1 | All Maps","name_short":"frk-1","host":"frk-1.de.uncletopia.com","port":27015,"enabled":true,"region":"eu","cc":"de","latitude":50.110924,"longitude":8.682127,"reserved":0,"last_update":"0001-01-01T00:00:00Z","name_a2s":"Uncletopia | Frankfurt | 1 | All Maps","protocol":17,"map":"koth_highpass","folder":"tf","game":"Team Fortress","app_id":440,"player_count":0,"max_players":24,"Bots":0,"server_type":"Dedicated","server_os":"Linux","password":true,"vac":true,"version":"7882260","steam_id":85568392924469989,"keywords":["cp","nocrits","nodmgspread","uncletopia"],"game_id":440,"stv_port":27016,"stv_name":"Uncletopia | Frankfurt | 1 | All Maps | STV","players":null},{"server_id":110,"name":"Uncletopia | Frankfurt | 2 | All Maps","name_short":"frk-2","host":"frk-1.de.uncletopia.com","port":27025,"enabled":true,"region":"eu","cc":"de","latitude":50.110924,"longitude":8.682127,"reserved":0,"last_update":"0001-01-01T00:00:00Z","name_a2s":"Uncletopia | Frankfurt | 2 | All Maps","protocol":17,"map":"cp_sunshine","folder":"tf","game":"Team Fortress","app_id":440,"player_count":0,"max_players":24,"Bots":0,"server_type":"Dedicated","server_os":"Linux","password":true,"vac":true,"version":"7882260","steam_id":85568392924469990,"keywords":["cp","nocrits","nodmgspread","uncletopia"],"game_id":440,"stv_port":27026,"stv_name":"Uncletopia | Frankfurt | 2 | All Maps | STV","players":null},{"server_id":308,"name":"Uncletopia | Frankfurt | 3 | All Maps","name_short":"frk-3","host":"frk-1.de.uncletopia.com","port":27035,"enabled":true,"region":"eu","cc":"de","latitude":50.110924,"longitude":8.682127,"reserved":0,"last_update":"0001-01-01T00:00:00Z","name_a2s":"Uncletopia | Frankfurt | 3 | All Maps","protocol":17,"map":"koth_lakeside_final","folder":"tf","game":"Team Fortress","app_id":440,"player_count":0,"max_players":24,"Bots":0,"server_type":"Dedicated","server_os":"Linux","password":true,"vac":true,"version":"7882260","steam_id":85568392924504274,"keywords":["cp","nocrits","nodmgspread","uncletopia"],"game_id":440,"stv_port":27036,"stv_name":"Uncletopia | Frankfurt | 3 | All Maps | STV","players":null},{"server_id":309,"name":"Uncletopia | Frankfurt | 4 | All Maps","name_short":"frk-4","host":"frk-1.de.uncletopia.com","port":27045,"enabled":true,"region":"eu","cc":"de","latitude":50.110924,"longitude":8.682127,"reserved":0,"last_update":"0001-01-01T00:00:00Z","name_a2s":"Uncletopia | Frankfurt | 4 | All Maps","protocol":17,"map":"cp_altitude","folder":"tf","game":"Team Fortress","app_id":440,"player_count":0,"max_players":24,"Bots":0,"server_type":"Dedicated","server_os":"Linux","password":true,"vac":true,"version":"7882260","steam_id":85568392924504275,"keywords":["cp","nocrits","nodmgspread","uncletopia"],"game_id":440,"stv_port":27046,"stv_name":"Uncletopia | Frankfurt | 4 | All Maps | STV","players":null},{"server_id":310,"name":"Uncletopia | Frankfurt | 5 | All Maps","name_short":"frk-5","host":"frk-1.de.uncletopia.com","port":27055,"enabled":true,"region":"eu","cc":"de","latitude":50.110924,"longitude":8.682127,"reserved":0,"last_update":"0001-01-01T00:00:00Z","name_a2s":"Uncletopia | Frankfurt | 5 | All Maps","protocol":17,"map":"cp_dustbowl","folder":"tf","game":"Team Fortress","app_id":440,"player_count":0,"max_players":24,"Bots":0,"server_type":"Dedicated","server_os":"Linux","password":true,"vac":true,"version":"7882260","steam_id":85568392924504277,"keywords":["cp","nocrits","nodmgspread","uncletopia"],"game_id":440,"stv_port":27056,"stv_name":"Uncletopia | Frankfurt | 5 | All Maps | STV","players":null},{"server_id":311,"name":"Uncletopia | Frankfurt | 6 | All Maps","name_short":"frk-6","host":"frk-1.de.uncletopia.com","port":27065,"enabled":true,"region":"eu","cc":"de","latitude":50.110924,"longitude":8.682127,"reserved":0,"last_update":"0001-01-01T00:00:00Z","name_a2s":"Uncletopia | Frankfurt | 6 | All Maps","protocol":17,"map":"koth_highpass","folder":"tf","game":"Team Fortress","app_id":440,"player_count":0,"max_players":24,"Bots":0,"server_type":"Dedicated","server_os":"Linux","password":true,"vac":true,"version":"7882260","steam_id":85568392924504278,"keywords":["cp","nocrits","nodmgspread","uncletopia"],"game_id":440,"stv_port":27066,"stv_name":"Uncletopia | Frankfurt | 6 | All Maps | STV","players":null},{"server_id":23,"name":"Uncletopia | Frankfurt | 7 | Stopwatch Beta","name_short":"frk-7","host":"frk-1.de.uncletopia.com","port":27075,"enabled":true,"region":"eu","cc":"de","latitude":50.110924,"longitude":8.682127,"reserved":0,"last_update":"0001-01-01T00:00:00Z","name_a2s":"Uncletopia | Frankfurt | 7 | Stopwatch Beta","protocol":17,"map":"pl_swiftwater_final1","folder":"tf","game":"Team Fortress","app_id":440,"player_count":0,"max_players":24,"Bots":0,"server_type":"Dedicated","server_os":"Linux","password":true,"vac":true,"version":"7882260","steam_id":85568392924742827,"keywords":["nocrits","nodmgspread","payload","uncletopia"],"game_id":440,"stv_port":27076,"stv_name":"Uncletopia | Frankfurt | 7 | Stopwatch Beta | STV","players":null},{"server_id":24,"name":"Uncletopia | Frankfurt | 8 | Community","name_short":"frk-8","host":"frk-1.de.uncletopia.com","port":27085,"enabled":true,"region":"eu","cc":"de","latitude":50.110924,"longitude":8.682127,"reserved":0,"last_update":"0001-01-01T00:00:00Z","name_a2s":"Uncletopia | Frankfurt | 8 | Community","protocol":17,"map":"workshop/koth_kemptown_rc1.ugc767410655","folder":"tf","game":"Team Fortress","app_id":440,"player_count":0,"max_players":24,"Bots":0,"server_type":"Dedicated","server_os":"Linux","password":true,"vac":true,"version":"7882260","steam_id":85568392924742828,"keywords":["cp","nocrits","nodmgspread","uncletopia"],"game_id":440,"stv_port":27086,"stv_name":"Uncletopia | Frankfurt | 8 | Community | STV","players":null},{"server_id":202,"name":"Uncletopia | Hong Kong | 1 | All Maps","name_short":"hgk-1","host":"hgk-1.hk.uncletopia.com","port":27015,"enabled":true,"region":"asia","cc":"hk","latitude":22.302711,"longitude":114.177216,"reserved":0,"last_update":"0001-01-01T00:00:00Z","name_a2s":"Uncletopia | Hong Kong | 1 | All Maps","protocol":17,"map":"koth_viaduct","folder":"tf","game":"Team Fortress","app_id":440,"player_count":0,"max_players":24,"Bots":0,"server_type":"Dedicated","server_os":"Linux","password":true,"vac":true,"version":"7882260","steam_id":85568392924494504,"keywords":["cp","nocrits","nodmgspread","uncletopia"],"game_id":440,"stv_port":27016,"stv_name":"Uncletopia | Hong Kong | 1 | All Maps | STV","players":null},{"server_id":1,"name":"Uncletopia | Los Angeles | 1 | All Maps","name_short":"lax-1","host":"lax-1.us.uncletopia.com","port":27015,"enabled":true,"region":"us-west","cc":"us","latitude":33.94279,"longitude":-118.41004,"reserved":0,"last_update":"0001-01-01T00:00:00Z","name_a2s":"Uncletopia | Los Angeles | 1 | All Maps","protocol":17,"map":"pl_borneo","folder":"tf","game":"Team Fortress","app_id":440,"player_count":24,"max_players":24,"Bots":0,"server_type":"Dedicated","server_os":"Linux","password":true,"vac":true,"version":"7882260","steam_id":85568392924469991,"keywords":["nocrits","nodmgspread","payload","uncletopia"],"game_id":440,"stv_port":27016,"stv_name":"Uncletopia | Los Angeles | 1 | All Maps | STV","players":[{"user_id":599,"name":"Magician357","steam_id":76561198009308255,"connected_time":658000000000,"state":"active","ping":54},{"user_id":602,"name":"flop","steam_id":76561199230528008,"connected_time":156000000000,"state":"active","ping":58},{"user_id":590,"name":"Zigadox","steam_id":76561198079813479,"connected_time":1602000000000,"state":"active","ping":120},{"user_id":525,"name":"HeroOfTime","steam_id":76561199096218001,"connected_time":6506000000000,"state":"active","ping":52},{"user_id":591,"name":"Rufious","steam_id":76561198082572510,"connected_time":1319000000000,"state":"active","ping":99},{"user_id":593,"name":"Soda","steam_id":76561198219209367,"connected_time":880000000000,"state":"active","ping":65},{"user_id":581,"name":"The Helpful Mute","steam_id":76561198078359985,"connected_time":2113000000000,"state":"active","ping":109},{"user_id":592,"name":"HispanicHypocrite","steam_id":76561199436076398,"connected_time":1228000000000,"state":"active","ping":61},{"user_id":594,"name":"SilverMango","steam_id":76561198091243252,"connected_time":855000000000,"state":"active","ping":59},{"user_id":595,"name":"Dive(z)","steam_id":76561198140843225,"connected_time":850000000000,"state":"active","ping":76},{"user_id":573,"name":"Taijo","steam_id":76561199237601803,"connected_time":2378000000000,"state":"active","ping":67},{"user_id":596,"name":"The Super Mario Bros. Movie","steam_id":76561198871692156,"connected_time":845000000000,"state":"active","ping":75},{"user_id":546,"name":"[DATS➡] Sugar Meowth","steam_id":76561197995251793,"connected_time":5060000000000,"state":"active","ping":70},{"user_id":571,"name":"werolat","steam_id":76561197960544784,"connected_time":2394000000000,"state":"active","ping":56},{"user_id":559,"name":"Bloodgoat","steam_id":76561198047407295,"connected_time":3563000000000,"state":"active","ping":68},{"user_id":534,"name":"Raphael","steam_id":76561198101425586,"connected_time":6260000000000,"state":"active","ping":80},{"user_id":580,"name":"confused","steam_id":76561199391930993,"connected_time":2156000000000,"state":"active","ping":51},{"user_id":597,"name":"soltuno","steam_id":76561198074430565,"connected_time":806000000000,"state":"active","ping":64},{"user_id":520,"name":"swifthicky12op","steam_id":76561198262210064,"connected_time":7169000000000,"state":"active","ping":104},{"user_id":588,"name":"Jimmy","steam_id":76561198857959855,"connected_time":1815000000000,"state":"active","ping":49},{"user_id":603,"name":"Timewaves","steam_id":76561198000186054,"connected_time":154000000000,"state":"active","ping":50},{"user_id":587,"name":"t2h","steam_id":76561198057944303,"connected_time":2011000000000,"state":"active","ping":69},{"user_id":504,"name":"insane jester","steam_id":76561198079609974,"connected_time":7860000000000,"state":"active","ping":60},{"user_id":538,"name":"..flop","steam_id":76561197989058876,"connected_time":5646000000000,"state":"active","ping":76}]},{"server_id":112,"name":"Uncletopia | Los Angeles | 2 | All Maps","name_short":"lax-2","host":"lax-1.us.uncletopia.com","port":27025,"enabled":true,"region":"us-west","cc":"us","latitude":33.94279,"longitude":-118.41004,"reserved":0,"last_update":"0001-01-01T00:00:00Z","name_a2s":"Uncletopia | Los Angeles | 2 | All Maps","protocol":17,"map":"pl_frontier_final","folder":"tf","game":"Team Fortress","app_id":440,"player_count":24,"max_players":24,"Bots":0,"server_type":"Dedicated","server_os":"Linux","password":true,"vac":true,"version":"7882260","steam_id":85568392924469992,"keywords":["nocrits","nodmgspread","payload","uncletopia"],"game_id":440,"stv_port":27026,"stv_name":"Uncletopia | Los Angeles | 2 | All Maps | STV","players":[{"user_id":353,"name":"Pyrotek⁴","steam_id":76561198072747672,"connected_time":519000000000,"state":"active","ping":45},{"user_id":271,"name":"[ØWQJØ]chubacaalatake","steam_id":76561198136201697,"connected_time":6183000000000,"state":"active","ping":87},{"user_id":349,"name":"takeshi_","steam_id":76561198148797456,"connected_time":650000000000,"state":"active","ping":56},{"user_id":313,"name":"Hudzun","steam_id":76561198970530787,"connected_time":1942000000000,"state":"active","ping":58},{"user_id":355,"name":"stboncho","steam_id":76561198172275301,"connected_time":449000000000,"state":"active","ping":66},{"user_id":365,"name":"space marine funko pop","steam_id":76561198829823905,"connected_time":61000000000,"state":"active","ping":61},{"user_id":348,"name":"Crafty","steam_id":76561199217624073,"connected_time":670000000000,"state":"active","ping":50},{"user_id":321,"name":"samvaluez","steam_id":76561199213743808,"connected_time":1597000000000,"state":"active","ping":69},{"user_id":320,"name":"Gerbias","steam_id":76561198001002427,"connected_time":1624000000000,"state":"active","ping":59},{"user_id":363,"name":"burts bee","steam_id":76561198147966219,"connected_time":116000000000,"state":"active","ping":65},{"user_id":356,"name":"weed","steam_id":76561199128192017,"connected_time":407000000000,"state":"active","ping":84},{"user_id":358,"name":"bobletoob","steam_id":76561199184464900,"connected_time":261000000000,"state":"active","ping":55},{"user_id":357,"name":"Potato Knishes","steam_id":76561198063539547,"connected_time":284000000000,"state":"active","ping":84},{"user_id":361,"name":"Atomic_Rooster","steam_id":76561197992862398,"connected_time":201000000000,"state":"active","ping":103},{"user_id":340,"name":"Igrium","steam_id":76561198119549811,"connected_time":927000000000,"state":"active","ping":71},{"user_id":326,"name":"California Jew","steam_id":76561198914032112,"connected_time":1513000000000,"state":"active","ping":48},{"user_id":339,"name":"Reginald","steam_id":76561199069577737,"connected_time":975000000000,"state":"active","ping":51},{"user_id":360,"name":"kelvin","steam_id":76561198121215313,"connected_time":248000000000,"state":"active","ping":48},{"user_id":315,"name":"rad killl raccoon","steam_id":76561198980975595,"connected_time":1913000000000,"state":"active","ping":97},{"user_id":332,"name":"DJ Sheeve","steam_id":76561198095910139,"connected_time":1313000000000,"state":"active","ping":101},{"user_id":362,"name":"Pan-Demonica","steam_id":76561198294350105,"connected_time":183000000000,"state":"active","ping":96},{"user_id":334,"name":"Clover","steam_id":76561198286543827,"connected_time":1299000000000,"state":"active","ping":104},{"user_id":364,"name":"krarv","steam_id":76561199037042318,"connected_time":93000000000,"state":"active","ping":78},{"user_id":344,"name":"THE PRODIGAL STUNNA","steam_id":76561198325613425,"connected_time":904000000000,"state":"active","ping":81}]},{"server_id":324,"name":"Uncletopia | Los Angeles | 3 | All Maps","name_short":"lax-3","host":"lax-1.us.uncletopia.com","port":27035,"enabled":true,"region":"us-west","cc":"us","latitude":33.94279,"longitude":-118.41004,"reserved":0,"last_update":"0001-01-01T00:00:00Z","name_a2s":"Uncletopia | Los Angeles | 3 | All Maps","protocol":17,"map":"pl_goldrush","folder":"tf","game":"Team Fortress","app_id":440,"player_count":24,"max_players":24,"Bots":0,"server_type":"Dedicated","server_os":"Linux","password":true,"vac":true,"version":"7882260","steam_id":85568392924510198,"keywords":["nocrits","nodmgspread","payload","uncletopia"],"game_id":440,"stv_port":27036,"stv_name":"Uncletopia | Los Angeles | 3 | All Maps | STV","players":[{"user_id":136,"name":"Donsaxton","steam_id":76561198106454414,"connected_time":192000000000,"state":"active","ping":69},{"user_id":99,"name":"Gamma","steam_id":76561198162485719,"connected_time":3219000000000,"state":"active","ping":53},{"user_id":119,"name":"Destroyer1004","steam_id":76561199367685913,"connected_time":1547000000000,"state":"active","ping":86},{"user_id":139,"name":"Slippy","steam_id":76561198334059206,"connected_time":117000000000,"state":"active","ping":60},{"user_id":120,"name":"Vlad","steam_id":76561198072334604,"connected_time":1479000000000,"state":"active","ping":80},{"user_id":140,"name":"AT✪MIC","steam_id":76561198100385184,"connected_time":68000000000,"state":"active","ping":53},{"user_id":100,"name":"gruesome twosome","steam_id":76561198380018244,"connected_time":3206000000000,"state":"active","ping":90},{"user_id":115,"name":"P.C. Baby","steam_id":76561198067011379,"connected_time":2151000000000,"state":"active","ping":55},{"user_id":38,"name":"cielael","steam_id":76561198043971956,"connected_time":6405000000000,"state":"active","ping":51},{"user_id":103,"name":"cycoone","steam_id":76561198059745285,"connected_time":3144000000000,"state":"active","ping":103},{"user_id":121,"name":"thedeadlyamoeba","steam_id":76561198040810178,"connected_time":1453000000000,"state":"active","ping":68},{"user_id":122,"name":"Paranoid_Manatee","steam_id":76561198068623572,"connected_time":1443000000000,"state":"active","ping":68},{"user_id":123,"name":"Type 3 Diabeetus","steam_id":76561198074044431,"connected_time":1412000000000,"state":"active","ping":98},{"user_id":105,"name":"1DishSoap","steam_id":76561198218738785,"connected_time":3103000000000,"state":"active","ping":117},{"user_id":106,"name":"Graylmao","steam_id":76561198091598879,"connected_time":3099000000000,"state":"active","ping":119},{"user_id":133,"name":"Ralph Kramden (Slim Charles)","steam_id":76561197981687895,"connected_time":460000000000,"state":"active","ping":66},{"user_id":131,"name":"fat black man named rawanda","steam_id":76561198800365464,"connected_time":918000000000,"state":"active","ping":85},{"user_id":138,"name":"LWebb","steam_id":76561199162936929,"connected_time":158000000000,"state":"active","ping":130},{"user_id":126,"name":"459d","steam_id":76561198336142389,"connected_time":1367000000000,"state":"active","ping":115},{"user_id":107,"name":"MeAmJosh","steam_id":76561198064983436,"connected_time":3097000000000,"state":"active","ping":96},{"user_id":108,"name":"meisNate","steam_id":76561198215261695,"connected_time":3094000000000,"state":"active","ping":71},{"user_id":124,"name":"gruesome onesome","steam_id":76561198271964253,"connected_time":1402000000000,"state":"active","ping":109},{"user_id":125,"name":"vargasethan34","steam_id":76561199122037357,"connected_time":1398000000000,"state":"active","ping":92},{"user_id":129,"name":"HazmatHarry_TTV","steam_id":76561199003107869,"connected_time":1286000000000,"state":"active","ping":61}]},{"server_id":25,"name":"Uncletopia | Los Angeles | 4 | Stopwatch Beta","name_short":"lax-4","host":"lax-1.us.uncletopia.com","port":27045,"enabled":true,"region":"us-west","cc":"us","latitude":33.94279,"longitude":-118.41004,"reserved":0,"last_update":"0001-01-01T00:00:00Z","name_a2s":"Uncletopia | Los Angeles | 4 | Stopwatch Beta","protocol":17,"map":"koth_viaduct","folder":"tf","game":"Team Fortress","app_id":440,"player_count":0,"max_players":24,"Bots":0,"server_type":"Dedicated","server_os":"Linux","password":true,"vac":true,"version":"7882260","steam_id":85568392924510199,"keywords":["cp","nocrits","nodmgspread","uncletopia"],"game_id":440,"stv_port":27046,"stv_name":"Uncletopia | Los Angeles | 4 | Stopwatch Beta | STV","players":null},{"server_id":11,"name":"Uncletopia | London | 1 | All Maps","name_short":"lon-1","host":"lon-1.uk.uncletopia.com","port":27015,"enabled":true,"region":"eu","cc":"gb","latitude":51.509865,"longitude":-0.118092,"reserved":0,"last_update":"0001-01-01T00:00:00Z","name_a2s":"Uncletopia | London | 1 | All Maps","protocol":17,"map":"pl_borneo","folder":"tf","game":"Team Fortress","app_id":440,"player_count":0,"max_players":24,"Bots":0,"server_type":"Dedicated","server_os":"Linux","password":true,"vac":true,"version":"7882260","steam_id":85568392924367362,"keywords":["nocrits","nodmgspread","payload","uncletopia"],"game_id":440,"stv_port":27016,"stv_name":"Uncletopia | London | 1 | All Maps | STV","players":null},{"server_id":114,"name":"Uncletopia | London | 2 | All Maps","name_short":"lon-2","host":"lon-1.uk.uncletopia.com","port":27025,"enabled":true,"region":"eu","cc":"gb","latitude":51.509865,"longitude":-0.118092,"reserved":0,"last_update":"0001-01-01T00:00:00Z","name_a2s":"Uncletopia | London | 2 | All Maps","protocol":17,"map":"pl_borneo","folder":"tf","game":"Team Fortress","app_id":440,"player_count":24,"max_players":24,"Bots":0,"server_type":"Dedicated","server_os":"Linux","password":true,"vac":true,"version":"7882260","steam_id":85568392924470941,"keywords":["nocrits","nodmgspread","payload","uncletopia"],"game_id":440,"stv_port":27026,"stv_name":"Uncletopia | London | 2 | All Maps | STV","players":[{"user_id":439,"name":"B4R10N","steam_id":76561198047167954,"connected_time":1224000000000,"state":"active","ping":33},{"user_id":436,"name":"volkiano","steam_id":76561198319802031,"connected_time":1310000000000,"state":"active","ping":48},{"user_id":400,"name":"BiałyGołąb","steam_id":76561198137844874,"connected_time":3573000000000,"state":"active","ping":70},{"user_id":441,"name":"tonroshi","steam_id":76561199435854673,"connected_time":248000000000,"state":"active","ping":45},{"user_id":443,"name":"shankz","steam_id":76561198128803260,"connected_time":160000000000,"state":"active","ping":49},{"user_id":417,"name":"Dan the man","steam_id":76561197993573576,"connected_time":2562000000000,"state":"active","ping":82},{"user_id":373,"name":"Glitch","steam_id":76561198081895538,"connected_time":5175000000000,"state":"active","ping":55},{"user_id":392,"name":"TommyNT","steam_id":76561198052473121,"connected_time":3894000000000,"state":"active","ping":56},{"user_id":423,"name":"turn the fridge on","steam_id":76561199480942903,"connected_time":2348000000000,"state":"active","ping":70},{"user_id":345,"name":"satiss","steam_id":76561198871594476,"connected_time":7192000000000,"state":"active","ping":149},{"user_id":430,"name":"why rum gone","steam_id":76561198158484784,"connected_time":2104000000000,"state":"active","ping":69},{"user_id":404,"name":"Vibing Wave","steam_id":76561198866358613,"connected_time":3213000000000,"state":"active","ping":173},{"user_id":444,"name":"Bada Bing!","steam_id":76561198073332036,"connected_time":16000000000,"state":"active","ping":135},{"user_id":445,"name":"noodle boi","steam_id":76561198980304273,"connected_time":9000000000,"state":"spawning","ping":36},{"user_id":414,"name":"Tormy","steam_id":76561198063528839,"connected_time":2631000000000,"state":"active","ping":73},{"user_id":415,"name":"Gimmick","steam_id":76561197979603871,"connected_time":2624000000000,"state":"active","ping":62},{"user_id":346,"name":"Inov","steam_id":76561198207364644,"connected_time":7184000000000,"state":"active","ping":75},{"user_id":438,"name":"t0ast","steam_id":76561198141722573,"connected_time":1289000000000,"state":"active","ping":31},{"user_id":432,"name":"AVOID EVERYONE","steam_id":76561198051852765,"connected_time":1976000000000,"state":"active","ping":71},{"user_id":442,"name":"MoonDroid","steam_id":76561198023027016,"connected_time":175000000000,"state":"active","ping":46},{"user_id":428,"name":"fb","steam_id":76561197988802856,"connected_time":2195000000000,"state":"active","ping":60},{"user_id":408,"name":"VideoJames","steam_id":76561197970114051,"connected_time":3090000000000,"state":"active","ping":45},{"user_id":395,"name":"DHM_","steam_id":76561198052486146,"connected_time":3858000000000,"state":"active","ping":51},{"user_id":431,"name":"Biscuit","steam_id":76561198034318885,"connected_time":2062000000000,"state":"active","ping":44}]},{"server_id":320,"name":"Uncletopia | London | 3 | All Maps","name_short":"lon-3","host":"lon-1.uk.uncletopia.com","port":27035,"enabled":true,"region":"eu","cc":"gb","latitude":51.509865,"longitude":-0.118092,"reserved":0,"last_update":"0001-01-01T00:00:00Z","name_a2s":"Uncletopia | London | 3 | All Maps","protocol":17,"map":"cp_sunshine","folder":"tf","game":"Team Fortress","app_id":440,"player_count":0,"max_players":24,"Bots":0,"server_type":"Dedicated","server_os":"Linux","password":true,"vac":true,"version":"7882260","steam_id":85568392924510192,"keywords":["cp","nocrits","nodmgspread","uncletopia"],"game_id":440,"stv_port":27036,"stv_name":"Uncletopia | London | 3 | All Maps | STV","players":null},{"server_id":321,"name":"Uncletopia | London | 4 | All Maps","name_short":"lon-4","host":"lon-1.uk.uncletopia.com","port":27045,"enabled":true,"region":"eu","cc":"gb","latitude":51.509865,"longitude":-0.118092,"reserved":0,"last_update":"0001-01-01T00:00:00Z","name_a2s":"Uncletopia | London | 4 | All Maps","protocol":17,"map":"pl_frontier_final","folder":"tf","game":"Team Fortress","app_id":440,"player_count":0,"max_players":24,"Bots":0,"server_type":"Dedicated","server_os":"Linux","password":true,"vac":true,"version":"7882260","steam_id":85568392924510193,"keywords":["nocrits","nodmgspread","payload","uncletopia"],"game_id":440,"stv_port":27046,"stv_name":"Uncletopia | London | 4 | All Maps | STV","players":null},{"server_id":21,"name":"Uncletopia | London | 5 | All Maps","name_short":"lon-5","host":"lon-1.uk.uncletopia.com","port":27055,"enabled":true,"region":"eu","cc":"gb","latitude":51.509865,"longitude":-0.118092,"reserved":0,"last_update":"0001-01-01T00:00:00Z","name_a2s":"Uncletopia | London | 5 | All Maps","protocol":17,"map":"pl_frontier_final","folder":"tf","game":"Team Fortress","app_id":440,"player_count":0,"max_players":24,"Bots":0,"server_type":"Dedicated","server_os":"Linux","password":true,"vac":true,"version":"7882260","steam_id":85568392924742829,"keywords":["nocrits","nodmgspread","payload","uncletopia"],"game_id":440,"stv_port":27056,"stv_name":"Uncletopia | London | 5 | All Maps | STV","players":null},{"server_id":22,"name":"Uncletopia | London | 6 | All Maps","name_short":"lon-6","host":"lon-1.uk.uncletopia.com","port":27065,"enabled":true,"region":"eu","cc":"gb","latitude":51.509865,"longitude":-0.118092,"reserved":0,"last_update":"0001-01-01T00:00:00Z","name_a2s":"Uncletopia | London | 6 | All Maps","protocol":17,"map":"cp_mountainlab","folder":"tf","game":"Team Fortress","app_id":440,"player_count":0,"max_players":24,"Bots":0,"server_type":"Dedicated","server_os":"Linux","password":true,"vac":true,"version":"7882260","steam_id":85568392924742830,"keywords":["cp","nocrits","nodmgspread","uncletopia"],"game_id":440,"stv_port":27066,"stv_name":"Uncletopia | London | 6 | All Maps | STV","players":null},{"server_id":40,"name":"Uncletopia | London | 7 | No Payload","name_short":"lon-7","host":"lon-1.uk.uncletopia.com","port":27075,"enabled":true,"region":"eu","cc":"gb","latitude":51.509865,"longitude":-0.118092,"reserved":0,"last_update":"0001-01-01T00:00:00Z","name_a2s":"Uncletopia | London | 7 | No Payload","protocol":17,"map":"koth_suijin","folder":"tf","game":"Team Fortress","app_id":440,"player_count":0,"max_players":24,"Bots":0,"server_type":"Dedicated","server_os":"Linux","password":true,"vac":true,"version":"7882260","steam_id":85568392924964314,"keywords":["cp","nocrits","nodmgspread","uncletopia"],"game_id":440,"stv_port":27076,"stv_name":"Uncletopia | London | 7 | No Payload | STV","players":null},{"server_id":41,"name":"Uncletopia | London | 8 | Community","name_short":"lon-8","host":"lon-1.uk.uncletopia.com","port":27085,"enabled":true,"region":"eu","cc":"gb","latitude":51.509865,"longitude":-0.118092,"reserved":0,"last_update":"0001-01-01T00:00:00Z","name_a2s":"Uncletopia | London | 8 | Community","protocol":17,"map":"workshop/koth_slaughter_rc1.ugc1712845210","folder":"tf","game":"Team Fortress","app_id":440,"player_count":0,"max_players":24,"Bots":0,"server_type":"Dedicated","server_os":"Linux","password":true,"vac":true,"version":"7882260","steam_id":85568392924964315,"keywords":["cp","nocrits","nodmgspread","uncletopia"],"game_id":440,"stv_port":27086,"stv_name":"Uncletopia | London | 8 | Community | STV","players":null},{"server_id":300,"name":"Uncletopia | Montréal | 1 | All Maps","name_short":"mtl-1","host":"mtl-1.ca.uncletopia.com","port":27015,"enabled":true,"region":"us-east","cc":"ca","latitude":45.50889,"longitude":-73.56167,"reserved":0,"last_update":"0001-01-01T00:00:00Z","name_a2s":"Uncletopia | Montréal | 1 | All Maps","protocol":17,"map":"koth_viaduct","folder":"tf","game":"Team Fortress","app_id":440,"player_count":0,"max_players":24,"Bots":0,"server_type":"Dedicated","server_os":"Linux","password":true,"vac":true,"version":"7882260","steam_id":85568392924500087,"keywords":["cp","nocrits","nodmgspread","uncletopia"],"game_id":440,"stv_port":27016,"stv_name":"Uncletopia | Montréal | 1 | All Maps | STV","players":null},{"server_id":301,"name":"Uncletopia | Montréal | 2 | All Maps","name_short":"mtl-2","host":"mtl-1.ca.uncletopia.com","port":27025,"enabled":true,"region":"us-east","cc":"ca","latitude":45.50889,"longitude":-73.56167,"reserved":0,"last_update":"0001-01-01T00:00:00Z","name_a2s":"Uncletopia | Montréal | 2 | All Maps","protocol":17,"map":"koth_cascade","folder":"tf","game":"Team Fortress","app_id":440,"player_count":0,"max_players":24,"Bots":0,"server_type":"Dedicated","server_os":"Linux","password":true,"vac":true,"version":"7882260","steam_id":85568392924500088,"keywords":["cp","nocrits","nodmgspread","uncletopia"],"game_id":440,"stv_port":27026,"stv_name":"Uncletopia | Montréal | 2 | All Maps | STV","players":null},{"server_id":302,"name":"Uncletopia | Montréal | 3 | All Maps","name_short":"mtl-3","host":"mtl-1.ca.uncletopia.com","port":27035,"enabled":true,"region":"us-east","cc":"ca","latitude":45.50889,"longitude":-73.56167,"reserved":0,"last_update":"0001-01-01T00:00:00Z","name_a2s":"Uncletopia | Montréal | 3 | All Maps","protocol":17,"map":"pl_swiftwater_final1","folder":"tf","game":"Team Fortress","app_id":440,"player_count":4,"max_players":24,"Bots":0,"server_type":"Dedicated","server_os":"Linux","password":true,"vac":true,"version":"7882260","steam_id":85568392924500089,"keywords":["nocrits","nodmgspread","payload","uncletopia"],"game_id":440,"stv_port":27036,"stv_name":"Uncletopia | Montréal | 3 | All Maps | STV","players":[{"user_id":40,"name":"Slondermin","steam_id":76561198320301349,"connected_time":845000000000,"state":"active","ping":70},{"user_id":36,"name":"bitch im coolin","steam_id":76561198203732449,"connected_time":1012000000000,"state":"active","ping":79},{"user_id":33,"name":"β","steam_id":76561198163535075,"connected_time":1081000000000,"state":"active","ping":80},{"user_id":38,"name":"OneMisguidedSlyGuy","steam_id":76561198372243261,"connected_time":937000000000,"state":"active","ping":109}]},{"server_id":303,"name":"Uncletopia | Montréal | 4 | No Payload","name_short":"mtl-4","host":"mtl-1.ca.uncletopia.com","port":27045,"enabled":true,"region":"us-east","cc":"ca","latitude":45.50889,"longitude":-73.56167,"reserved":0,"last_update":"0001-01-01T00:00:00Z","name_a2s":"Uncletopia | Montréal | 4 | No Payload","protocol":17,"map":"koth_highpass","folder":"tf","game":"Team Fortress","app_id":440,"player_count":0,"max_players":24,"Bots":0,"server_type":"Dedicated","server_os":"Linux","password":true,"vac":true,"version":"7882260","steam_id":85568392924500090,"keywords":["cp","nocrits","nodmgspread","uncletopia"],"game_id":440,"stv_port":27046,"stv_name":"Uncletopia | Montréal | 4 | No Payload | STV","players":null},{"server_id":13,"name":"Uncletopia | New York City | 1 | All Maps","name_short":"nyc-1","host":"nyc-1.us.uncletopia.com","port":27015,"enabled":true,"region":"us-east","cc":"us","latitude":40.73061,"longitude":-73.93524,"reserved":0,"last_update":"0001-01-01T00:00:00Z","name_a2s":"Uncletopia | New York City | 1 | All Maps","protocol":17,"map":"pl_barnblitz","folder":"tf","game":"Team Fortress","app_id":440,"player_count":24,"max_players":24,"Bots":0,"server_type":"Dedicated","server_os":"Linux","password":true,"vac":true,"version":"7882260","steam_id":85568392924469993,"keywords":["nocrits","nodmgspread","payload","uncletopia"],"game_id":440,"stv_port":27016,"stv_name":"Uncletopia | New York City | 1 | All Maps | STV","players":[{"user_id":431,"name":"bendera","steam_id":76561197965486503,"connected_time":1037000000000,"state":"active","ping":81},{"user_id":437,"name":"castlerock","steam_id":76561198857184966,"connected_time":447000000000,"state":"active","ping":45},{"user_id":372,"name":"-W3E- grim10465","steam_id":76561198045698581,"connected_time":4702000000000,"state":"active","ping":33},{"user_id":430,"name":"Casa Bonita Grand Re-Opening","steam_id":76561199077027954,"connected_time":1071000000000,"state":"active","ping":87},{"user_id":414,"name":"Gentoo Linux Gaming","steam_id":76561197999657118,"connected_time":2042000000000,"state":"active","ping":59},{"user_id":436,"name":"CollegeBabes","steam_id":76561198346710167,"connected_time":650000000000,"state":"active","ping":68},{"user_id":402,"name":"Fostrel","steam_id":76561198152160601,"connected_time":2432000000000,"state":"active","ping":99},{"user_id":442,"name":"lfty","steam_id":76561198283841707,"connected_time":42000000000,"state":"active","ping":61},{"user_id":382,"name":"SnickerNoodle","steam_id":76561198064359644,"connected_time":3711000000000,"state":"active","ping":45},{"user_id":326,"name":"water and water and water water","steam_id":76561198257848207,"connected_time":9791000000000,"state":"active","ping":69},{"user_id":434,"name":"Samrizo el Chorizo","steam_id":76561198009838162,"connected_time":899000000000,"state":"active","ping":53},{"user_id":373,"name":"Acolyte Of Pain","steam_id":76561198143094194,"connected_time":4247000000000,"state":"active","ping":54},{"user_id":439,"name":"ShiverBorn","steam_id":76561198384811149,"connected_time":256000000000,"state":"active","ping":101},{"user_id":440,"name":"TSquitz","steam_id":76561198341415226,"connected_time":250000000000,"state":"active","ping":114},{"user_id":438,"name":"bbbbbb","steam_id":76561198114339959,"connected_time":271000000000,"state":"active","ping":59},{"user_id":368,"name":"French Toast","steam_id":76561198983973946,"connected_time":5341000000000,"state":"active","ping":59},{"user_id":386,"name":"Horrizan","steam_id":76561197965028480,"connected_time":3619000000000,"state":"active","ping":87},{"user_id":398,"name":"juanjoesc","steam_id":76561198186368430,"connected_time":3185000000000,"state":"active","ping":133},{"user_id":422,"name":"M249 | Spectre","steam_id":76561198118334485,"connected_time":1400000000000,"state":"active","ping":66},{"user_id":392,"name":"eish","steam_id":76561198089463603,"connected_time":3446000000000,"state":"active","ping":134},{"user_id":441,"name":"demoknight tf2","steam_id":76561198070393998,"connected_time":246000000000,"state":"active","ping":67},{"user_id":393,"name":"IronPainting","steam_id":76561198329389719,"connected_time":3409000000000,"state":"active","ping":47},{"user_id":427,"name":"bubbles","steam_id":76561198974276335,"connected_time":1248000000000,"state":"active","ping":75},{"user_id":405,"name":"wise","steam_id":76561198030066204,"connected_time":2427000000000,"state":"active","ping":44}]},{"server_id":14,"name":"Uncletopia | New York City | 2 | All Maps","name_short":"nyc-2","host":"nyc-1.us.uncletopia.com","port":27025,"enabled":true,"region":"us-east","cc":"us","latitude":40.73061,"longitude":-73.93524,"reserved":0,"last_update":"0001-01-01T00:00:00Z","name_a2s":"Uncletopia | New York City | 2 | All Maps","protocol":17,"map":"pl_swiftwater_final1","folder":"tf","game":"Team Fortress","app_id":440,"player_count":24,"max_players":24,"Bots":0,"server_type":"Dedicated","server_os":"Linux","password":true,"vac":true,"version":"7882260","steam_id":85568392924469994,"keywords":["nocrits","nodmgspread","payload","uncletopia"],"game_id":440,"stv_port":27026,"stv_name":"Uncletopia | New York City | 2 | All Maps | STV","players":[{"user_id":340,"name":"TheGhostThatWas","steam_id":76561198055836483,"connected_time":8284000000000,"state":"active","ping":45},{"user_id":417,"name":"MAXIMUS","steam_id":76561198085809453,"connected_time":1833000000000,"state":"active","ping":83},{"user_id":429,"name":"DJPEANUTBUTTER","steam_id":76561198043862737,"connected_time":618000000000,"state":"active","ping":43},{"user_id":420,"name":"lizardman","steam_id":76561199029030831,"connected_time":1783000000000,"state":"active","ping":56},{"user_id":381,"name":"Pozyomka","steam_id":76561198086331015,"connected_time":5331000000000,"state":"active","ping":37},{"user_id":333,"name":"Sir Quacksalot","steam_id":76561198048942777,"connected_time":8422000000000,"state":"active","ping":96},{"user_id":422,"name":"emilee (evil)","steam_id":76561198061455664,"connected_time":1720000000000,"state":"active","ping":47},{"user_id":427,"name":"mountain*✩‧₊˚","steam_id":76561198078395002,"connected_time":817000000000,"state":"active","ping":68},{"user_id":428,"name":"License","steam_id":76561197967501494,"connected_time":799000000000,"state":"active","ping":108},{"user_id":351,"name":"great1photo","steam_id":76561198085481933,"connected_time":7563000000000,"state":"active","ping":83},{"user_id":399,"name":"Wiener Hole Paper Cut","steam_id":76561198000808203,"connected_time":3550000000000,"state":"active","ping":61},{"user_id":407,"name":"Donnie Blasto","steam_id":76561198043432005,"connected_time":2945000000000,"state":"active","ping":67},{"user_id":426,"name":"ash","steam_id":76561198127890645,"connected_time":843000000000,"state":"active","ping":85},{"user_id":386,"name":"Luther_51","steam_id":76561198042994473,"connected_time":4672000000000,"state":"active","ping":68},{"user_id":366,"name":"Two-Teste Tommy","steam_id":76561198064308936,"connected_time":6448000000000,"state":"active","ping":54},{"user_id":423,"name":"The Spanked Monkey","steam_id":76561198128293111,"connected_time":1706000000000,"state":"active","ping":64},{"user_id":412,"name":"Jesse","steam_id":76561198157305426,"connected_time":2640000000000,"state":"active","ping":66},{"user_id":430,"name":"BeerPowder","steam_id":76561198058129400,"connected_time":608000000000,"state":"active","ping":51},{"user_id":432,"name":"YesMargaret","steam_id":76561198127971751,"connected_time":339000000000,"state":"active","ping":73},{"user_id":328,"name":"Braamklauw","steam_id":76561198283287697,"connected_time":8448000000000,"state":"active","ping":148},{"user_id":387,"name":"AlcoholicDad454","steam_id":76561198157414556,"connected_time":4652000000000,"state":"active","ping":92},{"user_id":413,"name":"eWVra2Vy","steam_id":76561198453565942,"connected_time":2527000000000,"state":"active","ping":70},{"user_id":403,"name":"and why he eepy","steam_id":76561198109904512,"connected_time":3465000000000,"state":"active","ping":60},{"user_id":416,"name":"Walt","steam_id":76561198964107245,"connected_time":2170000000000,"state":"active","ping":83}]},{"server_id":15,"name":"Uncletopia | New York City | 3 | Stopwatch Beta","name_short":"nyc-3","host":"nyc-1.us.uncletopia.com","port":27035,"enabled":true,"region":"us-east","cc":"us","latitude":40.73061,"longitude":-73.93524,"reserved":0,"last_update":"0001-01-01T00:00:00Z","name_a2s":"Uncletopia | New York City | 3 | Stopwatch Beta","protocol":17,"map":"pl_borneo","folder":"tf","game":"Team Fortress","app_id":440,"player_count":0,"max_players":24,"Bots":0,"server_type":"Dedicated","server_os":"Linux","password":true,"vac":true,"version":"7882260","steam_id":85568392924742820,"keywords":["nocrits","nodmgspread","payload","uncletopia"],"game_id":440,"stv_port":27036,"stv_name":"Uncletopia | New York City | 3 | Stopwatch Beta | STV","players":null},{"server_id":16,"name":"Uncletopia | New York City | 4 | Community","name_short":"nyc-4","host":"nyc-1.us.uncletopia.com","port":27045,"enabled":true,"region":"us-east","cc":"us","latitude":40.73061,"longitude":-73.93524,"reserved":0,"last_update":"0001-01-01T00:00:00Z","name_a2s":"Uncletopia | New York City | 4 | Community","protocol":17,"map":"workshop/koth_product_final.ugc454272353","folder":"tf","game":"Team Fortress","app_id":440,"player_count":0,"max_players":24,"Bots":0,"server_type":"Dedicated","server_os":"Linux","password":true,"vac":true,"version":"7882260","steam_id":85568392924742821,"keywords":["cp","nocrits","nodmgspread","uncletopia"],"game_id":440,"stv_port":27046,"stv_name":"Uncletopia | New York City | 4 | Community | STV","players":null},{"server_id":142,"name":"Uncletopia | São Paulo | 1 | All Maps","name_short":"sao-1","host":"sao-1.br.uncletopia.com","port":27015,"enabled":true,"region":"sa","cc":"br","latitude":-23.533773,"longitude":-46.62529,"reserved":0,"last_update":"0001-01-01T00:00:00Z","name_a2s":"Uncletopia | São Paulo | 1 | All Maps","protocol":17,"map":"pl_badwater","folder":"tf","game":"Team Fortress","app_id":440,"player_count":0,"max_players":24,"Bots":0,"server_type":"Dedicated","server_os":"Linux","password":true,"vac":true,"version":"7882260","steam_id":85568392924469996,"keywords":["nocrits","nodmgspread","payload","uncletopia"],"game_id":440,"stv_port":27016,"stv_name":"Uncletopia | São Paulo | 1 | All Maps | STV","players":null},{"server_id":143,"name":"Uncletopia | São Paulo | 2 | All Maps","name_short":"sao-2","host":"sao-2.br.uncletopia.com","port":27015,"enabled":true,"region":"sa","cc":"br","latitude":-23.533773,"longitude":-46.62529,"reserved":0,"last_update":"0001-01-01T00:00:00Z","name_a2s":"Uncletopia | São Paulo | 2 | All Maps","protocol":17,"map":"pl_frontier_final","folder":"tf","game":"Team Fortress","app_id":440,"player_count":0,"max_players":24,"Bots":0,"server_type":"Dedicated","server_os":"Linux","password":true,"vac":true,"version":"7882260","steam_id":85568392924485349,"keywords":["nocrits","nodmgspread","payload","uncletopia"],"game_id":440,"stv_port":27016,"stv_name":"Uncletopia | São Paulo | 2 | All Maps | STV","players":null},{"server_id":7,"name":"Uncletopia | Seattle | 1 | All Maps","name_short":"sea-1","host":"sea-1.us.uncletopia.com","port":27015,"enabled":true,"region":"us-west","cc":"us","latitude":47.608013,"longitude":-122.33517,"reserved":0,"last_update":"0001-01-01T00:00:00Z","name_a2s":"Uncletopia | Seattle | 1 | All Maps","protocol":17,"map":"pl_borneo","folder":"tf","game":"Team Fortress","app_id":440,"player_count":24,"max_players":24,"Bots":0,"server_type":"Dedicated","server_os":"Linux","password":true,"vac":true,"version":"7882260","steam_id":85568392924469997,"keywords":["nocrits","nodmgspread","payload","uncletopia"],"game_id":440,"stv_port":27016,"stv_name":"Uncletopia | Seattle | 1 | All Maps | STV","players":[{"user_id":658,"name":"resting neutral face","steam_id":76561197999259502,"connected_time":1781000000000,"state":"active","ping":60},{"user_id":678,"name":"R5-D4","steam_id":76561198025196439,"connected_time":698000000000,"state":"active","ping":97},{"user_id":675,"name":"RURU","steam_id":76561198039758987,"connected_time":1002000000000,"state":"active","ping":58},{"user_id":646,"name":"2cats_2curious","steam_id":76561198027143149,"connected_time":3327000000000,"state":"active","ping":78},{"user_id":681,"name":"YoungWillis","steam_id":76561197975629418,"connected_time":631000000000,"state":"active","ping":84},{"user_id":686,"name":"Hellboy","steam_id":76561198186259779,"connected_time":292000000000,"state":"active","ping":78},{"user_id":624,"name":"rat gets the cheese","steam_id":76561198031234032,"connected_time":4673000000000,"state":"active","ping":100},{"user_id":680,"name":"Integral","steam_id":76561198158225481,"connected_time":641000000000,"state":"active","ping":94},{"user_id":628,"name":"Mignyanne :3","steam_id":76561198048754056,"connected_time":4366000000000,"state":"active","ping":66},{"user_id":643,"name":"a cat plushie","steam_id":76561198080046542,"connected_time":3383000000000,"state":"active","ping":48},{"user_id":687,"name":"Dynamo","steam_id":76561198057875639,"connected_time":274000000000,"state":"active","ping":90},{"user_id":660,"name":"steve","steam_id":76561198207881077,"connected_time":1754000000000,"state":"active","ping":105},{"user_id":640,"name":"Daz","steam_id":76561198041431938,"connected_time":3440000000000,"state":"active","ping":54},{"user_id":653,"name":"Elfy","steam_id":76561199166448617,"connected_time":2415000000000,"state":"active","ping":61},{"user_id":669,"name":"Tim Duncan","steam_id":76561198010557666,"connected_time":1490000000000,"state":"active","ping":124},{"user_id":676,"name":"lusty","steam_id":76561198138478947,"connected_time":722000000000,"state":"active","ping":44},{"user_id":684,"name":"Noxitril_Enjoyer","steam_id":76561198870649125,"connected_time":482000000000,"state":"active","ping":86},{"user_id":656,"name":"Skabbety","steam_id":76561198168044257,"connected_time":2045000000000,"state":"active","ping":44},{"user_id":683,"name":"Henchie!","steam_id":76561198047567464,"connected_time":607000000000,"state":"active","ping":102},{"user_id":648,"name":"catch and claim","steam_id":76561198042913843,"connected_time":3322000000000,"state":"active","ping":60},{"user_id":677,"name":"Mom","steam_id":76561198207936000,"connected_time":720000000000,"state":"active","ping":60},{"user_id":487,"name":"lili","steam_id":76561199391478575,"connected_time":15956000000000,"state":"active","ping":69},{"user_id":664,"name":"Minedark","steam_id":76561198250995706,"connected_time":1708000000000,"state":"active","ping":62},{"user_id":645,"name":"MCman","steam_id":76561198412110305,"connected_time":3341000000000,"state":"active","ping":82}]},{"server_id":119,"name":"Uncletopia | Seattle | 2 | All Maps","name_short":"sea-2","host":"sea-1.us.uncletopia.com","port":27025,"enabled":true,"region":"us-west","cc":"us","latitude":47.608013,"longitude":-122.33517,"reserved":0,"last_update":"0001-01-01T00:00:00Z","name_a2s":"Uncletopia | Seattle | 2 | All Maps","protocol":17,"map":"cp_sunshine","folder":"tf","game":"Team Fortress","app_id":440,"player_count":24,"max_players":24,"Bots":0,"server_type":"Dedicated","server_os":"Linux","password":true,"vac":true,"version":"7882260","steam_id":85568392924469998,"keywords":["cp","nocrits","nodmgspread","uncletopia"],"game_id":440,"stv_port":27026,"stv_name":"Uncletopia | Seattle | 2 | All Maps | STV","players":[{"user_id":280,"name":"mooney","steam_id":76561199110622484,"connected_time":988000000000,"state":"active","ping":71},{"user_id":288,"name":"StatingKnot","steam_id":76561199190634968,"connected_time":345000000000,"state":"active","ping":106},{"user_id":289,"name":"jorts","steam_id":76561199041179985,"connected_time":314000000000,"state":"active","ping":58},{"user_id":290,"name":"♦Benji♦","steam_id":76561198313529973,"connected_time":299000000000,"state":"active","ping":44},{"user_id":268,"name":"goldhed","steam_id":76561198051751133,"connected_time":1506000000000,"state":"active","ping":60},{"user_id":291,"name":"chicken","steam_id":76561198196998007,"connected_time":231000000000,"state":"active","ping":81},{"user_id":292,"name":"BigWack","steam_id":76561198334878169,"connected_time":227000000000,"state":"active","ping":78},{"user_id":293,"name":"housefly","steam_id":76561198795402971,"connected_time":207000000000,"state":"active","ping":71},{"user_id":278,"name":"bishiro","steam_id":76561198129564488,"connected_time":1108000000000,"state":"active","ping":54},{"user_id":259,"name":"lil boogie","steam_id":76561198064059721,"connected_time":2110000000000,"state":"active","ping":45},{"user_id":260,"name":"Florist","steam_id":76561198009121060,"connected_time":2052000000000,"state":"active","ping":46},{"user_id":244,"name":"Zincian","steam_id":76561198055484259,"connected_time":3067000000000,"state":"active","ping":52},{"user_id":294,"name":"OniKana","steam_id":76561198282372260,"connected_time":184000000000,"state":"active","ping":55},{"user_id":295,"name":"Booboo Kitty","steam_id":76561198192459727,"connected_time":99000000000,"state":"active","ping":117},{"user_id":253,"name":"Ruben","steam_id":76561198048508642,"connected_time":2810000000000,"state":"active","ping":50},{"user_id":286,"name":"Eraser cat","steam_id":76561199045570463,"connected_time":548000000000,"state":"active","ping":47},{"user_id":296,"name":"Morse","steam_id":76561198039944542,"connected_time":98000000000,"state":"active","ping":52},{"user_id":271,"name":"JoeFalco","steam_id":76561198064005012,"connected_time":1453000000000,"state":"active","ping":159},{"user_id":287,"name":"Noid","steam_id":76561198227804500,"connected_time":489000000000,"state":"active","ping":143},{"user_id":275,"name":"Deathbread","steam_id":76561199063003930,"connected_time":1361000000000,"state":"active","ping":89},{"user_id":297,"name":"❤[Lilly]❤","steam_id":76561198817361963,"connected_time":72000000000,"state":"active","ping":81},{"user_id":264,"name":"kree","steam_id":76561197979960008,"connected_time":1991000000000,"state":"active","ping":105},{"user_id":276,"name":"uufyfuu","steam_id":76561198142787212,"connected_time":1352000000000,"state":"active","ping":68},{"user_id":283,"name":"pyrotechnic","steam_id":76561198043558709,"connected_time":710000000000,"state":"active","ping":47}]},{"server_id":406,"name":"Uncletopia | Seattle | 3 | Stopwatch Beta","name_short":"sea-3","host":"sea-1.us.uncletopia.com","port":27035,"enabled":true,"region":"us-west","cc":"us","latitude":47.608013,"longitude":-122.33517,"reserved":0,"last_update":"0001-01-01T00:00:00Z","name_a2s":"Uncletopia | Seattle | 3 | Stopwatch Beta","protocol":17,"map":"workshop/koth_bagel_rc6.ugc2514036946","folder":"tf","game":"Team Fortress","app_id":440,"player_count":18,"max_players":24,"Bots":0,"server_type":"Dedicated","server_os":"Linux","password":true,"vac":true,"version":"7882260","steam_id":85568392924515217,"keywords":["cp","nocrits","nodmgspread","uncletopia"],"game_id":440,"stv_port":27036,"stv_name":"Uncletopia | Seattle | 3 | Stopwatch Beta | STV","players":[{"user_id":193,"name":"Pimastr","steam_id":76561198230996464,"connected_time":605000000000,"state":"active","ping":105},{"user_id":164,"name":"SCUD missile up your ass","steam_id":76561198066452726,"connected_time":2445000000000,"state":"active","ping":80},{"user_id":147,"name":"azlondon","steam_id":76561197995819002,"connected_time":3184000000000,"state":"active","ping":39},{"user_id":148,"name":"DocDankDandy","steam_id":76561197999440195,"connected_time":3180000000000,"state":"active","ping":73},{"user_id":200,"name":"soupos","steam_id":76561199090562237,"connected_time":268000000000,"state":"active","ping":55},{"user_id":194,"name":"Chirp","steam_id":76561198240780230,"connected_time":571000000000,"state":"active","ping":74},{"user_id":195,"name":"Spicypicklechips","steam_id":76561198397037048,"connected_time":528000000000,"state":"active","ping":111},{"user_id":184,"name":"engie","steam_id":76561199229629045,"connected_time":1374000000000,"state":"active","ping":92},{"user_id":149,"name":"A Puppy","steam_id":76561198828184456,"connected_time":3119000000000,"state":"active","ping":113},{"user_id":108,"name":"MancalaMadMan","steam_id":76561198347324053,"connected_time":4718000000000,"state":"active","ping":115},{"user_id":198,"name":"Enderlord99","steam_id":76561198158152954,"connected_time":373000000000,"state":"active","ping":55},{"user_id":109,"name":"DeltaForce4Life","steam_id":76561198355534614,"connected_time":4713000000000,"state":"active","ping":108},{"user_id":205,"name":"dogwater","steam_id":76561199416942289,"connected_time":28000000000,"state":"spawning","ping":183},{"user_id":131,"name":"NewGuy","steam_id":76561198968058652,"connected_time":3824000000000,"state":"active","ping":51},{"user_id":154,"name":"Slagothor","steam_id":76561197999435333,"connected_time":3014000000000,"state":"active","ping":118},{"user_id":204,"name":"slude","steam_id":76561198065700596,"connected_time":54000000000,"state":"active","ping":112},{"user_id":190,"name":"Nottawink","steam_id":76561198071248705,"connected_time":935000000000,"state":"active","ping":106},{"user_id":169,"name":"Mike Bean Burritos","steam_id":76561198173430607,"connected_time":2344000000000,"state":"active","ping":46}]},{"server_id":17,"name":"Uncletopia | San Francisco | 1 | All Maps","name_short":"sfo-1","host":"sfo-1.us.uncletopia.com","port":27015,"enabled":true,"region":"us-west","cc":"us","latitude":37.77397,"longitude":-122.4313,"reserved":0,"last_update":"0001-01-01T00:00:00Z","name_a2s":"Uncletopia | San Francisco | 1 | All Maps","protocol":17,"map":"pl_snowycoast","folder":"tf","game":"Team Fortress","app_id":440,"player_count":24,"max_players":24,"Bots":0,"server_type":"Dedicated","server_os":"Linux","password":true,"vac":true,"version":"7882260","steam_id":85568392924469999,"keywords":["nocrits","nodmgspread","payload","uncletopia"],"game_id":440,"stv_port":27016,"stv_name":"Uncletopia | San Francisco | 1 | All Maps | STV","players":[{"user_id":245,"name":"[GUT] 13","steam_id":76561197985209820,"connected_time":1344000000000,"state":"active","ping":103},{"user_id":224,"name":"[GUT] RiDiK®","steam_id":76561197969756446,"connected_time":2920000000000,"state":"active","ping":105},{"user_id":249,"name":"Deepfake Obama","steam_id":76561198051000442,"connected_time":848000000000,"state":"active","ping":45},{"user_id":259,"name":"Scrux","steam_id":76561198129763115,"connected_time":82000000000,"state":"active","ping":57},{"user_id":246,"name":"Tskuno","steam_id":76561198129291597,"connected_time":1342000000000,"state":"active","ping":105},{"user_id":199,"name":"MegaMatt","steam_id":76561198198900365,"connected_time":4796000000000,"state":"active","ping":59},{"user_id":225,"name":"Purlane","steam_id":76561198125608183,"connected_time":2891000000000,"state":"active","ping":68},{"user_id":217,"name":"The Horny","steam_id":76561198863639459,"connected_time":4243000000000,"state":"active","ping":76},{"user_id":253,"name":"AwesomeDog05","steam_id":76561199148040708,"connected_time":297000000000,"state":"active","ping":69},{"user_id":180,"name":"CollDragon","steam_id":76561198067534450,"connected_time":5638000000000,"state":"active","ping":109},{"user_id":250,"name":"Johnson, Navin R.","steam_id":76561197961107982,"connected_time":628000000000,"state":"active","ping":87},{"user_id":254,"name":"Matte \u003e:)","steam_id":76561198070631073,"connected_time":269000000000,"state":"active","ping":45},{"user_id":255,"name":"croissantcrusader","steam_id":76561198813533235,"connected_time":264000000000,"state":"active","ping":100},{"user_id":257,"name":"trashbro","steam_id":76561199417993197,"connected_time":156000000000,"state":"active","ping":56},{"user_id":211,"name":"Feral Femboy","steam_id":76561198130714378,"connected_time":4430000000000,"state":"active","ping":83},{"user_id":252,"name":"Kershalt \u003c3","steam_id":76561198113962969,"connected_time":442000000000,"state":"active","ping":115},{"user_id":241,"name":"jBracko","steam_id":76561198019261602,"connected_time":2327000000000,"state":"active","ping":45},{"user_id":258,"name":"grif","steam_id":76561198272333800,"connected_time":84000000000,"state":"active","ping":101},{"user_id":256,"name":"Good Vibes","steam_id":76561197985206513,"connected_time":260000000000,"state":"active","ping":114},{"user_id":232,"name":"Boomite","steam_id":76561198191441145,"connected_time":2781000000000,"state":"active","ping":73},{"user_id":214,"name":"SgtHotLead","steam_id":76561197995477998,"connected_time":4379000000000,"state":"active","ping":110},{"user_id":236,"name":"WhatAmIDoing","steam_id":76561199060028126,"connected_time":2670000000000,"state":"active","ping":62},{"user_id":239,"name":"Snake Handler","steam_id":76561198027198306,"connected_time":2497000000000,"state":"active","ping":105},{"user_id":194,"name":"Cogsby","steam_id":76561199109102841,"connected_time":5230000000000,"state":"active","ping":150}]},{"server_id":18,"name":"Uncletopia | San Francisco | 2 | All Maps","name_short":"sfo-2","host":"sfo-1.us.uncletopia.com","port":27025,"enabled":true,"region":"us-west","cc":"us","latitude":37.77397,"longitude":-122.4313,"reserved":0,"last_update":"0001-01-01T00:00:00Z","name_a2s":"Uncletopia | San Francisco | 2 | All Maps","protocol":17,"map":"cp_mountainlab","folder":"tf","game":"Team Fortress","app_id":440,"player_count":0,"max_players":24,"Bots":0,"server_type":"Dedicated","server_os":"Linux","password":true,"vac":true,"version":"7882260","steam_id":85568392924470000,"keywords":["cp","nocrits","nodmgspread","uncletopia"],"game_id":440,"stv_port":27026,"stv_name":"Uncletopia | San Francisco | 2 | All Maps | STV","players":null},{"server_id":19,"name":"Uncletopia | San Francisco | 3 | Stopwatch Beta","name_short":"sfo-3","host":"sfo-1.us.uncletopia.com","port":27035,"enabled":true,"region":"us-west","cc":"us","latitude":37.77397,"longitude":-122.4313,"reserved":0,"last_update":"0001-01-01T00:00:00Z","name_a2s":"Uncletopia | San Francisco | 3 | Stopwatch Beta","protocol":17,"map":"pl_snowycoast","folder":"tf","game":"Team Fortress","app_id":440,"player_count":0,"max_players":24,"Bots":0,"server_type":"Dedicated","server_os":"Linux","password":true,"vac":true,"version":"7882260","steam_id":85568392924742824,"keywords":["nocrits","nodmgspread","payload","uncletopia"],"game_id":440,"stv_port":27036,"stv_name":"Uncletopia | San Francisco | 3 | Stopwatch Beta | STV","players":null},{"server_id":20,"name":"Uncletopia | San Francisco | 4 | Community","name_short":"sfo-4","host":"sfo-1.us.uncletopia.com","port":27045,"enabled":true,"region":"us-west","cc":"us","latitude":37.77397,"longitude":-122.4313,"reserved":0,"last_update":"0001-01-01T00:00:00Z","name_a2s":"Uncletopia | San Francisco | 4 | Community","protocol":17,"map":"workshop/koth_slaughter_rc1.ugc1712845210","folder":"tf","game":"Team Fortress","app_id":440,"player_count":0,"max_players":24,"Bots":0,"server_type":"Dedicated","server_os":"Linux","password":true,"vac":true,"version":"7882260","steam_id":85568392924742826,"keywords":["cp","nocrits","nodmgspread","uncletopia"],"game_id":440,"stv_port":27046,"stv_name":"Uncletopia | San Francisco | 4 | Community | STV","players":null},{"server_id":141,"name":"Uncletopia | Sydney | 1 | All Maps","name_short":"syd-1","host":"syd-1.au.uncletopia.com","port":27015,"enabled":true,"region":"au","cc":"au","latitude":-33.865143,"longitude":151.2099,"reserved":0,"last_update":"0001-01-01T00:00:00Z","name_a2s":"Uncletopia | Sydney | 1 | All Maps","protocol":17,"map":"koth_harvest_final","folder":"tf","game":"Team Fortress","app_id":440,"player_count":5,"max_players":24,"Bots":0,"server_type":"Dedicated","server_os":"Linux","password":true,"vac":true,"version":"7882260","steam_id":85568392924470001,"keywords":["cp","nocrits","nodmgspread","uncletopia"],"game_id":440,"stv_port":27016,"stv_name":"Uncletopia | Sydney | 1 | All Maps | STV","players":[{"user_id":49,"name":"samlicker81","steam_id":76561198039913278,"connected_time":981000000000,"state":"active","ping":43},{"user_id":52,"name":"Jett","steam_id":76561198969434128,"connected_time":338000000000,"state":"active","ping":90},{"user_id":39,"name":"strike - crypsis","steam_id":76561198842869099,"connected_time":1337000000000,"state":"active","ping":47},{"user_id":53,"name":"man.","steam_id":76561198892204358,"connected_time":80000000000,"state":"active","ping":21},{"user_id":42,"name":"Obeseus the Wide","steam_id":76561198139444147,"connected_time":1277000000000,"state":"active","ping":72}]},{"server_id":123,"name":"Uncletopia | Sydney | 2 | All Maps","name_short":"syd-2","host":"syd-1.au.uncletopia.com","port":27025,"enabled":true,"region":"au","cc":"au","latitude":-33.865143,"longitude":151.2099,"reserved":0,"last_update":"0001-01-01T00:00:00Z","name_a2s":"Uncletopia | Sydney | 2 | All Maps","protocol":17,"map":"pl_pier","folder":"tf","game":"Team Fortress","app_id":440,"player_count":0,"max_players":24,"Bots":0,"server_type":"Dedicated","server_os":"Linux","password":true,"vac":true,"version":"7882260","steam_id":85568392924470002,"keywords":["nocrits","nodmgspread","payload","uncletopia"],"game_id":440,"stv_port":27026,"stv_name":"Uncletopia | Sydney | 2 | All Maps | STV","players":null},{"server_id":395,"name":"Uncletopia | Sydney | 3 | All Maps","name_short":"syd-3","host":"syd-1.au.uncletopia.com","port":27035,"enabled":true,"region":"au","cc":"au","latitude":-33.865143,"longitude":151.2099,"reserved":0,"last_update":"0001-01-01T00:00:00Z","name_a2s":"Uncletopia | Sydney | 3 | All Maps","protocol":17,"map":"pl_badwater","folder":"tf","game":"Team Fortress","app_id":440,"player_count":0,"max_players":24,"Bots":0,"server_type":"Dedicated","server_os":"Linux","password":true,"vac":true,"version":"7882260","steam_id":85568392925194467,"keywords":["nocrits","nodmgspread","payload","uncletopia"],"game_id":440,"stv_port":27036,"stv_name":"Uncletopia | Sydney | 3 | All Maps | STV","players":null},{"server_id":396,"name":"Uncletopia | Sydney | 4 | All Maps","name_short":"syd-4","host":"syd-1.au.uncletopia.com","port":27045,"enabled":true,"region":"au","cc":"au","latitude":-33.865143,"longitude":151.2099,"reserved":0,"last_update":"0001-01-01T00:00:00Z","name_a2s":"Uncletopia | Sydney | 4 | All Maps","protocol":17,"map":"cp_altitude","folder":"tf","game":"Team Fortress","app_id":440,"player_count":0,"max_players":24,"Bots":0,"server_type":"Dedicated","server_os":"Linux","password":true,"vac":true,"version":"7882260","steam_id":85568392925397958,"keywords":["cp","nocrits","nodmgspread","uncletopia"],"game_id":440,"stv_port":27046,"stv_name":"Uncletopia | Sydney | 4 | All Maps | STV","players":null},{"server_id":58,"name":"Uncletopia | Sydney | 5 | Stopwatch Beta","name_short":"syd-5","host":"syd-1.au.uncletopia.com","port":27055,"enabled":true,"region":"au","cc":"au","latitude":-33.865143,"longitude":151.2099,"reserved":0,"last_update":"0001-01-01T00:00:00Z","name_a2s":"Uncletopia | Sydney | 5 | Stopwatch Beta","protocol":17,"map":"koth_viaduct","folder":"tf","game":"Team Fortress","app_id":440,"player_count":0,"max_players":24,"Bots":0,"server_type":"Dedicated","server_os":"Linux","password":true,"vac":true,"version":"7882260","steam_id":85568392925397959,"keywords":["cp","nocrits","nodmgspread","uncletopia"],"game_id":440,"stv_port":27056,"stv_name":"Uncletopia | Sydney | 5 | Stopwatch Beta | STV","players":null},{"server_id":59,"name":"Uncletopia | Sydney | 6 | Community","name_short":"syd-6","host":"syd-1.au.uncletopia.com","port":27065,"enabled":true,"region":"au","cc":"au","latitude":-33.865143,"longitude":151.2099,"reserved":0,"last_update":"0001-01-01T00:00:00Z","name_a2s":"Uncletopia | Sydney | 6 | Community","protocol":17,"map":"workshop/pl_emerge_rc2.ugc888027758","folder":"tf","game":"Team Fortress","app_id":440,"player_count":0,"max_players":24,"Bots":0,"server_type":"Dedicated","server_os":"Linux","password":true,"vac":true,"version":"7882260","steam_id":85568392925397960,"keywords":["nocrits","nodmgspread","payload","uncletopia"],"game_id":440,"stv_port":27066,"stv_name":"Uncletopia | Sydney | 6 | Community | STV","players":null},{"server_id":49,"name":"Uncletopia | Warsaw | 1 | All Maps","name_short":"waw-1","host":"waw-1.pl.uncletopia.com","port":27015,"enabled":true,"region":"eu","cc":"pl","latitude":52.2297,"longitude":21.017532,"reserved":0,"last_update":"0001-01-01T00:00:00Z","name_a2s":"","protocol":0,"map":"","folder":"","game":"","app_id":0,"player_count":0,"max_players":0,"Bots":0,"server_type":"","server_os":"","password":false,"vac":false,"version":"","steam_id":0,"keywords":null,"game_id":0,"stv_port":0,"stv_name":"","players":null},{"server_id":50,"name":"Uncletopia | Warsaw | 2 | All Maps","name_short":"waw-2","host":"waw-1.pl.uncletopia.com","port":27025,"enabled":true,"region":"eu","cc":"pl","latitude":52.2297,"longitude":21.017532,"reserved":0,"last_update":"0001-01-01T00:00:00Z","name_a2s":"Uncletopia | Warsaw | 2 | All Maps","protocol":17,"map":"koth_viaduct","folder":"tf","game":"Team Fortress","app_id":440,"player_count":0,"max_players":24,"Bots":0,"server_type":"Dedicated","server_os":"Linux","password":true,"vac":true,"version":"7882260","steam_id":85568392925397851,"keywords":["cp","nocrits","nodmgspread","uncletopia"],"game_id":440,"stv_port":27026,"stv_name":"Uncletopia | Warsaw | 2 | All Maps | STV","players":null},{"server_id":51,"name":"Uncletopia | Warsaw | 3 | All Maps","name_short":"waw-3","host":"waw-1.pl.uncletopia.com","port":27035,"enabled":true,"region":"eu","cc":"pl","latitude":52.2297,"longitude":21.017532,"reserved":0,"last_update":"0001-01-01T00:00:00Z","name_a2s":"Uncletopia | Warsaw | 3 | All Maps","protocol":17,"map":"pl_upward","folder":"tf","game":"Team Fortress","app_id":440,"player_count":0,"max_players":24,"Bots":0,"server_type":"Dedicated","server_os":"Linux","password":true,"vac":true,"version":"7882260","steam_id":85568392925397852,"keywords":["nocrits","nodmgspread","payload","uncletopia"],"game_id":440,"stv_port":27036,"stv_name":"Uncletopia | Warsaw | 3 | All Maps | STV","players":null},{"server_id":52,"name":"Uncletopia | Warsaw | 4 | All Maps","name_short":"waw-4","host":"waw-1.pl.uncletopia.com","port":27045,"enabled":true,"region":"eu","cc":"pl","latitude":52.2297,"longitude":21.017532,"reserved":0,"last_update":"0001-01-01T00:00:00Z","name_a2s":"Uncletopia | Warsaw | 4 | All Maps","protocol":17,"map":"pl_barnblitz","folder":"tf","game":"Team Fortress","app_id":440,"player_count":0,"max_players":24,"Bots":0,"server_type":"Dedicated","server_os":"Linux","password":true,"vac":true,"version":"7882260","steam_id":85568392925397853,"keywords":["nocrits","nodmgspread","payload","uncletopia"],"game_id":440,"stv_port":27046,"stv_name":"Uncletopia | Warsaw | 4 | All Maps | STV","players":null},{"server_id":53,"name":"Uncletopia | Warsaw | 5 | Stopwatch Beta","name_short":"waw-5","host":"waw-1.pl.uncletopia.com","port":27055,"enabled":true,"region":"eu","cc":"pl","latitude":52.2297,"longitude":21.017532,"reserved":0,"last_update":"0001-01-01T00:00:00Z","name_a2s":"Uncletopia | Warsaw | 5 | Stopwatch Beta","protocol":17,"map":"workshop/koth_ramjam_rc1.ugc459778887","folder":"tf","game":"Team Fortress","app_id":440,"player_count":0,"max_players":24,"Bots":0,"server_type":"Dedicated","server_os":"Linux","password":true,"vac":true,"version":"7882260","steam_id":85568392925397854,"keywords":["cp","nocrits","nodmgspread","uncletopia"],"game_id":440,"stv_port":27056,"stv_name":"Uncletopia | Warsaw | 5 | Stopwatch Beta | STV","players":null},{"server_id":54,"name":"Uncletopia | Warsaw | 6 | Community","name_short":"waw-6","host":"waw-1.pl.uncletopia.com","port":27065,"enabled":true,"region":"eu","cc":"pl","latitude":52.2297,"longitude":21.017532,"reserved":0,"last_update":"0001-01-01T00:00:00Z","name_a2s":"Uncletopia | Warsaw | 6 | Community","protocol":17,"map":"workshop/cp_reckoner_rc6.ugc674719999","folder":"tf","game":"Team Fortress","app_id":440,"player_count":0,"max_players":24,"Bots":0,"server_type":"Dedicated","server_os":"Linux","password":true,"vac":true,"version":"7882260","steam_id":85568392925397856,"keywords":["cp","nocrits","nodmgspread","uncletopia"],"game_id":440,"stv_port":27066,"stv_name":"Uncletopia | Warsaw | 6 | Community | STV","players":null}]}