{"status":true,"message":"","result":[{"server_id":9,"name":"Uncletopia | Atlanta | 1 | All Maps","name_short":"atl-1","host":"atl-1.us.uncletopia.com","port":27015,"enabled":true,"region":"us-east","cc":"us","latitude":33.753746,"longitude":-84.38633,"reserved":0,"last_update":"0001-01-01T00:00:00Z","name_a2s":"Uncletopia | Atlanta | 1 | All Maps","protocol":17,"map":"koth_badlands","folder":"tf","game":"Team Fortress","app_id":440,"player_count":24,"max_players":24,"Bots":0,"server_type":"Dedicated","server_os":"Linux","password":true,"vac":true,"version":"7742253","steam_id":85568392924469982,"keywords":["cp","nocrits","nodmgspread","uncletopia"],"game_id":440,"stv_port":27016,"stv_name":"Uncletopia | Atlanta | 1 | All Maps | STV","players":[{"user_id":493,"name":"Bali","steam_id":76561198038693845,"connected_time":796000000000,"state":"active","ping":96},{"user_id":346,"name":"Mad Cow※","steam_id":76561198132498594,"connected_time":12563000000000,"state":"active","ping":65},{"user_id":479,"name":"Lorelius Hogglefart","steam_id":76561198936120487,"connected_time":1223000000000,"state":"active","ping":116},{"user_id":288,"name":"700,000 rabid monkeys in Ohio","steam_id":76561198130772096,"connected_time":18116000000000,"state":"active","ping":74},{"user_id":494,"name":"Ecliptica","steam_id":76561198171951333,"connected_time":782000000000,"state":"active","ping":119},{"user_id":482,"name":"Daniel","steam_id":76561199086060699,"connected_time":1117000000000,"state":"active","ping":47},{"user_id":472,"name":"Inky (Coolest)","steam_id":76561198968337022,"connected_time":2456000000000,"state":"active","ping":58},{"user_id":480,"name":"indi","steam_id":76561198045917538,"connected_time":1151000000000,"state":"active","ping":61},{"user_id":498,"name":"choi","steam_id":76561198053669887,"connected_time":580000000000,"state":"active","ping":110},{"user_id":475,"name":"Quiggles lft","steam_id":76561199177247655,"connected_time":1989000000000,"state":"active","ping":59},{"user_id":420,"name":"Sgt","steam_id":76561198139818111,"connected_time":5939000000000,"state":"active","ping":100},{"user_id":487,"name":"BORN IN GOOP RAISED IN POOP","steam_id":76561198095909397,"connected_time":969000000000,"state":"active","ping":55},{"user_id":503,"name":"Toripollo","steam_id":76561198251665862,"connected_time":232000000000,"state":"active","ping":87},{"user_id":499,"name":"Nostrildamus","steam_id":76561198056647457,"connected_time":571000000000,"state":"active","ping":60},{"user_id":474,"name":"Rockhead","steam_id":76561197995196535,"connected_time":2106000000000,"state":"active","ping":67},{"user_id":486,"name":"Potato","steam_id":76561198883934935,"connected_time":1021000000000,"state":"active","ping":165},{"user_id":445,"name":"could you repeat that?","steam_id":76561198337692867,"connected_time":4734000000000,"state":"active","ping":87},{"user_id":488,"name":"KritzKow","steam_id":76561198086164003,"connected_time":943000000000,"state":"active","ping":61},{"user_id":489,"name":"Regi","steam_id":76561198271508598,"connected_time":943000000000,"state":"active","ping":79},{"user_id":490,"name":"Banana Patrick","steam_id":76561198258067237,"connected_time":941000000000,"state":"active","ping":71},{"user_id":492,"name":"♥Noble♥","steam_id":76561198427370124,"connected_time":859000000000,"state":"active","ping":71},{"user_id":504,"name":"Marmot","steam_id":76561198252199106,"connected_time":127000000000,"state":"active","ping":69},{"user_id":501,"name":"Scott","steam_id":76561198090949228,"connected_time":542000000000,"state":"active","ping":72},{"user_id":372,"name":"ShiYor","steam_id":76561199117260032,"connected_time":11542000000000,"state":"active","ping":121}]},{"server_id":400,"name":"Uncletopia | Atlanta | 3 | Stopwatch Beta","name_short":"atl-3","host":"atl-1.us.uncletopia.com","port":27035,"enabled":true,"region":"us-east","cc":"us","latitude":33.753746,"longitude":-84.38633,"reserved":0,"last_update":"0001-01-01T00:00:00Z","name_a2s":"Uncletopia | Atlanta | 3 | Stopwatch Beta","protocol":17,"map":"pl_upward","folder":"tf","game":"Team Fortress","app_id":440,"player_count":0,"max_players":24,"Bots":0,"server_type":"Dedicated","server_os":"Linux","password":true,"vac":true,"version":"7742253","steam_id":85568392924515187,"keywords":["nocrits","nodmgspread","payload","uncletopia"],"game_id":440,"stv_port":27036,"stv_name":"Uncletopia | Atlanta | 3 | Stopwatch Beta | STV","players":null},{"server_id":401,"name":"Uncletopia | Atlanta | 4 | No Payload","name_short":"atl-4","host":"atl-1.us.uncletopia.com","port":27045,"enabled":true,"region":"us-east","cc":"us","latitude":33.753746,"longitude":-84.38633,"reserved":0,"last_update":"0001-01-01T00:00:00Z","name_a2s":"Uncletopia | Atlanta | 4 | No Payload","protocol":17,"map":"pl_pier","folder":"tf","game":"Team Fortress","app_id":440,"player_count":0,"max_players":24,"Bots":0,"server_type":"Dedicated","server_os":"Linux","password":true,"vac":true,"version":"7723704","steam_id":85568392924515188,"keywords":["nocrits","nodmgspread","payload","uncletopia"],"game_id":440,"stv_port":27046,"stv_name":"Uncletopia | Atlanta | 4 | No Payload | STV","players":null},{"server_id":2,"name":"Uncletopia | Chicago | 1 | All Maps","name_short":"chi-1","host":"chi-1.us.uncletopia.com","port":27015,"enabled":true,"region":"us-central","cc":"us","latitude":41.881832,"longitude":-87.62318,"reserved":0,"last_update":"0001-01-01T00:00:00Z","name_a2s":"Uncletopia | Chicago | 1 | All Maps","protocol":17,"map":"pl_barnblitz","folder":"tf","game":"Team Fortress","app_id":440,"player_count":24,"max_players":24,"Bots":0,"server_type":"Dedicated","server_os":"Linux","password":true,"vac":true,"version":"7742253","steam_id":85568392924469984,"keywords":["nocrits","nodmgspread","payload","uncletopia"],"game_id":440,"stv_port":27016,"stv_name":"Uncletopia | Chicago | 1 | All Maps | STV","players":[{"user_id":329,"name":"Gir-nade","steam_id":76561198059408928,"connected_time":488000000000,"state":"active","ping":74},{"user_id":314,"name":"Soph The Dark Elf","steam_id":76561198294426385,"connected_time":922000000000,"state":"active","ping":59},{"user_id":332,"name":"Pyromania","steam_id":76561198317028173,"connected_time":328000000000,"state":"active","ping":82},{"user_id":318,"name":"Pancake","steam_id":76561198262794153,"connected_time":855000000000,"state":"active","ping":77},{"user_id":311,"name":".-.","steam_id":76561198820617005,"connected_time":1058000000000,"state":"active","ping":108},{"user_id":335,"name":"Timmy","steam_id":76561198971354161,"connected_time":66000000000,"state":"active","ping":62},{"user_id":330,"name":"Healing Weapons Guy","steam_id":76561198005608047,"connected_time":468000000000,"state":"active","ping":60},{"user_id":292,"name":"Undertime Slopper","steam_id":76561198396789061,"connected_time":2157000000000,"state":"active","ping":91},{"user_id":308,"name":"gaming elliptical","steam_id":76561198013456569,"connected_time":1331000000000,"state":"active","ping":52},{"user_id":324,"name":"Long Legged Larry","steam_id":76561198023585856,"connected_time":628000000000,"state":"active","ping":83},{"user_id":297,"name":"Overduecat","steam_id":76561198092452824,"connected_time":1962000000000,"state":"active","ping":67},{"user_id":306,"name":"Digit","steam_id":76561198156589157,"connected_time":1662000000000,"state":"active","ping":69},{"user_id":310,"name":"GnafS","steam_id":76561199101583864,"connected_time":1168000000000,"state":"active","ping":97},{"user_id":288,"name":"blob","steam_id":76561198122375328,"connected_time":2290000000000,"state":"active","ping":61},{"user_id":334,"name":"goober","steam_id":76561198943598378,"connected_time":142000000000,"state":"active","ping":58},{"user_id":327,"name":"stop","steam_id":76561198268686419,"connected_time":526000000000,"state":"active","ping":56},{"user_id":290,"name":"no","steam_id":76561198248853140,"connected_time":2201000000000,"state":"active","ping":50},{"user_id":319,"name":"AverageRundownJoe.ttv","steam_id":76561198059359620,"connected_time":826000000000,"state":"active","ping":72},{"user_id":315,"name":"Big Sauce","steam_id":76561198046654750,"connected_time":912000000000,"state":"active","ping":73},{"user_id":316,"name":"bingle","steam_id":76561198359413453,"connected_time":910000000000,"state":"active","ping":72},{"user_id":336,"name":"5-MeO-DMT","steam_id":76561198089527768,"connected_time":55000000000,"state":"spawning","ping":67},{"user_id":317,"name":"using gc controller","steam_id":76561198212031324,"connected_time":899000000000,"state":"active","ping":57},{"user_id":254,"name":"Funny Skeleton Man","steam_id":76561198264262564,"connected_time":3921000000000,"state":"active","ping":115},{"user_id":305,"name":"Krellah","steam_id":76561198287045069,"connected_time":1873000000000,"state":"active","ping":59}]},{"server_id":106,"name":"Uncletopia | Chicago | 2 | All Maps","name_short":"chi-2","host":"chi-1.us.uncletopia.com","port":27025,"enabled":true,"region":"us-central","cc":"us","latitude":41.881832,"longitude":-87.62318,"reserved":0,"last_update":"0001-01-01T00:00:00Z","name_a2s":"Uncletopia | Chicago | 2 | All Maps","protocol":17,"map":"pl_borneo","folder":"tf","game":"Team Fortress","app_id":440,"player_count":24,"max_players":24,"Bots":0,"server_type":"Dedicated","server_os":"Linux","password":true,"vac":true,"version":"7742253","steam_id":85568392924469985,"keywords":["nocrits","nodmgspread","payload","uncletopia"],"game_id":440,"stv_port":27026,"stv_name":"Uncletopia | Chicago | 2 | All Maps | STV","players":[{"user_id":156,"name":"Try Gardening","steam_id":76561198120311340,"connected_time":271000000000,"state":"active","ping":46},{"user_id":103,"name":"crippling fumo addiction","steam_id":76561198115874625,"connected_time":4194000000000,"state":"active","ping":67},{"user_id":153,"name":"dan","steam_id":76561197984998426,"connected_time":330000000000,"state":"active","ping":91},{"user_id":158,"name":"KingTinkerer","steam_id":76561198226856548,"connected_time":158000000000,"state":"active","ping":78},{"user_id":94,"name":"Yaogwai","steam_id":76561198274501963,"connected_time":4673000000000,"state":"active","ping":87},{"user_id":134,"name":"CassandraRC7 (She/her)","steam_id":76561198094123940,"connected_time":2198000000000,"state":"active","ping":55},{"user_id":125,"name":"Eightoneto","steam_id":76561198204106991,"connected_time":2679000000000,"state":"active","ping":63},{"user_id":137,"name":"Boot","steam_id":76561198423162555,"connected_time":1936000000000,"state":"active","ping":60},{"user_id":157,"name":"Silverio","steam_id":76561197999425381,"connected_time":183000000000,"state":"active","ping":68},{"user_id":149,"name":"Rudy","steam_id":76561198013456828,"connected_time":580000000000,"state":"active","ping":56},{"user_id":96,"name":"TheGhostThatWas","steam_id":76561198055836483,"connected_time":4636000000000,"state":"active","ping":60},{"user_id":154,"name":"Lingus Loopus","steam_id":76561198041426868,"connected_time":327000000000,"state":"active","ping":111},{"user_id":68,"name":"jingle shitmouth","steam_id":76561198055109192,"connected_time":6693000000000,"state":"active","ping":70},{"user_id":145,"name":"Cottontail","steam_id":76561198213634567,"connected_time":1361000000000,"state":"active","ping":88},{"user_id":142,"name":"Moose Ham","steam_id":76561198212229659,"connected_time":1423000000000,"state":"active","ping":91},{"user_id":131,"name":"warrior","steam_id":76561198361999761,"connected_time":2479000000000,"state":"active","ping":109},{"user_id":87,"name":"Yukon Cornelius","steam_id":76561198261512781,"connected_time":5484000000000,"state":"active","ping":79},{"user_id":155,"name":"IamLightning","steam_id":76561198193881559,"connected_time":303000000000,"state":"active","ping":66},{"user_id":151,"name":"Kiwi","steam_id":76561198324117986,"connected_time":539000000000,"state":"active","ping":92},{"user_id":101,"name":"walito12","steam_id":76561198244902626,"connected_time":4316000000000,"state":"active","ping":104},{"user_id":141,"name":"SirJellyRolls","steam_id":76561198119277244,"connected_time":1439000000000,"state":"active","ping":75},{"user_id":152,"name":"CM32MAker","steam_id":76561199157487382,"connected_time":477000000000,"state":"active","ping":63},{"user_id":159,"name":"Toygar","steam_id":76561198023679830,"connected_time":127000000000,"state":"active","ping":59},{"user_id":64,"name":"Ⓑ⓪⓪ⓣⓨⓒⓐⓚⓔⓢ","steam_id":76561198088776421,"connected_time":6928000000000,"state":"active","ping":61}]},{"server_id":402,"name":"Uncletopia | Chicago | 3 | All Maps","name_short":"chi-3","host":"chi-1.us.uncletopia.com","port":27035,"enabled":true,"region":"us-central","cc":"us","latitude":41.881832,"longitude":-87.62318,"reserved":0,"last_update":"0001-01-01T00:00:00Z","name_a2s":"Uncletopia | Chicago | 3 | All Maps","protocol":17,"map":"pl_pier","folder":"tf","game":"Team Fortress","app_id":440,"player_count":24,"max_players":24,"Bots":0,"server_type":"Dedicated","server_os":"Linux","password":true,"vac":true,"version":"7742253","steam_id":85568392924515191,"keywords":["nocrits","nodmgspread","payload","uncletopia"],"game_id":440,"stv_port":27036,"stv_name":"Uncletopia | Chicago | 3 | All Maps | STV","players":[{"user_id":369,"name":"Mr Frog","steam_id":76561199065277975,"connected_time":2397000000000,"state":"active","ping":48},{"user_id":262,"name":"[slug]","steam_id":76561197989592178,"connected_time":9808000000000,"state":"active","ping":65},{"user_id":360,"name":"Michael Jordan","steam_id":76561198306393090,"connected_time":2719000000000,"state":"active","ping":44},{"user_id":386,"name":"rlty","steam_id":76561198009395055,"connected_time":1158000000000,"state":"active","ping":60},{"user_id":387,"name":"Malex","steam_id":76561198012216805,"connected_time":1154000000000,"state":"active","ping":59},{"user_id":394,"name":"conscripted monk","steam_id":76561199029246232,"connected_time":1077000000000,"state":"active","ping":71},{"user_id":361,"name":"Rusty","steam_id":76561197972625397,"connected_time":2703000000000,"state":"active","ping":68},{"user_id":337,"name":"Bread Baker","steam_id":76561198185335103,"connected_time":4393000000000,"state":"active","ping":52},{"user_id":395,"name":"WhiskyTangoFoxy","steam_id":76561197994843275,"connected_time":731000000000,"state":"active","ping":103},{"user_id":389,"name":"BLU25","steam_id":76561199042215292,"connected_time":1113000000000,"state":"active","ping":86},{"user_id":397,"name":"FILTH","steam_id":76561199093417749,"connected_time":722000000000,"state":"active","ping":116},{"user_id":385,"name":"YunKoツ","steam_id":76561199107366261,"connected_time":1184000000000,"state":"active","ping":74},{"user_id":399,"name":"kritik","steam_id":76561198075216115,"connected_time":485000000000,"state":"active","ping":156},{"user_id":398,"name":"chiillz.","steam_id":76561198271497771,"connected_time":534000000000,"state":"active","ping":74},{"user_id":317,"name":"anti-citizen #1","steam_id":76561197970748784,"connected_time":5837000000000,"state":"active","ping":139},{"user_id":383,"name":"Buddy_and_Pal","steam_id":76561199078574984,"connected_time":1423000000000,"state":"active","ping":87},{"user_id":345,"name":"The Sydney Sleeper Itself","steam_id":76561198180251763,"connected_time":4203000000000,"state":"active","ping":60},{"user_id":376,"name":"SINNER","steam_id":76561198072179483,"connected_time":2152000000000,"state":"active","ping":91},{"user_id":319,"name":"󠀡󠀡","steam_id":76561198027546178,"connected_time":5714000000000,"state":"active","ping":92},{"user_id":392,"name":"Lord Scrubling","steam_id":76561198263744445,"connected_time":1096000000000,"state":"active","ping":75},{"user_id":320,"name":"remnar","steam_id":76561197995454090,"connected_time":5674000000000,"state":"active","ping":64},{"user_id":316,"name":"theholyhealer99","steam_id":76561199045905872,"connected_time":5886000000000,"state":"active","ping":38},{"user_id":366,"name":"Crackhead","steam_id":76561198883918047,"connected_time":2657000000000,"state":"active","ping":59},{"user_id":372,"name":"Dill","steam_id":76561197985091914,"connected_time":2325000000000,"state":"active","ping":64}]},{"server_id":403,"name":"Uncletopia | Chicago | 4 | All Maps","name_short":"chi-4","host":"chi-1.us.uncletopia.com","port":27045,"enabled":true,"region":"us-central","cc":"us","latitude":41.881832,"longitude":-87.62318,"reserved":0,"last_update":"0001-01-01T00:00:00Z","name_a2s":"Uncletopia | Chicago | 4 | All Maps","protocol":17,"map":"koth_highpass","folder":"tf","game":"Team Fortress","app_id":440,"player_count":1,"max_players":24,"Bots":0,"server_type":"Dedicated","server_os":"Linux","password":true,"vac":true,"version":"7742253","steam_id":85568392924515193,"keywords":["cp","nocrits","nodmgspread","uncletopia"],"game_id":440,"stv_port":27046,"stv_name":"Uncletopia | Chicago | 4 | All Maps | STV","players":[{"user_id":15,"name":"EMMANUEL.ARG.0711","steam_id":76561199434051913,"connected_time":55000000000,"state":"active","ping":202}]},{"server_id":36,"name":"Uncletopia | Chicago | 5 | All Maps","name_short":"chi-5","host":"chi-2.us.uncletopia.com","port":27015,"enabled":true,"region":"us-central","cc":"us","latitude":41.881832,"longitude":-87.62318,"reserved":0,"last_update":"0001-01-01T00:00:00Z","name_a2s":"Uncletopia | Chicago | 5 | All Maps","protocol":17,"map":"pl_badwater","folder":"tf","game":"Team Fortress","app_id":440,"player_count":24,"max_players":24,"Bots":0,"server_type":"Dedicated","server_os":"Linux","password":true,"vac":true,"version":"7742253","steam_id":85568392924866362,"keywords":["nocrits","nodmgspread","payload","uncletopia"],"game_id":440,"stv_port":27016,"stv_name":"Uncletopia | Chicago | 5 | All Maps | STV","players":[{"user_id":14,"name":"Linkitude08","steam_id":76561199202747466,"connected_time":6423000000000,"state":"active","ping":62},{"user_id":15,"name":"julie74779","steam_id":76561198171350290,"connected_time":6404000000000,"state":"active","ping":91},{"user_id":16,"name":"Namednomore","steam_id":76561198121455270,"connected_time":6386000000000,"state":"active","ping":97},{"user_id":89,"name":"Hariboz","steam_id":76561198244468102,"connected_time":967000000000,"state":"active","ping":141},{"user_id":67,"name":"Drago","steam_id":76561198206572733,"connected_time":2000000000000,"state":"active","ping":111},{"user_id":75,"name":"Professional Chef","steam_id":76561198197721155,"connected_time":1714000000000,"state":"active","ping":90},{"user_id":90,"name":"jack merridew","steam_id":76561199206622559,"connected_time":955000000000,"state":"active","ping":53},{"user_id":91,"name":"Billosky Time Lord","steam_id":76561199159626560,"connected_time":903000000000,"state":"active","ping":148},{"user_id":88,"name":"Super Gay Homo Thug","steam_id":76561198355094896,"connected_time":985000000000,"state":"active","ping":69},{"user_id":81,"name":"SomeCozyKid","steam_id":76561198086113234,"connected_time":1490000000000,"state":"active","ping":95},{"user_id":98,"name":"MjrMovnTARGET","steam_id":76561199125908849,"connected_time":95000000000,"state":"active","ping":70},{"user_id":94,"name":"tsuki","steam_id":76561198053829724,"connected_time":846000000000,"state":"active","ping":78},{"user_id":82,"name":"The Zoidberg Medic","steam_id":76561197994285087,"connected_time":1303000000000,"state":"active","ping":64},{"user_id":83,"name":"Kindagoodplayer","steam_id":76561198814625843,"connected_time":1236000000000,"state":"active","ping":71},{"user_id":95,"name":"sheep","steam_id":76561198172943006,"connected_time":843000000000,"state":"active","ping":46},{"user_id":38,"name":"comet sooicidy","steam_id":76561198025173479,"connected_time":4889000000000,"state":"active","ping":77},{"user_id":71,"name":"least homicidal police officer","steam_id":76561198354284591,"connected_time":1784000000000,"state":"active","ping":54},{"user_id":72,"name":"KnightlyLad","steam_id":76561199053958203,"connected_time":1776000000000,"state":"active","ping":79},{"user_id":96,"name":"Octobella Enthusiast","steam_id":76561198199266047,"connected_time":818000000000,"state":"active","ping":56},{"user_id":74,"name":"Melon","steam_id":76561198203952392,"connected_time":1763000000000,"state":"active","ping":72},{"user_id":85,"name":"Ferxxo","steam_id":76561198820199000,"connected_time":1047000000000,"state":"active","ping":85},{"user_id":87,"name":"Poop Deck Joe","steam_id":76561198271397568,"connected_time":1009000000000,"state":"active","ping":89},{"user_id":45,"name":"Antknee","steam_id":76561198263793809,"connected_time":4536000000000,"state":"active","ping":78},{"user_id":79,"name":"backflipping trans woman","steam_id":76561198100189571,"connected_time":1539000000000,"state":"active","ping":54}]},{"server_id":37,"name":"Uncletopia | Chicago | 6 | All Maps","name_short":"chi-6","host":"chi-2.us.uncletopia.com","port":27025,"enabled":true,"region":"us-central","cc":"us","latitude":41.881832,"longitude":-87.62318,"reserved":0,"last_update":"0001-01-01T00:00:00Z","name_a2s":"Uncletopia | Chicago | 6 | All Maps","protocol":17,"map":"cp_sunshine","folder":"tf","game":"Team Fortress","app_id":440,"player_count":1,"max_players":24,"Bots":0,"server_type":"Dedicated","server_os":"Linux","password":true,"vac":true,"version":"7742253","steam_id":85568392924866363,"keywords":["cp","nocrits","nodmgspread","uncletopia"],"game_id":440,"stv_port":27026,"stv_name":"Uncletopia | Chicago | 6 | All Maps | STV","players":[{"user_id":14,"name":"Red Heavy The Sandwich Slayer","steam_id":76561199187226776,"connected_time":77000000000,"state":"spawning","ping":98}]},{"server_id":38,"name":"Uncletopia | Chicago | 7 | Stopwatch Beta","name_short":"chi-7","host":"chi-2.us.uncletopia.com","port":27035,"enabled":true,"region":"us-central","cc":"us","latitude":41.881832,"longitude":-87.62318,"reserved":0,"last_update":"0001-01-01T00:00:00Z","name_a2s":"Uncletopia | Chicago | 7 | Stopwatch Beta","protocol":17,"map":"pl_upward","folder":"tf","game":"Team Fortress","app_id":440,"player_count":0,"max_players":24,"Bots":0,"server_type":"Dedicated","server_os":"Linux","password":true,"vac":true,"version":"7742253","steam_id":85568392924866364,"keywords":["nocrits","nodmgspread","payload","uncletopia"],"game_id":440,"stv_port":27036,"stv_name":"Uncletopia | Chicago | 7 | Stopwatch Beta | STV","players":null},{"server_id":39,"name":"Uncletopia | Chicago | 8 | Community","name_short":"chi-8","host":"chi-2.us.uncletopia.com","port":27045,"enabled":true,"region":"us-central","cc":"us","latitude":41.881832,"longitude":-87.62318,"reserved":0,"last_update":"0001-01-01T00:00:00Z","name_a2s":"Uncletopia | Chicago | 8 | Community","protocol":17,"map":"koth_cascade","folder":"tf","game":"Team Fortress","app_id":440,"player_count":0,"max_players":24,"Bots":0,"server_type":"Dedicated","server_os":"Linux","password":true,"vac":true,"version":"7742253","steam_id":85568392924866365,"keywords":["cp","nocrits","nodmgspread","uncletopia"],"game_id":440,"stv_port":27046,"stv_name":"Uncletopia | Chicago | 8 | Community | STV","players":null},{"server_id":8,"name":"Uncletopia | Dallas | 1 | All Maps","name_short":"dal-1","host":"dal-1.us.uncletopia.com","port":27015,"enabled":true,"region":"us-central","cc":"us","latitude":32.779167,"longitude":-96.80889,"reserved":0,"last_update":"0001-01-01T00:00:00Z","name_a2s":"Uncletopia | Dallas | 1 | All Maps","protocol":17,"map":"pl_upward","folder":"tf","game":"Team Fortress","app_id":440,"player_count":24,"max_players":24,"Bots":0,"server_type":"Dedicated","server_os":"Linux","password":true,"vac":true,"version":"7742253","steam_id":85568392924469986,"keywords":["nocrits","nodmgspread","payload","uncletopia"],"game_id":440,"stv_port":27016,"stv_name":"Uncletopia | Dallas | 1 | All Maps | STV","players":[{"user_id":465,"name":"Faust main","steam_id":76561198971799149,"connected_time":1300000000000,"state":"active","ping":64},{"user_id":476,"name":"COVIDVIRUS19#DABRIBIOUS","steam_id":76561198889579299,"connected_time":93000000000,"state":"active","ping":45},{"user_id":467,"name":"amazing","steam_id":76561198386233160,"connected_time":1166000000000,"state":"active","ping":60},{"user_id":428,"name":"how the freak. Stole Christmas","steam_id":76561198049544552,"connected_time":2949000000000,"state":"active","ping":43},{"user_id":460,"name":"KORF","steam_id":76561197981904410,"connected_time":1891000000000,"state":"active","ping":85},{"user_id":472,"name":"Tabaxicat","steam_id":76561198861572259,"connected_time":540000000000,"state":"active","ping":65},{"user_id":449,"name":"_narwool_","steam_id":76561198175955138,"connected_time":2447000000000,"state":"active","ping":90},{"user_id":439,"name":"Joyous Jenny","steam_id":76561198127998866,"connected_time":2687000000000,"state":"active","ping":75},{"user_id":466,"name":"Bonesala","steam_id":76561199052450127,"connected_time":1239000000000,"state":"active","ping":71},{"user_id":474,"name":"mikey | I'm Burning Bright!","steam_id":76561198985847893,"connected_time":496000000000,"state":"active","ping":55},{"user_id":437,"name":"RedMustrd","steam_id":76561199246218857,"connected_time":2730000000000,"state":"active","ping":80},{"user_id":438,"name":"flu walrus","steam_id":76561198207940136,"connected_time":2718000000000,"state":"active","ping":67},{"user_id":442,"name":"Chaotic Rushu","steam_id":76561198170054407,"connected_time":2588000000000,"state":"active","ping":93},{"user_id":463,"name":"HitBox","steam_id":76561199244578398,"connected_time":1411000000000,"state":"active","ping":79},{"user_id":468,"name":"Weerk","steam_id":76561199209543551,"connected_time":1153000000000,"state":"active","ping":84},{"user_id":471,"name":"banana97286","steam_id":76561199367847817,"connected_time":597000000000,"state":"active","ping":85},{"user_id":411,"name":"Looneymunkey","steam_id":76561198414675183,"connected_time":4353000000000,"state":"active","ping":54},{"user_id":448,"name":"kibsta","steam_id":76561198991982630,"connected_time":2520000000000,"state":"active","ping":113},{"user_id":446,"name":"Ros","steam_id":76561199055963822,"connected_time":2530000000000,"state":"active","ping":75},{"user_id":447,"name":"Arbiter Soul","steam_id":76561198067798973,"connected_time":2523000000000,"state":"active","ping":90},{"user_id":475,"name":"TheTinyNickel","steam_id":76561199125181471,"connected_time":490000000000,"state":"active","ping":45},{"user_id":470,"name":"guy","steam_id":76561198196443262,"connected_time":662000000000,"state":"active","ping":129},{"user_id":456,"name":"Runner175","steam_id":76561198307230510,"connected_time":2175000000000,"state":"active","ping":60},{"user_id":464,"name":"Macnallay","steam_id":76561199201158068,"connected_time":1410000000000,"state":"active","ping":69}]},{"server_id":108,"name":"Uncletopia | Dallas | 2 | All Maps","name_short":"dal-2","host":"dal-1.us.uncletopia.com","port":27025,"enabled":true,"region":"us-central","cc":"us","latitude":32.779167,"longitude":-96.80889,"reserved":0,"last_update":"0001-01-01T00:00:00Z","name_a2s":"Uncletopia | Dallas | 2 | All Maps","protocol":17,"map":"cp_mountainlab","folder":"tf","game":"Team Fortress","app_id":440,"player_count":22,"max_players":24,"Bots":0,"server_type":"Dedicated","server_os":"Linux","password":true,"vac":true,"version":"7742253","steam_id":85568392924469988,"keywords":["cp","nocrits","nodmgspread","uncletopia"],"game_id":440,"stv_port":27026,"stv_name":"Uncletopia | Dallas | 2 | All Maps | STV","players":[{"user_id":266,"name":"LumenLogic","steam_id":76561198151757985,"connected_time":944000000000,"state":"active","ping":77},{"user_id":267,"name":"Blue Collar","steam_id":76561198354781722,"connected_time":859000000000,"state":"active","ping":76},{"user_id":271,"name":"finkle","steam_id":76561198388089772,"connected_time":649000000000,"state":"active","ping":55},{"user_id":261,"name":"Ythern","steam_id":76561198051877486,"connected_time":1329000000000,"state":"active","ping":163},{"user_id":249,"name":"Un shango salvaje","steam_id":76561198284012729,"connected_time":1547000000000,"state":"active","ping":160},{"user_id":231,"name":"iluvtoust","steam_id":76561198869269207,"connected_time":2559000000000,"state":"active","ping":46},{"user_id":269,"name":"StuartBell511","steam_id":76561198060931721,"connected_time":730000000000,"state":"active","ping":80},{"user_id":270,"name":"Meepster","steam_id":76561198146305159,"connected_time":677000000000,"state":"active","ping":80},{"user_id":272,"name":"brimstone","steam_id":76561198066619792,"connected_time":644000000000,"state":"active","ping":60},{"user_id":280,"name":"Bergmann MP18","steam_id":76561198218417512,"connected_time":255000000000,"state":"active","ping":69},{"user_id":275,"name":"name420","steam_id":76561198129374525,"connected_time":458000000000,"state":"active","ping":74},{"user_id":288,"name":"Aqudarius","steam_id":76561198091584204,"connected_time":72000000000,"state":"active","ping":88},{"user_id":254,"name":"SmokeyGalaxy","steam_id":76561198118780516,"connected_time":1488000000000,"state":"active","ping":58},{"user_id":279,"name":"babydemogorgon","steam_id":76561198822797843,"connected_time":277000000000,"state":"active","ping":52},{"user_id":281,"name":"terra","steam_id":76561198161403931,"connected_time":253000000000,"state":"active","ping":32},{"user_id":282,"name":"Bio_Optical","steam_id":76561199128084374,"connected_time":235000000000,"state":"active","ping":76},{"user_id":257,"name":"Legal Helpy","steam_id":76561198399334453,"connected_time":1412000000000,"state":"active","ping":58},{"user_id":283,"name":"Aglow","steam_id":76561199438754251,"connected_time":224000000000,"state":"active","ping":66},{"user_id":284,"name":"Cinnabar","steam_id":76561198964903969,"connected_time":203000000000,"state":"active","ping":55},{"user_id":286,"name":"sockgobblin","steam_id":76561198853494675,"connected_time":144000000000,"state":"active","ping":95},{"user_id":227,"name":"BEATS","steam_id":76561199245717718,"connected_time":2843000000000,"state":"active","ping":75},{"user_id":287,"name":"All 24 Pokémon movies at once","steam_id":76561198164738311,"connected_time":109000000000,"state":"active","ping":80}]},{"server_id":5,"name":"Uncletopia | Frankfurt | 1 | All Maps","name_short":"frk-1","host":"frk-1.de.uncletopia.com","port":27015,"enabled":true,"region":"eu","cc":"de","latitude":50.110924,"longitude":8.682127,"reserved":0,"last_update":"0001-01-01T00:00:00Z","name_a2s":"Uncletopia | Frankfurt | 1 | All Maps","protocol":17,"map":"pl_swiftwater_final1","folder":"tf","game":"Team Fortress","app_id":440,"player_count":24,"max_players":24,"Bots":0,"server_type":"Dedicated","server_os":"Linux","password":true,"vac":true,"version":"7742253","steam_id":85568392924469989,"keywords":["nocrits","nodmgspread","payload","uncletopia"],"game_id":440,"stv_port":27016,"stv_name":"Uncletopia | Frankfurt | 1 | All Maps | STV","players":[{"user_id":581,"name":"333","steam_id":76561198029805235,"connected_time":1424000000000,"state":"active","ping":67},{"user_id":602,"name":"Fran","steam_id":76561198339019518,"connected_time":115000000000,"state":"active","ping":58},{"user_id":583,"name":"BookKouy","steam_id":76561199446431633,"connected_time":1078000000000,"state":"active","ping":66},{"user_id":503,"name":"dddd","steam_id":76561198120894372,"connected_time":7424000000000,"state":"active","ping":108},{"user_id":598,"name":"professional yellow man","steam_id":76561198060200599,"connected_time":350000000000,"state":"active","ping":99},{"user_id":600,"name":"Sambajs","steam_id":76561198111529439,"connected_time":269000000000,"state":"active","ping":76},{"user_id":565,"name":"An unnecessary Jojo reference","steam_id":76561198121764825,"connected_time":2901000000000,"state":"active","ping":60},{"user_id":570,"name":"MAJAX","steam_id":76561198254828632,"connected_time":2374000000000,"state":"active","ping":68},{"user_id":601,"name":"Gety0","steam_id":76561198044387185,"connected_time":229000000000,"state":"active","ping":84},{"user_id":593,"name":"Miss Bari","steam_id":76561198365286092,"connected_time":687000000000,"state":"active","ping":48},{"user_id":584,"name":"uma","steam_id":76561198147976939,"connected_time":1008000000000,"state":"active","ping":48},{"user_id":580,"name":"B4R10N","steam_id":76561198047167954,"connected_time":1478000000000,"state":"active","ping":57},{"user_id":559,"name":"Lieutenant Lead","steam_id":76561198336867604,"connected_time":3069000000000,"state":"active","ping":49},{"user_id":562,"name":"Pinroe","steam_id":76561198968160899,"connected_time":2994000000000,"state":"active","ping":83},{"user_id":589,"name":"KameraadRoffel","steam_id":76561198236218320,"connected_time":902000000000,"state":"active","ping":67},{"user_id":590,"name":"timothytreestand-041165","steam_id":76561197995676953,"connected_time":861000000000,"state":"active","ping":48},{"user_id":597,"name":"Theo","steam_id":76561198144205951,"connected_time":554000000000,"state":"active","ping":95},{"user_id":587,"name":"Iru","steam_id":76561198077602040,"connected_time":956000000000,"state":"active","ping":60},{"user_id":588,"name":"TylowStar","steam_id":76561198357107806,"connected_time":943000000000,"state":"active","ping":69},{"user_id":500,"name":"CRWND","steam_id":76561198329810027,"connected_time":7673000000000,"state":"active","ping":58},{"user_id":577,"name":"jabar7","steam_id":76561198055137986,"connected_time":1594000000000,"state":"active","ping":64},{"user_id":591,"name":"r06u3","steam_id":76561198254099253,"connected_time":794000000000,"state":"active","ping":167},{"user_id":592,"name":"Carrot","steam_id":76561198119340863,"connected_time":794000000000,"state":"active","ping":56},{"user_id":599,"name":"NiNYÃ","steam_id":76561197995685294,"connected_time":323000000000,"state":"active","ping":77}]},{"server_id":110,"name":"Uncletopia | Frankfurt | 2 | All Maps","name_short":"frk-2","host":"frk-1.de.uncletopia.com","port":27025,"enabled":true,"region":"eu","cc":"de","latitude":50.110924,"longitude":8.682127,"reserved":0,"last_update":"0001-01-01T00:00:00Z","name_a2s":"Uncletopia | Frankfurt | 2 | All Maps","protocol":17,"map":"cp_steel","folder":"tf","game":"Team Fortress","app_id":440,"player_count":17,"max_players":24,"Bots":0,"server_type":"Dedicated","server_os":"Linux","password":true,"vac":true,"version":"7742253","steam_id":85568392924469990,"keywords":["cp","nocrits","nodmgspread","uncletopia"],"game_id":440,"stv_port":27026,"stv_name":"Uncletopia | Frankfurt | 2 | All Maps | STV","players":[{"user_id":651,"name":"EscoPK","steam_id":76561199426584303,"connected_time":362000000000,"state":"active","ping":58},{"user_id":647,"name":"zdX","steam_id":76561198163735277,"connected_time":502000000000,"state":"active","ping":52},{"user_id":649,"name":"PonchoPK","steam_id":76561198200951307,"connected_time":416000000000,"state":"active","ping":60},{"user_id":650,"name":"ambarasodor","steam_id":76561198799029492,"connected_time":387000000000,"state":"active","ping":61},{"user_id":648,"name":"FROYO domando","steam_id":76561199150367705,"connected_time":434000000000,"state":"active","ping":157},{"user_id":593,"name":"-triple","steam_id":76561198119449463,"connected_time":2557000000000,"state":"active","ping":74},{"user_id":652,"name":"brorb sesnar","steam_id":76561199186308283,"connected_time":359000000000,"state":"active","ping":74},{"user_id":589,"name":"hexerii","steam_id":76561198149967445,"connected_time":3052000000000,"state":"active","ping":47},{"user_id":653,"name":"benny","steam_id":76561198053394831,"connected_time":337000000000,"state":"active","ping":62},{"user_id":628,"name":"Reizei","steam_id":76561198148504042,"connected_time":1344000000000,"state":"active","ping":71},{"user_id":616,"name":"Toothpaste Milkshake","steam_id":76561198982674420,"connected_time":1602000000000,"state":"active","ping":68},{"user_id":609,"name":"kentir_buh","steam_id":76561198107526456,"connected_time":2091000000000,"state":"active","ping":73},{"user_id":604,"name":"CAMON ENGELAND","steam_id":76561198054301125,"connected_time":2228000000000,"state":"active","ping":92},{"user_id":551,"name":"Decadence","steam_id":76561198206829379,"connected_time":5788000000000,"state":"active","ping":81},{"user_id":627,"name":"SALTYY","steam_id":76561198124055526,"connected_time":1370000000000,"state":"active","ping":59},{"user_id":612,"name":"reer","steam_id":76561198087222583,"connected_time":1946000000000,"state":"active","ping":51},{"user_id":564,"name":"Boycie","steam_id":76561198179116027,"connected_time":5256000000000,"state":"active","ping":71}]},{"server_id":308,"name":"Uncletopia | Frankfurt | 3 | All Maps","name_short":"frk-3","host":"frk-1.de.uncletopia.com","port":27035,"enabled":true,"region":"eu","cc":"de","latitude":50.110924,"longitude":8.682127,"reserved":0,"last_update":"0001-01-01T00:00:00Z","name_a2s":"Uncletopia | Frankfurt | 3 | All Maps","protocol":17,"map":"pl_swiftwater_final1","folder":"tf","game":"Team Fortress","app_id":440,"player_count":22,"max_players":24,"Bots":0,"server_type":"Dedicated","server_os":"Linux","password":true,"vac":true,"version":"7742253","steam_id":85568392924504274,"keywords":["nocrits","nodmgspread","payload","uncletopia"],"game_id":440,"stv_port":27036,"stv_name":"Uncletopia | Frankfurt | 3 | All Maps | STV","players":[{"user_id":558,"name":"Radio_Active!","steam_id":76561199217286835,"connected_time":232000000000,"state":"active","ping":81},{"user_id":529,"name":"Mario3ghj","steam_id":76561198069804561,"connected_time":1392000000000,"state":"active","ping":95},{"user_id":556,"name":"brique","steam_id":76561199103944229,"connected_time":288000000000,"state":"active","ping":65},{"user_id":559,"name":"тукку ирма","steam_id":76561197998715016,"connected_time":162000000000,"state":"active","ping":50},{"user_id":461,"name":"Nickbro101","steam_id":76561198044271692,"connected_time":5457000000000,"state":"active","ping":59},{"user_id":532,"name":"buffes","steam_id":76561198035993172,"connected_time":1351000000000,"state":"active","ping":60},{"user_id":486,"name":"Meff","steam_id":76561197970610839,"connected_time":3387000000000,"state":"active","ping":44},{"user_id":565,"name":"immafckugently","steam_id":76561198096379465,"connected_time":19000000000,"state":"active","ping":69},{"user_id":544,"name":"V","steam_id":76561198210033837,"connected_time":1028000000000,"state":"active","ping":64},{"user_id":550,"name":"morco3420","steam_id":76561199360257938,"connected_time":686000000000,"state":"active","ping":77},{"user_id":564,"name":"GloryToThePillarmen","steam_id":76561199098694555,"connected_time":42000000000,"state":"active","ping":86},{"user_id":545,"name":"Glonk","steam_id":76561198164854396,"connected_time":997000000000,"state":"active","ping":58},{"user_id":489,"name":"arcticcu","steam_id":76561198002435882,"connected_time":3373000000000,"state":"active","ping":91},{"user_id":540,"name":"☆(stephano)pootis CO.☆","steam_id":76561199084131361,"connected_time":1188000000000,"state":"active","ping":169},{"user_id":452,"name":"Arturias","steam_id":76561198188720263,"connected_time":6095000000000,"state":"active","ping":45},{"user_id":493,"name":"Gardvord","steam_id":76561198120715753,"connected_time":3289000000000,"state":"active","ping":68},{"user_id":561,"name":"stankboxers #savetf2","steam_id":76561198058609582,"connected_time":61000000000,"state":"active","ping":144},{"user_id":541,"name":"Eddy","steam_id":76561198051157661,"connected_time":1161000000000,"state":"active","ping":69},{"user_id":562,"name":"Garrus","steam_id":76561198163288767,"connected_time":48000000000,"state":"active","ping":72},{"user_id":542,"name":"waddle dork","steam_id":76561198297349985,"connected_time":1138000000000,"state":"active","ping":54},{"user_id":563,"name":"your opinion \u003c my shit after a ","steam_id":76561198152620745,"connected_time":43000000000,"state":"active","ping":68},{"user_id":501,"name":"Aydin Channel","steam_id":76561198138031624,"connected_time":3080000000000,"state":"active","ping":108}]},{"server_id":309,"name":"Uncletopia | Frankfurt | 4 | All Maps","name_short":"frk-4","host":"frk-1.de.uncletopia.com","port":27045,"enabled":true,"region":"eu","cc":"de","latitude":50.110924,"longitude":8.682127,"reserved":0,"last_update":"0001-01-01T00:00:00Z","name_a2s":"Uncletopia | Frankfurt | 4 | All Maps","protocol":17,"map":"pl_pier","folder":"tf","game":"Team Fortress","app_id":440,"player_count":24,"max_players":24,"Bots":0,"server_type":"Dedicated","server_os":"Linux","password":true,"vac":true,"version":"7742253","steam_id":85568392924504275,"keywords":["nocrits","nodmgspread","payload","uncletopia"],"game_id":440,"stv_port":27046,"stv_name":"Uncletopia | Frankfurt | 4 | All Maps | STV","players":[{"user_id":353,"name":"lisek5002","steam_id":76561198868908573,"connected_time":733000000000,"state":"active","ping":88},{"user_id":366,"name":"23","steam_id":76561198149347502,"connected_time":300000000000,"state":"active","ping":62},{"user_id":369,"name":"deez","steam_id":76561198831476915,"connected_time":82000000000,"state":"active","ping":64},{"user_id":342,"name":"rickeeey","steam_id":76561199069460375,"connected_time":1927000000000,"state":"active","ping":58},{"user_id":290,"name":"t0ksi","steam_id":76561198107240798,"connected_time":6931000000000,"state":"active","ping":74},{"user_id":330,"name":"punk","steam_id":76561199053880024,"connected_time":2812000000000,"state":"active","ping":44},{"user_id":338,"name":"f0x","steam_id":76561198072921704,"connected_time":2211000000000,"state":"active","ping":58},{"user_id":355,"name":"Jimmy's balls","steam_id":76561198841930820,"connected_time":678000000000,"state":"active","ping":95},{"user_id":343,"name":"What's for dinner ?","steam_id":76561198199110998,"connected_time":1898000000000,"state":"active","ping":78},{"user_id":295,"name":"ӋԼן.maS","steam_id":76561198114953928,"connected_time":6777000000000,"state":"active","ping":59},{"user_id":364,"name":"clarinet","steam_id":76561198871391135,"connected_time":378000000000,"state":"active","ping":67},{"user_id":357,"name":"grif","steam_id":76561198272333800,"connected_time":628000000000,"state":"active","ping":157},{"user_id":325,"name":".bRdyyy","steam_id":76561198057256978,"connected_time":3331000000000,"state":"active","ping":45},{"user_id":370,"name":"Vischan but worse","steam_id":76561199371650805,"connected_time":5000000000,"state":"spawning","ping":89},{"user_id":359,"name":"Larry Penus","steam_id":76561198207546233,"connected_time":556000000000,"state":"active","ping":57},{"user_id":331,"name":"nox","steam_id":76561198287360892,"connected_time":2791000000000,"state":"active","ping":55},{"user_id":368,"name":"Mankor","steam_id":76561198020439322,"connected_time":142000000000,"state":"active","ping":45},{"user_id":361,"name":"manKe","steam_id":76561198008564860,"connected_time":475000000000,"state":"active","ping":55},{"user_id":310,"name":"dudor","steam_id":76561198089910493,"connected_time":4754000000000,"state":"active","ping":83},{"user_id":329,"name":"WHUSSKEY","steam_id":76561198137827441,"connected_time":3034000000000,"state":"active","ping":61},{"user_id":349,"name":":\u003e","steam_id":76561198237588932,"connected_time":1411000000000,"state":"active","ping":59},{"user_id":362,"name":"ikc159","steam_id":76561198020559026,"connected_time":473000000000,"state":"active","ping":59},{"user_id":365,"name":"I love femboys","steam_id":76561198196357213,"connected_time":378000000000,"state":"active","ping":77},{"user_id":268,"name":"Bluetooth Headphones gaming","steam_id":76561198848650365,"connected_time":8446000000000,"state":"active","ping":94}]},{"server_id":310,"name":"Uncletopia | Frankfurt | 5 | All Maps","name_short":"frk-5","host":"frk-1.de.uncletopia.com","port":27055,"enabled":true,"region":"eu","cc":"de","latitude":50.110924,"longitude":8.682127,"reserved":0,"last_update":"0001-01-01T00:00:00Z","name_a2s":"Uncletopia | Frankfurt | 5 | All Maps","protocol":17,"map":"koth_king","folder":"tf","game":"Team Fortress","app_id":440,"player_count":24,"max_players":24,"Bots":0,"server_type":"Dedicated","server_os":"Linux","password":true,"vac":true,"version":"7742253","steam_id":85568392924504277,"keywords":["cp","nocrits","nodmgspread","uncletopia"],"game_id":440,"stv_port":27056,"stv_name":"Uncletopia | Frankfurt | 5 | All Maps | STV","players":[{"user_id":122,"name":"Ham crusader","steam_id":76561198433601297,"connected_time":3763000000000,"state":"active","ping":75},{"user_id":137,"name":"Panzerwaffle","steam_id":76561198030382800,"connected_time":2103000000000,"state":"active","ping":60},{"user_id":108,"name":"Annoying Demo","steam_id":76561198367203640,"connected_time":4381000000000,"state":"active","ping":53},{"user_id":142,"name":"BIGGERDANGO","steam_id":76561198247876394,"connected_time":1661000000000,"state":"active","ping":62},{"user_id":146,"name":"Orias","steam_id":76561198055378683,"connected_time":1593000000000,"state":"active","ping":69},{"user_id":150,"name":"johnkleiman","steam_id":76561198375607729,"connected_time":1049000000000,"state":"active","ping":58},{"user_id":151,"name":"nicholas","steam_id":76561198058211873,"connected_time":1048000000000,"state":"active","ping":46},{"user_id":143,"name":"bert","steam_id":76561198156318293,"connected_time":1656000000000,"state":"active","ping":54},{"user_id":40,"name":"Santa has breached the Pentagon","steam_id":76561198039097662,"connected_time":9925000000000,"state":"active","ping":69},{"user_id":90,"name":"CV\u003cDeaD\u003e","steam_id":76561198001816577,"connected_time":6270000000000,"state":"active","ping":79},{"user_id":129,"name":"G/3","steam_id":76561198234844188,"connected_time":2924000000000,"state":"active","ping":60},{"user_id":158,"name":"DN77","steam_id":76561199121396324,"connected_time":51000000000,"state":"active","ping":93},{"user_id":155,"name":"Poop","steam_id":76561198976511412,"connected_time":447000000000,"state":"active","ping":163},{"user_id":144,"name":"Bookus","steam_id":76561198108620516,"connected_time":1655000000000,"state":"active","ping":53},{"user_id":159,"name":"Sabour","steam_id":76561197963965445,"connected_time":32000000000,"state":"active","ping":55},{"user_id":109,"name":"Jerr_074","steam_id":76561198395931148,"connected_time":4381000000000,"state":"active","ping":65},{"user_id":145,"name":"Jamon","steam_id":76561198393024383,"connected_time":1653000000000,"state":"active","ping":67},{"user_id":156,"name":"guarda-chuva","steam_id":76561198078694330,"connected_time":413000000000,"state":"active","ping":52},{"user_id":68,"name":"Can I get a Beep Beep","steam_id":76561198010730967,"connected_time":8020000000000,"state":"active","ping":73},{"user_id":157,"name":"Trash Bandicoot","steam_id":76561198127596400,"connected_time":411000000000,"state":"active","ping":68},{"user_id":147,"name":"Archos","steam_id":76561198181820631,"connected_time":1343000000000,"state":"active","ping":71},{"user_id":115,"name":"pizzahawaiiEnjoyerwithbigdick","steam_id":76561198079752629,"connected_time":4297000000000,"state":"active","ping":61},{"user_id":78,"name":"Shadowengell","steam_id":76561198019284410,"connected_time":7534000000000,"state":"active","ping":105},{"user_id":160,"name":"Diamontbone","steam_id":76561198400558905,"connected_time":29000000000,"state":"spawning","ping":90}]},{"server_id":311,"name":"Uncletopia | Frankfurt | 6 | All Maps","name_short":"frk-6","host":"frk-1.de.uncletopia.com","port":27065,"enabled":true,"region":"eu","cc":"de","latitude":50.110924,"longitude":8.682127,"reserved":0,"last_update":"0001-01-01T00:00:00Z","name_a2s":"Uncletopia | Frankfurt | 6 | All Maps","protocol":17,"map":"pl_upward","folder":"tf","game":"Team Fortress","app_id":440,"player_count":24,"max_players":24,"Bots":0,"server_type":"Dedicated","server_os":"Linux","password":true,"vac":true,"version":"7742253","steam_id":85568392924504278,"keywords":["nocrits","nodmgspread","payload","uncletopia"],"game_id":440,"stv_port":27066,"stv_name":"Uncletopia | Frankfurt | 6 | All Maps | STV","players":[{"user_id":71,"name":"yuh","steam_id":76561199005555839,"connected_time":825000000000,"state":"active","ping":60},{"user_id":31,"name":"ChilledCatz","steam_id":76561198166046621,"connected_time":3732000000000,"state":"active","ping":60},{"user_id":32,"name":"Joe Pyron","steam_id":76561198193454030,"connected_time":3699000000000,"state":"active","ping":65},{"user_id":66,"name":"E","steam_id":76561198166340115,"connected_time":973000000000,"state":"active","ping":62},{"user_id":76,"name":"Sunless","steam_id":76561199209445354,"connected_time":502000000000,"state":"active","ping":101},{"user_id":37,"name":"GOUD","steam_id":76561198071823072,"connected_time":3013000000000,"state":"active","ping":75},{"user_id":78,"name":"Ciaguta_rolex","steam_id":76561198046709588,"connected_time":467000000000,"state":"active","ping":76},{"user_id":39,"name":"Liba","steam_id":76561198118006754,"connected_time":3012000000000,"state":"active","ping":75},{"user_id":40,"name":"NORMI","steam_id":76561198261573329,"connected_time":2994000000000,"state":"active","ping":70},{"user_id":77,"name":"nes","steam_id":76561198037938833,"connected_time":500000000000,"state":"active","ping":54},{"user_id":79,"name":"|20BB)\u003eMach","steam_id":76561198952487564,"connected_time":454000000000,"state":"active","ping":79},{"user_id":65,"name":"LOBZIK","steam_id":76561198114830120,"connected_time":1290000000000,"state":"active","ping":75},{"user_id":72,"name":"MAKENTAKEN","steam_id":76561199127359587,"connected_time":767000000000,"state":"active","ping":86},{"user_id":80,"name":"piss","steam_id":76561198992297033,"connected_time":443000000000,"state":"active","ping":162},{"user_id":84,"name":"Jingleboob's 1# Elf","steam_id":76561198067204908,"connected_time":148000000000,"state":"active","ping":67},{"user_id":51,"name":"name me pls","steam_id":76561199273576072,"connected_time":1758000000000,"state":"active","ping":62},{"user_id":52,"name":"Videogamer","steam_id":76561198106012909,"connected_time":1710000000000,"state":"active","ping":63},{"user_id":54,"name":"jingleboob","steam_id":76561198097507847,"connected_time":1706000000000,"state":"active","ping":76},{"user_id":55,"name":"jim","steam_id":76561198172003783,"connected_time":1702000000000,"state":"active","ping":105},{"user_id":81,"name":"Luigi Gaming (real and official","steam_id":76561198082502910,"connected_time":435000000000,"state":"active","ping":59},{"user_id":57,"name":"jingleelf coordinator","steam_id":76561198170609049,"connected_time":1665000000000,"state":"active","ping":80},{"user_id":73,"name":"Towercat","steam_id":76561198013141793,"connected_time":711000000000,"state":"active","ping":69},{"user_id":82,"name":"NEONwarrior234","steam_id":76561198214982895,"connected_time":333000000000,"state":"active","ping":78},{"user_id":74,"name":"Dr. Mario","steam_id":76561199125182282,"connected_time":586000000000,"state":"active","ping":144}]},{"server_id":23,"name":"Uncletopia | Frankfurt | 7 | Stopwatch Beta","name_short":"frk-7","host":"frk-1.de.uncletopia.com","port":27075,"enabled":true,"region":"eu","cc":"de","latitude":50.110924,"longitude":8.682127,"reserved":0,"last_update":"0001-01-01T00:00:00Z","name_a2s":"Uncletopia | Frankfurt | 7 | Stopwatch Beta","protocol":17,"map":"koth_lakeside_final","folder":"tf","game":"Team Fortress","app_id":440,"player_count":0,"max_players":24,"Bots":0,"server_type":"Dedicated","server_os":"Linux","password":true,"vac":true,"version":"7742253","steam_id":85568392924742827,"keywords":["cp","nocrits","nodmgspread","uncletopia"],"game_id":440,"stv_port":27076,"stv_name":"Uncletopia | Frankfurt | 7 | Stopwatch Beta | STV","players":null},{"server_id":24,"name":"Uncletopia | Frankfurt | 8 | Community","name_short":"frk-8","host":"frk-1.de.uncletopia.com","port":27085,"enabled":true,"region":"eu","cc":"de","latitude":50.110924,"longitude":8.682127,"reserved":0,"last_update":"0001-01-01T00:00:00Z","name_a2s":"Uncletopia | Frankfurt | 8 | Community","protocol":17,"map":"workshop/koth_slaughter_rc1.ugc1712845210","folder":"tf","game":"Team Fortress","app_id":440,"player_count":0,"max_players":24,"Bots":0,"server_type":"Dedicated","server_os":"Linux","password":true,"vac":true,"version":"7742253","steam_id":85568392924742828,"keywords":["cp","nocrits","nodmgspread","uncletopia"],"game_id":440,"stv_port":27086,"stv_name":"Uncletopia | Frankfurt | 8 | Community | STV","players":null},{"server_id":202,"name":"Uncletopia | Hong Kong | 1 | All Maps","name_short":"hgk-1","host":"hgk-1.hk.uncletopia.com","port":27015,"enabled":true,"region":"asia","cc":"hk","latitude":22.302711,"longitude":114.177216,"reserved":0,"last_update":"0001-01-01T00:00:00Z","name_a2s":"Uncletopia | Hong Kong | 1 | All Maps","protocol":17,"map":"cp_sunshine","folder":"tf","game":"Team Fortress","app_id":440,"player_count":0,"max_players":24,"Bots":0,"server_type":"Dedicated","server_os":"Linux","password":true,"vac":true,"version":"7742253","steam_id":85568392924494504,"keywords":["cp","nocrits","nodmgspread","uncletopia"],"game_id":440,"stv_port":27016,"stv_name":"Uncletopia | Hong Kong | 1 | All Maps | STV","players":null},{"server_id":1,"name":"Uncletopia | Los Angeles | 1 | All Maps","name_short":"lax-1","host":"lax-1.us.uncletopia.com","port":27015,"enabled":true,"region":"us-west","cc":"us","latitude":33.94279,"longitude":-118.41004,"reserved":0,"last_update":"0001-01-01T00:00:00Z","name_a2s":"Uncletopia | Los Angeles | 1 | All Maps","protocol":17,"map":"pl_badwater","folder":"tf","game":"Team Fortress","app_id":440,"player_count":6,"max_players":24,"Bots":0,"server_type":"Dedicated","server_os":"Linux","password":true,"vac":true,"version":"7742253","steam_id":85568392924469991,"keywords":["nocrits","nodmgspread","payload","uncletopia"],"game_id":440,"stv_port":27016,"stv_name":"Uncletopia | Los Angeles | 1 | All Maps | STV","players":[{"user_id":19,"name":"Imitation Caucasian","steam_id":76561198320536166,"connected_time":302000000000,"state":"active","ping":108},{"user_id":8,"name":"Bboy","steam_id":76561199061157056,"connected_time":1635000000000,"state":"active","ping":83},{"user_id":9,"name":"femboy on hrt","steam_id":76561198204075083,"connected_time":1501000000000,"state":"active","ping":102},{"user_id":15,"name":"Павло Паченко","steam_id":76561198314446564,"connected_time":679000000000,"state":"active","ping":59},{"user_id":11,"name":"Cosmosis Jones","steam_id":76561198970097093,"connected_time":1300000000000,"state":"active","ping":52},{"user_id":17,"name":"Ass Blaster, Disaster Master","steam_id":76561197997774469,"connected_time":469000000000,"state":"active","ping":45}]},{"server_id":112,"name":"Uncletopia | Los Angeles | 2 | All Maps","name_short":"lax-2","host":"lax-1.us.uncletopia.com","port":27025,"enabled":true,"region":"us-west","cc":"us","latitude":33.94279,"longitude":-118.41004,"reserved":0,"last_update":"0001-01-01T00:00:00Z","name_a2s":"Uncletopia | Los Angeles | 2 | All Maps","protocol":17,"map":"pl_frontier_final","folder":"tf","game":"Team Fortress","app_id":440,"player_count":0,"max_players":24,"Bots":0,"server_type":"Dedicated","server_os":"Linux","password":true,"vac":true,"version":"7742253","steam_id":85568392924469992,"keywords":["nocrits","nodmgspread","payload","uncletopia"],"game_id":440,"stv_port":27026,"stv_name":"Uncletopia | Los Angeles | 2 | All Maps | STV","players":null},{"server_id":324,"name":"Uncletopia | Los Angeles | 3 | All Maps","name_short":"lax-3","host":"lax-1.us.uncletopia.com","port":27035,"enabled":true,"region":"us-west","cc":"us","latitude":33.94279,"longitude":-118.41004,"reserved":0,"last_update":"0001-01-01T00:00:00Z","name_a2s":"Uncletopia | Los Angeles | 3 | All Maps","protocol":17,"map":"pl_borneo","folder":"tf","game":"Team Fortress","app_id":440,"player_count":2,"max_players":24,"Bots":0,"server_type":"Dedicated","server_os":"Linux","password":true,"vac":true,"version":"7742253","steam_id":85568392924510198,"keywords":["nocrits","nodmgspread","payload","uncletopia"],"game_id":440,"stv_port":27036,"stv_name":"Uncletopia | Los Angeles | 3 | All Maps | STV","players":[{"user_id":3,"name":"ElmeriThePig","steam_id":76561198868869553,"connected_time":916000000000,"state":"active","ping":217},{"user_id":4,"name":"Spy gaming","steam_id":76561199150725210,"connected_time":764000000000,"state":"active","ping":170}]},{"server_id":25,"name":"Uncletopia | Los Angeles | 4 | Stopwatch Beta","name_short":"lax-4","host":"lax-1.us.uncletopia.com","port":27045,"enabled":true,"region":"us-west","cc":"us","latitude":33.94279,"longitude":-118.41004,"reserved":0,"last_update":"0001-01-01T00:00:00Z","name_a2s":"Uncletopia | Los Angeles | 4 | Stopwatch Beta","protocol":17,"map":"cp_process_final","folder":"tf","game":"Team Fortress","app_id":440,"player_count":0,"max_players":24,"Bots":0,"server_type":"Dedicated","server_os":"Linux","password":true,"vac":true,"version":"7742253","steam_id":85568392924510199,"keywords":["cp","nocrits","nodmgspread","uncletopia"],"game_id":440,"stv_port":27046,"stv_name":"Uncletopia | Los Angeles | 4 | Stopwatch Beta | STV","players":null},{"server_id":11,"name":"Uncletopia | London | 1 | All Maps","name_short":"lon-1","host":"lon-1.uk.uncletopia.com","port":27015,"enabled":true,"region":"eu","cc":"gb","latitude":51.509865,"longitude":-0.118092,"reserved":0,"last_update":"0001-01-01T00:00:00Z","name_a2s":"Uncletopia | London | 1 | All Maps","protocol":17,"map":"pl_pier","folder":"tf","game":"Team Fortress","app_id":440,"player_count":24,"max_players":24,"Bots":0,"server_type":"Dedicated","server_os":"Linux","password":true,"vac":true,"version":"7742253","steam_id":85568392924367362,"keywords":["nocrits","nodmgspread","payload","uncletopia"],"game_id":440,"stv_port":27016,"stv_name":"Uncletopia | London | 1 | All Maps | STV","players":[{"user_id":753,"name":"Prox","steam_id":76561198351490981,"connected_time":1813000000000,"state":"active","ping":47},{"user_id":750,"name":"HerrGoldfisch","steam_id":76561198380425595,"connected_time":2373000000000,"state":"active","ping":56},{"user_id":756,"name":"Zero (Orbital Gear Mastermind)","steam_id":76561198017416816,"connected_time":1295000000000,"state":"active","ping":66},{"user_id":751,"name":"One armed fiddle enthusiast","steam_id":76561198045847051,"connected_time":2354000000000,"state":"active","ping":60},{"user_id":759,"name":"BX","steam_id":76561197962889211,"connected_time":860000000000,"state":"active","ping":65},{"user_id":585,"name":"SuntanPikachu","steam_id":76561198121242476,"connected_time":13714000000000,"state":"active","ping":51},{"user_id":762,"name":"lupe.-","steam_id":76561198079813788,"connected_time":711000000000,"state":"active","ping":61},{"user_id":761,"name":"Lewylow","steam_id":76561198005425686,"connected_time":755000000000,"state":"active","ping":59},{"user_id":735,"name":"icewallowpiss","steam_id":76561198128337963,"connected_time":3205000000000,"state":"active","ping":50},{"user_id":754,"name":"KhornateDoom","steam_id":76561198127530619,"connected_time":1689000000000,"state":"active","ping":67},{"user_id":729,"name":"Где море?","steam_id":76561197979625544,"connected_time":3487000000000,"state":"active","ping":90},{"user_id":737,"name":"Mik","steam_id":76561198109726884,"connected_time":3176000000000,"state":"active","ping":82},{"user_id":738,"name":"KarlRanzeier","steam_id":76561198066281337,"connected_time":3156000000000,"state":"active","ping":61},{"user_id":770,"name":"AwterSix","steam_id":76561198042561678,"connected_time":419000000000,"state":"active","ping":63},{"user_id":764,"name":"sunsetteOS","steam_id":76561198030654079,"connected_time":672000000000,"state":"active","ping":118},{"user_id":752,"name":"trite","steam_id":76561197983765323,"connected_time":2030000000000,"state":"active","ping":49},{"user_id":718,"name":"Polaris","steam_id":76561198007076931,"connected_time":4172000000000,"state":"active","ping":60},{"user_id":767,"name":"Below Average","steam_id":76561198133784080,"connected_time":579000000000,"state":"active","ping":67},{"user_id":757,"name":"Le Bon Toutou","steam_id":76561198300902712,"connected_time":1011000000000,"state":"active","ping":67},{"user_id":768,"name":"C1nnamon_cookie","steam_id":76561199155374388,"connected_time":531000000000,"state":"active","ping":90},{"user_id":771,"name":"bladesedge","steam_id":76561199046996262,"connected_time":151000000000,"state":"active","ping":40},{"user_id":713,"name":"Käpt'n","steam_id":76561198082347638,"connected_time":4378000000000,"state":"active","ping":79},{"user_id":755,"name":"weasl","steam_id":76561198076388927,"connected_time":1625000000000,"state":"active","ping":68},{"user_id":747,"name":"Bulka Mix Huix","steam_id":76561197996831249,"connected_time":2905000000000,"state":"active","ping":104}]},{"server_id":114,"name":"Uncletopia | London | 2 | All Maps","name_short":"lon-2","host":"lon-1.uk.uncletopia.com","port":27025,"enabled":true,"region":"eu","cc":"gb","latitude":51.509865,"longitude":-0.118092,"reserved":0,"last_update":"0001-01-01T00:00:00Z","name_a2s":"Uncletopia | London | 2 | All Maps","protocol":17,"map":"ctf_2fort","folder":"tf","game":"Team Fortress","app_id":440,"player_count":9,"max_players":24,"Bots":0,"server_type":"Dedicated","server_os":"Linux","password":true,"vac":true,"version":"7742253","steam_id":85568392924470941,"keywords":["ctf","nocrits","nodmgspread","uncletopia"],"game_id":440,"stv_port":27026,"stv_name":"Uncletopia | London | 2 | All Maps | STV","players":[{"user_id":505,"name":"foot foot","steam_id":76561198066073986,"connected_time":615000000000,"state":"spawning","ping":45},{"user_id":504,"name":"Multi","steam_id":76561197998338481,"connected_time":658000000000,"state":"spawning","ping":74},{"user_id":464,"name":"burial","steam_id":76561198009115060,"connected_time":2415000000000,"state":"spawning","ping":255},{"user_id":463,"name":"Abel099","steam_id":76561198314252761,"connected_time":2776000000000,"state":"spawning","ping":62},{"user_id":468,"name":"Lightbulb Monkey","steam_id":76561198045033173,"connected_time":2382000000000,"state":"spawning","ping":160},{"user_id":438,"name":"Dr. Funkenstein","steam_id":76561197977816210,"connected_time":4409000000000,"state":"spawning","ping":254},{"user_id":419,"name":"benjamin mcbillybob","steam_id":76561198131670413,"connected_time":5803000000000,"state":"spawning","ping":70},{"user_id":450,"name":"E1s","steam_id":76561198894958917,"connected_time":3873000000000,"state":"spawning","ping":54},{"user_id":495,"name":"Economic crisis","steam_id":76561198063562843,"connected_time":1575000000000,"state":"spawning","ping":68}]},{"server_id":320,"name":"Uncletopia | London | 3 | All Maps","name_short":"lon-3","host":"lon-1.uk.uncletopia.com","port":27035,"enabled":true,"region":"eu","cc":"gb","latitude":51.509865,"longitude":-0.118092,"reserved":0,"last_update":"0001-01-01T00:00:00Z","name_a2s":"Uncletopia | London | 3 | All Maps","protocol":17,"map":"koth_harvest_final","folder":"tf","game":"Team Fortress","app_id":440,"player_count":22,"max_players":24,"Bots":0,"server_type":"Dedicated","server_os":"Linux","password":true,"vac":true,"version":"7742253","steam_id":85568392924510192,"keywords":["cp","nocrits","nodmgspread","uncletopia"],"game_id":440,"stv_port":27036,"stv_name":"Uncletopia | London | 3 | All Maps | STV","players":[{"user_id":161,"name":"✿ Diluted Tea ✿","steam_id":76561198174523727,"connected_time":6692000000000,"state":"active","ping":64},{"user_id":237,"name":"St_dark","steam_id":76561199101198710,"connected_time":1434000000000,"state":"active","ping":67},{"user_id":267,"name":"dubysa","steam_id":76561198079774530,"connected_time":74000000000,"state":"active","ping":75},{"user_id":257,"name":"Rad But Sad","steam_id":76561198066409088,"connected_time":701000000000,"state":"active","ping":76},{"user_id":264,"name":"vi hava en usel regering","steam_id":76561198037978654,"connected_time":283000000000,"state":"active","ping":60},{"user_id":265,"name":"GRcrafter","steam_id":76561198372186715,"connected_time":240000000000,"state":"active","ping":94},{"user_id":175,"name":"The Delivery Engineer","steam_id":76561199066281508,"connected_time":5349000000000,"state":"active","ping":67},{"user_id":259,"name":"ralph62x","steam_id":76561198865294231,"connected_time":604000000000,"state":"active","ping":56},{"user_id":260,"name":"Gagiclunk","steam_id":76561199194862650,"connected_time":595000000000,"state":"active","ping":43},{"user_id":192,"name":"Truck-Sama's Victim","steam_id":76561198826861582,"connected_time":4363000000000,"state":"active","ping":70},{"user_id":243,"name":"Festive Yuletart","steam_id":76561198023918830,"connected_time":1301000000000,"state":"active","ping":45},{"user_id":261,"name":"Pan W","steam_id":76561198384111099,"connected_time":534000000000,"state":"active","ping":74},{"user_id":266,"name":"Toofy","steam_id":76561197989727907,"connected_time":200000000000,"state":"active","ping":41},{"user_id":269,"name":"top 5 trol (you wont believe #2","steam_id":76561198203486600,"connected_time":23000000000,"state":"active","ping":44},{"user_id":263,"name":"Lernix","steam_id":76561198382328645,"connected_time":469000000000,"state":"active","ping":62},{"user_id":172,"name":"hmscole09","steam_id":76561198811362788,"connected_time":5488000000000,"state":"active","ping":47},{"user_id":191,"name":"Tavish","steam_id":76561197971486686,"connected_time":4690000000000,"state":"active","ping":49},{"user_id":215,"name":"Ziggurat Vertigo","steam_id":76561198055394052,"connected_time":1986000000000,"state":"active","ping":79},{"user_id":163,"name":"TheKromeDome","steam_id":76561198288951592,"connected_time":6679000000000,"state":"active","ping":76},{"user_id":254,"name":"Wyvern786","steam_id":76561199137770636,"connected_time":988000000000,"state":"active","ping":48},{"user_id":255,"name":"Cuptin Blonde","steam_id":76561199135717707,"connected_time":866000000000,"state":"active","ping":51},{"user_id":256,"name":"penis gnome","steam_id":76561198097612561,"connected_time":819000000000,"state":"active","ping":64}]},{"server_id":321,"name":"Uncletopia | London | 4 | All Maps","name_short":"lon-4","host":"lon-1.uk.uncletopia.com","port":27045,"enabled":true,"region":"eu","cc":"gb","latitude":51.509865,"longitude":-0.118092,"reserved":0,"last_update":"0001-01-01T00:00:00Z","name_a2s":"Uncletopia | London | 4 | All Maps","protocol":17,"map":"pl_frontier_final","folder":"tf","game":"Team Fortress","app_id":440,"player_count":20,"max_players":24,"Bots":0,"server_type":"Dedicated","server_os":"Linux","password":true,"vac":true,"version":"7742253","steam_id":85568392924510193,"keywords":["nocrits","nodmgspread","payload","uncletopia"],"game_id":440,"stv_port":27046,"stv_name":"Uncletopia | London | 4 | All Maps | STV","players":[{"user_id":597,"name":"JeanCorben","steam_id":76561197965133561,"connected_time":560000000000,"state":"active","ping":44},{"user_id":574,"name":"Fat Pigeon","steam_id":76561198817940142,"connected_time":3000000000000,"state":"active","ping":45},{"user_id":573,"name":"mt","steam_id":76561197961319303,"connected_time":3258000000000,"state":"active","ping":60},{"user_id":593,"name":"Veri-merry-tasket","steam_id":76561198090074093,"connected_time":860000000000,"state":"active","ping":118},{"user_id":598,"name":"sex haver","steam_id":76561198332712960,"connected_time":379000000000,"state":"active","ping":49},{"user_id":592,"name":"BingusDingus","steam_id":76561198310983903,"connected_time":906000000000,"state":"active","ping":47},{"user_id":581,"name":"GinoFastidio","steam_id":76561198075830259,"connected_time":2196000000000,"state":"active","ping":123},{"user_id":594,"name":"Ricardo Miloš","steam_id":76561198832063769,"connected_time":804000000000,"state":"active","ping":75},{"user_id":490,"name":"Grey","steam_id":76561198187190267,"connected_time":9441000000000,"state":"active","ping":49},{"user_id":500,"name":"Pipper","steam_id":76561197970326616,"connected_time":8539000000000,"state":"active","ping":57},{"user_id":599,"name":"Дядя Геймер","steam_id":76561198053440057,"connected_time":310000000000,"state":"active","ping":81},{"user_id":600,"name":"vertigo philosopher","steam_id":76561198034514694,"connected_time":292000000000,"state":"active","ping":95},{"user_id":586,"name":"Buddy","steam_id":76561198050185582,"connected_time":1369000000000,"state":"active","ping":60},{"user_id":601,"name":"sigurd son of bigurd","steam_id":76561199018216778,"connected_time":103000000000,"state":"spawning","ping":81},{"user_id":602,"name":"Wise Tree","steam_id":76561198108606437,"connected_time":14000000000,"state":"active","ping":95},{"user_id":420,"name":"Emxx52","steam_id":76561198059374194,"connected_time":14766000000000,"state":"active","ping":74},{"user_id":540,"name":"Vectillion","steam_id":76561198074292454,"connected_time":4853000000000,"state":"active","ping":62},{"user_id":603,"name":"Samwise","steam_id":76561198160115838,"connected_time":0,"state":"spawning","ping":0},{"user_id":531,"name":"SoupER","steam_id":76561198063056668,"connected_time":5997000000000,"state":"active","ping":40},{"user_id":553,"name":"tristan","steam_id":76561198096097448,"connected_time":4468000000000,"state":"active","ping":50}]},{"server_id":21,"name":"Uncletopia | London | 5 | All Maps","name_short":"lon-5","host":"lon-1.uk.uncletopia.com","port":27055,"enabled":true,"region":"eu","cc":"gb","latitude":51.509865,"longitude":-0.118092,"reserved":0,"last_update":"0001-01-01T00:00:00Z","name_a2s":"Uncletopia | London | 5 | All Maps","protocol":17,"map":"koth_cascade","folder":"tf","game":"Team Fortress","app_id":440,"player_count":0,"max_players":24,"Bots":0,"server_type":"Dedicated","server_os":"Linux","password":true,"vac":true,"version":"7742253","steam_id":85568392924742829,"keywords":["cp","nocrits","nodmgspread","uncletopia"],"game_id":440,"stv_port":27056,"stv_name":"Uncletopia | London | 5 | All Maps | STV","players":null},{"server_id":22,"name":"Uncletopia | London | 6 | All Maps","name_short":"lon-6","host":"lon-1.uk.uncletopia.com","port":27065,"enabled":true,"region":"eu","cc":"gb","latitude":51.509865,"longitude":-0.118092,"reserved":0,"last_update":"0001-01-01T00:00:00Z","name_a2s":"Uncletopia | London | 6 | All Maps","protocol":17,"map":"cp_steel","folder":"tf","game":"Team Fortress","app_id":440,"player_count":23,"max_players":24,"Bots":0,"server_type":"Dedicated","server_os":"Linux","password":true,"vac":true,"version":"7742253","steam_id":85568392924742830,"keywords":["cp","nocrits","nodmgspread","uncletopia"],"game_id":440,"stv_port":27066,"stv_name":"Uncletopia | London | 6 | All Maps | STV","players":[{"user_id":245,"name":"Lag","steam_id":76561198159360376,"connected_time":2264000000000,"state":"active","ping":42},{"user_id":221,"name":"Dr.Disrespect","steam_id":76561198043820228,"connected_time":3690000000000,"state":"active","ping":51},{"user_id":251,"name":"PolarTwin","steam_id":76561198071157528,"connected_time":1544000000000,"state":"active","ping":63},{"user_id":261,"name":"Julez","steam_id":76561198045505082,"connected_time":715000000000,"state":"active","ping":75},{"user_id":198,"name":"Sunshine Moon","steam_id":76561198022604491,"connected_time":5277000000000,"state":"active","ping":48},{"user_id":263,"name":"CGI_Lantern","steam_id":76561198055191196,"connected_time":517000000000,"state":"active","ping":78},{"user_id":240,"name":"Dolphin2011","steam_id":76561197997323419,"connected_time":2548000000000,"state":"active","ping":89},{"user_id":199,"name":"King Calibur","steam_id":76561198120609448,"connected_time":5264000000000,"state":"active","ping":155},{"user_id":187,"name":"4's up Rigby","steam_id":76561199122067976,"connected_time":5567000000000,"state":"active","ping":49},{"user_id":200,"name":"Darkly Quill","steam_id":76561198043540617,"connected_time":5246000000000,"state":"active","ping":149},{"user_id":264,"name":"needes0708","steam_id":76561199142075919,"connected_time":471000000000,"state":"active","ping":123},{"user_id":247,"name":"Athomix","steam_id":76561198170108402,"connected_time":2092000000000,"state":"active","ping":130},{"user_id":268,"name":"Clark","steam_id":76561197998520785,"connected_time":259000000000,"state":"active","ping":89},{"user_id":254,"name":"11037","steam_id":76561198351154533,"connected_time":1432000000000,"state":"active","ping":54},{"user_id":231,"name":"Arx","steam_id":76561198107397454,"connected_time":2846000000000,"state":"active","ping":48},{"user_id":252,"name":"tiagrossin","steam_id":76561198075391779,"connected_time":1524000000000,"state":"active","ping":75},{"user_id":260,"name":"Ghostler","steam_id":76561198008734235,"connected_time":788000000000,"state":"active","ping":32},{"user_id":267,"name":"loser","steam_id":76561198874129419,"connected_time":266000000000,"state":"active","ping":80},{"user_id":269,"name":"Doban","steam_id":76561198120725637,"connected_time":231000000000,"state":"active","ping":46},{"user_id":270,"name":"Bonca","steam_id":76561198137503531,"connected_time":214000000000,"state":"connecting","ping":0},{"user_id":271,"name":"Goobie","steam_id":76561198047375383,"connected_time":84000000000,"state":"active","ping":56},{"user_id":220,"name":"stoicist","steam_id":76561197985213048,"connected_time":3714000000000,"state":"active","ping":50},{"user_id":272,"name":"ben","steam_id":76561198412665946,"connected_time":40000000000,"state":"active","ping":99}]},{"server_id":40,"name":"Uncletopia | London | 7 | No Payload","name_short":"lon-7","host":"lon-1.uk.uncletopia.com","port":27075,"enabled":true,"region":"eu","cc":"gb","latitude":51.509865,"longitude":-0.118092,"reserved":0,"last_update":"0001-01-01T00:00:00Z","name_a2s":"Uncletopia | London | 7 | No Payload","protocol":17,"map":"cp_gullywash_final1","folder":"tf","game":"Team Fortress","app_id":440,"player_count":0,"max_players":24,"Bots":0,"server_type":"Dedicated","server_os":"Linux","password":true,"vac":true,"version":"7742253","steam_id":85568392924964314,"keywords":["cp","nocrits","nodmgspread","uncletopia"],"game_id":440,"stv_port":27076,"stv_name":"Uncletopia | London | 7 | No Payload | STV","players":null},{"server_id":41,"name":"Uncletopia | London | 8 | Community","name_short":"lon-8","host":"lon-1.uk.uncletopia.com","port":27085,"enabled":true,"region":"eu","cc":"gb","latitude":51.509865,"longitude":-0.118092,"reserved":0,"last_update":"0001-01-01T00:00:00Z","name_a2s":"Uncletopia | London | 8 | Community","protocol":17,"map":"workshop/koth_ramjam_v2_b2.ugc2865676487","folder":"tf","game":"Team Fortress","app_id":440,"player_count":0,"max_players":24,"Bots":0,"server_type":"Dedicated","server_os":"Linux","password":true,"vac":true,"version":"7742253","steam_id":85568392924964315,"keywords":["cp","nocrits","nodmgspread","uncletopia"],"game_id":440,"stv_port":27086,"stv_name":"Uncletopia | London | 8 | Community | STV","players":null},{"server_id":300,"name":"Uncletopia | Montréal | 1 | All Maps","name_short":"mtl-1","host":"mtl-1.ca.uncletopia.com","port":27015,"enabled":true,"region":"us-east","cc":"ca","latitude":45.50889,"longitude":-73.56167,"reserved":0,"last_update":"0001-01-01T00:00:00Z","name_a2s":"Uncletopia | Montréal | 1 | All Maps","protocol":17,"map":"koth_lakeside_final","folder":"tf","game":"Team Fortress","app_id":440,"player_count":0,"max_players":24,"Bots":0,"server_type":"Dedicated","server_os":"Linux","password":true,"vac":true,"version":"7742253","steam_id":85568392924500087,"keywords":["cp","nocrits","nodmgspread","uncletopia"],"game_id":440,"stv_port":27016,"stv_name":"Uncletopia | Montréal | 1 | All Maps | STV","players":null},{"server_id":301,"name":"Uncletopia | Montréal | 2 | All Maps","name_short":"mtl-2","host":"mtl-1.ca.uncletopia.com","port":27025,"enabled":true,"region":"us-east","cc":"ca","latitude":45.50889,"longitude":-73.56167,"reserved":0,"last_update":"0001-01-01T00:00:00Z","name_a2s":"Uncletopia | Montréal | 2 | All Maps","protocol":17,"map":"koth_lakeside_final","folder":"tf","game":"Team Fortress","app_id":440,"player_count":0,"max_players":24,"Bots":0,"server_type":"Dedicated","server_os":"Linux","password":true,"vac":true,"version":"7742253","steam_id":85568392924500088,"keywords":["cp","nocrits","nodmgspread","uncletopia"],"game_id":440,"stv_port":27026,"stv_name":"Uncletopia | Montréal | 2 | All Maps | STV","players":null},{"server_id":302,"name":"Uncletopia | Montréal | 3 | All Maps","name_short":"mtl-3","host":"mtl-1.ca.uncletopia.com","port":27035,"enabled":true,"region":"us-east","cc":"ca","latitude":45.50889,"longitude":-73.56167,"reserved":0,"last_update":"0001-01-01T00:00:00Z","name_a2s":"Uncletopia | Montréal | 3 | All Maps","protocol":17,"map":"pl_badwater","folder":"tf","game":"Team Fortress","app_id":440,"player_count":0,"max_players":24,"Bots":0,"server_type":"Dedicated","server_os":"Linux","password":true,"vac":true,"version":"7742253","steam_id":85568392924500089,"keywords":["nocrits","nodmgspread","payload","uncletopia"],"game_id":440,"stv_port":27036,"stv_name":"Uncletopia | Montréal | 3 | All Maps | STV","players":null},{"server_id":303,"name":"Uncletopia | Montréal | 4 | No Payload","name_short":"mtl-4","host":"mtl-1.ca.uncletopia.com","port":27045,"enabled":true,"region":"us-east","cc":"ca","latitude":45.50889,"longitude":-73.56167,"reserved":0,"last_update":"0001-01-01T00:00:00Z","name_a2s":"Uncletopia | Montréal | 4 | No Payload","protocol":17,"map":"koth_highpass","folder":"tf","game":"Team Fortress","app_id":440,"player_count":0,"max_players":24,"Bots":0,"server_type":"Dedicated","server_os":"Linux","password":true,"vac":true,"version":"7742253","steam_id":85568392924500090,"keywords":["cp","nocrits","nodmgspread","uncletopia"],"game_id":440,"stv_port":27046,"stv_name":"Uncletopia | Montréal | 4 | No Payload | STV","players":null},{"server_id":13,"name":"Uncletopia | New York City | 1 | All Maps","name_short":"nyc-1","host":"nyc-1.us.uncletopia.com","port":27015,"enabled":true,"region":"us-east","cc":"us","latitude":40.73061,"longitude":-73.93524,"reserved":0,"last_update":"0001-01-01T00:00:00Z","name_a2s":"Uncletopia | New York City | 1 | All Maps","protocol":17,"map":"cp_snakewater_final1","folder":"tf","game":"Team Fortress","app_id":440,"player_count":23,"max_players":24,"Bots":0,"server_type":"Dedicated","server_os":"Linux","password":true,"vac":true,"version":"7742253","steam_id":85568392924469993,"keywords":["cp","nocrits","nodmgspread","uncletopia"],"game_id":440,"stv_port":27016,"stv_name":"Uncletopia | New York City | 1 | All Maps | STV","players":[{"user_id":194,"name":"Spiral Mountain","steam_id":76561198058683715,"connected_time":9900000000000,"state":"active","ping":62},{"user_id":263,"name":"Mirari","steam_id":76561198126889358,"connected_time":6269000000000,"state":"active","ping":60},{"user_id":336,"name":"6ix *","steam_id":76561198415484497,"connected_time":756000000000,"state":"active","ping":171},{"user_id":8,"name":"Muffim","steam_id":76561198056704533,"connected_time":23586000000000,"state":"active","ping":131},{"user_id":334,"name":"Pills","steam_id":76561198799440163,"connected_time":1274000000000,"state":"active","ping":99},{"user_id":303,"name":"gunk","steam_id":76561198845637652,"connected_time":3789000000000,"state":"active","ping":83},{"user_id":324,"name":"inpalate","steam_id":76561199016973013,"connected_time":1594000000000,"state":"active","ping":68},{"user_id":322,"name":"Wahooka (Manrobics Instructor)","steam_id":76561197962240925,"connected_time":1696000000000,"state":"active","ping":54},{"user_id":319,"name":"TaroStewDude","steam_id":76561198862881952,"connected_time":1827000000000,"state":"active","ping":55},{"user_id":264,"name":"SuperJagops","steam_id":76561198034689716,"connected_time":6255000000000,"state":"active","ping":50},{"user_id":309,"name":"New Moon","steam_id":76561198051928674,"connected_time":3222000000000,"state":"active","ping":36},{"user_id":323,"name":"Doody","steam_id":76561198284068886,"connected_time":1688000000000,"state":"active","ping":74},{"user_id":329,"name":"All Tomorrow's Parties","steam_id":76561197995936212,"connected_time":1446000000000,"state":"active","ping":74},{"user_id":282,"name":"Chef Loves Music","steam_id":76561198310658990,"connected_time":5024000000000,"state":"active","ping":66},{"user_id":131,"name":"Awildrock","steam_id":76561198040401086,"connected_time":15432000000000,"state":"active","ping":92},{"user_id":311,"name":"not shouleil","steam_id":76561198970370243,"connected_time":2986000000000,"state":"active","ping":38},{"user_id":209,"name":"PizzaPasta","steam_id":76561199125109082,"connected_time":9515000000000,"state":"active","ping":59},{"user_id":327,"name":"Canpake","steam_id":76561198106446161,"connected_time":1512000000000,"state":"active","ping":51},{"user_id":337,"name":"MANKOD","steam_id":76561198135362739,"connected_time":556000000000,"state":"active","ping":94},{"user_id":338,"name":"-|FG|- Hamilkar Barca","steam_id":76561198091666474,"connected_time":335000000000,"state":"active","ping":54},{"user_id":335,"name":"KidVid","steam_id":76561198252500460,"connected_time":1259000000000,"state":"active","ping":51},{"user_id":331,"name":"based housewife","steam_id":76561198066812433,"connected_time":1384000000000,"state":"active","ping":58},{"user_id":332,"name":"Vince","steam_id":76561199103000131,"connected_time":1369000000000,"state":"active","ping":119}]},{"server_id":14,"name":"Uncletopia | New York City | 2 | All Maps","name_short":"nyc-2","host":"nyc-1.us.uncletopia.com","port":27025,"enabled":true,"region":"us-east","cc":"us","latitude":40.73061,"longitude":-73.93524,"reserved":0,"last_update":"0001-01-01T00:00:00Z","name_a2s":"Uncletopia | New York City | 2 | All Maps","protocol":17,"map":"cp_process_final","folder":"tf","game":"Team Fortress","app_id":440,"player_count":24,"max_players":24,"Bots":0,"server_type":"Dedicated","server_os":"Linux","password":true,"vac":true,"version":"7742253","steam_id":85568392924469994,"keywords":["cp","nocrits","nodmgspread","uncletopia"],"game_id":440,"stv_port":27026,"stv_name":"Uncletopia | New York City | 2 | All Maps | STV","players":[{"user_id":293,"name":"FISH","steam_id":76561199122475583,"connected_time":369000000000,"state":"active","ping":77},{"user_id":207,"name":"sock","steam_id":76561199117597830,"connected_time":6113000000000,"state":"active","ping":60},{"user_id":288,"name":"HotCocoa","steam_id":76561198385193022,"connected_time":579000000000,"state":"active","ping":84},{"user_id":290,"name":"BlazeHX","steam_id":76561198827408017,"connected_time":454000000000,"state":"active","ping":82},{"user_id":291,"name":"DocRabbot","steam_id":76561198073212975,"connected_time":410000000000,"state":"active","ping":69},{"user_id":294,"name":"Soap","steam_id":76561198074619142,"connected_time":345000000000,"state":"active","ping":73},{"user_id":250,"name":"friend","steam_id":76561198062481872,"connected_time":3488000000000,"state":"active","ping":72},{"user_id":272,"name":"cremeoner","steam_id":76561198372332251,"connected_time":2076000000000,"state":"active","ping":40},{"user_id":295,"name":"Nic0","steam_id":76561198305690218,"connected_time":324000000000,"state":"active","ping":56},{"user_id":270,"name":"Finger (Real)","steam_id":76561198406094935,"connected_time":2140000000000,"state":"active","ping":42},{"user_id":287,"name":"The Lonely Croc","steam_id":76561198123241396,"connected_time":594000000000,"state":"active","ping":91},{"user_id":296,"name":"WanderingGenji","steam_id":76561198965812987,"connected_time":316000000000,"state":"active","ping":76},{"user_id":297,"name":"Irregulars","steam_id":76561198048498230,"connected_time":265000000000,"state":"active","ping":32},{"user_id":277,"name":"if watermelons were human","steam_id":76561199044624946,"connected_time":1637000000000,"state":"active","ping":44},{"user_id":298,"name":"n8thegr83008","steam_id":76561198214814260,"connected_time":250000000000,"state":"active","ping":73},{"user_id":232,"name":"-InternalDeath-","steam_id":76561198866009351,"connected_time":4033000000000,"state":"active","ping":43},{"user_id":43,"name":"des","steam_id":76561198079226634,"connected_time":18705000000000,"state":"active","ping":60},{"user_id":274,"name":"Draconic Ballad","steam_id":76561198027191515,"connected_time":2042000000000,"state":"active","ping":55},{"user_id":259,"name":"Big Yoshi","steam_id":76561199160576376,"connected_time":3204000000000,"state":"active","ping":135},{"user_id":284,"name":"BNTF","steam_id":76561198062740087,"connected_time":1171000000000,"state":"active","ping":75},{"user_id":299,"name":"Yengozi","steam_id":76561198448764748,"connected_time":248000000000,"state":"active","ping":78},{"user_id":300,"name":"festivestuntman","steam_id":76561198056911537,"connected_time":244000000000,"state":"active","ping":66},{"user_id":281,"name":"tf2","steam_id":76561198192330781,"connected_time":1291000000000,"state":"active","ping":44},{"user_id":261,"name":"A_Malebolgia","steam_id":76561198097722818,"connected_time":3180000000000,"state":"active","ping":86}]},{"server_id":15,"name":"Uncletopia | New York City | 3 | Stopwatch Beta","name_short":"nyc-3","host":"nyc-1.us.uncletopia.com","port":27035,"enabled":true,"region":"us-east","cc":"us","latitude":40.73061,"longitude":-73.93524,"reserved":0,"last_update":"0001-01-01T00:00:00Z","name_a2s":"Uncletopia | New York City | 3 | Stopwatch Beta","protocol":17,"map":"cp_altitude","folder":"tf","game":"Team Fortress","app_id":440,"player_count":0,"max_players":24,"Bots":0,"server_type":"Dedicated","server_os":"Linux","password":true,"vac":true,"version":"7742253","steam_id":85568392924742820,"keywords":["cp","nocrits","nodmgspread","uncletopia"],"game_id":440,"stv_port":27036,"stv_name":"Uncletopia | New York City | 3 | Stopwatch Beta | STV","players":null},{"server_id":16,"name":"Uncletopia | New York City | 4 | Community","name_short":"nyc-4","host":"nyc-1.us.uncletopia.com","port":27045,"enabled":true,"region":"us-east","cc":"us","latitude":40.73061,"longitude":-73.93524,"reserved":0,"last_update":"0001-01-01T00:00:00Z","name_a2s":"Uncletopia | New York City | 4 | Community","protocol":17,"map":"workshop/rd_asteroid_redux_rc9.ugc2154902912","folder":"tf","game":"Team Fortress","app_id":440,"player_count":0,"max_players":24,"Bots":0,"server_type":"Dedicated","server_os":"Linux","password":true,"vac":true,"version":"7742253","steam_id":85568392924742821,"keywords":["beta","nocrits","nodmgspread","rd","uncletopia"],"game_id":440,"stv_port":27046,"stv_name":"Uncletopia | New York City | 4 | Community | STV","players":null},{"server_id":142,"name":"Uncletopia | São Paulo | 1 | All Maps","name_short":"sao-1","host":"sao-1.br.uncletopia.com","port":27015,"enabled":true,"region":"sa","cc":"br","latitude":-23.533773,"longitude":-46.62529,"reserved":0,"last_update":"0001-01-01T00:00:00Z","name_a2s":"Uncletopia | São Paulo | 1 | All Maps","protocol":17,"map":"koth_highpass","folder":"tf","game":"Team Fortress","app_id":440,"player_count":1,"max_players":24,"Bots":0,"server_type":"Dedicated","server_os":"Linux","password":true,"vac":true,"version":"7742253","steam_id":85568392924469996,"keywords":["cp","nocrits","nodmgspread","uncletopia"],"game_id":440,"stv_port":27016,"stv_name":"Uncletopia | São Paulo | 1 | All Maps | STV","players":[{"user_id":22,"name":"kira.modacasual","steam_id":76561199435093934,"connected_time":41000000000,"state":"active","ping":74}]},{"server_id":143,"name":"Uncletopia | São Paulo | 2 | All Maps","name_short":"sao-2","host":"sao-2.br.uncletopia.com","port":27015,"enabled":true,"region":"sa","cc":"br","latitude":-23.533773,"longitude":-46.62529,"reserved":0,"last_update":"0001-01-01T00:00:00Z","name_a2s":"Uncletopia | São Paulo | 2 | All Maps","protocol":17,"map":"pl_frontier_final","folder":"tf","game":"Team Fortress","app_id":440,"player_count":0,"max_players":24,"Bots":0,"server_type":"Dedicated","server_os":"Linux","password":true,"vac":true,"version":"7742253","steam_id":85568392924485349,"keywords":["nocrits","nodmgspread","payload","uncletopia"],"game_id":440,"stv_port":27016,"stv_name":"Uncletopia | São Paulo | 2 | All Maps | STV","players":null},{"server_id":7,"name":"Uncletopia | Seattle | 1 | All Maps","name_short":"sea-1","host":"sea-1.us.uncletopia.com","port":27015,"enabled":true,"region":"us-west","cc":"us","latitude":47.608013,"longitude":-122.33517,"reserved":0,"last_update":"0001-01-01T00:00:00Z","name_a2s":"Uncletopia | Seattle | 1 | All Maps","protocol":17,"map":"pl_swiftwater_final1","folder":"tf","game":"Team Fortress","app_id":440,"player_count":21,"max_players":24,"Bots":0,"server_type":"Dedicated","server_os":"Linux","password":true,"vac":true,"version":"7742253","steam_id":85568392924469997,"keywords":["nocrits","nodmgspread","payload","uncletopia"],"game_id":440,"stv_port":27016,"stv_name":"Uncletopia | Seattle | 1 | All Maps | STV","players":[{"user_id":245,"name":"Barack Obama Gaming","steam_id":76561198129242016,"connected_time":213000000000,"state":"active","ping":48},{"user_id":135,"name":"secio5","steam_id":76561198189746963,"connected_time":4439000000000,"state":"active","ping":42},{"user_id":244,"name":"noraneko","steam_id":76561198025418738,"connected_time":262000000000,"state":"active","ping":45},{"user_id":248,"name":"Puph 17","steam_id":76561198068928332,"connected_time":157000000000,"state":"active","ping":100},{"user_id":132,"name":"WeAreTheSpirits","steam_id":76561198191555728,"connected_time":4674000000000,"state":"active","ping":63},{"user_id":212,"name":"Seriously Bruh","steam_id":76561198070408485,"connected_time":2197000000000,"state":"active","ping":60},{"user_id":131,"name":"Elite_Friendly","steam_id":76561198819972127,"connected_time":4687000000000,"state":"active","ping":60},{"user_id":238,"name":"Hotdoggiest","steam_id":76561198049420141,"connected_time":895000000000,"state":"active","ping":77},{"user_id":249,"name":"Biosock Infiknit","steam_id":76561198072693794,"connected_time":85000000000,"state":"active","ping":103},{"user_id":243,"name":"Common","steam_id":76561198041083863,"connected_time":352000000000,"state":"active","ping":49},{"user_id":239,"name":"Len","steam_id":76561199141913673,"connected_time":781000000000,"state":"active","ping":69},{"user_id":251,"name":"doobie wah","steam_id":76561199083229701,"connected_time":60000000000,"state":"active","ping":81},{"user_id":224,"name":"rad killl raccoon","steam_id":76561198980975595,"connected_time":1859000000000,"state":"active","ping":56},{"user_id":247,"name":"elizaaa","steam_id":76561198983196117,"connected_time":185000000000,"state":"active","ping":37},{"user_id":241,"name":"Smile","steam_id":76561198110008786,"connected_time":749000000000,"state":"active","ping":45},{"user_id":235,"name":"zoo-music girl","steam_id":76561198325306660,"connected_time":908000000000,"state":"active","ping":48},{"user_id":236,"name":"Boltzmann","steam_id":76561198100504544,"connected_time":907000000000,"state":"active","ping":44},{"user_id":250,"name":"hack fraud","steam_id":76561198015036066,"connected_time":79000000000,"state":"active","ping":87},{"user_id":229,"name":"Harley \u003c3","steam_id":76561198988918229,"connected_time":1477000000000,"state":"active","ping":135},{"user_id":127,"name":"WalkinMan","steam_id":76561198047941142,"connected_time":4978000000000,"state":"active","ping":56},{"user_id":211,"name":"EatSomeBEES","steam_id":76561198047334307,"connected_time":2313000000000,"state":"active","ping":85}]},{"server_id":119,"name":"Uncletopia | Seattle | 2 | All Maps","name_short":"sea-2","host":"sea-1.us.uncletopia.com","port":27025,"enabled":true,"region":"us-west","cc":"us","latitude":47.608013,"longitude":-122.33517,"reserved":0,"last_update":"0001-01-01T00:00:00Z","name_a2s":"Uncletopia | Seattle | 2 | All Maps","protocol":17,"map":"pl_swiftwater_final1","folder":"tf","game":"Team Fortress","app_id":440,"player_count":0,"max_players":24,"Bots":0,"server_type":"Dedicated","server_os":"Linux","password":true,"vac":true,"version":"7742253","steam_id":85568392924469998,"keywords":["nocrits","nodmgspread","payload","uncletopia"],"game_id":440,"stv_port":27026,"stv_name":"Uncletopia | Seattle | 2 | All Maps | STV","players":null},{"server_id":406,"name":"Uncletopia | Seattle | 3 | Stopwatch Beta","name_short":"sea-3","host":"sea-1.us.uncletopia.com","port":27035,"enabled":true,"region":"us-west","cc":"us","latitude":47.608013,"longitude":-122.33517,"reserved":0,"last_update":"0001-01-01T00:00:00Z","name_a2s":"Uncletopia | Seattle | 3 | Stopwatch Beta","protocol":17,"map":"pl_upward","folder":"tf","game":"Team Fortress","app_id":440,"player_count":0,"max_players":24,"Bots":0,"server_type":"Dedicated","server_os":"Linux","password":true,"vac":false,"version":"7742253","steam_id":0,"keywords":["nocrits","nodmgspread","payload","uncletopia"],"game_id":440,"stv_port":27036,"stv_name":"Uncletopia | Seattle | 3 | Stopwatch Beta | STV","players":null},{"server_id":17,"name":"Uncletopia | San Francisco | 1 | All Maps","name_short":"sfo-1","host":"sfo-1.us.uncletopia.com","port":27015,"enabled":true,"region":"us-west","cc":"us","latitude":37.77397,"longitude":-122.4313,"reserved":0,"last_update":"0001-01-01T00:00:00Z","name_a2s":"Uncletopia | San Francisco | 1 | All Maps","protocol":17,"map":"koth_cascade","folder":"tf","game":"Team Fortress","app_id":440,"player_count":0,"max_players":24,"Bots":0,"server_type":"Dedicated","server_os":"Linux","password":true,"vac":true,"version":"7742253","steam_id":85568392924469999,"keywords":["cp","nocrits","nodmgspread","uncletopia"],"game_id":440,"stv_port":27016,"stv_name":"Uncletopia | San Francisco | 1 | All Maps | STV","players":null},{"server_id":18,"name":"Uncletopia | San Francisco | 2 | All Maps","name_short":"sfo-2","host":"sfo-1.us.uncletopia.com","port":27025,"enabled":true,"region":"us-west","cc":"us","latitude":37.77397,"longitude":-122.4313,"reserved":0,"last_update":"0001-01-01T00:00:00Z","name_a2s":"Uncletopia | San Francisco | 2 | All Maps","protocol":17,"map":"pl_badwater","folder":"tf","game":"Team Fortress","app_id":440,"player_count":0,"max_players":24,"Bots":0,"server_type":"Dedicated","server_os":"Linux","password":true,"vac":true,"version":"7742253","steam_id":85568392924470000,"keywords":["nocrits","nodmgspread","payload","uncletopia"],"game_id":440,"stv_port":27026,"stv_name":"Uncletopia | San Francisco | 2 | All Maps | STV","players":null},{"server_id":19,"name":"Uncletopia | San Francisco | 3 | Stopwatch Beta","name_short":"sfo-3","host":"sfo-1.us.uncletopia.com","port":27035,"enabled":true,"region":"us-west","cc":"us","latitude":37.77397,"longitude":-122.4313,"reserved":0,"last_update":"0001-01-01T00:00:00Z","name_a2s":"Uncletopia | San Francisco | 3 | Stopwatch Beta","protocol":17,"map":"cp_snakewater_final1","folder":"tf","game":"Team Fortress","app_id":440,"player_count":0,"max_players":24,"Bots":0,"server_type":"Dedicated","server_os":"Linux","password":true,"vac":true,"version":"7742253","steam_id":85568392924742824,"keywords":["cp","nocrits","nodmgspread","uncletopia"],"game_id":440,"stv_port":27036,"stv_name":"Uncletopia | San Francisco | 3 | Stopwatch Beta | STV","players":null},{"server_id":20,"name":"Uncletopia | San Francisco | 4 | Community","name_short":"sfo-4","host":"sfo-1.us.uncletopia.com","port":27045,"enabled":true,"region":"us-west","cc":"us","latitude":37.77397,"longitude":-122.4313,"reserved":0,"last_update":"0001-01-01T00:00:00Z","name_a2s":"Uncletopia | San Francisco | 4 | Community","protocol":17,"map":"cp_altitude","folder":"tf","game":"Team Fortress","app_id":440,"player_count":0,"max_players":24,"Bots":0,"server_type":"Dedicated","server_os":"Linux","password":true,"vac":true,"version":"7742253","steam_id":85568392924742826,"keywords":["cp","nocrits","nodmgspread","uncletopia"],"game_id":440,"stv_port":27046,"stv_name":"Uncletopia | San Francisco | 4 | Community | STV","players":null},{"server_id":141,"name":"Uncletopia | Sydney | 1 | All Maps","name_short":"syd-1","host":"syd-1.au.uncletopia.com","port":27015,"enabled":true,"region":"au","cc":"au","latitude":-33.865143,"longitude":151.2099,"reserved":0,"last_update":"0001-01-01T00:00:00Z","name_a2s":"Uncletopia | Sydney | 1 | All Maps","protocol":17,"map":"pl_frontier_final","folder":"tf","game":"Team Fortress","app_id":440,"player_count":0,"max_players":24,"Bots":0,"server_type":"Dedicated","server_os":"Linux","password":true,"vac":true,"version":"7742253","steam_id":85568392924470001,"keywords":["nocrits","nodmgspread","payload","uncletopia"],"game_id":440,"stv_port":27016,"stv_name":"Uncletopia | Sydney | 1 | All Maps | STV","players":null},{"server_id":123,"name":"Uncletopia | Sydney | 2 | All Maps","name_short":"syd-2","host":"syd-1.au.uncletopia.com","port":27025,"enabled":true,"region":"au","cc":"au","latitude":-33.865143,"longitude":151.2099,"reserved":0,"last_update":"0001-01-01T00:00:00Z","name_a2s":"Uncletopia | Sydney | 2 | All Maps","protocol":17,"map":"pl_pier","folder":"tf","game":"Team Fortress","app_id":440,"player_count":0,"max_players":24,"Bots":0,"server_type":"Dedicated","server_os":"Linux","password":true,"vac":true,"version":"7742253","steam_id":85568392924470002,"keywords":["nocrits","nodmgspread","payload","uncletopia"],"game_id":440,"stv_port":27026,"stv_name":"Uncletopia | Sydney | 2 | All Maps | STV","players":null},{"server_id":395,"name":"Uncletopia | Sydney | 3 | All Maps","name_short":"syd-3","host":"syd-1.au.uncletopia.com","port":27035,"enabled":true,"region":"au","cc":"au","latitude":-33.865143,"longitude":151.2099,"reserved":0,"last_update":"0001-01-01T00:00:00Z","name_a2s":"Uncletopia | Sydney | 3 | All Maps","protocol":17,"map":"cp_dustbowl","folder":"tf","game":"Team Fortress","app_id":440,"player_count":0,"max_players":24,"Bots":0,"server_type":"Dedicated","server_os":"Linux","password":true,"vac":true,"version":"7742253","steam_id":85568392925194467,"keywords":["cp","nocrits","nodmgspread","uncletopia"],"game_id":440,"stv_port":27036,"stv_name":"Uncletopia | Sydney | 3 | All Maps | STV","players":null},{"server_id":396,"name":"Uncletopia | Sydney | 4 | All Maps","name_short":"syd-4","host":"syd-1.au.uncletopia.com","port":27045,"enabled":true,"region":"au","cc":"au","latitude":-33.865143,"longitude":151.2099,"reserved":0,"last_update":"0001-01-01T00:00:00Z","name_a2s":"Uncletopia | Sydney | 4 | All Maps","protocol":17,"map":"pl_borneo","folder":"tf","game":"Team Fortress","app_id":440,"player_count":0,"max_players":24,"Bots":0,"server_type":"Dedicated","server_os":"Linux","password":true,"vac":true,"version":"7742253","steam_id":85568392925397958,"keywords":["nocrits","nodmgspread","payload","uncletopia"],"game_id":440,"stv_port":27046,"stv_name":"Uncletopia | Sydney | 4 | All Maps | STV","players":null},{"server_id":58,"name":"Uncletopia | Sydney | 5 | Stopwatch Beta","name_short":"syd-5","host":"syd-1.au.uncletopia.com","port":27055,"enabled":true,"region":"au","cc":"au","latitude":-33.865143,"longitude":151.2099,"reserved":0,"last_update":"0001-01-01T00:00:00Z","name_a2s":"Uncletopia | Sydney | 5 | Stopwatch Beta","protocol":17,"map":"cp_snakewater_final1","folder":"tf","game":"Team Fortress","app_id":440,"player_count":0,"max_players":24,"Bots":0,"server_type":"Dedicated","server_os":"Linux","password":true,"vac":true,"version":"7742253","steam_id":85568392925397959,"keywords":["cp","nocrits","nodmgspread","uncletopia"],"game_id":440,"stv_port":27056,"stv_name":"Uncletopia | Sydney | 5 | Stopwatch Beta | STV","players":null},{"server_id":59,"name":"Uncletopia | Sydney | 6 | Community","name_short":"syd-6","host":"syd-1.au.uncletopia.com","port":27065,"enabled":true,"region":"au","cc":"au","latitude":-33.865143,"longitude":151.2099,"reserved":0,"last_update":"0001-01-01T00:00:00Z","name_a2s":"Uncletopia | Sydney | 6 | Community","protocol":17,"map":"cp_snakewater_final1","folder":"tf","game":"Team Fortress","app_id":440,"player_count":0,"max_players":24,"Bots":0,"server_type":"Dedicated","server_os":"Linux","password":true,"vac":true,"version":"7742253","steam_id":85568392925397960,"keywords":["cp","nocrits","nodmgspread","uncletopia"],"game_id":440,"stv_port":27066,"stv_name":"Uncletopia | Sydney | 6 | Community | STV","players":null},{"server_id":49,"name":"Uncletopia | Warsaw | 1 | All Maps","name_short":"waw-1","host":"waw-1.pl.uncletopia.com","port":27015,"enabled":true,"region":"eu","cc":"pl","latitude":52.2297,"longitude":21.017532,"reserved":0,"last_update":"0001-01-01T00:00:00Z","name_a2s":"","protocol":0,"map":"","folder":"","game":"","app_id":0,"player_count":0,"max_players":0,"Bots":0,"server_type":"","server_os":"","password":false,"vac":false,"version":"","steam_id":0,"keywords":null,"game_id":0,"stv_port":0,"stv_name":"","players":null},{"server_id":50,"name":"Uncletopia | Warsaw | 2 | All Maps","name_short":"waw-2","host":"waw-1.pl.uncletopia.com","port":27025,"enabled":true,"region":"eu","cc":"pl","latitude":52.2297,"longitude":21.017532,"reserved":0,"last_update":"0001-01-01T00:00:00Z","name_a2s":"Uncletopia | Warsaw | 2 | All Maps","protocol":17,"map":"pl_frontier_final","folder":"tf","game":"Team Fortress","app_id":440,"player_count":0,"max_players":24,"Bots":0,"server_type":"Dedicated","server_os":"Linux","password":true,"vac":true,"version":"7742253","steam_id":85568392925397851,"keywords":["nocrits","nodmgspread","payload","uncletopia"],"game_id":440,"stv_port":27026,"stv_name":"Uncletopia | Warsaw | 2 | All Maps | STV","players":null},{"server_id":51,"name":"Uncletopia | Warsaw | 3 | All Maps","name_short":"waw-3","host":"waw-1.pl.uncletopia.com","port":27035,"enabled":true,"region":"eu","cc":"pl","latitude":52.2297,"longitude":21.017532,"reserved":0,"last_update":"0001-01-01T00:00:00Z","name_a2s":"Uncletopia | Warsaw | 3 | All Maps","protocol":17,"map":"koth_cascade","folder":"tf","game":"Team Fortress","app_id":440,"player_count":0,"max_players":24,"Bots":0,"server_type":"Dedicated","server_os":"Linux","password":true,"vac":true,"version":"7742253","steam_id":85568392925397852,"keywords":["cp","nocrits","nodmgspread","uncletopia"],"game_id":440,"stv_port":27036,"stv_name":"Uncletopia | Warsaw | 3 | All Maps | STV","players":null},{"server_id":52,"name":"Uncletopia | Warsaw | 4 | All Maps","name_short":"waw-4","host":"waw-1.pl.uncletopia.com","port":27045,"enabled":true,"region":"eu","cc":"pl","latitude":52.2297,"longitude":21.017532,"reserved":0,"last_update":"0001-01-01T00:00:00Z","name_a2s":"Uncletopia | Warsaw | 4 | All Maps","protocol":17,"map":"koth_lakeside_final","folder":"tf","game":"Team Fortress","app_id":440,"player_count":0,"max_players":24,"Bots":0,"server_type":"Dedicated","server_os":"Linux","password":true,"vac":true,"version":"7742253","steam_id":85568392925397853,"keywords":["cp","nocrits","nodmgspread","uncletopia"],"game_id":440,"stv_port":27046,"stv_name":"Uncletopia | Warsaw | 4 | All Maps | STV","players":null},{"server_id":53,"name":"Uncletopia | Warsaw | 5 | Stopwatch Beta","name_short":"waw-5","host":"waw-1.pl.uncletopia.com","port":27055,"enabled":true,"region":"eu","cc":"pl","latitude":52.2297,"longitude":21.017532,"reserved":0,"last_update":"0001-01-01T00:00:00Z","name_a2s":"Uncletopia | Warsaw | 5 | Stopwatch Beta","protocol":17,"map":"pl_pier","folder":"tf","game":"Team Fortress","app_id":440,"player_count":0,"max_players":24,"Bots":0,"server_type":"Dedicated","server_os":"Linux","password":true,"vac":true,"version":"7742253","steam_id":85568392925397854,"keywords":["nocrits","nodmgspread","payload","uncletopia"],"game_id":440,"stv_port":27056,"stv_name":"Uncletopia | Warsaw | 5 | Stopwatch Beta | STV","players":null},{"server_id":54,"name":"Uncletopia | Warsaw | 6 | Community","name_short":"waw-6","host":"waw-1.pl.uncletopia.com","port":27065,"enabled":true,"region":"eu","cc":"pl","latitude":52.2297,"longitude":21.017532,"reserved":0,"last_update":"0001-01-01T00:00:00Z","name_a2s":"Uncletopia | Warsaw | 6 | Community","protocol":17,"map":"workshop/koth_synthetic_rc6a.ugc1549817316","folder":"tf","game":"Team Fortress","app_id":440,"player_count":0,"max_players":24,"Bots":0,"server_type":"Dedicated","server_os":"Linux","password":true,"vac":true,"version":"7742253","steam_id":85568392925397856,"keywords":["cp","nocrits","nodmgspread","uncletopia"],"game_id":440,"stv_port":27066,"stv_name":"Uncletopia | Warsaw | 6 | Community | STV","players":null}]}