{"status":true,"message":"","result":[{"server_id":2,"name":"Uncletopia | Chicago | 1 | All Maps","name_short":"chi-1","host":"chi-1.us.uncletopia.com","port":27015,"enabled":true,"region":"us-central","cc":"us","latitude":41.881832,"longitude":-87.62318,"reserved":0,"last_update":"0001-01-01T00:00:00Z","name_a2s":"Uncletopia | Chicago | 1 | All Maps","protocol":17,"map":"koth_cascade","folder":"tf","game":"Team Fortress","app_id":440,"player_count":24,"max_players":24,"Bots":0,"server_type":"Dedicated","server_os":"Linux","password":true,"vac":true,"version":"7932396","steam_id":85568392924469984,"keywords":["cp","nocrits","nodmgspread","uncletopia"],"game_id":440,"stv_port":27016,"stv_name":"Uncletopia | Chicago | 1 | All Maps | STV","players":[{"user_id":901,"name":"Assitins","steam_id":76561198041572892,"connected_time":762000000000,"state":"active","ping":73},{"user_id":902,"name":"Arrythmia","steam_id":76561198093748123,"connected_time":702000000000,"state":"active","ping":76},{"user_id":879,"name":"fef","steam_id":76561198011887071,"connected_time":2016000000000,"state":"active","ping":49},{"user_id":878,"name":"Toffee ‚óà","steam_id":76561198004886352,"connected_time":2041000000000,"state":"active","ping":99},{"user_id":903,"name":"Hummus Enjoyer","steam_id":76561198105213446,"connected_time":674000000000,"state":"active","ping":58},{"user_id":913,"name":"HOTA","steam_id":76561199002778841,"connected_time":402000000000,"state":"active","ping":73},{"user_id":896,"name":"Lex","steam_id":76561198069948353,"connected_time":826000000000,"state":"active","ping":81},{"user_id":914,"name":"for the king","steam_id":76561197973488858,"connected_time":270000000000,"state":"active","ping":60},{"user_id":905,"name":"caleb","steam_id":76561198039260688,"connected_time":651000000000,"state":"active","ping":63},{"user_id":897,"name":"Crisp","steam_id":76561198132644084,"connected_time":821000000000,"state":"active","ping":69},{"user_id":906,"name":"moth","steam_id":76561198272097926,"connected_time":637000000000,"state":"active","ping":70},{"user_id":907,"name":"Jimbo","steam_id":76561198031901665,"connected_time":631000000000,"state":"active","ping":72},{"user_id":863,"name":"Evillou","steam_id":76561198010395648,"connected_time":2981000000000,"state":"active","ping":71},{"user_id":915,"name":"pigswill","steam_id":76561197999081865,"connected_time":73000000000,"state":"active","ping":90},{"user_id":880,"name":"Local Garbage Mammal","steam_id":76561198250463048,"connected_time":2002000000000,"state":"active","ping":64},{"user_id":908,"name":"Ghoulenoir","steam_id":76561198074314573,"connected_time":601000000000,"state":"active","ping":53},{"user_id":819,"name":"Pancakes","steam_id":76561198097983190,"connected_time":6492000000000,"state":"active","ping":72},{"user_id":909,"name":"LikeASir (bday today)","steam_id":76561198042209721,"connected_time":587000000000,"state":"active","ping":45},{"user_id":910,"name":"Hatfam","steam_id":76561199192629036,"connected_time":562000000000,"state":"active","ping":123},{"user_id":911,"name":"Bored","steam_id":76561198136455809,"connected_time":558000000000,"state":"active","ping":64},{"user_id":912,"name":"Wikked","steam_id":76561198196149207,"connected_time":503000000000,"state":"active","ping":131},{"user_id":834,"name":"Freewave","steam_id":76561198156282541,"connected_time":5930000000000,"state":"active","ping":48},{"user_id":892,"name":"Yoloisnotded","steam_id":76561198995043589,"connected_time":991000000000,"state":"active","ping":107},{"user_id":857,"name":"HundchenTanque","steam_id":76561198122692754,"connected_time":3725000000000,"state":"active","ping":58}]},{"server_id":106,"name":"Uncletopia | Chicago | 2 | All Maps","name_short":"chi-2","host":"chi-1.us.uncletopia.com","port":27025,"enabled":true,"region":"us-central","cc":"us","latitude":41.881832,"longitude":-87.62318,"reserved":0,"last_update":"0001-01-01T00:00:00Z","name_a2s":"Uncletopia | Chicago | 2 | All Maps","protocol":17,"map":"koth_nucleus","folder":"tf","game":"Team Fortress","app_id":440,"player_count":19,"max_players":24,"Bots":0,"server_type":"Dedicated","server_os":"Linux","password":true,"vac":true,"version":"7932396","steam_id":85568392924469985,"keywords":["cp","nocrits","nodmgspread","uncletopia"],"game_id":440,"stv_port":27026,"stv_name":"Uncletopia | Chicago | 2 | All Maps | STV","players":[{"user_id":631,"name":"Tortellini","steam_id":76561198211521176,"connected_time":1486000000000,"state":"active","ping":59},{"user_id":654,"name":"Sudiak","steam_id":76561198119246214,"connected_time":302000000000,"state":"active","ping":60},{"user_id":655,"name":"Vorco","steam_id":76561197996937734,"connected_time":242000000000,"state":"active","ping":76},{"user_id":656,"name":"WesyUWU (The mini crit pig)","steam_id":76561198069188177,"connected_time":144000000000,"state":"active","ping":73},{"user_id":615,"name":"Alecto","steam_id":76561198042476864,"connected_time":2695000000000,"state":"active","ping":45},{"user_id":657,"name":"HUMBY","steam_id":76561198065045867,"connected_time":130000000000,"state":"active","ping":86},{"user_id":652,"name":"trash beast","steam_id":76561198015792736,"connected_time":361000000000,"state":"active","ping":71},{"user_id":658,"name":"Kung fu Mungus","steam_id":76561198069281556,"connected_time":120000000000,"state":"active","ping":66},{"user_id":634,"name":"daemon","steam_id":76561198001541433,"connected_time":1435000000000,"state":"active","ping":54},{"user_id":648,"name":"hotguy6pack","steam_id":76561198881665250,"connected_time":499000000000,"state":"active","ping":91},{"user_id":659,"name":"ham salmontizer","steam_id":76561198168840293,"connected_time":119000000000,"state":"active","ping":75},{"user_id":660,"name":"[loser] mpawn","steam_id":76561198115611066,"connected_time":69000000000,"state":"active","ping":86},{"user_id":661,"name":"Frosty","steam_id":76561198301526305,"connected_time":63000000000,"state":"active","ping":79},{"user_id":559,"name":"._.","steam_id":76561198064255155,"connected_time":7013000000000,"state":"active","ping":53},{"user_id":601,"name":"ADRIEN BRODY","steam_id":76561198009299473,"connected_time":4127000000000,"state":"active","ping":68},{"user_id":662,"name":"mel kush","steam_id":76561198215559840,"connected_time":25000000000,"state":"active","ping":68},{"user_id":587,"name":"Aeris","steam_id":76561198287271028,"connected_time":4538000000000,"state":"active","ping":53},{"user_id":647,"name":"El Gato Paranoico","steam_id":76561198116567116,"connected_time":609000000000,"state":"active","ping":91},{"user_id":593,"name":"rosable ‚òÜ","steam_id":76561199164371592,"connected_time":4467000000000,"state":"active","ping":63}]},{"server_id":402,"name":"Uncletopia | Chicago | 3 | All Maps","name_short":"chi-3","host":"chi-1.us.uncletopia.com","port":27035,"enabled":true,"region":"us-central","cc":"us","latitude":41.881832,"longitude":-87.62318,"reserved":0,"last_update":"0001-01-01T00:00:00Z","name_a2s":"Uncletopia | Chicago | 3 | All Maps","protocol":17,"map":"pl_upward","folder":"tf","game":"Team Fortress","app_id":440,"player_count":24,"max_players":24,"Bots":0,"server_type":"Dedicated","server_os":"Linux","password":true,"vac":true,"version":"7932396","steam_id":85568392924515191,"keywords":["nocrits","nodmgspread","payload","uncletopia"],"game_id":440,"stv_port":27036,"stv_name":"Uncletopia | Chicago | 3 | All Maps | STV","players":[{"user_id":647,"name":"T4T488","steam_id":76561198242633220,"connected_time":941000000000,"state":"active","ping":79},{"user_id":602,"name":"Gentoo Linux Gaming","steam_id":76561197999657118,"connected_time":4074000000000,"state":"active","ping":80},{"user_id":650,"name":"vulcan nightclub pon farr night","steam_id":76561197974283797,"connected_time":323000000000,"state":"active","ping":44},{"user_id":651,"name":"EdxTheFig","steam_id":76561198108650109,"connected_time":301000000000,"state":"active","ping":103},{"user_id":652,"name":"Omni-S","steam_id":76561198082396372,"connected_time":228000000000,"state":"active","ping":75},{"user_id":628,"name":"egpdf7","steam_id":76561198815180644,"connected_time":2574000000000,"state":"active","ping":118},{"user_id":653,"name":"while (money·ê≥0)","steam_id":76561198145072434,"connected_time":209000000000,"state":"active","ping":75},{"user_id":621,"name":"AlecTheNefarious","steam_id":76561198035291230,"connected_time":3092000000000,"state":"active","ping":69},{"user_id":638,"name":"K. O. E.","steam_id":76561198025188490,"connected_time":1353000000000,"state":"active","ping":103},{"user_id":630,"name":"Urist McDwarf","steam_id":76561198164004939,"connected_time":2133000000000,"state":"active","ping":125},{"user_id":662,"name":"im high asf","steam_id":76561198198781598,"connected_time":3000000000,"state":"spawning","ping":102},{"user_id":618,"name":"Papyrus Undertale","steam_id":76561199202517286,"connected_time":3590000000000,"state":"active","ping":64},{"user_id":654,"name":"al.vasiglev","steam_id":76561198307359545,"connected_time":192000000000,"state":"active","ping":118},{"user_id":623,"name":"AdorableMew","steam_id":76561198186706405,"connected_time":3070000000000,"state":"active","ping":71},{"user_id":655,"name":"Funke Monke","steam_id":76561198079440976,"connected_time":175000000000,"state":"active","ping":70},{"user_id":649,"name":"*","steam_id":76561198173047169,"connected_time":673000000000,"state":"active","ping":61},{"user_id":639,"name":"momb","steam_id":76561198142234038,"connected_time":1155000000000,"state":"active","ping":89},{"user_id":657,"name":"honor in defeat","steam_id":76561198013735714,"connected_time":162000000000,"state":"active","ping":73},{"user_id":659,"name":"the pizza is aggressive","steam_id":76561198057040611,"connected_time":123000000000,"state":"active","ping":108},{"user_id":640,"name":"üå∏MelWormüå∏","steam_id":76561198084145814,"connected_time":1139000000000,"state":"active","ping":71},{"user_id":442,"name":"TransSammie","steam_id":76561198046331930,"connected_time":12834000000000,"state":"active","ping":88},{"user_id":661,"name":"‚ô¶‚ô£Quadric‚ô•‚ô†","steam_id":76561198061003853,"connected_time":109000000000,"state":"active","ping":73},{"user_id":645,"name":"glankinator","steam_id":76561198354077256,"connected_time":1041000000000,"state":"active","ping":46},{"user_id":521,"name":"Sposeidon","steam_id":76561199044781490,"connected_time":9198000000000,"state":"active","ping":64}]},{"server_id":403,"name":"Uncletopia | Chicago | 4 | All Maps","name_short":"chi-4","host":"chi-1.us.uncletopia.com","port":27045,"enabled":true,"region":"us-central","cc":"us","latitude":41.881832,"longitude":-87.62318,"reserved":0,"last_update":"0001-01-01T00:00:00Z","name_a2s":"Uncletopia | Chicago | 4 | All Maps","protocol":17,"map":"koth_viaduct","folder":"tf","game":"Team Fortress","app_id":440,"player_count":24,"max_players":24,"Bots":0,"server_type":"Dedicated","server_os":"Linux","password":true,"vac":true,"version":"7932396","steam_id":85568392924515193,"keywords":["cp","nocrits","nodmgspread","uncletopia"],"game_id":440,"stv_port":27046,"stv_name":"Uncletopia | Chicago | 4 | All Maps | STV","players":[{"user_id":755,"name":"guac","steam_id":76561198070305720,"connected_time":898000000000,"state":"active","ping":81},{"user_id":730,"name":"dave","steam_id":76561198135961731,"connected_time":2592000000000,"state":"active","ping":78},{"user_id":747,"name":"Gaming","steam_id":76561198107080532,"connected_time":1346000000000,"state":"active","ping":63},{"user_id":737,"name":"Tarnation Bob","steam_id":76561198107382571,"connected_time":1874000000000,"state":"active","ping":126},{"user_id":732,"name":"meowfang","steam_id":76561198123056791,"connected_time":2465000000000,"state":"active","ping":65},{"user_id":709,"name":"Capt.Swag","steam_id":76561198088340994,"connected_time":4319000000000,"state":"active","ping":76},{"user_id":759,"name":"The local hobo","steam_id":76561198289650060,"connected_time":712000000000,"state":"active","ping":145},{"user_id":754,"name":"Halfy","steam_id":76561198086809084,"connected_time":963000000000,"state":"active","ping":69},{"user_id":733,"name":"Fantastic","steam_id":76561198079088978,"connected_time":2452000000000,"state":"active","ping":43},{"user_id":734,"name":"YeshieSirYesSir","steam_id":76561198080214214,"connected_time":2446000000000,"state":"active","ping":36},{"user_id":735,"name":"Scrappy","steam_id":76561198093789113,"connected_time":2399000000000,"state":"active","ping":65},{"user_id":739,"name":"homewurk","steam_id":76561199080327081,"connected_time":1691000000000,"state":"active","ping":117},{"user_id":740,"name":"Jade","steam_id":76561198092408457,"connected_time":1690000000000,"state":"active","ping":108},{"user_id":764,"name":"scrich scrich","steam_id":76561198123287268,"connected_time":257000000000,"state":"active","ping":46},{"user_id":763,"name":"IRS Spec Ops","steam_id":76561198129148160,"connected_time":550000000000,"state":"active","ping":68},{"user_id":721,"name":"Osteo-Oligarch","steam_id":76561198164731896,"connected_time":3835000000000,"state":"active","ping":76},{"user_id":761,"name":"CantaloupeKing","steam_id":76561198041949472,"connected_time":679000000000,"state":"active","ping":118},{"user_id":762,"name":"ABZ Gamer","steam_id":76561199027227636,"connected_time":662000000000,"state":"active","ping":74},{"user_id":744,"name":"bingus","steam_id":76561199198633203,"connected_time":1535000000000,"state":"active","ping":92},{"user_id":745,"name":"Dreamy.. (not fake)","steam_id":76561199195612530,"connected_time":1532000000000,"state":"active","ping":70},{"user_id":750,"name":"mar","steam_id":76561199187162134,"connected_time":1283000000000,"state":"active","ping":73},{"user_id":758,"name":"BigBubble42","steam_id":76561198136286123,"connected_time":740000000000,"state":"active","ping":53},{"user_id":719,"name":"Speedy","steam_id":76561198080761661,"connected_time":4118000000000,"state":"active","ping":78},{"user_id":753,"name":"SanitysEdge","steam_id":76561198130732813,"connected_time":1056000000000,"state":"active","ping":101}]},{"server_id":36,"name":"Uncletopia | Chicago | 5 | All Maps","name_short":"chi-5","host":"chi-2.us.uncletopia.com","port":27015,"enabled":true,"region":"us-central","cc":"us","latitude":41.881832,"longitude":-87.62318,"reserved":0,"last_update":"0001-01-01T00:00:00Z","name_a2s":"Uncletopia | Chicago | 5 | All Maps","protocol":17,"map":"pl_pier","folder":"tf","game":"Team Fortress","app_id":440,"player_count":7,"max_players":24,"Bots":0,"server_type":"Dedicated","server_os":"Linux","password":true,"vac":true,"version":"7932396","steam_id":85568392924866362,"keywords":["nocrits","nodmgspread","payload","uncletopia"],"game_id":440,"stv_port":27016,"stv_name":"Uncletopia | Chicago | 5 | All Maps | STV","players":[{"user_id":589,"name":"raven","steam_id":76561198354068131,"connected_time":425000000000,"state":"spawning","ping":64},{"user_id":590,"name":"The StinkFiend","steam_id":76561198796712940,"connected_time":366000000000,"state":"active","ping":55},{"user_id":557,"name":"Ttv. RoamerYT ‚ô§‚ô§‚ô§","steam_id":76561198317074062,"connected_time":3547000000000,"state":"active","ping":124},{"user_id":460,"name":"Rattle Bones","steam_id":76561198075736702,"connected_time":7291000000000,"state":"active","ping":60},{"user_id":547,"name":"eggzy","steam_id":76561198085439508,"connected_time":3753000000000,"state":"active","ping":31},{"user_id":535,"name":"gretchling","steam_id":76561198046111695,"connected_time":4315000000000,"state":"active","ping":67},{"user_id":578,"name":"dicksnip","steam_id":76561198356515396,"connected_time":1457000000000,"state":"active","ping":71}]},{"server_id":37,"name":"Uncletopia | Chicago | 6 | All Maps","name_short":"chi-6","host":"chi-2.us.uncletopia.com","port":27025,"enabled":true,"region":"us-central","cc":"us","latitude":41.881832,"longitude":-87.62318,"reserved":0,"last_update":"0001-01-01T00:00:00Z","name_a2s":"Uncletopia | Chicago | 6 | All Maps","protocol":17,"map":"koth_viaduct","folder":"tf","game":"Team Fortress","app_id":440,"player_count":0,"max_players":24,"Bots":0,"server_type":"Dedicated","server_os":"Linux","password":true,"vac":true,"version":"7932396","steam_id":85568392924866363,"keywords":["cp","nocrits","nodmgspread","uncletopia"],"game_id":440,"stv_port":27026,"stv_name":"Uncletopia | Chicago | 6 | All Maps | STV","players":null},{"server_id":38,"name":"Uncletopia | Chicago | 7 | Stopwatch Beta","name_short":"chi-7","host":"chi-2.us.uncletopia.com","port":27035,"enabled":true,"region":"us-central","cc":"us","latitude":41.881832,"longitude":-87.62318,"reserved":0,"last_update":"0001-01-01T00:00:00Z","name_a2s":"Uncletopia | Chicago | 7 | Stopwatch Beta","protocol":17,"map":"workshop/pl_badwater_pro_v12.ugc2142942074","folder":"tf","game":"Team Fortress","app_id":440,"player_count":0,"max_players":24,"Bots":0,"server_type":"Dedicated","server_os":"Linux","password":true,"vac":true,"version":"7932396","steam_id":85568392924866364,"keywords":["nocrits","nodmgspread","payload","uncletopia"],"game_id":440,"stv_port":27036,"stv_name":"Uncletopia | Chicago | 7 | Stopwatch Beta | STV","players":null},{"server_id":39,"name":"Uncletopia | Chicago | 8 | Community","name_short":"chi-8","host":"chi-2.us.uncletopia.com","port":27045,"enabled":true,"region":"us-central","cc":"us","latitude":41.881832,"longitude":-87.62318,"reserved":0,"last_update":"0001-01-01T00:00:00Z","name_a2s":"Uncletopia | Chicago | 8 | Community","protocol":17,"map":"workshop/cp_overgrown_rc8.ugc503939302","folder":"tf","game":"Team Fortress","app_id":440,"player_count":7,"max_players":24,"Bots":0,"server_type":"Dedicated","server_os":"Linux","password":true,"vac":true,"version":"7932396","steam_id":85568392924866365,"keywords":["cp","nocrits","nodmgspread","uncletopia"],"game_id":440,"stv_port":27046,"stv_name":"Uncletopia | Chicago | 8 | Community | STV","players":[{"user_id":706,"name":"OctraSource","steam_id":76561198193630455,"connected_time":2118000000000,"state":"active","ping":100},{"user_id":703,"name":"Izaquito28","steam_id":76561198333730545,"connected_time":2265000000000,"state":"active","ping":110},{"user_id":679,"name":"k-nid mad","steam_id":76561198103496593,"connected_time":4713000000000,"state":"active","ping":59},{"user_id":699,"name":"mechiimi","steam_id":76561198321627268,"connected_time":3159000000000,"state":"active","ping":121},{"user_id":715,"name":"iustiticide","steam_id":76561198146656575,"connected_time":816000000000,"state":"active","ping":68},{"user_id":716,"name":"Pryce Permafrost","steam_id":76561198117603897,"connected_time":743000000000,"state":"active","ping":175},{"user_id":683,"name":"emerie","steam_id":76561198406252824,"connected_time":4560000000000,"state":"active","ping":105}]},{"server_id":8,"name":"Uncletopia | Dallas | 1 | All Maps","name_short":"dal-1","host":"dal-1.us.uncletopia.com","port":27015,"enabled":true,"region":"us-central","cc":"us","latitude":32.779167,"longitude":-96.80889,"reserved":0,"last_update":"0001-01-01T00:00:00Z","name_a2s":"Uncletopia | Dallas | 1 | All Maps","protocol":17,"map":"pl_snowycoast","folder":"tf","game":"Team Fortress","app_id":440,"player_count":24,"max_players":24,"Bots":0,"server_type":"Dedicated","server_os":"Linux","password":true,"vac":true,"version":"7932396","steam_id":85568392924469986,"keywords":["nocrits","nodmgspread","payload","uncletopia"],"game_id":440,"stv_port":27016,"stv_name":"Uncletopia | Dallas | 1 | All Maps | STV","players":[{"user_id":704,"name":"porz","steam_id":76561198195711453,"connected_time":350000000000,"state":"active","ping":45},{"user_id":615,"name":"fa√ßade","steam_id":76561199157009256,"connected_time":8114000000000,"state":"active","ping":77},{"user_id":669,"name":"EverythingZen","steam_id":76561198257384503,"connected_time":3778000000000,"state":"active","ping":63},{"user_id":681,"name":"skegeton","steam_id":76561198095581099,"connected_time":3143000000000,"state":"active","ping":49},{"user_id":696,"name":"Jake The Snake","steam_id":76561198047722285,"connected_time":536000000000,"state":"active","ping":87},{"user_id":697,"name":"Pokon","steam_id":76561198053113088,"connected_time":533000000000,"state":"active","ping":70},{"user_id":671,"name":"Lucas‚Ñ¢","steam_id":76561198079480016,"connected_time":3700000000000,"state":"active","ping":120},{"user_id":672,"name":"TrueGodOfBread","steam_id":76561198127577215,"connected_time":3690000000000,"state":"active","ping":90},{"user_id":692,"name":"SleepyScotoplanesTTV","steam_id":76561198968140914,"connected_time":907000000000,"state":"active","ping":65},{"user_id":617,"name":"EvilPigglet","steam_id":76561197987243470,"connected_time":7699000000000,"state":"active","ping":79},{"user_id":702,"name":"TheMtnDewback","steam_id":76561199468606424,"connected_time":397000000000,"state":"active","ping":76},{"user_id":701,"name":"selling rice","steam_id":76561198063357023,"connected_time":416000000000,"state":"active","ping":84},{"user_id":674,"name":"TYLER","steam_id":76561198841399048,"connected_time":3595000000000,"state":"active","ping":68},{"user_id":699,"name":"Egg","steam_id":76561198333025860,"connected_time":458000000000,"state":"active","ping":147},{"user_id":700,"name":"kiseek","steam_id":76561198075474088,"connected_time":454000000000,"state":"active","ping":86},{"user_id":645,"name":"Sableye","steam_id":76561198061247147,"connected_time":5631000000000,"state":"active","ping":70},{"user_id":703,"name":"smooth brain","steam_id":76561198049253541,"connected_time":368000000000,"state":"active","ping":73},{"user_id":684,"name":"albert jones","steam_id":76561198404271005,"connected_time":2647000000000,"state":"active","ping":69},{"user_id":678,"name":"tsz","steam_id":76561199246231090,"connected_time":3503000000000,"state":"active","ping":84},{"user_id":656,"name":"{ST} Oxythemoron","steam_id":76561198060089965,"connected_time":5195000000000,"state":"active","ping":50},{"user_id":690,"name":"GoldtoothFour","steam_id":76561198055529332,"connected_time":1216000000000,"state":"active","ping":73},{"user_id":680,"name":"Rain","steam_id":76561198123437878,"connected_time":3461000000000,"state":"active","ping":75},{"user_id":694,"name":"Jeff Probst","steam_id":76561199215811448,"connected_time":734000000000,"state":"active","ping":101},{"user_id":611,"name":"DiGiorno's Pizza","steam_id":76561198142244035,"connected_time":8233000000000,"state":"active","ping":77}]},{"server_id":108,"name":"Uncletopia | Dallas | 2 | All Maps","name_short":"dal-2","host":"dal-1.us.uncletopia.com","port":27025,"enabled":true,"region":"us-central","cc":"us","latitude":32.779167,"longitude":-96.80889,"reserved":0,"last_update":"0001-01-01T00:00:00Z","name_a2s":"Uncletopia | Dallas | 2 | All Maps","protocol":17,"map":"pl_barnblitz","folder":"tf","game":"Team Fortress","app_id":440,"player_count":23,"max_players":24,"Bots":0,"server_type":"Dedicated","server_os":"Linux","password":true,"vac":true,"version":"7932396","steam_id":85568392924469988,"keywords":["nocrits","nodmgspread","payload","uncletopia"],"game_id":440,"stv_port":27026,"stv_name":"Uncletopia | Dallas | 2 | All Maps | STV","players":[{"user_id":473,"name":"Local Babyfur Unicorn","steam_id":76561198155526516,"connected_time":2482000000000,"state":"active","ping":45},{"user_id":332,"name":"Viren","steam_id":76561198012636897,"connected_time":14546000000000,"state":"active","ping":45},{"user_id":492,"name":"bikerkid207","steam_id":76561198390782783,"connected_time":343000000000,"state":"active","ping":86},{"user_id":484,"name":"bobbymcbobington","steam_id":76561199089411172,"connected_time":1624000000000,"state":"active","ping":120},{"user_id":490,"name":"beyond","steam_id":76561198051009126,"connected_time":571000000000,"state":"active","ping":87},{"user_id":476,"name":"Goofball","steam_id":76561198061211537,"connected_time":2271000000000,"state":"active","ping":82},{"user_id":477,"name":"geniusgo","steam_id":76561198025064008,"connected_time":2246000000000,"state":"active","ping":82},{"user_id":483,"name":"UniverseUltra","steam_id":76561198007989923,"connected_time":1767000000000,"state":"active","ping":93},{"user_id":489,"name":"MistakesWereMade","steam_id":76561199059220481,"connected_time":624000000000,"state":"active","ping":86},{"user_id":488,"name":"on that zaza?","steam_id":76561198038713198,"connected_time":1154000000000,"state":"active","ping":89},{"user_id":390,"name":"Scoops M'Gooch","steam_id":76561198048423812,"connected_time":10762000000000,"state":"active","ping":95},{"user_id":469,"name":"T√ñZI","steam_id":76561198045268695,"connected_time":3609000000000,"state":"active","ping":122},{"user_id":442,"name":"room temp IQ","steam_id":76561198018724712,"connected_time":5383000000000,"state":"active","ping":45},{"user_id":456,"name":"Stranger in a Strange Land","steam_id":76561198049843671,"connected_time":4295000000000,"state":"active","ping":86},{"user_id":458,"name":"Zipp {Comms open}","steam_id":76561198146409744,"connected_time":4212000000000,"state":"active","ping":86},{"user_id":466,"name":"Shy bi ready 2 die","steam_id":76561198319992602,"connected_time":3756000000000,"state":"active","ping":60},{"user_id":457,"name":"Ovr","steam_id":76561198405516708,"connected_time":4270000000000,"state":"active","ping":91},{"user_id":407,"name":"Hindmost","steam_id":76561199081837220,"connected_time":9088000000000,"state":"active","ping":77},{"user_id":449,"name":"Argon","steam_id":76561199254804349,"connected_time":5170000000000,"state":"active","ping":83},{"user_id":431,"name":"Moonflower ‚ú¶","steam_id":76561198191782483,"connected_time":6013000000000,"state":"active","ping":50},{"user_id":411,"name":"Insizhen","steam_id":76561198051352605,"connected_time":8598000000000,"state":"active","ping":57},{"user_id":478,"name":"KP","steam_id":76561198077911451,"connected_time":2232000000000,"state":"active","ping":97},{"user_id":486,"name":"Foomfa","steam_id":76561198007033616,"connected_time":1201000000000,"state":"active","ping":75}]},{"server_id":5,"name":"Uncletopia | Frankfurt | 1 | All Maps","name_short":"frk-1","host":"frk-1.de.uncletopia.com","port":27015,"enabled":true,"region":"eu","cc":"de","latitude":50.110924,"longitude":8.682127,"reserved":0,"last_update":"0001-01-01T00:00:00Z","name_a2s":"Uncletopia | Frankfurt | 1 | All Maps","protocol":17,"map":"pl_badwater","folder":"tf","game":"Team Fortress","app_id":440,"player_count":0,"max_players":24,"Bots":0,"server_type":"Dedicated","server_os":"Linux","password":true,"vac":true,"version":"7932396","steam_id":85568392924469989,"keywords":["nocrits","nodmgspread","payload","uncletopia"],"game_id":440,"stv_port":27016,"stv_name":"Uncletopia | Frankfurt | 1 | All Maps | STV","players":null},{"server_id":110,"name":"Uncletopia | Frankfurt | 2 | All Maps","name_short":"frk-2","host":"frk-1.de.uncletopia.com","port":27025,"enabled":true,"region":"eu","cc":"de","latitude":50.110924,"longitude":8.682127,"reserved":0,"last_update":"0001-01-01T00:00:00Z","name_a2s":"Uncletopia | Frankfurt | 2 | All Maps","protocol":17,"map":"pl_borneo","folder":"tf","game":"Team Fortress","app_id":440,"player_count":0,"max_players":24,"Bots":0,"server_type":"Dedicated","server_os":"Linux","password":true,"vac":true,"version":"7932396","steam_id":85568392924469990,"keywords":["nocrits","nodmgspread","payload","uncletopia"],"game_id":440,"stv_port":27026,"stv_name":"Uncletopia | Frankfurt | 2 | All Maps | STV","players":null},{"server_id":308,"name":"Uncletopia | Frankfurt | 3 | All Maps","name_short":"frk-3","host":"frk-1.de.uncletopia.com","port":27035,"enabled":true,"region":"eu","cc":"de","latitude":50.110924,"longitude":8.682127,"reserved":0,"last_update":"0001-01-01T00:00:00Z","name_a2s":"Uncletopia | Frankfurt | 3 | All Maps","protocol":17,"map":"pl_badwater","folder":"tf","game":"Team Fortress","app_id":440,"player_count":0,"max_players":24,"Bots":0,"server_type":"Dedicated","server_os":"Linux","password":true,"vac":true,"version":"7932396","steam_id":85568392924504274,"keywords":["nocrits","nodmgspread","payload","uncletopia"],"game_id":440,"stv_port":27036,"stv_name":"Uncletopia | Frankfurt | 3 | All Maps | STV","players":null},{"server_id":309,"name":"Uncletopia | Frankfurt | 4 | All Maps","name_short":"frk-4","host":"frk-1.de.uncletopia.com","port":27045,"enabled":true,"region":"eu","cc":"de","latitude":50.110924,"longitude":8.682127,"reserved":0,"last_update":"0001-01-01T00:00:00Z","name_a2s":"Uncletopia | Frankfurt | 4 | All Maps","protocol":17,"map":"pl_barnblitz","folder":"tf","game":"Team Fortress","app_id":440,"player_count":0,"max_players":24,"Bots":0,"server_type":"Dedicated","server_os":"Linux","password":true,"vac":true,"version":"7932396","steam_id":85568392924504275,"keywords":["nocrits","nodmgspread","payload","uncletopia"],"game_id":440,"stv_port":27046,"stv_name":"Uncletopia | Frankfurt | 4 | All Maps | STV","players":null},{"server_id":310,"name":"Uncletopia | Frankfurt | 5 | All Maps","name_short":"frk-5","host":"frk-1.de.uncletopia.com","port":27055,"enabled":true,"region":"eu","cc":"de","latitude":50.110924,"longitude":8.682127,"reserved":0,"last_update":"0001-01-01T00:00:00Z","name_a2s":"Uncletopia | Frankfurt | 5 | All Maps","protocol":17,"map":"pl_badwater","folder":"tf","game":"Team Fortress","app_id":440,"player_count":0,"max_players":24,"Bots":0,"server_type":"Dedicated","server_os":"Linux","password":true,"vac":true,"version":"7932396","steam_id":85568392924504277,"keywords":["nocrits","nodmgspread","payload","uncletopia"],"game_id":440,"stv_port":27056,"stv_name":"Uncletopia | Frankfurt | 5 | All Maps | STV","players":null},{"server_id":311,"name":"Uncletopia | Frankfurt | 6 | All Maps","name_short":"frk-6","host":"frk-1.de.uncletopia.com","port":27065,"enabled":true,"region":"eu","cc":"de","latitude":50.110924,"longitude":8.682127,"reserved":0,"last_update":"0001-01-01T00:00:00Z","name_a2s":"Uncletopia | Frankfurt | 6 | All Maps","protocol":17,"map":"koth_viaduct","folder":"tf","game":"Team Fortress","app_id":440,"player_count":0,"max_players":24,"Bots":0,"server_type":"Dedicated","server_os":"Linux","password":true,"vac":true,"version":"7932396","steam_id":85568392924504278,"keywords":["cp","nocrits","nodmgspread","uncletopia"],"game_id":440,"stv_port":27066,"stv_name":"Uncletopia | Frankfurt | 6 | All Maps | STV","players":null},{"server_id":23,"name":"Uncletopia | Frankfurt | 7 | Stopwatch Beta","name_short":"frk-7","host":"frk-1.de.uncletopia.com","port":27075,"enabled":true,"region":"eu","cc":"de","latitude":50.110924,"longitude":8.682127,"reserved":0,"last_update":"0001-01-01T00:00:00Z","name_a2s":"Uncletopia | Frankfurt | 7 | Stopwatch Beta","protocol":17,"map":"pl_snowycoast","folder":"tf","game":"Team Fortress","app_id":440,"player_count":0,"max_players":24,"Bots":0,"server_type":"Dedicated","server_os":"Linux","password":true,"vac":true,"version":"7932396","steam_id":85568392924742827,"keywords":["nocrits","nodmgspread","payload","uncletopia"],"game_id":440,"stv_port":27076,"stv_name":"Uncletopia | Frankfurt | 7 | Stopwatch Beta | STV","players":null},{"server_id":24,"name":"Uncletopia | Frankfurt | 8 | Community","name_short":"frk-8","host":"frk-1.de.uncletopia.com","port":27085,"enabled":true,"region":"eu","cc":"de","latitude":50.110924,"longitude":8.682127,"reserved":0,"last_update":"0001-01-01T00:00:00Z","name_a2s":"Uncletopia | Frankfurt | 8 | Community","protocol":17,"map":"pl_barnblitz","folder":"tf","game":"Team Fortress","app_id":440,"player_count":0,"max_players":24,"Bots":0,"server_type":"Dedicated","server_os":"Linux","password":true,"vac":true,"version":"7932396","steam_id":85568392924742828,"keywords":["nocrits","nodmgspread","payload","uncletopia"],"game_id":440,"stv_port":27086,"stv_name":"Uncletopia | Frankfurt | 8 | Community | STV","players":null},{"server_id":202,"name":"Uncletopia | Hong Kong | 1 | All Maps","name_short":"hgk-1","host":"hgk-1.hk.uncletopia.com","port":27015,"enabled":true,"region":"asia","cc":"hk","latitude":22.302711,"longitude":114.177216,"reserved":0,"last_update":"0001-01-01T00:00:00Z","name_a2s":"Uncletopia | Hong Kong | 1 | All Maps","protocol":17,"map":"cp_mountainlab","folder":"tf","game":"Team Fortress","app_id":440,"player_count":0,"max_players":24,"Bots":0,"server_type":"Dedicated","server_os":"Linux","password":true,"vac":true,"version":"7932396","steam_id":85568392924494504,"keywords":["cp","nocrits","nodmgspread","uncletopia"],"game_id":440,"stv_port":27016,"stv_name":"Uncletopia | Hong Kong | 1 | All Maps | STV","players":null},{"server_id":1,"name":"Uncletopia | Los Angeles | 1 | All Maps","name_short":"lax-1","host":"lax-1.us.uncletopia.com","port":27015,"enabled":true,"region":"us-west","cc":"us","latitude":33.94279,"longitude":-118.41004,"reserved":0,"last_update":"0001-01-01T00:00:00Z","name_a2s":"Uncletopia | Los Angeles | 1 | All Maps","protocol":17,"map":"pl_upward","folder":"tf","game":"Team Fortress","app_id":440,"player_count":4,"max_players":24,"Bots":0,"server_type":"Dedicated","server_os":"Linux","password":true,"vac":true,"version":"7932396","steam_id":85568392924469991,"keywords":["nocrits","nodmgspread","payload","uncletopia"],"game_id":440,"stv_port":27016,"stv_name":"Uncletopia | Los Angeles | 1 | All Maps | STV","players":[{"user_id":194,"name":"LipLya","steam_id":76561198078386761,"connected_time":311000000000,"state":"active","ping":69},{"user_id":168,"name":"Mr Baseball","steam_id":76561198960521363,"connected_time":1405000000000,"state":"active","ping":72},{"user_id":189,"name":"stickg","steam_id":76561199193020423,"connected_time":835000000000,"state":"active","ping":47},{"user_id":190,"name":"Taijo","steam_id":76561199237601803,"connected_time":795000000000,"state":"active","ping":66}]},{"server_id":112,"name":"Uncletopia | Los Angeles | 2 | All Maps","name_short":"lax-2","host":"lax-1.us.uncletopia.com","port":27025,"enabled":true,"region":"us-west","cc":"us","latitude":33.94279,"longitude":-118.41004,"reserved":0,"last_update":"0001-01-01T00:00:00Z","name_a2s":"Uncletopia | Los Angeles | 2 | All Maps","protocol":17,"map":"pl_badwater","folder":"tf","game":"Team Fortress","app_id":440,"player_count":24,"max_players":24,"Bots":0,"server_type":"Dedicated","server_os":"Linux","password":true,"vac":true,"version":"7932396","steam_id":85568392924469992,"keywords":["nocrits","nodmgspread","payload","uncletopia"],"game_id":440,"stv_port":27026,"stv_name":"Uncletopia | Los Angeles | 2 | All Maps | STV","players":[{"user_id":531,"name":"RmBLe","steam_id":76561198150137369,"connected_time":2910000000000,"state":"active","ping":57},{"user_id":536,"name":"JellyRoll Jerry","steam_id":76561198037149474,"connected_time":2415000000000,"state":"active","ping":59},{"user_id":560,"name":"GardenOfStone","steam_id":76561199069870534,"connected_time":814000000000,"state":"active","ping":61},{"user_id":558,"name":"Not Slavoj ≈Ωi≈æek","steam_id":76561198004619616,"connected_time":847000000000,"state":"active","ping":69},{"user_id":543,"name":"shittystripper","steam_id":76561198101012071,"connected_time":2143000000000,"state":"active","ping":73},{"user_id":568,"name":"Big Oil","steam_id":76561199238964574,"connected_time":155000000000,"state":"active","ping":64},{"user_id":485,"name":"The_Skull","steam_id":76561198121244647,"connected_time":6344000000000,"state":"active","ping":99},{"user_id":544,"name":"PeptoBismol","steam_id":76561198082669076,"connected_time":2091000000000,"state":"active","ping":59},{"user_id":529,"name":"buddha","steam_id":76561198824691581,"connected_time":3124000000000,"state":"active","ping":114},{"user_id":566,"name":"Deryn Sharp","steam_id":76561198047017346,"connected_time":492000000000,"state":"active","ping":50},{"user_id":557,"name":"Playing on a Xbox Controller","steam_id":76561199229427395,"connected_time":889000000000,"state":"active","ping":50},{"user_id":550,"name":"Nylox SIGN BUYER","steam_id":76561198191196389,"connected_time":1688000000000,"state":"active","ping":60},{"user_id":562,"name":"Robin","steam_id":76561198169158566,"connected_time":805000000000,"state":"active","ping":45},{"user_id":563,"name":"FI LO","steam_id":76561198976530881,"connected_time":799000000000,"state":"active","ping":30},{"user_id":564,"name":"srf_1124","steam_id":76561198434714748,"connected_time":756000000000,"state":"active","ping":67},{"user_id":569,"name":"Hector Salamanca","steam_id":76561199103213955,"connected_time":123000000000,"state":"active","ping":69},{"user_id":542,"name":"Lucerne‚òÖFlower","steam_id":76561198264105406,"connected_time":2167000000000,"state":"active","ping":105},{"user_id":547,"name":"TideWTR","steam_id":76561199003526470,"connected_time":2017000000000,"state":"active","ping":108},{"user_id":549,"name":"emmeowline","steam_id":76561198216487540,"connected_time":1770000000000,"state":"active","ping":75},{"user_id":546,"name":"Speedy SpeedBoy","steam_id":76561198236109724,"connected_time":2051000000000,"state":"active","ping":57},{"user_id":565,"name":"californjoe","steam_id":76561197965047795,"connected_time":566000000000,"state":"active","ping":53},{"user_id":567,"name":"vol 1","steam_id":76561198063880315,"connected_time":433000000000,"state":"active","ping":45},{"user_id":554,"name":"Mr. Carfox","steam_id":76561198041664428,"connected_time":1056000000000,"state":"active","ping":57},{"user_id":484,"name":"Immortal8Reaper","steam_id":76561198297661559,"connected_time":6433000000000,"state":"active","ping":132}]},{"server_id":324,"name":"Uncletopia | Los Angeles | 3 | All Maps","name_short":"lax-3","host":"lax-1.us.uncletopia.com","port":27035,"enabled":true,"region":"us-west","cc":"us","latitude":33.94279,"longitude":-118.41004,"reserved":0,"last_update":"0001-01-01T00:00:00Z","name_a2s":"Uncletopia | Los Angeles | 3 | All Maps","protocol":17,"map":"pl_frontier_final","folder":"tf","game":"Team Fortress","app_id":440,"player_count":24,"max_players":24,"Bots":0,"server_type":"Dedicated","server_os":"Linux","password":true,"vac":true,"version":"7932396","steam_id":85568392924510198,"keywords":["nocrits","nodmgspread","payload","uncletopia"],"game_id":440,"stv_port":27036,"stv_name":"Uncletopia | Los Angeles | 3 | All Maps | STV","players":[{"user_id":849,"name":"ArcFighter5955","steam_id":76561198148378857,"connected_time":677000000000,"state":"active","ping":49},{"user_id":858,"name":"Dreamzapp","steam_id":76561199084936632,"connected_time":343000000000,"state":"active","ping":70},{"user_id":845,"name":"beblonski","steam_id":76561198067053408,"connected_time":1555000000000,"state":"active","ping":46},{"user_id":799,"name":"gatorbelt","steam_id":76561198145784505,"connected_time":4477000000000,"state":"active","ping":44},{"user_id":852,"name":"Mr. Big Quack","steam_id":76561198062219416,"connected_time":613000000000,"state":"active","ping":46},{"user_id":863,"name":"Sleempreem","steam_id":76561198131987251,"connected_time":9000000000,"state":"active","ping":55},{"user_id":850,"name":"Sharq","steam_id":76561198079565915,"connected_time":666000000000,"state":"active","ping":67},{"user_id":817,"name":"mrthugpug1732","steam_id":76561198881200768,"connected_time":3793000000000,"state":"active","ping":57},{"user_id":821,"name":"CrazyA","steam_id":76561198157885915,"connected_time":3424000000000,"state":"active","ping":58},{"user_id":851,"name":"YoZiggy","steam_id":76561198192485274,"connected_time":647000000000,"state":"active","ping":44},{"user_id":853,"name":"ouch!","steam_id":76561198140327871,"connected_time":594000000000,"state":"active","ping":71},{"user_id":840,"name":"JACK BRUNO","steam_id":76561198027957690,"connected_time":1691000000000,"state":"active","ping":66},{"user_id":834,"name":"nori_420","steam_id":76561199117134203,"connected_time":2111000000000,"state":"active","ping":54},{"user_id":859,"name":"The Headhunter","steam_id":76561198389722871,"connected_time":339000000000,"state":"active","ping":58},{"user_id":854,"name":"‚ù§ Dolphiniz ‚ù§","steam_id":76561199093367765,"connected_time":556000000000,"state":"active","ping":46},{"user_id":842,"name":"Metalogic","steam_id":76561198049469629,"connected_time":1654000000000,"state":"active","ping":91},{"user_id":860,"name":"Galactamarx","steam_id":76561198028065755,"connected_time":336000000000,"state":"active","ping":104},{"user_id":836,"name":"Flex Pexico","steam_id":76561198041838930,"connected_time":1985000000000,"state":"active","ping":66},{"user_id":862,"name":"goopgrabber","steam_id":76561199029951083,"connected_time":173000000000,"state":"active","ping":58},{"user_id":746,"name":"AimB√ºtter","steam_id":76561198060108739,"connected_time":6966000000000,"state":"active","ping":48},{"user_id":855,"name":"Colonel Angus","steam_id":76561198161889123,"connected_time":542000000000,"state":"active","ping":76},{"user_id":844,"name":"Evanb","steam_id":76561198042057792,"connected_time":1602000000000,"state":"active","ping":75},{"user_id":857,"name":"stick","steam_id":76561198134334367,"connected_time":441000000000,"state":"active","ping":74},{"user_id":861,"name":"Artic_Ryuu","steam_id":76561198182194918,"connected_time":319000000000,"state":"active","ping":74}]},{"server_id":25,"name":"Uncletopia | Los Angeles | 4 | Stopwatch Beta","name_short":"lax-4","host":"lax-1.us.uncletopia.com","port":27045,"enabled":true,"region":"us-west","cc":"us","latitude":33.94279,"longitude":-118.41004,"reserved":0,"last_update":"0001-01-01T00:00:00Z","name_a2s":"Uncletopia | Los Angeles | 4 | Stopwatch Beta","protocol":17,"map":"cp_granary","folder":"tf","game":"Team Fortress","app_id":440,"player_count":0,"max_players":24,"Bots":0,"server_type":"Dedicated","server_os":"Linux","password":true,"vac":true,"version":"7932396","steam_id":85568392924510199,"keywords":["cp","nocrits","nodmgspread","uncletopia"],"game_id":440,"stv_port":27046,"stv_name":"Uncletopia | Los Angeles | 4 | Stopwatch Beta | STV","players":null},{"server_id":11,"name":"Uncletopia | London | 1 | All Maps","name_short":"lon-1","host":"lon-1.uk.uncletopia.com","port":27015,"enabled":true,"region":"eu","cc":"gb","latitude":51.509865,"longitude":-0.118092,"reserved":0,"last_update":"0001-01-01T00:00:00Z","name_a2s":"Uncletopia | London | 1 | All Maps","protocol":17,"map":"cp_snakewater_final1","folder":"tf","game":"Team Fortress","app_id":440,"player_count":0,"max_players":24,"Bots":0,"server_type":"Dedicated","server_os":"Linux","password":true,"vac":true,"version":"7932396","steam_id":85568392924367362,"keywords":["cp","nocrits","nodmgspread","uncletopia"],"game_id":440,"stv_port":27016,"stv_name":"Uncletopia | London | 1 | All Maps | STV","players":null},{"server_id":114,"name":"Uncletopia | London | 2 | All Maps","name_short":"lon-2","host":"lon-1.uk.uncletopia.com","port":27025,"enabled":true,"region":"eu","cc":"gb","latitude":51.509865,"longitude":-0.118092,"reserved":0,"last_update":"0001-01-01T00:00:00Z","name_a2s":"Uncletopia | London | 2 | All Maps","protocol":17,"map":"koth_highpass","folder":"tf","game":"Team Fortress","app_id":440,"player_count":0,"max_players":24,"Bots":0,"server_type":"Dedicated","server_os":"Linux","password":true,"vac":true,"version":"7932396","steam_id":85568392924470941,"keywords":["cp","nocrits","nodmgspread","uncletopia"],"game_id":440,"stv_port":27026,"stv_name":"Uncletopia | London | 2 | All Maps | STV","players":null},{"server_id":320,"name":"Uncletopia | London | 3 | All Maps","name_short":"lon-3","host":"lon-1.uk.uncletopia.com","port":27035,"enabled":true,"region":"eu","cc":"gb","latitude":51.509865,"longitude":-0.118092,"reserved":0,"last_update":"0001-01-01T00:00:00Z","name_a2s":"Uncletopia | London | 3 | All Maps","protocol":17,"map":"cp_altitude","folder":"tf","game":"Team Fortress","app_id":440,"player_count":0,"max_players":24,"Bots":0,"server_type":"Dedicated","server_os":"Linux","password":true,"vac":true,"version":"7932396","steam_id":85568392924510192,"keywords":["cp","nocrits","nodmgspread","uncletopia"],"game_id":440,"stv_port":27036,"stv_name":"Uncletopia | London | 3 | All Maps | STV","players":null},{"server_id":321,"name":"Uncletopia | London | 4 | All Maps","name_short":"lon-4","host":"lon-1.uk.uncletopia.com","port":27045,"enabled":true,"region":"eu","cc":"gb","latitude":51.509865,"longitude":-0.118092,"reserved":0,"last_update":"0001-01-01T00:00:00Z","name_a2s":"Uncletopia | London | 4 | All Maps","protocol":17,"map":"pl_badwater","folder":"tf","game":"Team Fortress","app_id":440,"player_count":20,"max_players":24,"Bots":0,"server_type":"Dedicated","server_os":"Linux","password":true,"vac":true,"version":"7932396","steam_id":85568392924510193,"keywords":["nocrits","nodmgspread","payload","uncletopia"],"game_id":440,"stv_port":27046,"stv_name":"Uncletopia | London | 4 | All Maps | STV","players":[{"user_id":3,"name":"BoBunny McGlitter","steam_id":76561198057403817,"connected_time":1899000000000,"state":"active","ping":61},{"user_id":4,"name":"Perpetual Pub Push","steam_id":76561198256714846,"connected_time":1897000000000,"state":"active","ping":44},{"user_id":5,"name":"some girl","steam_id":76561198890391967,"connected_time":1895000000000,"state":"active","ping":137},{"user_id":6,"name":"eMcP!","steam_id":76561198382509396,"connected_time":1889000000000,"state":"active","ping":53},{"user_id":7,"name":"Sythodeus","steam_id":76561198160974300,"connected_time":1882000000000,"state":"active","ping":94},{"user_id":8,"name":"presidentialAIDS","steam_id":76561199257284077,"connected_time":1877000000000,"state":"active","ping":136},{"user_id":9,"name":"Jimmy's balls","steam_id":76561198841930820,"connected_time":1872000000000,"state":"active","ping":104},{"user_id":10,"name":"sofa king","steam_id":76561198175456289,"connected_time":1850000000000,"state":"active","ping":114},{"user_id":14,"name":"Walter Jr","steam_id":76561199111329270,"connected_time":1346000000000,"state":"active","ping":111},{"user_id":12,"name":"Decaying Chpok","steam_id":76561198112855332,"connected_time":1788000000000,"state":"active","ping":166},{"user_id":16,"name":"ruffeeh","steam_id":76561197995517185,"connected_time":1003000000000,"state":"active","ping":89},{"user_id":28,"name":"Niko","steam_id":76561199006295285,"connected_time":22000000000,"state":"spawning","ping":59},{"user_id":18,"name":"Jinxie","steam_id":76561198008762303,"connected_time":849000000000,"state":"active","ping":67},{"user_id":19,"name":"Mr. Meow II","steam_id":76561199476440897,"connected_time":749000000000,"state":"active","ping":144},{"user_id":20,"name":"Jerryx01","steam_id":76561198145236247,"connected_time":737000000000,"state":"active","ping":79},{"user_id":21,"name":"Danny Phanny","steam_id":76561199123135608,"connected_time":718000000000,"state":"active","ping":140},{"user_id":26,"name":"Rocket Queen's consort","steam_id":76561198092995429,"connected_time":251000000000,"state":"active","ping":136},{"user_id":27,"name":"LunarDark","steam_id":76561199225446889,"connected_time":193000000000,"state":"active","ping":181},{"user_id":29,"name":"Labomarcelo","steam_id":76561198211186473,"connected_time":4000000000,"state":"spawning","ping":80},{"user_id":30,"name":"puck","steam_id":76561198121260981,"connected_time":2000000000,"state":"spawning","ping":45}]},{"server_id":21,"name":"Uncletopia | London | 5 | All Maps","name_short":"lon-5","host":"lon-1.uk.uncletopia.com","port":27055,"enabled":true,"region":"eu","cc":"gb","latitude":51.509865,"longitude":-0.118092,"reserved":0,"last_update":"0001-01-01T00:00:00Z","name_a2s":"Uncletopia | London | 5 | All Maps","protocol":17,"map":"pl_borneo","folder":"tf","game":"Team Fortress","app_id":440,"player_count":0,"max_players":24,"Bots":0,"server_type":"Dedicated","server_os":"Linux","password":true,"vac":true,"version":"7932396","steam_id":85568392924742829,"keywords":["nocrits","nodmgspread","payload","uncletopia"],"game_id":440,"stv_port":27056,"stv_name":"Uncletopia | London | 5 | All Maps | STV","players":null},{"server_id":22,"name":"Uncletopia | London | 6 | All Maps","name_short":"lon-6","host":"lon-1.uk.uncletopia.com","port":27065,"enabled":true,"region":"eu","cc":"gb","latitude":51.509865,"longitude":-0.118092,"reserved":0,"last_update":"0001-01-01T00:00:00Z","name_a2s":"Uncletopia | London | 6 | All Maps","protocol":17,"map":"cp_mountainlab","folder":"tf","game":"Team Fortress","app_id":440,"player_count":0,"max_players":24,"Bots":0,"server_type":"Dedicated","server_os":"Linux","password":true,"vac":true,"version":"7932396","steam_id":85568392924742830,"keywords":["cp","nocrits","nodmgspread","uncletopia"],"game_id":440,"stv_port":27066,"stv_name":"Uncletopia | London | 6 | All Maps | STV","players":null},{"server_id":40,"name":"Uncletopia | London | 7 | No Payload","name_short":"lon-7","host":"lon-1.uk.uncletopia.com","port":27075,"enabled":true,"region":"eu","cc":"gb","latitude":51.509865,"longitude":-0.118092,"reserved":0,"last_update":"0001-01-01T00:00:00Z","name_a2s":"Uncletopia | London | 7 | No Payload","protocol":17,"map":"pl_snowycoast","folder":"tf","game":"Team Fortress","app_id":440,"player_count":0,"max_players":24,"Bots":0,"server_type":"Dedicated","server_os":"Linux","password":true,"vac":true,"version":"7932396","steam_id":85568392924964314,"keywords":["nocrits","nodmgspread","payload","uncletopia"],"game_id":440,"stv_port":27076,"stv_name":"Uncletopia | London | 7 | No Payload | STV","players":null},{"server_id":41,"name":"Uncletopia | London | 8 | Community","name_short":"lon-8","host":"lon-1.uk.uncletopia.com","port":27085,"enabled":true,"region":"eu","cc":"gb","latitude":51.509865,"longitude":-0.118092,"reserved":0,"last_update":"0001-01-01T00:00:00Z","name_a2s":"Uncletopia | London | 8 | Community","protocol":17,"map":"pl_barnblitz","folder":"tf","game":"Team Fortress","app_id":440,"player_count":0,"max_players":24,"Bots":0,"server_type":"Dedicated","server_os":"Linux","password":true,"vac":true,"version":"7932396","steam_id":85568392924964315,"keywords":["nocrits","nodmgspread","payload","uncletopia"],"game_id":440,"stv_port":27086,"stv_name":"Uncletopia | London | 8 | Community | STV","players":null},{"server_id":300,"name":"Uncletopia | Montr√©al | 1 | All Maps","name_short":"mtl-1","host":"mtl-1.ca.uncletopia.com","port":27015,"enabled":true,"region":"us-east","cc":"ca","latitude":45.50889,"longitude":-73.56167,"reserved":0,"last_update":"0001-01-01T00:00:00Z","name_a2s":"Uncletopia | Montr√©al | 1 | All Maps","protocol":17,"map":"koth_lakeside_final","folder":"tf","game":"Team Fortress","app_id":440,"player_count":2,"max_players":24,"Bots":0,"server_type":"Dedicated","server_os":"Linux","password":true,"vac":true,"version":"7932396","steam_id":85568392924500087,"keywords":["cp","nocrits","nodmgspread","uncletopia"],"game_id":440,"stv_port":27016,"stv_name":"Uncletopia | Montr√©al | 1 | All Maps | STV","players":[{"user_id":148,"name":"MAN I CANT COMPLAIN","steam_id":76561198058793778,"connected_time":4396000000000,"state":"active","ping":56},{"user_id":153,"name":"cataconik","steam_id":76561198145530829,"connected_time":4367000000000,"state":"active","ping":95}]},{"server_id":301,"name":"Uncletopia | Montr√©al | 2 | All Maps","name_short":"mtl-2","host":"mtl-1.ca.uncletopia.com","port":27025,"enabled":true,"region":"us-east","cc":"ca","latitude":45.50889,"longitude":-73.56167,"reserved":0,"last_update":"0001-01-01T00:00:00Z","name_a2s":"Uncletopia | Montr√©al | 2 | All Maps","protocol":17,"map":"cp_altitude","folder":"tf","game":"Team Fortress","app_id":440,"player_count":0,"max_players":24,"Bots":0,"server_type":"Dedicated","server_os":"Linux","password":true,"vac":true,"version":"7932396","steam_id":85568392924500088,"keywords":["cp","nocrits","nodmgspread","uncletopia"],"game_id":440,"stv_port":27026,"stv_name":"Uncletopia | Montr√©al | 2 | All Maps | STV","players":null},{"server_id":302,"name":"Uncletopia | Montr√©al | 3 | All Maps","name_short":"mtl-3","host":"mtl-1.ca.uncletopia.com","port":27035,"enabled":true,"region":"us-east","cc":"ca","latitude":45.50889,"longitude":-73.56167,"reserved":0,"last_update":"0001-01-01T00:00:00Z","name_a2s":"Uncletopia | Montr√©al | 3 | All Maps","protocol":17,"map":"pl_snowycoast","folder":"tf","game":"Team Fortress","app_id":440,"player_count":0,"max_players":24,"Bots":0,"server_type":"Dedicated","server_os":"Linux","password":true,"vac":true,"version":"7932396","steam_id":85568392924500089,"keywords":["nocrits","nodmgspread","payload","uncletopia"],"game_id":440,"stv_port":27036,"stv_name":"Uncletopia | Montr√©al | 3 | All Maps | STV","players":null},{"server_id":303,"name":"Uncletopia | Montr√©al | 4 | No Payload","name_short":"mtl-4","host":"mtl-1.ca.uncletopia.com","port":27045,"enabled":true,"region":"us-east","cc":"ca","latitude":45.50889,"longitude":-73.56167,"reserved":0,"last_update":"0001-01-01T00:00:00Z","name_a2s":"Uncletopia | Montr√©al | 4 | No Payload","protocol":17,"map":"cp_standin_final","folder":"tf","game":"Team Fortress","app_id":440,"player_count":0,"max_players":24,"Bots":0,"server_type":"Dedicated","server_os":"Linux","password":true,"vac":true,"version":"7932396","steam_id":85568392924500090,"keywords":["cp","nocrits","nodmgspread","uncletopia"],"game_id":440,"stv_port":27046,"stv_name":"Uncletopia | Montr√©al | 4 | No Payload | STV","players":null},{"server_id":13,"name":"Uncletopia | New York City | 1 | All Maps","name_short":"nyc-1","host":"nyc-1.us.uncletopia.com","port":27015,"enabled":true,"region":"us-east","cc":"us","latitude":40.73061,"longitude":-73.93524,"reserved":0,"last_update":"0001-01-01T00:00:00Z","name_a2s":"Uncletopia | New York City | 1 | All Maps","protocol":17,"map":"pl_frontier_final","folder":"tf","game":"Team Fortress","app_id":440,"player_count":9,"max_players":24,"Bots":0,"server_type":"Dedicated","server_os":"Linux","password":true,"vac":true,"version":"7932396","steam_id":85568392924469993,"keywords":["nocrits","nodmgspread","payload","uncletopia"],"game_id":440,"stv_port":27016,"stv_name":"Uncletopia | New York City | 1 | All Maps | STV","players":[{"user_id":284,"name":"Kylek1133","steam_id":76561198277595899,"connected_time":165000000000,"state":"active","ping":114},{"user_id":281,"name":"MERCHANT","steam_id":76561198210010549,"connected_time":503000000000,"state":"active","ping":140},{"user_id":278,"name":"geralde","steam_id":76561198454317908,"connected_time":791000000000,"state":"active","ping":145},{"user_id":279,"name":"The janitor","steam_id":76561198414300607,"connected_time":720000000000,"state":"active","ping":124},{"user_id":282,"name":"Constellar Nova","steam_id":76561198868215392,"connected_time":373000000000,"state":"active","ping":54},{"user_id":283,"name":"Buck","steam_id":76561198064244796,"connected_time":351000000000,"state":"active","ping":44},{"user_id":271,"name":"Minchin52","steam_id":76561198043859747,"connected_time":1854000000000,"state":"active","ping":68},{"user_id":258,"name":"Duncan Idaho","steam_id":76561197988963861,"connected_time":2596000000000,"state":"active","ping":41},{"user_id":272,"name":"mark disney","steam_id":76561198110031579,"connected_time":1839000000000,"state":"active","ping":123}]},{"server_id":14,"name":"Uncletopia | New York City | 2 | All Maps","name_short":"nyc-2","host":"nyc-1.us.uncletopia.com","port":27025,"enabled":true,"region":"us-east","cc":"us","latitude":40.73061,"longitude":-73.93524,"reserved":0,"last_update":"0001-01-01T00:00:00Z","name_a2s":"Uncletopia | New York City | 2 | All Maps","protocol":17,"map":"pl_swiftwater_final1","folder":"tf","game":"Team Fortress","app_id":440,"player_count":24,"max_players":24,"Bots":0,"server_type":"Dedicated","server_os":"Linux","password":true,"vac":true,"version":"7932396","steam_id":85568392924469994,"keywords":["nocrits","nodmgspread","payload","uncletopia"],"game_id":440,"stv_port":27026,"stv_name":"Uncletopia | New York City | 2 | All Maps | STV","players":[{"user_id":276,"name":"Captain Eagle Gun","steam_id":76561198049948219,"connected_time":796000000000,"state":"active","ping":56},{"user_id":288,"name":"elso","steam_id":76561198058209902,"connected_time":130000000000,"state":"active","ping":88},{"user_id":282,"name":"nugalaa","steam_id":76561198074584362,"connected_time":487000000000,"state":"active","ping":49},{"user_id":255,"name":"Cosmic sR","steam_id":76561198081738675,"connected_time":1499000000000,"state":"active","ping":82},{"user_id":278,"name":"Moonkey","steam_id":76561199013741389,"connected_time":781000000000,"state":"active","ping":44},{"user_id":223,"name":"A Puppy","steam_id":76561198828184456,"connected_time":4657000000000,"state":"active","ping":50},{"user_id":181,"name":"GoRgE","steam_id":76561198276743333,"connected_time":9453000000000,"state":"active","ping":67},{"user_id":241,"name":"Violet","steam_id":76561198096225913,"connected_time":3079000000000,"state":"active","ping":58},{"user_id":270,"name":"noided","steam_id":76561198353924837,"connected_time":967000000000,"state":"active","ping":65},{"user_id":285,"name":"bkiller","steam_id":76561198029265697,"connected_time":288000000000,"state":"active","ping":71},{"user_id":263,"name":"Jasper","steam_id":76561198239635448,"connected_time":1125000000000,"state":"active","ping":87},{"user_id":289,"name":"The Bait Meat Boat","steam_id":76561198031796855,"connected_time":85000000000,"state":"active","ping":116},{"user_id":290,"name":"‚òπ","steam_id":76561198804763186,"connected_time":77000000000,"state":"active","ping":46},{"user_id":284,"name":"Gram Tokers Count Doinkula","steam_id":76561198112811565,"connected_time":361000000000,"state":"active","ping":55},{"user_id":268,"name":"Cyrilthewonders","steam_id":76561198987020031,"connected_time":1016000000000,"state":"active","ping":68},{"user_id":286,"name":"Toxicott","steam_id":76561199123850522,"connected_time":268000000000,"state":"active","ping":150},{"user_id":273,"name":"Sun Tzu Gaming","steam_id":76561198066887958,"connected_time":899000000000,"state":"active","ping":62},{"user_id":281,"name":"jorjor wells","steam_id":76561199073429082,"connected_time":627000000000,"state":"active","ping":57},{"user_id":236,"name":"is anything unfappable?","steam_id":76561198032259680,"connected_time":4210000000000,"state":"active","ping":92},{"user_id":275,"name":"borgmill","steam_id":76561198037460701,"connected_time":833000000000,"state":"active","ping":144},{"user_id":291,"name":"Red Hot Fish Princess [Dexgod]","steam_id":76561198017130786,"connected_time":19000000000,"state":"active","ping":69},{"user_id":269,"name":"MeatBall","steam_id":76561199055196261,"connected_time":994000000000,"state":"active","ping":72},{"user_id":287,"name":"Coach Twig","steam_id":76561198058831591,"connected_time":204000000000,"state":"active","ping":58},{"user_id":292,"name":"leonardo doujinshi","steam_id":76561198025810326,"connected_time":16000000000,"state":"active","ping":70}]},{"server_id":15,"name":"Uncletopia | New York City | 3 | Stopwatch Beta","name_short":"nyc-3","host":"nyc-1.us.uncletopia.com","port":27035,"enabled":true,"region":"us-east","cc":"us","latitude":40.73061,"longitude":-73.93524,"reserved":0,"last_update":"0001-01-01T00:00:00Z","name_a2s":"Uncletopia | New York City | 3 | Stopwatch Beta","protocol":17,"map":"workshop/koth_ashville_final.ugc2130459942","folder":"tf","game":"Team Fortress","app_id":440,"player_count":0,"max_players":24,"Bots":0,"server_type":"Dedicated","server_os":"Linux","password":true,"vac":true,"version":"7932396","steam_id":85568392924742820,"keywords":["cp","nocrits","nodmgspread","uncletopia"],"game_id":440,"stv_port":27036,"stv_name":"Uncletopia | New York City | 3 | Stopwatch Beta | STV","players":null},{"server_id":16,"name":"Uncletopia | New York City | 4 | Community","name_short":"nyc-4","host":"nyc-1.us.uncletopia.com","port":27045,"enabled":true,"region":"us-east","cc":"us","latitude":40.73061,"longitude":-73.93524,"reserved":0,"last_update":"0001-01-01T00:00:00Z","name_a2s":"Uncletopia | New York City | 4 | Community","protocol":17,"map":"workshop/cp_logjam_rc12.ugc454812035","folder":"tf","game":"Team Fortress","app_id":440,"player_count":0,"max_players":24,"Bots":0,"server_type":"Dedicated","server_os":"Linux","password":true,"vac":true,"version":"7932396","steam_id":85568392924742821,"keywords":["cp","nocrits","nodmgspread","uncletopia"],"game_id":440,"stv_port":27046,"stv_name":"Uncletopia | New York City | 4 | Community | STV","players":null},{"server_id":142,"name":"Uncletopia | S√£o Paulo | 1 | All Maps","name_short":"sao-1","host":"sao-1.br.uncletopia.com","port":27015,"enabled":true,"region":"sa","cc":"br","latitude":-23.533773,"longitude":-46.62529,"reserved":0,"last_update":"0001-01-01T00:00:00Z","name_a2s":"Uncletopia | S√£o Paulo | 1 | All Maps","protocol":17,"map":"cp_dustbowl","folder":"tf","game":"Team Fortress","app_id":440,"player_count":0,"max_players":24,"Bots":0,"server_type":"Dedicated","server_os":"Linux","password":true,"vac":true,"version":"7932396","steam_id":85568392924469996,"keywords":["cp","nocrits","nodmgspread","uncletopia"],"game_id":440,"stv_port":27016,"stv_name":"Uncletopia | S√£o Paulo | 1 | All Maps | STV","players":null},{"server_id":143,"name":"Uncletopia | S√£o Paulo | 2 | All Maps","name_short":"sao-2","host":"sao-2.br.uncletopia.com","port":27015,"enabled":true,"region":"sa","cc":"br","latitude":-23.533773,"longitude":-46.62529,"reserved":0,"last_update":"0001-01-01T00:00:00Z","name_a2s":"Uncletopia | S√£o Paulo | 2 | All Maps","protocol":17,"map":"pl_badwater","folder":"tf","game":"Team Fortress","app_id":440,"player_count":0,"max_players":24,"Bots":0,"server_type":"Dedicated","server_os":"Linux","password":true,"vac":true,"version":"7932396","steam_id":85568392924485349,"keywords":["nocrits","nodmgspread","payload","uncletopia"],"game_id":440,"stv_port":27016,"stv_name":"Uncletopia | S√£o Paulo | 2 | All Maps | STV","players":null},{"server_id":7,"name":"Uncletopia | Seattle | 1 | All Maps","name_short":"sea-1","host":"sea-1.us.uncletopia.com","port":27015,"enabled":true,"region":"us-west","cc":"us","latitude":47.608013,"longitude":-122.33517,"reserved":0,"last_update":"0001-01-01T00:00:00Z","name_a2s":"Uncletopia | Seattle | 1 | All Maps","protocol":17,"map":"koth_harvest_final","folder":"tf","game":"Team Fortress","app_id":440,"player_count":24,"max_players":24,"Bots":0,"server_type":"Dedicated","server_os":"Linux","password":true,"vac":true,"version":"7932396","steam_id":85568392924469997,"keywords":["cp","nocrits","nodmgspread","uncletopia"],"game_id":440,"stv_port":27016,"stv_name":"Uncletopia | Seattle | 1 | All Maps | STV","players":[{"user_id":796,"name":"T√ºCold","steam_id":76561198111278197,"connected_time":2542000000000,"state":"active","ping":60},{"user_id":811,"name":"I THINK COOLSVILLE SUCKS","steam_id":76561198066855998,"connected_time":758000000000,"state":"active","ping":47},{"user_id":812,"name":"makeshift_burrito","steam_id":76561198042510825,"connected_time":549000000000,"state":"active","ping":71},{"user_id":798,"name":"ed","steam_id":76561198080475712,"connected_time":2224000000000,"state":"active","ping":99},{"user_id":775,"name":"squash","steam_id":76561198150281353,"connected_time":5028000000000,"state":"active","ping":52},{"user_id":806,"name":"sly1","steam_id":76561198049014977,"connected_time":1105000000000,"state":"active","ping":53},{"user_id":791,"name":"The Super Mario Bros. Movie","steam_id":76561198871692156,"connected_time":3275000000000,"state":"active","ping":119},{"user_id":781,"name":"rat gets the cheese","steam_id":76561198031234032,"connected_time":4229000000000,"state":"active","ping":94},{"user_id":773,"name":"Domopon","steam_id":76561199080347686,"connected_time":5263000000000,"state":"active","ping":102},{"user_id":787,"name":"Mr defrost","steam_id":76561198322125657,"connected_time":3538000000000,"state":"active","ping":73},{"user_id":809,"name":"maiesiophile","steam_id":76561198889501613,"connected_time":927000000000,"state":"active","ping":42},{"user_id":803,"name":"mike, 2.4 GPA","steam_id":76561198225411004,"connected_time":1204000000000,"state":"active","ping":61},{"user_id":780,"name":"NEBULA","steam_id":76561198086878595,"connected_time":4242000000000,"state":"active","ping":92},{"user_id":589,"name":"The King of Piss World","steam_id":76561198082806956,"connected_time":19164000000000,"state":"active","ping":170},{"user_id":799,"name":"mega","steam_id":76561198089520959,"connected_time":1494000000000,"state":"active","ping":99},{"user_id":813,"name":"louise sneeze","steam_id":76561198062451648,"connected_time":175000000000,"state":"active","ping":90},{"user_id":808,"name":"8core","steam_id":76561198131163454,"connected_time":971000000000,"state":"active","ping":85},{"user_id":789,"name":"lox","steam_id":76561198288531493,"connected_time":3455000000000,"state":"active","ping":54},{"user_id":800,"name":"BlazedBunny","steam_id":76561198243610560,"connected_time":1480000000000,"state":"active","ping":74},{"user_id":790,"name":"Az","steam_id":76561198045643267,"connected_time":3357000000000,"state":"active","ping":120},{"user_id":784,"name":"roryisveryoutofit","steam_id":76561198065825165,"connected_time":4191000000000,"state":"active","ping":124},{"user_id":729,"name":"hi","steam_id":76561198345528370,"connected_time":10358000000000,"state":"active","ping":90},{"user_id":801,"name":"im mr ____hed look at me","steam_id":76561198051751133,"connected_time":1480000000000,"state":"active","ping":63},{"user_id":756,"name":"Ducks","steam_id":76561198130038345,"connected_time":6603000000000,"state":"active","ping":61}]},{"server_id":119,"name":"Uncletopia | Seattle | 2 | All Maps","name_short":"sea-2","host":"sea-1.us.uncletopia.com","port":27025,"enabled":true,"region":"us-west","cc":"us","latitude":47.608013,"longitude":-122.33517,"reserved":0,"last_update":"0001-01-01T00:00:00Z","name_a2s":"Uncletopia | Seattle | 2 | All Maps","protocol":17,"map":"pl_badwater","folder":"tf","game":"Team Fortress","app_id":440,"player_count":24,"max_players":24,"Bots":0,"server_type":"Dedicated","server_os":"Linux","password":true,"vac":true,"version":"7932396","steam_id":85568392924469998,"keywords":["nocrits","nodmgspread","payload","uncletopia"],"game_id":440,"stv_port":27026,"stv_name":"Uncletopia | Seattle | 2 | All Maps | STV","players":[{"user_id":618,"name":"tobrehto","steam_id":76561198097544038,"connected_time":792000000000,"state":"active","ping":88},{"user_id":627,"name":"thorn648","steam_id":76561198012565777,"connected_time":230000000000,"state":"active","ping":102},{"user_id":583,"name":"pup","steam_id":76561198206523304,"connected_time":3812000000000,"state":"active","ping":44},{"user_id":559,"name":"ibu","steam_id":76561197968084065,"connected_time":6034000000000,"state":"active","ping":59},{"user_id":608,"name":"`o2","steam_id":76561197992030936,"connected_time":1572000000000,"state":"active","ping":118},{"user_id":597,"name":"exephur","steam_id":76561198135763234,"connected_time":2566000000000,"state":"active","ping":61},{"user_id":624,"name":"ArchmageF","steam_id":76561197992246851,"connected_time":641000000000,"state":"active","ping":48},{"user_id":620,"name":"cringy","steam_id":76561198323000455,"connected_time":790000000000,"state":"active","ping":89},{"user_id":623,"name":"‚ô• Venti ‚ô• (Soupcan)","steam_id":76561198056269538,"connected_time":738000000000,"state":"active","ping":55},{"user_id":599,"name":"Spare(8)Ball","steam_id":76561197982432995,"connected_time":2410000000000,"state":"active","ping":102},{"user_id":626,"name":"NoobCesar","steam_id":76561198095250755,"connected_time":368000000000,"state":"active","ping":106},{"user_id":613,"name":"frick off law enforcement","steam_id":76561198255022731,"connected_time":1183000000000,"state":"active","ping":67},{"user_id":628,"name":"cock","steam_id":76561198092582864,"connected_time":191000000000,"state":"active","ping":53},{"user_id":622,"name":"Always Here for You","steam_id":76561198219252313,"connected_time":769000000000,"state":"active","ping":109},{"user_id":615,"name":"Funbearable  ï ‚Ä¢·¥•‚Ä¢ î","steam_id":76561197968272094,"connected_time":1157000000000,"state":"active","ping":47},{"user_id":595,"name":"2 Point Tom","steam_id":76561198087617008,"connected_time":2605000000000,"state":"active","ping":58},{"user_id":616,"name":"haikranok","steam_id":76561198084885479,"connected_time":1154000000000,"state":"active","ping":68},{"user_id":575,"name":"TurboTax Deluxe","steam_id":76561199054982784,"connected_time":4487000000000,"state":"active","ping":140},{"user_id":540,"name":"oo","steam_id":76561198119626492,"connected_time":6880000000000,"state":"active","ping":91},{"user_id":580,"name":"^_-","steam_id":76561198125261443,"connected_time":3921000000000,"state":"active","ping":69},{"user_id":610,"name":"Keth","steam_id":76561198155903648,"connected_time":1537000000000,"state":"active","ping":53},{"user_id":617,"name":"sillyjack","steam_id":76561198844273999,"connected_time":990000000000,"state":"active","ping":55},{"user_id":582,"name":"plague doctor","steam_id":76561198348387126,"connected_time":3913000000000,"state":"active","ping":78},{"user_id":586,"name":"hael","steam_id":76561198267673943,"connected_time":3524000000000,"state":"active","ping":120}]},{"server_id":406,"name":"Uncletopia | Seattle | 3 | Stopwatch Beta","name_short":"sea-3","host":"sea-1.us.uncletopia.com","port":27035,"enabled":true,"region":"us-west","cc":"us","latitude":47.608013,"longitude":-122.33517,"reserved":0,"last_update":"0001-01-01T00:00:00Z","name_a2s":"Uncletopia | Seattle | 3 | Stopwatch Beta","protocol":17,"map":"pl_borneo","folder":"tf","game":"Team Fortress","app_id":440,"player_count":0,"max_players":24,"Bots":0,"server_type":"Dedicated","server_os":"Linux","password":true,"vac":true,"version":"7932396","steam_id":85568392924515217,"keywords":["nocrits","nodmgspread","payload","uncletopia"],"game_id":440,"stv_port":27036,"stv_name":"Uncletopia | Seattle | 3 | Stopwatch Beta | STV","players":null},{"server_id":17,"name":"Uncletopia | San Francisco | 1 | All Maps","name_short":"sfo-1","host":"sfo-1.us.uncletopia.com","port":27015,"enabled":true,"region":"us-west","cc":"us","latitude":37.77397,"longitude":-122.4313,"reserved":0,"last_update":"0001-01-01T00:00:00Z","name_a2s":"Uncletopia | San Francisco | 1 | All Maps","protocol":17,"map":"pl_upward","folder":"tf","game":"Team Fortress","app_id":440,"player_count":0,"max_players":24,"Bots":0,"server_type":"Dedicated","server_os":"Linux","password":true,"vac":true,"version":"7932396","steam_id":85568392924469999,"keywords":["nocrits","nodmgspread","payload","uncletopia"],"game_id":440,"stv_port":27016,"stv_name":"Uncletopia | San Francisco | 1 | All Maps | STV","players":null},{"server_id":18,"name":"Uncletopia | San Francisco | 2 | All Maps","name_short":"sfo-2","host":"sfo-1.us.uncletopia.com","port":27025,"enabled":true,"region":"us-west","cc":"us","latitude":37.77397,"longitude":-122.4313,"reserved":0,"last_update":"0001-01-01T00:00:00Z","name_a2s":"Uncletopia | San Francisco | 2 | All Maps","protocol":17,"map":"pl_snowycoast","folder":"tf","game":"Team Fortress","app_id":440,"player_count":22,"max_players":24,"Bots":0,"server_type":"Dedicated","server_os":"Linux","password":true,"vac":true,"version":"7932396","steam_id":85568392924470000,"keywords":["nocrits","nodmgspread","payload","uncletopia"],"game_id":440,"stv_port":27026,"stv_name":"Uncletopia | San Francisco | 2 | All Maps | STV","players":[{"user_id":212,"name":"Gabe","steam_id":76561198081153719,"connected_time":2639000000000,"state":"active","ping":73},{"user_id":222,"name":"Toastered","steam_id":76561198178459042,"connected_time":1598000000000,"state":"active","ping":55},{"user_id":199,"name":"The Foolish Samurai","steam_id":76561198094494945,"connected_time":2927000000000,"state":"active","ping":79},{"user_id":228,"name":"Amogous Supreme","steam_id":76561198025476774,"connected_time":838000000000,"state":"active","ping":55},{"user_id":245,"name":"deep","steam_id":76561198021961551,"connected_time":60000000000,"state":"active","ping":60},{"user_id":214,"name":"The Worst Sniper","steam_id":76561198104086771,"connected_time":2544000000000,"state":"active","ping":48},{"user_id":230,"name":"Sasu","steam_id":76561198893447505,"connected_time":290000000000,"state":"active","ping":32},{"user_id":161,"name":"Moonlily","steam_id":76561198852670061,"connected_time":5319000000000,"state":"active","ping":78},{"user_id":231,"name":"Mushman","steam_id":76561198163936154,"connected_time":217000000000,"state":"active","ping":54},{"user_id":203,"name":"Red Pikmin","steam_id":76561198881800639,"connected_time":2823000000000,"state":"active","ping":63},{"user_id":216,"name":"Joe Nathan","steam_id":76561198041030399,"connected_time":2354000000000,"state":"active","ping":105},{"user_id":205,"name":"Fractured_Mango","steam_id":76561199013113268,"connected_time":2813000000000,"state":"active","ping":87},{"user_id":242,"name":"Malevolent Cheese","steam_id":76561198162768180,"connected_time":135000000000,"state":"spawning","ping":60},{"user_id":221,"name":"Janey","steam_id":76561198133645782,"connected_time":1750000000000,"state":"active","ping":55},{"user_id":243,"name":"Major_Pippy","steam_id":76561198004482878,"connected_time":133000000000,"state":"active","ping":55},{"user_id":112,"name":"riSygneD","steam_id":76561198331618687,"connected_time":8300000000000,"state":"active","ping":45},{"user_id":244,"name":"Big Boobs","steam_id":76561198401455467,"connected_time":123000000000,"state":"active","ping":58},{"user_id":206,"name":"Pez","steam_id":76561199197778137,"connected_time":2808000000000,"state":"active","ping":78},{"user_id":207,"name":"donutdagger","steam_id":76561199203048300,"connected_time":2806000000000,"state":"active","ping":67},{"user_id":246,"name":"trumpydumpy45","steam_id":76561198068299933,"connected_time":54000000000,"state":"active","ping":67},{"user_id":247,"name":"Mr. Baseball","steam_id":76561198112635823,"connected_time":44000000000,"state":"active","ping":67},{"user_id":248,"name":"Ryshy02","steam_id":76561198055425447,"connected_time":44000000000,"state":"spawning","ping":73}]},{"server_id":19,"name":"Uncletopia | San Francisco | 3 | Stopwatch Beta","name_short":"sfo-3","host":"sfo-1.us.uncletopia.com","port":27035,"enabled":true,"region":"us-west","cc":"us","latitude":37.77397,"longitude":-122.4313,"reserved":0,"last_update":"0001-01-01T00:00:00Z","name_a2s":"Uncletopia | San Francisco | 3 | Stopwatch Beta","protocol":17,"map":"workshop/koth_product_final.ugc454272353","folder":"tf","game":"Team Fortress","app_id":440,"player_count":0,"max_players":24,"Bots":0,"server_type":"Dedicated","server_os":"Linux","password":true,"vac":true,"version":"7932396","steam_id":85568392924742824,"keywords":["cp","nocrits","nodmgspread","uncletopia"],"game_id":440,"stv_port":27036,"stv_name":"Uncletopia | San Francisco | 3 | Stopwatch Beta | STV","players":null},{"server_id":20,"name":"Uncletopia | San Francisco | 4 | Community","name_short":"sfo-4","host":"sfo-1.us.uncletopia.com","port":27045,"enabled":true,"region":"us-west","cc":"us","latitude":37.77397,"longitude":-122.4313,"reserved":0,"last_update":"0001-01-01T00:00:00Z","name_a2s":"Uncletopia | San Francisco | 4 | Community","protocol":17,"map":"workshop/koth_kemptown_rc1.ugc767410655","folder":"tf","game":"Team Fortress","app_id":440,"player_count":6,"max_players":24,"Bots":0,"server_type":"Dedicated","server_os":"Linux","password":true,"vac":true,"version":"7932396","steam_id":85568392924742826,"keywords":["cp","nocrits","nodmgspread","uncletopia"],"game_id":440,"stv_port":27046,"stv_name":"Uncletopia | San Francisco | 4 | Community | STV","players":[{"user_id":15,"name":"AtomSQRRL","steam_id":76561199151951364,"connected_time":4321000000000,"state":"active","ping":44},{"user_id":16,"name":"Mapachito Lindo","steam_id":76561198031359995,"connected_time":4136000000000,"state":"active","ping":60},{"user_id":17,"name":"SolarusD","steam_id":76561198029279861,"connected_time":3968000000000,"state":"active","ping":45},{"user_id":18,"name":"Garbage Lord","steam_id":76561198022094928,"connected_time":3797000000000,"state":"active","ping":46},{"user_id":22,"name":"G.bo","steam_id":76561198085176270,"connected_time":2032000000000,"state":"active","ping":58},{"user_id":25,"name":"Lambchop","steam_id":76561198043900363,"connected_time":729000000000,"state":"active","ping":49}]},{"server_id":141,"name":"Uncletopia | Sydney | 1 | All Maps","name_short":"syd-1","host":"syd-1.au.uncletopia.com","port":27015,"enabled":true,"region":"au","cc":"au","latitude":-33.865143,"longitude":151.2099,"reserved":0,"last_update":"0001-01-01T00:00:00Z","name_a2s":"Uncletopia | Sydney | 1 | All Maps","protocol":17,"map":"pl_snowycoast","folder":"tf","game":"Team Fortress","app_id":440,"player_count":16,"max_players":24,"Bots":0,"server_type":"Dedicated","server_os":"Linux","password":true,"vac":true,"version":"7932396","steam_id":85568392924470001,"keywords":["nocrits","nodmgspread","payload","uncletopia"],"game_id":440,"stv_port":27016,"stv_name":"Uncletopia | Sydney | 1 | All Maps | STV","players":[{"user_id":23,"name":"Jeshƒ´","steam_id":76561198105982416,"connected_time":3188000000000,"state":"active","ping":46},{"user_id":20,"name":"Lace","steam_id":76561198290993506,"connected_time":3424000000000,"state":"active","ping":52},{"user_id":59,"name":"mada","steam_id":76561199436707447,"connected_time":64000000000,"state":"active","ping":46},{"user_id":25,"name":"TTV/Lachiebuzzx","steam_id":76561198161564938,"connected_time":2603000000000,"state":"active","ping":46},{"user_id":37,"name":"Pile of Sneed","steam_id":76561198143537391,"connected_time":1563000000000,"state":"active","ping":53},{"user_id":27,"name":"Hxddo","steam_id":76561198097069810,"connected_time":2529000000000,"state":"active","ping":54},{"user_id":56,"name":"Lain","steam_id":76561198149217307,"connected_time":116000000000,"state":"active","ping":90},{"user_id":46,"name":"wafflesandcoffee","steam_id":76561198141547517,"connected_time":782000000000,"state":"active","ping":62},{"user_id":33,"name":"SomeEpicDoge","steam_id":76561198859966868,"connected_time":1952000000000,"state":"active","ping":70},{"user_id":31,"name":"Zieria","steam_id":76561199261811388,"connected_time":2160000000000,"state":"active","ping":44},{"user_id":47,"name":"Critz Eastwood","steam_id":76561198050094688,"connected_time":755000000000,"state":"active","ping":59},{"user_id":53,"name":"tenten","steam_id":76561198402822072,"connected_time":322000000000,"state":"active","ping":92},{"user_id":38,"name":"Xenix","steam_id":76561198795888766,"connected_time":1452000000000,"state":"active","ping":58},{"user_id":54,"name":"BigLadBoyga","steam_id":76561198985263763,"connected_time":308000000000,"state":"active","ping":73},{"user_id":58,"name":"ibus","steam_id":76561199026701614,"connected_time":95000000000,"state":"active","ping":97},{"user_id":41,"name":"KTV","steam_id":76561198071977684,"connected_time":1261000000000,"state":"active","ping":58}]},{"server_id":123,"name":"Uncletopia | Sydney | 2 | All Maps","name_short":"syd-2","host":"syd-1.au.uncletopia.com","port":27025,"enabled":true,"region":"au","cc":"au","latitude":-33.865143,"longitude":151.2099,"reserved":0,"last_update":"0001-01-01T00:00:00Z","name_a2s":"Uncletopia | Sydney | 2 | All Maps","protocol":17,"map":"cp_mountainlab","folder":"tf","game":"Team Fortress","app_id":440,"player_count":0,"max_players":24,"Bots":0,"server_type":"Dedicated","server_os":"Linux","password":true,"vac":true,"version":"7932396","steam_id":85568392924470002,"keywords":["cp","nocrits","nodmgspread","uncletopia"],"game_id":440,"stv_port":27026,"stv_name":"Uncletopia | Sydney | 2 | All Maps | STV","players":null},{"server_id":395,"name":"Uncletopia | Sydney | 3 | All Maps","name_short":"syd-3","host":"syd-1.au.uncletopia.com","port":27035,"enabled":true,"region":"au","cc":"au","latitude":-33.865143,"longitude":151.2099,"reserved":0,"last_update":"0001-01-01T00:00:00Z","name_a2s":"Uncletopia | Sydney | 3 | All Maps","protocol":17,"map":"cp_mountainlab","folder":"tf","game":"Team Fortress","app_id":440,"player_count":0,"max_players":24,"Bots":0,"server_type":"Dedicated","server_os":"Linux","password":true,"vac":true,"version":"7932396","steam_id":85568392925194467,"keywords":["cp","nocrits","nodmgspread","uncletopia"],"game_id":440,"stv_port":27036,"stv_name":"Uncletopia | Sydney | 3 | All Maps | STV","players":null},{"server_id":396,"name":"Uncletopia | Sydney | 4 | All Maps","name_short":"syd-4","host":"syd-1.au.uncletopia.com","port":27045,"enabled":true,"region":"au","cc":"au","latitude":-33.865143,"longitude":151.2099,"reserved":0,"last_update":"0001-01-01T00:00:00Z","name_a2s":"Uncletopia | Sydney | 4 | All Maps","protocol":17,"map":"cp_sunshine","folder":"tf","game":"Team Fortress","app_id":440,"player_count":0,"max_players":24,"Bots":0,"server_type":"Dedicated","server_os":"Linux","password":true,"vac":true,"version":"7932396","steam_id":85568392925397958,"keywords":["cp","nocrits","nodmgspread","uncletopia"],"game_id":440,"stv_port":27046,"stv_name":"Uncletopia | Sydney | 4 | All Maps | STV","players":null},{"server_id":58,"name":"Uncletopia | Sydney | 5 | Stopwatch Beta","name_short":"syd-5","host":"syd-1.au.uncletopia.com","port":27055,"enabled":true,"region":"au","cc":"au","latitude":-33.865143,"longitude":151.2099,"reserved":0,"last_update":"0001-01-01T00:00:00Z","name_a2s":"Uncletopia | Sydney | 5 | Stopwatch Beta","protocol":17,"map":"pl_borneo","folder":"tf","game":"Team Fortress","app_id":440,"player_count":0,"max_players":24,"Bots":0,"server_type":"Dedicated","server_os":"Linux","password":true,"vac":true,"version":"7932396","steam_id":85568392925397959,"keywords":["nocrits","nodmgspread","payload","uncletopia"],"game_id":440,"stv_port":27056,"stv_name":"Uncletopia | Sydney | 5 | Stopwatch Beta | STV","players":null},{"server_id":59,"name":"Uncletopia | Sydney | 6 | Community","name_short":"syd-6","host":"syd-1.au.uncletopia.com","port":27065,"enabled":true,"region":"au","cc":"au","latitude":-33.865143,"longitude":151.2099,"reserved":0,"last_update":"0001-01-01T00:00:00Z","name_a2s":"Uncletopia | Sydney | 6 | Community","protocol":17,"map":"workshop/cp_glacier_rc6.ugc2905735376","folder":"tf","game":"Team Fortress","app_id":440,"player_count":0,"max_players":24,"Bots":0,"server_type":"Dedicated","server_os":"Linux","password":true,"vac":true,"version":"7932396","steam_id":85568392925397960,"keywords":["cp","nocrits","nodmgspread","uncletopia"],"game_id":440,"stv_port":27066,"stv_name":"Uncletopia | Sydney | 6 | Community | STV","players":null},{"server_id":49,"name":"Uncletopia | Warsaw | 1 | All Maps","name_short":"waw-1","host":"waw-1.pl.uncletopia.com","port":27015,"enabled":true,"region":"eu","cc":"pl","latitude":52.2297,"longitude":21.017532,"reserved":0,"last_update":"0001-01-01T00:00:00Z","name_a2s":"","protocol":0,"map":"","folder":"","game":"","app_id":0,"player_count":0,"max_players":0,"Bots":0,"server_type":"","server_os":"","password":false,"vac":false,"version":"","steam_id":0,"keywords":null,"game_id":0,"stv_port":0,"stv_name":"","players":null},{"server_id":50,"name":"Uncletopia | Warsaw | 2 | All Maps","name_short":"waw-2","host":"waw-1.pl.uncletopia.com","port":27025,"enabled":true,"region":"eu","cc":"pl","latitude":52.2297,"longitude":21.017532,"reserved":0,"last_update":"0001-01-01T00:00:00Z","name_a2s":"Uncletopia | Warsaw | 2 | All Maps","protocol":17,"map":"cp_sunshine","folder":"tf","game":"Team Fortress","app_id":440,"player_count":0,"max_players":24,"Bots":0,"server_type":"Dedicated","server_os":"Linux","password":true,"vac":true,"version":"7932396","steam_id":85568392925397851,"keywords":["cp","nocrits","nodmgspread","uncletopia"],"game_id":440,"stv_port":27026,"stv_name":"Uncletopia | Warsaw | 2 | All Maps | STV","players":null},{"server_id":51,"name":"Uncletopia | Warsaw | 3 | All Maps","name_short":"waw-3","host":"waw-1.pl.uncletopia.com","port":27035,"enabled":true,"region":"eu","cc":"pl","latitude":52.2297,"longitude":21.017532,"reserved":0,"last_update":"0001-01-01T00:00:00Z","name_a2s":"Uncletopia | Warsaw | 3 | All Maps","protocol":17,"map":"koth_lakeside_final","folder":"tf","game":"Team Fortress","app_id":440,"player_count":0,"max_players":24,"Bots":0,"server_type":"Dedicated","server_os":"Linux","password":true,"vac":true,"version":"7932396","steam_id":85568392925397852,"keywords":["cp","nocrits","nodmgspread","uncletopia"],"game_id":440,"stv_port":27036,"stv_name":"Uncletopia | Warsaw | 3 | All Maps | STV","players":null},{"server_id":52,"name":"Uncletopia | Warsaw | 4 | All Maps","name_short":"waw-4","host":"waw-1.pl.uncletopia.com","port":27045,"enabled":true,"region":"eu","cc":"pl","latitude":52.2297,"longitude":21.017532,"reserved":0,"last_update":"0001-01-01T00:00:00Z","name_a2s":"Uncletopia | Warsaw | 4 | All Maps","protocol":17,"map":"pl_swiftwater_final1","folder":"tf","game":"Team Fortress","app_id":440,"player_count":0,"max_players":24,"Bots":0,"server_type":"Dedicated","server_os":"Linux","password":true,"vac":true,"version":"7932396","steam_id":85568392925397853,"keywords":["nocrits","nodmgspread","payload","uncletopia"],"game_id":440,"stv_port":27046,"stv_name":"Uncletopia | Warsaw | 4 | All Maps | STV","players":null},{"server_id":53,"name":"Uncletopia | Warsaw | 5 | Stopwatch Beta","name_short":"waw-5","host":"waw-1.pl.uncletopia.com","port":27055,"enabled":true,"region":"eu","cc":"pl","latitude":52.2297,"longitude":21.017532,"reserved":0,"last_update":"0001-01-01T00:00:00Z","name_a2s":"Uncletopia | Warsaw | 5 | Stopwatch Beta","protocol":17,"map":"koth_highpass","folder":"tf","game":"Team Fortress","app_id":440,"player_count":0,"max_players":24,"Bots":0,"server_type":"Dedicated","server_os":"Linux","password":true,"vac":true,"version":"7932396","steam_id":85568392925397854,"keywords":["cp","nocrits","nodmgspread","uncletopia"],"game_id":440,"stv_port":27056,"stv_name":"Uncletopia | Warsaw | 5 | Stopwatch Beta | STV","players":null},{"server_id":54,"name":"Uncletopia | Warsaw | 6 | Community","name_short":"waw-6","host":"waw-1.pl.uncletopia.com","port":27065,"enabled":true,"region":"eu","cc":"pl","latitude":52.2297,"longitude":21.017532,"reserved":0,"last_update":"0001-01-01T00:00:00Z","name_a2s":"Uncletopia | Warsaw | 6 | Community","protocol":17,"map":"pl_upward","folder":"tf","game":"Team Fortress","app_id":440,"player_count":0,"max_players":24,"Bots":0,"server_type":"Dedicated","server_os":"Linux","password":true,"vac":true,"version":"7932396","steam_id":85568392925397856,"keywords":["nocrits","nodmgspread","payload","uncletopia"],"game_id":440,"stv_port":27066,"stv_name":"Uncletopia | Warsaw | 6 | Community | STV","players":null}]}