{"status":true,"message":"","result":[{"server_id":9,"name":"Uncletopia | Atlanta | 1 | All Maps","name_short":"atl-1","host":"atl-1.us.uncletopia.com","port":27015,"enabled":true,"region":"us-east","cc":"us","latitude":33.753746,"longitude":-84.38633,"reserved":0,"last_update":"0001-01-01T00:00:00Z","name_a2s":"Uncletopia | Atlanta | 1 | All Maps","protocol":17,"map":"pl_swiftwater_final1","folder":"tf","game":"Team Fortress","app_id":440,"player_count":19,"max_players":24,"Bots":0,"server_type":"Dedicated","server_os":"Linux","password":true,"vac":true,"version":"7961495","steam_id":85568392924469982,"keywords":["nocrits","nodmgspread","payload","uncletopia"],"game_id":440,"stv_port":27016,"stv_name":"Uncletopia | Atlanta | 1 | All Maps | STV","players":[{"user_id":52,"name":"lu","steam_id":76561198080731872,"connected_time":389000000000,"state":"active","ping":70},{"user_id":45,"name":"Kick Down Door 6:00AM TUCK☃RO","steam_id":76561197976146738,"connected_time":780000000000,"state":"active","ping":68},{"user_id":53,"name":"Nyle","steam_id":76561198045652639,"connected_time":371000000000,"state":"active","ping":116},{"user_id":58,"name":"The Horselords and Animal Gods","steam_id":76561197975094050,"connected_time":210000000000,"state":"active","ping":93},{"user_id":40,"name":"lil hog","steam_id":76561199230929836,"connected_time":1409000000000,"state":"active","ping":89},{"user_id":54,"name":"Moosey98","steam_id":76561198871877283,"connected_time":326000000000,"state":"active","ping":60},{"user_id":42,"name":"Mantis Toboggan","steam_id":76561197996309419,"connected_time":1276000000000,"state":"active","ping":45},{"user_id":44,"name":"I need to reach my friend!","steam_id":76561198982810452,"connected_time":981000000000,"state":"active","ping":78},{"user_id":46,"name":"ATL1 | LOFILE","steam_id":76561198083798918,"connected_time":747000000000,"state":"active","ping":53},{"user_id":47,"name":"Alpha","steam_id":76561199482290132,"connected_time":621000000000,"state":"active","ping":65},{"user_id":51,"name":"ATL1 | cola","steam_id":76561198374390458,"connected_time":426000000000,"state":"active","ping":60},{"user_id":49,"name":"QueueTea","steam_id":76561198095042882,"connected_time":589000000000,"state":"active","ping":74},{"user_id":50,"name":"Jesus Burgess","steam_id":76561199343316814,"connected_time":459000000000,"state":"active","ping":46},{"user_id":56,"name":"robes","steam_id":76561198350747953,"connected_time":258000000000,"state":"active","ping":75},{"user_id":57,"name":"MausWaffles","steam_id":76561198193160991,"connected_time":243000000000,"state":"active","ping":76},{"user_id":59,"name":"Super Mario 64 (1996)","steam_id":76561198849764285,"connected_time":125000000000,"state":"active","ping":70},{"user_id":60,"name":"SpyMann","steam_id":76561198242718980,"connected_time":124000000000,"state":"active","ping":86},{"user_id":61,"name":"Malarkey","steam_id":76561198844473584,"connected_time":108000000000,"state":"active","ping":39},{"user_id":64,"name":"Boxpipe","steam_id":76561197964501915,"connected_time":34000000000,"state":"active","ping":76}]},{"server_id":104,"name":"Uncletopia | Atlanta | 2 | All Maps","name_short":"atl-2","host":"atl-1.us.uncletopia.com","port":27025,"enabled":true,"region":"us-east","cc":"us","latitude":33.753746,"longitude":-84.38633,"reserved":0,"last_update":"0001-01-01T00:00:00Z","name_a2s":"Uncletopia | Atlanta | 2 | All Maps","protocol":17,"map":"koth_lakeside_final","folder":"tf","game":"Team Fortress","app_id":440,"player_count":0,"max_players":24,"Bots":0,"server_type":"Dedicated","server_os":"Linux","password":true,"vac":true,"version":"7961495","steam_id":85568392924469983,"keywords":["cp","nocrits","nodmgspread","uncletopia"],"game_id":440,"stv_port":27026,"stv_name":"Uncletopia | Atlanta | 2 | All Maps | STV","players":null},{"server_id":400,"name":"Uncletopia | Atlanta | 3 | Stopwatch","name_short":"atl-3","host":"atl-1.us.uncletopia.com","port":27035,"enabled":true,"region":"us-east","cc":"us","latitude":33.753746,"longitude":-84.38633,"reserved":0,"last_update":"0001-01-01T00:00:00Z","name_a2s":"Uncletopia | Atlanta | 3 | Stopwatch","protocol":17,"map":"workshop/cp_process_f12.ugc2302948105","folder":"tf","game":"Team Fortress","app_id":440,"player_count":24,"max_players":24,"Bots":0,"server_type":"Dedicated","server_os":"Linux","password":true,"vac":true,"version":"7961495","steam_id":85568392924515187,"keywords":["cp","nocrits","nodmgspread","uncletopia"],"game_id":440,"stv_port":27036,"stv_name":"Uncletopia | Atlanta | 3 | Stopwatch | STV","players":[{"user_id":62,"name":"SalsaDaddy","steam_id":76561198358869108,"connected_time":984000000000,"state":"active","ping":56},{"user_id":7,"name":"ice_fly","steam_id":76561198083790449,"connected_time":4053000000000,"state":"active","ping":75},{"user_id":63,"name":"Waff00","steam_id":76561198848377100,"connected_time":861000000000,"state":"active","ping":72},{"user_id":66,"name":"NOBODY","steam_id":76561198094578887,"connected_time":624000000000,"state":"active","ping":59},{"user_id":55,"name":"Coolant","steam_id":76561198353456379,"connected_time":1246000000000,"state":"active","ping":76},{"user_id":56,"name":"need a dispenser here","steam_id":76561198060912995,"connected_time":1239000000000,"state":"active","ping":82},{"user_id":16,"name":"Chypp","steam_id":76561198134090388,"connected_time":2800000000000,"state":"active","ping":60},{"user_id":37,"name":"trans rights","steam_id":76561198044183038,"connected_time":1788000000000,"state":"active","ping":55},{"user_id":61,"name":"Ivory","steam_id":76561198978827841,"connected_time":1052000000000,"state":"active","ping":59},{"user_id":71,"name":"rat","steam_id":76561198272622003,"connected_time":476000000000,"state":"active","ping":53},{"user_id":21,"name":"Timmy The Tyrant","steam_id":76561199156409732,"connected_time":2549000000000,"state":"active","ping":70},{"user_id":73,"name":"d=√(x₁ – x₂)² + (y₁","steam_id":76561199472976531,"connected_time":346000000000,"state":"active","ping":58},{"user_id":25,"name":"Luci★Fer","steam_id":76561199030343810,"connected_time":2355000000000,"state":"active","ping":47},{"user_id":68,"name":"Cwiishe","steam_id":76561199482943969,"connected_time":572000000000,"state":"active","ping":58},{"user_id":69,"name":"bing","steam_id":76561198121256356,"connected_time":570000000000,"state":"active","ping":61},{"user_id":77,"name":"lucyway","steam_id":76561199126374999,"connected_time":24000000000,"state":"active","ping":163},{"user_id":72,"name":"Punkin","steam_id":76561198334301755,"connected_time":457000000000,"state":"active","ping":50},{"user_id":43,"name":"roses","steam_id":76561198053931212,"connected_time":1642000000000,"state":"active","ping":75},{"user_id":54,"name":"Helmet Hands","steam_id":76561197961141994,"connected_time":1283000000000,"state":"active","ping":105},{"user_id":45,"name":"LoyalFGC","steam_id":76561198364004871,"connected_time":1608000000000,"state":"active","ping":60},{"user_id":47,"name":"MASTERPIECE","steam_id":76561198100942212,"connected_time":1586000000000,"state":"active","ping":60},{"user_id":51,"name":"ุ","steam_id":76561199064820765,"connected_time":1370000000000,"state":"active","ping":70},{"user_id":75,"name":"nik","steam_id":76561198062270123,"connected_time":202000000000,"state":"active","ping":71},{"user_id":53,"name":"Dr. Han","steam_id":76561198811130843,"connected_time":1362000000000,"state":"active","ping":91}]},{"server_id":401,"name":"Uncletopia | Atlanta | 4 | Community","name_short":"atl-4","host":"atl-1.us.uncletopia.com","port":27045,"enabled":true,"region":"us-east","cc":"us","latitude":33.753746,"longitude":-84.38633,"reserved":0,"last_update":"0001-01-01T00:00:00Z","name_a2s":"Uncletopia | Atlanta | 4 | Community","protocol":17,"map":"workshop/pl_vigil_rc10.ugc1266210012","folder":"tf","game":"Team Fortress","app_id":440,"player_count":0,"max_players":24,"Bots":0,"server_type":"Dedicated","server_os":"Linux","password":true,"vac":true,"version":"7961495","steam_id":85568392924515188,"keywords":["nocrits","nodmgspread","payload","uncletopia"],"game_id":440,"stv_port":27046,"stv_name":"Uncletopia | Atlanta | 4 | Community | STV","players":null},{"server_id":2,"name":"Uncletopia | Chicago | 1 | All Maps","name_short":"chi-1","host":"chi-1.us.uncletopia.com","port":27015,"enabled":true,"region":"us-central","cc":"us","latitude":41.881832,"longitude":-87.62318,"reserved":0,"last_update":"0001-01-01T00:00:00Z","name_a2s":"Uncletopia | Chicago | 1 | All Maps","protocol":17,"map":"cp_process_final","folder":"tf","game":"Team Fortress","app_id":440,"player_count":23,"max_players":24,"Bots":0,"server_type":"Dedicated","server_os":"Linux","password":true,"vac":true,"version":"7961495","steam_id":85568392924469984,"keywords":["cp","nocrits","nodmgspread","uncletopia"],"game_id":440,"stv_port":27016,"stv_name":"Uncletopia | Chicago | 1 | All Maps | STV","players":[{"user_id":160,"name":"chikin.sauce","steam_id":76561198042464635,"connected_time":4166000000000,"state":"active","ping":83},{"user_id":209,"name":"Jonathan","steam_id":76561199066653753,"connected_time":6000000000,"state":"spawning","ping":61},{"user_id":185,"name":"yomommasabitch","steam_id":76561198323217150,"connected_time":2003000000000,"state":"active","ping":61},{"user_id":186,"name":"BanditLORDOFSEXY","steam_id":76561198071037955,"connected_time":1976000000000,"state":"active","ping":58},{"user_id":191,"name":"zonc","steam_id":76561198322104962,"connected_time":1860000000000,"state":"active","ping":110},{"user_id":125,"name":"joyeuxnoelle","steam_id":76561198062423120,"connected_time":6738000000000,"state":"active","ping":50},{"user_id":202,"name":"leopardo123atl","steam_id":76561198872648238,"connected_time":651000000000,"state":"active","ping":92},{"user_id":170,"name":"indi","steam_id":76561198045917538,"connected_time":3562000000000,"state":"active","ping":58},{"user_id":178,"name":"MAJICBUCKET","steam_id":76561198825268471,"connected_time":2694000000000,"state":"active","ping":58},{"user_id":205,"name":"nana","steam_id":76561198214690269,"connected_time":430000000000,"state":"active","ping":64},{"user_id":204,"name":"Greyfox","steam_id":76561198075946572,"connected_time":481000000000,"state":"active","ping":132},{"user_id":195,"name":"subdromeda","steam_id":76561198884351860,"connected_time":1402000000000,"state":"active","ping":60},{"user_id":208,"name":"Eomy","steam_id":76561198297783627,"connected_time":204000000000,"state":"active","ping":64},{"user_id":190,"name":"↑Slimbro","steam_id":76561198088926489,"connected_time":1871000000000,"state":"active","ping":77},{"user_id":124,"name":"hearthian","steam_id":76561198113235260,"connected_time":6771000000000,"state":"active","ping":79},{"user_id":177,"name":"troll","steam_id":76561198082680563,"connected_time":2731000000000,"state":"active","ping":45},{"user_id":172,"name":"mopsyNYAA","steam_id":76561199044347663,"connected_time":3122000000000,"state":"active","ping":35},{"user_id":198,"name":"Ranger","steam_id":76561198064096654,"connected_time":1136000000000,"state":"active","ping":42},{"user_id":159,"name":"donatello ツ","steam_id":76561198091157081,"connected_time":4188000000000,"state":"active","ping":59},{"user_id":181,"name":"Hertz","steam_id":76561198310927351,"connected_time":2439000000000,"state":"active","ping":127},{"user_id":174,"name":"funny","steam_id":76561198034502018,"connected_time":3107000000000,"state":"active","ping":76},{"user_id":184,"name":"corbenis","steam_id":76561199012442511,"connected_time":2234000000000,"state":"active","ping":83},{"user_id":207,"name":"leumas","steam_id":76561198240408540,"connected_time":407000000000,"state":"active","ping":73}]},{"server_id":106,"name":"Uncletopia | Chicago | 2 | All Maps","name_short":"chi-2","host":"chi-1.us.uncletopia.com","port":27025,"enabled":true,"region":"us-central","cc":"us","latitude":41.881832,"longitude":-87.62318,"reserved":0,"last_update":"0001-01-01T00:00:00Z","name_a2s":"Uncletopia | Chicago | 2 | All Maps","protocol":17,"map":"pl_barnblitz","folder":"tf","game":"Team Fortress","app_id":440,"player_count":24,"max_players":24,"Bots":0,"server_type":"Dedicated","server_os":"Linux","password":true,"vac":true,"version":"7961495","steam_id":85568392924469985,"keywords":["nocrits","nodmgspread","payload","uncletopia"],"game_id":440,"stv_port":27026,"stv_name":"Uncletopia | Chicago | 2 | All Maps | STV","players":[{"user_id":256,"name":"MenacingMekhet","steam_id":76561198053165462,"connected_time":2687000000000,"state":"active","ping":61},{"user_id":277,"name":"FalconX","steam_id":76561198848947311,"connected_time":464000000000,"state":"active","ping":85},{"user_id":151,"name":"TheDeemguy64","steam_id":76561198852876387,"connected_time":10824000000000,"state":"active","ping":59},{"user_id":259,"name":"Nathan","steam_id":76561198127924646,"connected_time":1999000000000,"state":"active","ping":76},{"user_id":276,"name":"ItsAValencia","steam_id":76561199028413562,"connected_time":484000000000,"state":"active","ping":60},{"user_id":271,"name":"The Capn Fake Taxi","steam_id":76561198028236497,"connected_time":909000000000,"state":"active","ping":116},{"user_id":177,"name":"King","steam_id":76561198039763676,"connected_time":8206000000000,"state":"active","ping":62},{"user_id":221,"name":"Me when","steam_id":76561198826005248,"connected_time":4872000000000,"state":"active","ping":178},{"user_id":255,"name":"loot","steam_id":76561198069954956,"connected_time":2728000000000,"state":"active","ping":60},{"user_id":283,"name":"cheech","steam_id":76561198105391757,"connected_time":201000000000,"state":"active","ping":79},{"user_id":257,"name":"nested deep in the dirty dirty","steam_id":76561198142756572,"connected_time":2588000000000,"state":"active","ping":59},{"user_id":268,"name":"broomstick","steam_id":76561198302171600,"connected_time":1354000000000,"state":"active","ping":73},{"user_id":201,"name":"Raizen","steam_id":76561199092445367,"connected_time":6397000000000,"state":"active","ping":57},{"user_id":274,"name":"DeezNoodlez","steam_id":76561198246700372,"connected_time":563000000000,"state":"active","ping":74},{"user_id":254,"name":"estrogen burger (healthy dose)","steam_id":76561198249206656,"connected_time":2762000000000,"state":"active","ping":69},{"user_id":278,"name":"lorient","steam_id":76561198150831438,"connected_time":453000000000,"state":"active","ping":83},{"user_id":279,"name":"badmanting155","steam_id":76561198174026262,"connected_time":448000000000,"state":"active","ping":156},{"user_id":258,"name":"kirby7","steam_id":76561199167006749,"connected_time":2566000000000,"state":"active","ping":55},{"user_id":204,"name":"Chromatic Bliss","steam_id":76561198252604816,"connected_time":6346000000000,"state":"active","ping":64},{"user_id":280,"name":"otwtomarsoffdabars(spacecore)","steam_id":76561199085974120,"connected_time":442000000000,"state":"active","ping":75},{"user_id":282,"name":"mark!","steam_id":76561198184639801,"connected_time":252000000000,"state":"active","ping":94},{"user_id":281,"name":"Dragus","steam_id":76561198032967285,"connected_time":436000000000,"state":"active","ping":54},{"user_id":284,"name":"Order for Delivery","steam_id":76561198070850386,"connected_time":187000000000,"state":"active","ping":89},{"user_id":192,"name":"Brayniac","steam_id":76561198228096668,"connected_time":6870000000000,"state":"active","ping":74}]},{"server_id":402,"name":"Uncletopia | Chicago | 3 | All Maps","name_short":"chi-3","host":"chi-1.us.uncletopia.com","port":27035,"enabled":true,"region":"us-central","cc":"us","latitude":41.881832,"longitude":-87.62318,"reserved":0,"last_update":"0001-01-01T00:00:00Z","name_a2s":"Uncletopia | Chicago | 3 | All Maps","protocol":17,"map":"plr_pipeline","folder":"tf","game":"Team Fortress","app_id":440,"player_count":0,"max_players":24,"Bots":0,"server_type":"Dedicated","server_os":"Linux","password":true,"vac":true,"version":"7961495","steam_id":85568392924515191,"keywords":["nocrits","nodmgspread","payload","uncletopia"],"game_id":440,"stv_port":27036,"stv_name":"Uncletopia | Chicago | 3 | All Maps | STV","players":null},{"server_id":403,"name":"Uncletopia | Chicago | 4 | All Maps","name_short":"chi-4","host":"chi-1.us.uncletopia.com","port":27045,"enabled":true,"region":"us-central","cc":"us","latitude":41.881832,"longitude":-87.62318,"reserved":0,"last_update":"0001-01-01T00:00:00Z","name_a2s":"Uncletopia | Chicago | 4 | All Maps","protocol":17,"map":"pl_borneo","folder":"tf","game":"Team Fortress","app_id":440,"player_count":24,"max_players":24,"Bots":0,"server_type":"Dedicated","server_os":"Linux","password":true,"vac":true,"version":"7961495","steam_id":85568392924515193,"keywords":["nocrits","nodmgspread","payload","uncletopia"],"game_id":440,"stv_port":27046,"stv_name":"Uncletopia | Chicago | 4 | All Maps | STV","players":[{"user_id":150,"name":"vivian tf2","steam_id":76561198059229612,"connected_time":1857000000000,"state":"active","ping":54},{"user_id":166,"name":"Chai","steam_id":76561198044327873,"connected_time":320000000000,"state":"active","ping":55},{"user_id":156,"name":"Donkski","steam_id":76561198406895347,"connected_time":1021000000000,"state":"active","ping":67},{"user_id":49,"name":"Propaniac Gaming ☑","steam_id":76561198133963270,"connected_time":8002000000000,"state":"active","ping":63},{"user_id":158,"name":"mothwizard","steam_id":76561198847493072,"connected_time":988000000000,"state":"active","ping":85},{"user_id":140,"name":"mister slippery","steam_id":76561198057076267,"connected_time":2099000000000,"state":"active","ping":75},{"user_id":142,"name":"Remis","steam_id":76561198282267073,"connected_time":2086000000000,"state":"active","ping":73},{"user_id":167,"name":"bikerkid207","steam_id":76561198390782783,"connected_time":244000000000,"state":"active","ping":54},{"user_id":139,"name":"[MADTAS] The Madnetastrophe","steam_id":76561197995620232,"connected_time":2103000000000,"state":"active","ping":59},{"user_id":160,"name":"♡ Cursed ♡","steam_id":76561199161458959,"connected_time":971000000000,"state":"active","ping":80},{"user_id":136,"name":"Oopsie Daisy ❋","steam_id":76561198042144492,"connected_time":2343000000000,"state":"active","ping":60},{"user_id":161,"name":"what the freak","steam_id":76561198080754727,"connected_time":963000000000,"state":"active","ping":95},{"user_id":147,"name":"room temp IQ","steam_id":76561198018724712,"connected_time":2018000000000,"state":"active","ping":60},{"user_id":119,"name":"Rornir","steam_id":76561198081829615,"connected_time":3728000000000,"state":"active","ping":42},{"user_id":145,"name":"The Nikocado Enjoyer","steam_id":76561198263154374,"connected_time":2058000000000,"state":"active","ping":70},{"user_id":162,"name":"Pizza_is_Good","steam_id":76561199035982596,"connected_time":953000000000,"state":"active","ping":71},{"user_id":168,"name":"lcy13vv","steam_id":76561197995997446,"connected_time":242000000000,"state":"active","ping":49},{"user_id":125,"name":"Felicia Haymaker","steam_id":76561198084661861,"connected_time":3212000000000,"state":"active","ping":45},{"user_id":165,"name":"conscripted monk","steam_id":76561199029246232,"connected_time":676000000000,"state":"active","ping":77},{"user_id":164,"name":"slafflow","steam_id":76561199381012350,"connected_time":820000000000,"state":"active","ping":80},{"user_id":137,"name":"airy","steam_id":76561198174632198,"connected_time":2122000000000,"state":"active","ping":80},{"user_id":101,"name":"Season Leaf","steam_id":76561198133121805,"connected_time":5108000000000,"state":"active","ping":65},{"user_id":77,"name":"Beltalowda","steam_id":76561198106396044,"connected_time":6413000000000,"state":"active","ping":52},{"user_id":90,"name":"Xx_gam3rberg_xX","steam_id":76561199035781025,"connected_time":5547000000000,"state":"active","ping":82}]},{"server_id":36,"name":"Uncletopia | Chicago | 5 | All Maps","name_short":"chi-5","host":"chi-2.us.uncletopia.com","port":27015,"enabled":true,"region":"us-central","cc":"us","latitude":41.881832,"longitude":-87.62318,"reserved":0,"last_update":"0001-01-01T00:00:00Z","name_a2s":"Uncletopia | Chicago | 5 | All Maps","protocol":17,"map":"pl_borneo","folder":"tf","game":"Team Fortress","app_id":440,"player_count":0,"max_players":24,"Bots":0,"server_type":"Dedicated","server_os":"Linux","password":true,"vac":true,"version":"7961495","steam_id":85568392924866362,"keywords":["nocrits","nodmgspread","payload","uncletopia"],"game_id":440,"stv_port":27016,"stv_name":"Uncletopia | Chicago | 5 | All Maps | STV","players":null},{"server_id":37,"name":"Uncletopia | Chicago | 6 | All Maps","name_short":"chi-6","host":"chi-2.us.uncletopia.com","port":27025,"enabled":true,"region":"us-central","cc":"us","latitude":41.881832,"longitude":-87.62318,"reserved":0,"last_update":"0001-01-01T00:00:00Z","name_a2s":"Uncletopia | Chicago | 6 | All Maps","protocol":17,"map":"pl_frontier_final","folder":"tf","game":"Team Fortress","app_id":440,"player_count":0,"max_players":24,"Bots":0,"server_type":"Dedicated","server_os":"Linux","password":true,"vac":true,"version":"7961495","steam_id":85568392924866363,"keywords":["nocrits","nodmgspread","payload","uncletopia"],"game_id":440,"stv_port":27026,"stv_name":"Uncletopia | Chicago | 6 | All Maps | STV","players":null},{"server_id":38,"name":"Uncletopia | Chicago | 7 | Stopwatch","name_short":"chi-7","host":"chi-2.us.uncletopia.com","port":27035,"enabled":true,"region":"us-central","cc":"us","latitude":41.881832,"longitude":-87.62318,"reserved":0,"last_update":"0001-01-01T00:00:00Z","name_a2s":"Uncletopia | Chicago | 7 | Stopwatch","protocol":17,"map":"cp_snakewater_final1","folder":"tf","game":"Team Fortress","app_id":440,"player_count":0,"max_players":24,"Bots":0,"server_type":"Dedicated","server_os":"Linux","password":true,"vac":true,"version":"7961495","steam_id":85568392924866364,"keywords":["cp","nocrits","nodmgspread","uncletopia"],"game_id":440,"stv_port":27036,"stv_name":"Uncletopia | Chicago | 7 | Stopwatch | STV","players":null},{"server_id":39,"name":"Uncletopia | Chicago | 8 | Community","name_short":"chi-8","host":"chi-2.us.uncletopia.com","port":27045,"enabled":true,"region":"us-central","cc":"us","latitude":41.881832,"longitude":-87.62318,"reserved":0,"last_update":"0001-01-01T00:00:00Z","name_a2s":"Uncletopia | Chicago | 8 | Community","protocol":17,"map":"workshop/koth_slaughter_rc1.ugc1712845210","folder":"tf","game":"Team Fortress","app_id":440,"player_count":0,"max_players":24,"Bots":0,"server_type":"Dedicated","server_os":"Linux","password":true,"vac":true,"version":"7961495","steam_id":85568392924866365,"keywords":["cp","nocrits","nodmgspread","uncletopia"],"game_id":440,"stv_port":27046,"stv_name":"Uncletopia | Chicago | 8 | Community | STV","players":null},{"server_id":8,"name":"Uncletopia | Dallas | 1 | All Maps","name_short":"dal-1","host":"dal-1.us.uncletopia.com","port":27015,"enabled":true,"region":"us-central","cc":"us","latitude":32.779167,"longitude":-96.80889,"reserved":0,"last_update":"0001-01-01T00:00:00Z","name_a2s":"Uncletopia | Dallas | 1 | All Maps","protocol":17,"map":"ctf_2fort","folder":"tf","game":"Team Fortress","app_id":440,"player_count":20,"max_players":24,"Bots":0,"server_type":"Dedicated","server_os":"Linux","password":true,"vac":true,"version":"7961495","steam_id":85568392924469986,"keywords":["ctf","nocrits","nodmgspread","uncletopia"],"game_id":440,"stv_port":27016,"stv_name":"Uncletopia | Dallas | 1 | All Maps | STV","players":[{"user_id":260,"name":"Radio_Troll","steam_id":76561199223701309,"connected_time":168000000000,"state":"active","ping":67},{"user_id":252,"name":"Cassie","steam_id":76561198972619900,"connected_time":417000000000,"state":"active","ping":44},{"user_id":240,"name":"William Lovett","steam_id":76561197991063996,"connected_time":1337000000000,"state":"active","ping":86},{"user_id":236,"name":"Fecus Scruntle","steam_id":76561199489296949,"connected_time":1574000000000,"state":"active","ping":57},{"user_id":226,"name":"Rob","steam_id":76561199187786660,"connected_time":2532000000000,"state":"active","ping":38},{"user_id":256,"name":"Schwartzy","steam_id":76561198098576795,"connected_time":323000000000,"state":"active","ping":45},{"user_id":223,"name":"Killbasa","steam_id":76561198064868400,"connected_time":2582000000000,"state":"active","ping":77},{"user_id":259,"name":"Dabbledornk","steam_id":76561198065241300,"connected_time":180000000000,"state":"active","ping":74},{"user_id":216,"name":"Lee Surge (fishtank.live)","steam_id":76561198202272884,"connected_time":2728000000000,"state":"active","ping":76},{"user_id":262,"name":"BMoney","steam_id":76561198799389030,"connected_time":24000000000,"state":"active","ping":64},{"user_id":224,"name":"Aku+","steam_id":76561198813782795,"connected_time":2572000000000,"state":"active","ping":171},{"user_id":261,"name":"JustAnotherHuman","steam_id":76561199018122924,"connected_time":117000000000,"state":"active","ping":107},{"user_id":211,"name":"SgtMaj Soggy Titties","steam_id":76561198067732216,"connected_time":2991000000000,"state":"active","ping":63},{"user_id":227,"name":"Pim","steam_id":76561198046050375,"connected_time":2517000000000,"state":"active","ping":65},{"user_id":246,"name":"magnoly","steam_id":76561199228865188,"connected_time":962000000000,"state":"active","ping":44},{"user_id":241,"name":"yourcollectivemothers","steam_id":76561198875958142,"connected_time":1333000000000,"state":"active","ping":86},{"user_id":251,"name":"The Gremlin","steam_id":76561198419066993,"connected_time":549000000000,"state":"active","ping":103},{"user_id":206,"name":"Charlie","steam_id":76561198798127908,"connected_time":3279000000000,"state":"active","ping":81},{"user_id":207,"name":"Lord Theodore XIII","steam_id":76561198085842797,"connected_time":3276000000000,"state":"active","ping":59},{"user_id":214,"name":"Lazsathel","steam_id":76561198008743002,"connected_time":2880000000000,"state":"active","ping":166}]},{"server_id":108,"name":"Uncletopia | Dallas | 2 | All Maps","name_short":"dal-2","host":"dal-1.us.uncletopia.com","port":27025,"enabled":true,"region":"us-central","cc":"us","latitude":32.779167,"longitude":-96.80889,"reserved":0,"last_update":"0001-01-01T00:00:00Z","name_a2s":"Uncletopia | Dallas | 2 | All Maps","protocol":17,"map":"cp_sunshine","folder":"tf","game":"Team Fortress","app_id":440,"player_count":0,"max_players":24,"Bots":0,"server_type":"Dedicated","server_os":"Linux","password":true,"vac":true,"version":"7961495","steam_id":85568392924469988,"keywords":["cp","nocrits","nodmgspread","uncletopia"],"game_id":440,"stv_port":27026,"stv_name":"Uncletopia | Dallas | 2 | All Maps | STV","players":null},{"server_id":404,"name":"Uncletopia | Dallas | 3 | All Maps","name_short":"dal-3","host":"dal-1.us.uncletopia.com","port":27035,"enabled":true,"region":"us-central","cc":"us","latitude":32.779167,"longitude":-96.80889,"reserved":0,"last_update":"0001-01-01T00:00:00Z","name_a2s":"Uncletopia | Dallas | 3 | All Maps","protocol":17,"map":"cp_coldfront","folder":"tf","game":"Team Fortress","app_id":440,"player_count":0,"max_players":24,"Bots":0,"server_type":"Dedicated","server_os":"Linux","password":true,"vac":true,"version":"7961495","steam_id":85568392924515219,"keywords":["cp","nocrits","nodmgspread","uncletopia"],"game_id":440,"stv_port":27036,"stv_name":"Uncletopia | Dallas | 3 | All Maps | STV","players":null},{"server_id":405,"name":"Uncletopia | Dallas | 4 | Community","name_short":"dal-4","host":"dal-1.us.uncletopia.com","port":27045,"enabled":true,"region":"us-central","cc":"us","latitude":32.779167,"longitude":-96.80889,"reserved":0,"last_update":"0001-01-01T00:00:00Z","name_a2s":"Uncletopia | Dallas | 4 | Community","protocol":17,"map":"workshop/koth_synthetic_rc6a.ugc1549817316","folder":"tf","game":"Team Fortress","app_id":440,"player_count":0,"max_players":24,"Bots":0,"server_type":"Dedicated","server_os":"Linux","password":true,"vac":true,"version":"7961495","steam_id":85568392924515220,"keywords":["cp","nocrits","nodmgspread","uncletopia"],"game_id":440,"stv_port":27046,"stv_name":"Uncletopia | Dallas | 4 | Community | STV","players":null},{"server_id":5,"name":"Uncletopia | Frankfurt | 1 | All Maps","name_short":"frk-1","host":"frk-1.de.uncletopia.com","port":27015,"enabled":true,"region":"eu","cc":"de","latitude":50.110924,"longitude":8.682127,"reserved":0,"last_update":"0001-01-01T00:00:00Z","name_a2s":"Uncletopia | Frankfurt | 1 | All Maps","protocol":17,"map":"pl_frontier_final","folder":"tf","game":"Team Fortress","app_id":440,"player_count":18,"max_players":24,"Bots":0,"server_type":"Dedicated","server_os":"Linux","password":true,"vac":true,"version":"7961495","steam_id":85568392924469989,"keywords":["nocrits","nodmgspread","payload","uncletopia"],"game_id":440,"stv_port":27016,"stv_name":"Uncletopia | Frankfurt | 1 | All Maps | STV","players":[{"user_id":432,"name":"meow (they/them)","steam_id":76561198416657815,"connected_time":274000000000,"state":"active","ping":745},{"user_id":433,"name":"Mind Fuzz","steam_id":76561198050079428,"connected_time":241000000000,"state":"active","ping":70},{"user_id":437,"name":"JohnTraveltime","steam_id":76561199244281754,"connected_time":158000000000,"state":"active","ping":56},{"user_id":431,"name":"Anti-Capitalist Weapon","steam_id":76561198143526071,"connected_time":871000000000,"state":"active","ping":60},{"user_id":396,"name":"anabol1c steroids","steam_id":76561199470147761,"connected_time":3222000000000,"state":"active","ping":118},{"user_id":422,"name":"Cencut","steam_id":76561198989449047,"connected_time":1360000000000,"state":"active","ping":118},{"user_id":434,"name":"NEZ","steam_id":76561198320935413,"connected_time":227000000000,"state":"active","ping":101},{"user_id":435,"name":"Luuk","steam_id":76561198088266026,"connected_time":202000000000,"state":"active","ping":75},{"user_id":356,"name":"SeaKane","steam_id":76561198165453318,"connected_time":5374000000000,"state":"active","ping":55},{"user_id":439,"name":"Levis Saltator","steam_id":76561198035945247,"connected_time":66000000000,"state":"active","ping":90},{"user_id":438,"name":"Smoukup","steam_id":76561198156372330,"connected_time":157000000000,"state":"active","ping":56},{"user_id":440,"name":"I hate alien ruins I hate alien","steam_id":76561198173218318,"connected_time":0,"state":"spawning","ping":22},{"user_id":420,"name":"Haha?","steam_id":76561198056882245,"connected_time":1460000000000,"state":"active","ping":55},{"user_id":429,"name":"Spooni_Boi","steam_id":76561198308140374,"connected_time":1085000000000,"state":"active","ping":133},{"user_id":388,"name":"Owlet","steam_id":76561198065613974,"connected_time":3684000000000,"state":"active","ping":76},{"user_id":402,"name":"Neon","steam_id":76561198069049007,"connected_time":3016000000000,"state":"active","ping":120},{"user_id":403,"name":"SirVitek","steam_id":76561198142961758,"connected_time":3013000000000,"state":"active","ping":51},{"user_id":314,"name":"Gordon Birdman","steam_id":76561198013382324,"connected_time":7993000000000,"state":"active","ping":67}]},{"server_id":110,"name":"Uncletopia | Frankfurt | 2 | All Maps","name_short":"frk-2","host":"frk-1.de.uncletopia.com","port":27025,"enabled":true,"region":"eu","cc":"de","latitude":50.110924,"longitude":8.682127,"reserved":0,"last_update":"0001-01-01T00:00:00Z","name_a2s":"Uncletopia | Frankfurt | 2 | All Maps","protocol":17,"map":"plr_hightower","folder":"tf","game":"Team Fortress","app_id":440,"player_count":23,"max_players":24,"Bots":0,"server_type":"Dedicated","server_os":"Linux","password":true,"vac":true,"version":"7961495","steam_id":85568392924469990,"keywords":["nocrits","nodmgspread","payload","uncletopia"],"game_id":440,"stv_port":27026,"stv_name":"Uncletopia | Frankfurt | 2 | All Maps | STV","players":[{"user_id":447,"name":"MercuryPlate","steam_id":76561199154144220,"connected_time":1600000000000,"state":"active","ping":133},{"user_id":449,"name":"LOBZIK","steam_id":76561198114830120,"connected_time":1503000000000,"state":"active","ping":77},{"user_id":465,"name":"Anus01","steam_id":76561198101884780,"connected_time":312000000000,"state":"active","ping":60},{"user_id":463,"name":"Fatmagic Mukbang ASMR","steam_id":76561198063492110,"connected_time":597000000000,"state":"active","ping":74},{"user_id":406,"name":"maxxysishere","steam_id":76561199010652710,"connected_time":3788000000000,"state":"active","ping":68},{"user_id":421,"name":"Mitrixie","steam_id":76561198842023498,"connected_time":3280000000000,"state":"active","ping":75},{"user_id":424,"name":"Armand #NEWTF2Hunt","steam_id":76561198236126774,"connected_time":2840000000000,"state":"active","ping":57},{"user_id":464,"name":"lucabargagli","steam_id":76561199353783858,"connected_time":517000000000,"state":"active","ping":46},{"user_id":360,"name":"Arthur rail","steam_id":76561199187229518,"connected_time":6117000000000,"state":"active","ping":79},{"user_id":425,"name":"Delting","steam_id":76561198221808192,"connected_time":2830000000000,"state":"active","ping":75},{"user_id":458,"name":"KiteNock","steam_id":76561198160622922,"connected_time":865000000000,"state":"active","ping":66},{"user_id":469,"name":"Flying skyhigh","steam_id":76561198372971096,"connected_time":113000000000,"state":"active","ping":75},{"user_id":460,"name":"FWDTRKR","steam_id":76561198060369427,"connected_time":814000000000,"state":"active","ping":179},{"user_id":427,"name":"Keke","steam_id":76561199052783561,"connected_time":2791000000000,"state":"active","ping":83},{"user_id":417,"name":"tiamat","steam_id":76561198116027948,"connected_time":3447000000000,"state":"active","ping":77},{"user_id":468,"name":"gagalak","steam_id":76561198089979108,"connected_time":205000000000,"state":"active","ping":121},{"user_id":455,"name":"[Thrall891]","steam_id":76561198136402128,"connected_time":1077000000000,"state":"active","ping":67},{"user_id":462,"name":"Wandering Thyme","steam_id":76561198289245081,"connected_time":603000000000,"state":"active","ping":57},{"user_id":453,"name":"dongy","steam_id":76561198050319619,"connected_time":1389000000000,"state":"active","ping":43},{"user_id":466,"name":"⅒","steam_id":76561199079879112,"connected_time":283000000000,"state":"active","ping":78},{"user_id":385,"name":"021984","steam_id":76561198417999443,"connected_time":5389000000000,"state":"active","ping":100},{"user_id":434,"name":"dog?","steam_id":76561199232839385,"connected_time":2278000000000,"state":"active","ping":92},{"user_id":384,"name":"Alexandr","steam_id":76561198415594381,"connected_time":5523000000000,"state":"active","ping":48}]},{"server_id":308,"name":"Uncletopia | Frankfurt | 3 | All Maps","name_short":"frk-3","host":"frk-1.de.uncletopia.com","port":27035,"enabled":true,"region":"eu","cc":"de","latitude":50.110924,"longitude":8.682127,"reserved":0,"last_update":"0001-01-01T00:00:00Z","name_a2s":"Uncletopia | Frankfurt | 3 | All Maps","protocol":17,"map":"koth_lakeside_final","folder":"tf","game":"Team Fortress","app_id":440,"player_count":0,"max_players":24,"Bots":0,"server_type":"Dedicated","server_os":"Linux","password":true,"vac":true,"version":"7961495","steam_id":85568392924504274,"keywords":["cp","nocrits","nodmgspread","uncletopia"],"game_id":440,"stv_port":27036,"stv_name":"Uncletopia | Frankfurt | 3 | All Maps | STV","players":null},{"server_id":309,"name":"Uncletopia | Frankfurt | 4 | All Maps","name_short":"frk-4","host":"frk-1.de.uncletopia.com","port":27045,"enabled":true,"region":"eu","cc":"de","latitude":50.110924,"longitude":8.682127,"reserved":0,"last_update":"0001-01-01T00:00:00Z","name_a2s":"Uncletopia | Frankfurt | 4 | All Maps","protocol":17,"map":"pl_upward","folder":"tf","game":"Team Fortress","app_id":440,"player_count":24,"max_players":24,"Bots":0,"server_type":"Dedicated","server_os":"Linux","password":true,"vac":true,"version":"7961495","steam_id":85568392924504275,"keywords":["nocrits","nodmgspread","payload","uncletopia"],"game_id":440,"stv_port":27046,"stv_name":"Uncletopia | Frankfurt | 4 | All Maps | STV","players":[{"user_id":279,"name":"Wattseyy","steam_id":76561198248567360,"connected_time":102000000000,"state":"active","ping":52},{"user_id":267,"name":"bella","steam_id":76561198367634211,"connected_time":779000000000,"state":"active","ping":68},{"user_id":261,"name":"METhOphetamine","steam_id":76561198068216224,"connected_time":1098000000000,"state":"active","ping":60},{"user_id":268,"name":"Jimmy","steam_id":76561198366025417,"connected_time":757000000000,"state":"active","ping":120},{"user_id":269,"name":"DarkMelody","steam_id":76561198063225937,"connected_time":712000000000,"state":"active","ping":122},{"user_id":280,"name":"botan_krutan","steam_id":76561199130127786,"connected_time":73000000000,"state":"active","ping":63},{"user_id":178,"name":"lion.mesi4","steam_id":76561198890409949,"connected_time":5790000000000,"state":"active","ping":88},{"user_id":258,"name":"john fortress","steam_id":76561198013237629,"connected_time":1118000000000,"state":"active","ping":104},{"user_id":281,"name":"install gentoo","steam_id":76561198185257982,"connected_time":64000000000,"state":"active","ping":68},{"user_id":270,"name":"Iris","steam_id":76561198430295815,"connected_time":684000000000,"state":"active","ping":61},{"user_id":278,"name":"Wietrzu","steam_id":76561198315754550,"connected_time":289000000000,"state":"active","ping":53},{"user_id":240,"name":"Balling","steam_id":76561198240320806,"connected_time":1785000000000,"state":"active","ping":72},{"user_id":265,"name":"öööö✪","steam_id":76561198181645822,"connected_time":992000000000,"state":"active","ping":75},{"user_id":272,"name":"alfus","steam_id":76561198071003109,"connected_time":670000000000,"state":"active","ping":57},{"user_id":276,"name":"HayLeX","steam_id":76561198130997343,"connected_time":520000000000,"state":"active","ping":78},{"user_id":277,"name":"sin","steam_id":76561198193416785,"connected_time":495000000000,"state":"active","ping":83},{"user_id":273,"name":"G_raff","steam_id":76561199048512726,"connected_time":660000000000,"state":"active","ping":75},{"user_id":223,"name":"ԅ(≖‿≖ԅ)","steam_id":76561198098994507,"connected_time":2741000000000,"state":"active","ping":60},{"user_id":275,"name":"REal Clark","steam_id":76561198015054084,"connected_time":572000000000,"state":"active","ping":63},{"user_id":235,"name":"Lord of the Ping","steam_id":76561198019648669,"connected_time":2029000000000,"state":"active","ping":60},{"user_id":237,"name":"Skyrider of Spaceways","steam_id":76561197991678236,"connected_time":1864000000000,"state":"active","ping":127},{"user_id":256,"name":"NALA","steam_id":76561198039806469,"connected_time":1205000000000,"state":"active","ping":73},{"user_id":264,"name":"Heavy Duty","steam_id":76561198219594541,"connected_time":1029000000000,"state":"active","ping":101},{"user_id":266,"name":"nanc","steam_id":76561198823042579,"connected_time":852000000000,"state":"active","ping":117}]},{"server_id":310,"name":"Uncletopia | Frankfurt | 5 | All Maps","name_short":"frk-5","host":"frk-1.de.uncletopia.com","port":27055,"enabled":true,"region":"eu","cc":"de","latitude":50.110924,"longitude":8.682127,"reserved":0,"last_update":"0001-01-01T00:00:00Z","name_a2s":"Uncletopia | Frankfurt | 5 | All Maps","protocol":17,"map":"pl_pier","folder":"tf","game":"Team Fortress","app_id":440,"player_count":24,"max_players":24,"Bots":0,"server_type":"Dedicated","server_os":"Linux","password":true,"vac":true,"version":"7961495","steam_id":85568392924504277,"keywords":["nocrits","nodmgspread","payload","uncletopia"],"game_id":440,"stv_port":27056,"stv_name":"Uncletopia | Frankfurt | 5 | All Maps | STV","players":[{"user_id":290,"name":"trans werewolf (it/its)","steam_id":76561198107235989,"connected_time":2000000000,"state":"spawning","ping":39},{"user_id":277,"name":"boykisser","steam_id":76561198452372965,"connected_time":610000000000,"state":"active","ping":59},{"user_id":265,"name":"syms","steam_id":76561198066679812,"connected_time":1391000000000,"state":"active","ping":61},{"user_id":243,"name":"Durin sein Vater","steam_id":76561198021246713,"connected_time":2446000000000,"state":"active","ping":41},{"user_id":276,"name":"Bonjour","steam_id":76561198186063665,"connected_time":701000000000,"state":"active","ping":65},{"user_id":250,"name":"KALACH","steam_id":76561198028664460,"connected_time":2298000000000,"state":"active","ping":103},{"user_id":264,"name":"AleXandriX","steam_id":76561198035203950,"connected_time":1415000000000,"state":"active","ping":49},{"user_id":221,"name":"AsianPersuasion","steam_id":76561198202112536,"connected_time":3103000000000,"state":"active","ping":65},{"user_id":274,"name":"Kriofty","steam_id":76561198811696536,"connected_time":1142000000000,"state":"active","ping":77},{"user_id":288,"name":"TekuSP","steam_id":76561198072367754,"connected_time":305000000000,"state":"active","ping":45},{"user_id":282,"name":"Mr. Hunts","steam_id":76561197981910397,"connected_time":506000000000,"state":"active","ping":72},{"user_id":286,"name":"veki","steam_id":76561199059047474,"connected_time":401000000000,"state":"active","ping":58},{"user_id":289,"name":"finbar","steam_id":76561198056812396,"connected_time":48000000000,"state":"spawning","ping":96},{"user_id":287,"name":"dafydd","steam_id":76561198052200325,"connected_time":365000000000,"state":"active","ping":75},{"user_id":229,"name":"Sunduchek","steam_id":76561198067934157,"connected_time":2866000000000,"state":"active","ping":120},{"user_id":268,"name":"H-say","steam_id":76561198177400362,"connected_time":1382000000000,"state":"active","ping":67},{"user_id":283,"name":"medicinal man","steam_id":76561198202668788,"connected_time":504000000000,"state":"active","ping":62},{"user_id":245,"name":"old man oberon","steam_id":76561198355291251,"connected_time":2436000000000,"state":"active","ping":93},{"user_id":291,"name":"Villdjack","steam_id":76561197999480096,"connected_time":0,"state":"spawning","ping":15},{"user_id":232,"name":"tr4ce","steam_id":76561198085296732,"connected_time":2835000000000,"state":"active","ping":53},{"user_id":263,"name":"cazador","steam_id":76561198123096922,"connected_time":1421000000000,"state":"active","ping":148},{"user_id":269,"name":"Wild_Xray26","steam_id":76561198059386050,"connected_time":1382000000000,"state":"active","ping":74},{"user_id":285,"name":"Gugu gaga","steam_id":76561198161822358,"connected_time":443000000000,"state":"active","ping":60},{"user_id":270,"name":"kurd","steam_id":76561198116530769,"connected_time":1381000000000,"state":"active","ping":85}]},{"server_id":311,"name":"Uncletopia | Frankfurt | 6 | All Maps","name_short":"frk-6","host":"frk-1.de.uncletopia.com","port":27065,"enabled":true,"region":"eu","cc":"de","latitude":50.110924,"longitude":8.682127,"reserved":0,"last_update":"0001-01-01T00:00:00Z","name_a2s":"Uncletopia | Frankfurt | 6 | All Maps","protocol":17,"map":"pl_borneo","folder":"tf","game":"Team Fortress","app_id":440,"player_count":24,"max_players":24,"Bots":0,"server_type":"Dedicated","server_os":"Linux","password":true,"vac":true,"version":"7961495","steam_id":85568392924504278,"keywords":["nocrits","nodmgspread","payload","uncletopia"],"game_id":440,"stv_port":27066,"stv_name":"Uncletopia | Frankfurt | 6 | All Maps | STV","players":[{"user_id":354,"name":"ata","steam_id":76561199017885132,"connected_time":592000000000,"state":"active","ping":62},{"user_id":342,"name":"Adamkarz","steam_id":76561198796428403,"connected_time":826000000000,"state":"active","ping":84},{"user_id":295,"name":"pavel_mkd","steam_id":76561199088118112,"connected_time":2975000000000,"state":"active","ping":67},{"user_id":343,"name":"Enjoyer","steam_id":76561198147399855,"connected_time":820000000000,"state":"active","ping":115},{"user_id":297,"name":"Ixsus\u003c3","steam_id":76561198094756869,"connected_time":2912000000000,"state":"active","ping":61},{"user_id":298,"name":"Tekor","steam_id":76561198088542862,"connected_time":2878000000000,"state":"active","ping":60},{"user_id":357,"name":"Dolcelatte","steam_id":76561198038501770,"connected_time":388000000000,"state":"active","ping":58},{"user_id":340,"name":"Glitchas","steam_id":76561198883610618,"connected_time":894000000000,"state":"active","ping":84},{"user_id":355,"name":"JepCabestany","steam_id":76561198123812578,"connected_time":574000000000,"state":"active","ping":83},{"user_id":356,"name":"The Rizzler","steam_id":76561198195159941,"connected_time":530000000000,"state":"active","ping":48},{"user_id":329,"name":"Nicreven | #SAVETF2","steam_id":76561198381515455,"connected_time":1843000000000,"state":"active","ping":84},{"user_id":344,"name":"Destinys","steam_id":76561198056132894,"connected_time":818000000000,"state":"active","ping":50},{"user_id":350,"name":"yumyum","steam_id":76561198049405872,"connected_time":687000000000,"state":"active","ping":41},{"user_id":348,"name":"Imperial City Guard","steam_id":76561198083355845,"connected_time":744000000000,"state":"active","ping":85},{"user_id":358,"name":"Saint","steam_id":76561198003296382,"connected_time":100000000000,"state":"active","ping":64},{"user_id":316,"name":"TotallyRealRunarTvålfager™","steam_id":76561198018228013,"connected_time":2110000000000,"state":"active","ping":60},{"user_id":326,"name":"Waffel","steam_id":76561198113552009,"connected_time":1884000000000,"state":"active","ping":100},{"user_id":311,"name":"ilwes","steam_id":76561198438137570,"connected_time":2282000000000,"state":"active","ping":68},{"user_id":346,"name":"Packet","steam_id":76561199173195875,"connected_time":797000000000,"state":"active","ping":86},{"user_id":337,"name":"meirfa","steam_id":76561198157193506,"connected_time":1150000000000,"state":"active","ping":115},{"user_id":352,"name":"Tre3","steam_id":76561198054795379,"connected_time":610000000000,"state":"active","ping":50},{"user_id":341,"name":"AfroCookie","steam_id":76561198138362851,"connected_time":890000000000,"state":"active","ping":58},{"user_id":334,"name":"Burnout6010","steam_id":76561198029867543,"connected_time":1402000000000,"state":"active","ping":67},{"user_id":347,"name":"Altiross","steam_id":76561198091593317,"connected_time":784000000000,"state":"active","ping":60}]},{"server_id":23,"name":"Uncletopia | Frankfurt | 7 | Stopwatch","name_short":"frk-7","host":"frk-1.de.uncletopia.com","port":27075,"enabled":true,"region":"eu","cc":"de","latitude":50.110924,"longitude":8.682127,"reserved":0,"last_update":"0001-01-01T00:00:00Z","name_a2s":"Uncletopia | Frankfurt | 7 | Stopwatch","protocol":17,"map":"cp_process_final","folder":"tf","game":"Team Fortress","app_id":440,"player_count":20,"max_players":24,"Bots":0,"server_type":"Dedicated","server_os":"Linux","password":true,"vac":true,"version":"7961495","steam_id":85568392924742827,"keywords":["cp","nocrits","nodmgspread","uncletopia"],"game_id":440,"stv_port":27076,"stv_name":"Uncletopia | Frankfurt | 7 | Stopwatch | STV","players":[{"user_id":35,"name":"Errordood","steam_id":76561198263263692,"connected_time":4361000000000,"state":"active","ping":65},{"user_id":87,"name":"ash","steam_id":76561198004728744,"connected_time":858000000000,"state":"active","ping":55},{"user_id":100,"name":"GrosFumiste","steam_id":76561198850134909,"connected_time":79000000000,"state":"active","ping":54},{"user_id":45,"name":"Alyx","steam_id":76561198064654326,"connected_time":3331000000000,"state":"active","ping":63},{"user_id":99,"name":"Lenupera**","steam_id":76561198172960435,"connected_time":145000000000,"state":"active","ping":89},{"user_id":97,"name":"AMDBlackblast","steam_id":76561198282983141,"connected_time":224000000000,"state":"active","ping":120},{"user_id":38,"name":"lesbian jumpscare","steam_id":76561198864161505,"connected_time":4068000000000,"state":"active","ping":79},{"user_id":86,"name":"dfcv rftgvb ghtb","steam_id":76561198397764042,"connected_time":879000000000,"state":"active","ping":75},{"user_id":83,"name":"WaltuhWhait","steam_id":76561199275868360,"connected_time":1267000000000,"state":"active","ping":234},{"user_id":101,"name":"avivuzan10","steam_id":76561198319155844,"connected_time":59000000000,"state":"active","ping":106},{"user_id":70,"name":"The Bamboozler","steam_id":76561199286764992,"connected_time":1991000000000,"state":"active","ping":74},{"user_id":80,"name":"JC","steam_id":76561198029213352,"connected_time":1737000000000,"state":"active","ping":50},{"user_id":72,"name":"BIG Dave Gaming","steam_id":76561199170843929,"connected_time":1922000000000,"state":"active","ping":60},{"user_id":52,"name":"Estyle","steam_id":76561198157804700,"connected_time":2730000000000,"state":"active","ping":138},{"user_id":53,"name":"Turek","steam_id":76561198280066503,"connected_time":2690000000000,"state":"active","ping":73},{"user_id":84,"name":"zek","steam_id":76561198862763731,"connected_time":1225000000000,"state":"active","ping":59},{"user_id":95,"name":"PerskuleBenener","steam_id":76561198156899375,"connected_time":363000000000,"state":"active","ping":75},{"user_id":93,"name":"silicon based life form","steam_id":76561199127121346,"connected_time":457000000000,"state":"active","ping":53},{"user_id":76,"name":"Real (Real)","steam_id":76561198323425034,"connected_time":1901000000000,"state":"active","ping":70},{"user_id":96,"name":"Tough Comrade","steam_id":76561198095494717,"connected_time":279000000000,"state":"active","ping":36}]},{"server_id":24,"name":"Uncletopia | Frankfurt | 8 | Community","name_short":"frk-8","host":"frk-1.de.uncletopia.com","port":27085,"enabled":true,"region":"eu","cc":"de","latitude":50.110924,"longitude":8.682127,"reserved":0,"last_update":"0001-01-01T00:00:00Z","name_a2s":"Uncletopia | Frankfurt | 8 | Community","protocol":17,"map":"workshop/koth_slaughter_rc1.ugc1712845210","folder":"tf","game":"Team Fortress","app_id":440,"player_count":0,"max_players":24,"Bots":0,"server_type":"Dedicated","server_os":"Linux","password":true,"vac":true,"version":"7961495","steam_id":85568392924742828,"keywords":["cp","nocrits","nodmgspread","uncletopia"],"game_id":440,"stv_port":27086,"stv_name":"Uncletopia | Frankfurt | 8 | Community | STV","players":null},{"server_id":202,"name":"Uncletopia | Hong Kong | 1 | All Maps","name_short":"hgk-1","host":"hgk-1.hk.uncletopia.com","port":27015,"enabled":true,"region":"asia","cc":"hk","latitude":22.302711,"longitude":114.177216,"reserved":0,"last_update":"0001-01-01T00:00:00Z","name_a2s":"Uncletopia | Hong Kong | 1 | All Maps","protocol":17,"map":"pl_borneo","folder":"tf","game":"Team Fortress","app_id":440,"player_count":12,"max_players":24,"Bots":0,"server_type":"Dedicated","server_os":"Linux","password":true,"vac":true,"version":"7961495","steam_id":85568392924494504,"keywords":["nocrits","nodmgspread","payload","uncletopia"],"game_id":440,"stv_port":27016,"stv_name":"Uncletopia | Hong Kong | 1 | All Maps | STV","players":[{"user_id":378,"name":"母の肉団子@hao123.com","steam_id":76561198069561896,"connected_time":628000000000,"state":"active","ping":43},{"user_id":353,"name":"killman47","steam_id":76561198348487408,"connected_time":3413000000000,"state":"active","ping":39},{"user_id":352,"name":"StewBツ","steam_id":76561198131423270,"connected_time":3539000000000,"state":"active","ping":89},{"user_id":379,"name":"MananakLagsAlot","steam_id":76561198831227216,"connected_time":513000000000,"state":"active","ping":93},{"user_id":377,"name":"steame17","steam_id":76561199387872784,"connected_time":831000000000,"state":"active","ping":106},{"user_id":362,"name":"toad♡","steam_id":76561198082199290,"connected_time":2286000000000,"state":"active","ping":38},{"user_id":373,"name":"beegy yoshi","steam_id":76561199221182683,"connected_time":1355000000000,"state":"active","ping":123},{"user_id":360,"name":"Tort","steam_id":76561198219140887,"connected_time":2901000000000,"state":"active","ping":56},{"user_id":356,"name":"GAMA","steam_id":76561198049755630,"connected_time":3370000000000,"state":"active","ping":102},{"user_id":375,"name":"yunu","steam_id":76561198054664805,"connected_time":1307000000000,"state":"active","ping":75},{"user_id":376,"name":"bingm1939","steam_id":76561199497235304,"connected_time":1182000000000,"state":"active","ping":61},{"user_id":136,"name":"Impetus","steam_id":76561198213031155,"connected_time":25106000000000,"state":"active","ping":101}]},{"server_id":1,"name":"Uncletopia | Los Angeles | 1 | All Maps","name_short":"lax-1","host":"lax-1.us.uncletopia.com","port":27015,"enabled":true,"region":"us-west","cc":"us","latitude":33.94279,"longitude":-118.41004,"reserved":0,"last_update":"0001-01-01T00:00:00Z","name_a2s":"Uncletopia | Los Angeles | 1 | All Maps","protocol":17,"map":"cp_gorge","folder":"tf","game":"Team Fortress","app_id":440,"player_count":0,"max_players":24,"Bots":0,"server_type":"Dedicated","server_os":"Linux","password":true,"vac":true,"version":"7961495","steam_id":85568392924469991,"keywords":["cp","nocrits","nodmgspread","uncletopia"],"game_id":440,"stv_port":27016,"stv_name":"Uncletopia | Los Angeles | 1 | All Maps | STV","players":null},{"server_id":112,"name":"Uncletopia | Los Angeles | 2 | All Maps","name_short":"lax-2","host":"lax-1.us.uncletopia.com","port":27025,"enabled":true,"region":"us-west","cc":"us","latitude":33.94279,"longitude":-118.41004,"reserved":0,"last_update":"0001-01-01T00:00:00Z","name_a2s":"Uncletopia | Los Angeles | 2 | All Maps","protocol":17,"map":"koth_cascade","folder":"tf","game":"Team Fortress","app_id":440,"player_count":0,"max_players":24,"Bots":0,"server_type":"Dedicated","server_os":"Linux","password":true,"vac":true,"version":"7961495","steam_id":85568392924469992,"keywords":["cp","nocrits","nodmgspread","uncletopia"],"game_id":440,"stv_port":27026,"stv_name":"Uncletopia | Los Angeles | 2 | All Maps | STV","players":null},{"server_id":324,"name":"Uncletopia | Los Angeles | 3 | All Maps","name_short":"lax-3","host":"lax-1.us.uncletopia.com","port":27035,"enabled":true,"region":"us-west","cc":"us","latitude":33.94279,"longitude":-118.41004,"reserved":0,"last_update":"0001-01-01T00:00:00Z","name_a2s":"Uncletopia | Los Angeles | 3 | All Maps","protocol":17,"map":"pl_hoodoo_final","folder":"tf","game":"Team Fortress","app_id":440,"player_count":0,"max_players":24,"Bots":0,"server_type":"Dedicated","server_os":"Linux","password":true,"vac":true,"version":"7961495","steam_id":85568392924510198,"keywords":["nocrits","nodmgspread","payload","uncletopia"],"game_id":440,"stv_port":27036,"stv_name":"Uncletopia | Los Angeles | 3 | All Maps | STV","players":null},{"server_id":25,"name":"Uncletopia | Los Angeles | 4 | Stopwatch","name_short":"lax-4","host":"lax-1.us.uncletopia.com","port":27045,"enabled":true,"region":"us-west","cc":"us","latitude":33.94279,"longitude":-118.41004,"reserved":0,"last_update":"0001-01-01T00:00:00Z","name_a2s":"Uncletopia | Los Angeles | 4 | Stopwatch","protocol":17,"map":"pl_upward","folder":"tf","game":"Team Fortress","app_id":440,"player_count":0,"max_players":24,"Bots":0,"server_type":"Dedicated","server_os":"Linux","password":true,"vac":true,"version":"7961495","steam_id":85568392924510199,"keywords":["nocrits","nodmgspread","payload","uncletopia"],"game_id":440,"stv_port":27046,"stv_name":"Uncletopia | Los Angeles | 4 | Stopwatch | STV","players":null},{"server_id":11,"name":"Uncletopia | London | 1 | All Maps","name_short":"lon-1","host":"lon-1.uk.uncletopia.com","port":27015,"enabled":true,"region":"eu","cc":"gb","latitude":51.509865,"longitude":-0.118092,"reserved":0,"last_update":"0001-01-01T00:00:00Z","name_a2s":"Uncletopia | London | 1 | All Maps","protocol":17,"map":"pl_barnblitz","folder":"tf","game":"Team Fortress","app_id":440,"player_count":24,"max_players":24,"Bots":0,"server_type":"Dedicated","server_os":"Linux","password":true,"vac":true,"version":"7961495","steam_id":85568392924367362,"keywords":["nocrits","nodmgspread","payload","uncletopia"],"game_id":440,"stv_port":27016,"stv_name":"Uncletopia | London | 1 | All Maps | STV","players":[{"user_id":206,"name":"Mea","steam_id":76561198353496134,"connected_time":10000000000,"state":"spawning","ping":92},{"user_id":185,"name":"YaBoiDomenik","steam_id":76561199042937056,"connected_time":2389000000000,"state":"active","ping":107},{"user_id":194,"name":"breakfast burrito","steam_id":76561198148606969,"connected_time":1156000000000,"state":"active","ping":73},{"user_id":189,"name":"Techpriest Mosk","steam_id":76561198808788406,"connected_time":2007000000000,"state":"active","ping":73},{"user_id":124,"name":"❤ [HoneyBe_] ❤","steam_id":76561198288930154,"connected_time":7001000000000,"state":"active","ping":58},{"user_id":187,"name":"Sunshine","steam_id":76561198885528098,"connected_time":2320000000000,"state":"active","ping":119},{"user_id":204,"name":"Curls","steam_id":76561198079039937,"connected_time":540000000000,"state":"active","ping":53},{"user_id":180,"name":"*Stare*","steam_id":76561199072209884,"connected_time":2918000000000,"state":"active","ping":44},{"user_id":205,"name":"Zamorocian","steam_id":76561198076604017,"connected_time":163000000000,"state":"active","ping":65},{"user_id":196,"name":"rigel_","steam_id":76561198148640847,"connected_time":946000000000,"state":"active","ping":75},{"user_id":199,"name":"Say Goodbye to Your Kneecaps","steam_id":76561198840150558,"connected_time":756000000000,"state":"active","ping":75},{"user_id":143,"name":"yipieeee :DDD","steam_id":76561198076219289,"connected_time":5035000000000,"state":"active","ping":53},{"user_id":192,"name":"Riman-Shwartz Abuzer","steam_id":76561198054279487,"connected_time":1623000000000,"state":"active","ping":136},{"user_id":200,"name":"ROX","steam_id":76561198272289320,"connected_time":751000000000,"state":"active","ping":46},{"user_id":203,"name":"El Gran Dovich","steam_id":76561199155718202,"connected_time":708000000000,"state":"active","ping":87},{"user_id":169,"name":"jjkun786","steam_id":76561199438517484,"connected_time":3418000000000,"state":"active","ping":31},{"user_id":147,"name":"clunk","steam_id":76561198836460767,"connected_time":4851000000000,"state":"active","ping":63},{"user_id":166,"name":"Fuck it (unhandicaps)","steam_id":76561197983095579,"connected_time":3716000000000,"state":"active","ping":78},{"user_id":202,"name":"Ullr","steam_id":76561198140547483,"connected_time":717000000000,"state":"active","ping":45},{"user_id":193,"name":"Topia","steam_id":76561198163571788,"connected_time":1171000000000,"state":"active","ping":94},{"user_id":195,"name":"nappo","steam_id":76561198060105180,"connected_time":1060000000000,"state":"active","ping":61},{"user_id":164,"name":"Snake-chan","steam_id":76561199044755854,"connected_time":3756000000000,"state":"active","ping":85},{"user_id":197,"name":"DOKTOR MEOW","steam_id":76561198226378616,"connected_time":827000000000,"state":"active","ping":77},{"user_id":188,"name":"Shnormy","steam_id":76561199038376416,"connected_time":2053000000000,"state":"active","ping":94}]},{"server_id":114,"name":"Uncletopia | London | 2 | All Maps","name_short":"lon-2","host":"lon-1.uk.uncletopia.com","port":27025,"enabled":true,"region":"eu","cc":"gb","latitude":51.509865,"longitude":-0.118092,"reserved":0,"last_update":"0001-01-01T00:00:00Z","name_a2s":"Uncletopia | London | 2 | All Maps","protocol":17,"map":"cp_dustbowl","folder":"tf","game":"Team Fortress","app_id":440,"player_count":24,"max_players":24,"Bots":0,"server_type":"Dedicated","server_os":"Linux","password":true,"vac":true,"version":"7961495","steam_id":85568392924470941,"keywords":["cp","nocrits","nodmgspread","uncletopia"],"game_id":440,"stv_port":27026,"stv_name":"Uncletopia | London | 2 | All Maps | STV","players":[{"user_id":267,"name":"Saken","steam_id":76561198049075295,"connected_time":2811000000000,"state":"active","ping":68},{"user_id":288,"name":"Mis Foskitos","steam_id":76561198884078922,"connected_time":1202000000000,"state":"active","ping":81},{"user_id":292,"name":"kjaron","steam_id":76561198239690708,"connected_time":1059000000000,"state":"active","ping":49},{"user_id":290,"name":"bryophyta","steam_id":76561197968945306,"connected_time":1097000000000,"state":"active","ping":71},{"user_id":289,"name":"sv_MrGibbs","steam_id":76561198114071972,"connected_time":1153000000000,"state":"active","ping":45},{"user_id":301,"name":"Daddy-O Dizzy","steam_id":76561198292349348,"connected_time":639000000000,"state":"active","ping":221},{"user_id":293,"name":"gitlitwitit","steam_id":76561197980019054,"connected_time":957000000000,"state":"active","ping":60},{"user_id":294,"name":"Sinfasy","steam_id":76561198235488492,"connected_time":921000000000,"state":"active","ping":65},{"user_id":295,"name":"Pumpnik","steam_id":76561199083796274,"connected_time":884000000000,"state":"active","ping":80},{"user_id":296,"name":"Vinnidict","steam_id":76561198037087000,"connected_time":847000000000,"state":"active","ping":62},{"user_id":221,"name":"Warrior555MainsGanon","steam_id":76561198388627786,"connected_time":6088000000000,"state":"active","ping":60},{"user_id":297,"name":"Vel0city","steam_id":76561198049687798,"connected_time":814000000000,"state":"active","ping":52},{"user_id":269,"name":"lark","steam_id":76561198091724522,"connected_time":2716000000000,"state":"active","ping":59},{"user_id":298,"name":"Pjuske","steam_id":76561198013943953,"connected_time":716000000000,"state":"active","ping":67},{"user_id":155,"name":"Jeryx","steam_id":76561197995602803,"connected_time":11262000000000,"state":"active","ping":45},{"user_id":270,"name":"cropping","steam_id":76561198026586456,"connected_time":2637000000000,"state":"active","ping":54},{"user_id":307,"name":"xx_soy_xx","steam_id":76561198333779084,"connected_time":104000000000,"state":"active","ping":81},{"user_id":300,"name":"r06u3","steam_id":76561198254099253,"connected_time":652000000000,"state":"active","ping":176},{"user_id":302,"name":"The ANREIHA Project®","steam_id":76561198034417557,"connected_time":638000000000,"state":"active","ping":54},{"user_id":260,"name":"bigeon","steam_id":76561198078601337,"connected_time":2991000000000,"state":"active","ping":92},{"user_id":249,"name":"pyrofightermag","steam_id":76561198089228732,"connected_time":4032000000000,"state":"active","ping":75},{"user_id":306,"name":"Dromeka","steam_id":76561198963557200,"connected_time":332000000000,"state":"active","ping":45},{"user_id":304,"name":"System","steam_id":76561199442503973,"connected_time":619000000000,"state":"active","ping":59},{"user_id":305,"name":"Emerald","steam_id":76561199141384216,"connected_time":592000000000,"state":"active","ping":50}]},{"server_id":320,"name":"Uncletopia | London | 3 | All Maps","name_short":"lon-3","host":"lon-1.uk.uncletopia.com","port":27035,"enabled":true,"region":"eu","cc":"gb","latitude":51.509865,"longitude":-0.118092,"reserved":0,"last_update":"0001-01-01T00:00:00Z","name_a2s":"Uncletopia | London | 3 | All Maps","protocol":17,"map":"cp_mountainlab","folder":"tf","game":"Team Fortress","app_id":440,"player_count":17,"max_players":24,"Bots":0,"server_type":"Dedicated","server_os":"Linux","password":true,"vac":true,"version":"7961495","steam_id":85568392924510192,"keywords":["cp","nocrits","nodmgspread","uncletopia"],"game_id":440,"stv_port":27036,"stv_name":"Uncletopia | London | 3 | All Maps | STV","players":[{"user_id":159,"name":"calzone","steam_id":76561198368725089,"connected_time":1332000000000,"state":"active","ping":52},{"user_id":166,"name":"RiX","steam_id":76561197969053733,"connected_time":943000000000,"state":"active","ping":45},{"user_id":175,"name":"Big Trader","steam_id":76561197992364667,"connected_time":436000000000,"state":"active","ping":67},{"user_id":92,"name":"Cöffee","steam_id":76561198115131952,"connected_time":4930000000000,"state":"active","ping":95},{"user_id":162,"name":"DidoSquarepants","steam_id":76561198813776572,"connected_time":1225000000000,"state":"active","ping":45},{"user_id":182,"name":"Jughead","steam_id":76561198000355410,"connected_time":8000000000,"state":"spawning","ping":29},{"user_id":180,"name":"Peakey The Bard","steam_id":76561198196607831,"connected_time":166000000000,"state":"active","ping":41},{"user_id":155,"name":"Psycho Foxy","steam_id":76561198142758544,"connected_time":1625000000000,"state":"active","ping":44},{"user_id":170,"name":"lobear","steam_id":76561199229714255,"connected_time":678000000000,"state":"active","ping":59},{"user_id":146,"name":"natM","steam_id":76561199035908952,"connected_time":2148000000000,"state":"active","ping":85},{"user_id":172,"name":"Benzo Fury","steam_id":76561198025259336,"connected_time":581000000000,"state":"active","ping":44},{"user_id":174,"name":"WrytXander","steam_id":76561198067856323,"connected_time":536000000000,"state":"active","ping":96},{"user_id":177,"name":"smiley","steam_id":76561198042245117,"connected_time":347000000000,"state":"active","ping":50},{"user_id":118,"name":"Brother Jiffy","steam_id":76561198028739532,"connected_time":3605000000000,"state":"active","ping":75},{"user_id":147,"name":"Talyos","steam_id":76561198040184806,"connected_time":2060000000000,"state":"active","ping":47},{"user_id":179,"name":"Uncle Dale","steam_id":76561199144302768,"connected_time":307000000000,"state":"active","ping":124}]},{"server_id":321,"name":"Uncletopia | London | 4 | All Maps","name_short":"lon-4","host":"lon-1.uk.uncletopia.com","port":27045,"enabled":true,"region":"eu","cc":"gb","latitude":51.509865,"longitude":-0.118092,"reserved":0,"last_update":"0001-01-01T00:00:00Z","name_a2s":"Uncletopia | London | 4 | All Maps","protocol":17,"map":"pl_swiftwater_final1","folder":"tf","game":"Team Fortress","app_id":440,"player_count":0,"max_players":24,"Bots":0,"server_type":"Dedicated","server_os":"Linux","password":true,"vac":true,"version":"7961495","steam_id":85568392924510193,"keywords":["nocrits","nodmgspread","payload","uncletopia"],"game_id":440,"stv_port":27046,"stv_name":"Uncletopia | London | 4 | All Maps | STV","players":null},{"server_id":21,"name":"Uncletopia | London | 5 | All Maps","name_short":"lon-5","host":"lon-1.uk.uncletopia.com","port":27055,"enabled":true,"region":"eu","cc":"gb","latitude":51.509865,"longitude":-0.118092,"reserved":0,"last_update":"0001-01-01T00:00:00Z","name_a2s":"Uncletopia | London | 5 | All Maps","protocol":17,"map":"koth_lakeside_final","folder":"tf","game":"Team Fortress","app_id":440,"player_count":0,"max_players":24,"Bots":0,"server_type":"Dedicated","server_os":"Linux","password":true,"vac":true,"version":"7961495","steam_id":85568392924742829,"keywords":["cp","nocrits","nodmgspread","uncletopia"],"game_id":440,"stv_port":27056,"stv_name":"Uncletopia | London | 5 | All Maps | STV","players":null},{"server_id":22,"name":"Uncletopia | London | 6 | All Maps","name_short":"lon-6","host":"lon-1.uk.uncletopia.com","port":27065,"enabled":true,"region":"eu","cc":"gb","latitude":51.509865,"longitude":-0.118092,"reserved":0,"last_update":"0001-01-01T00:00:00Z","name_a2s":"Uncletopia | London | 6 | All Maps","protocol":17,"map":"cp_snakewater_final1","folder":"tf","game":"Team Fortress","app_id":440,"player_count":4,"max_players":24,"Bots":0,"server_type":"Dedicated","server_os":"Linux","password":true,"vac":true,"version":"7961495","steam_id":85568392924742830,"keywords":["cp","nocrits","nodmgspread","uncletopia"],"game_id":440,"stv_port":27066,"stv_name":"Uncletopia | London | 6 | All Maps | STV","players":[{"user_id":9,"name":"CheezusOfNazareth","steam_id":76561199093893813,"connected_time":490000000000,"state":"active","ping":54},{"user_id":6,"name":"sraded","steam_id":76561199129675615,"connected_time":561000000000,"state":"active","ping":46},{"user_id":7,"name":"Dragonknight","steam_id":76561198080527208,"connected_time":546000000000,"state":"active","ping":55},{"user_id":8,"name":"ProSlayer77","steam_id":76561199435273618,"connected_time":542000000000,"state":"active","ping":44}]},{"server_id":40,"name":"Uncletopia | London | 7 | Stopwatch","name_short":"lon-7","host":"lon-1.uk.uncletopia.com","port":27075,"enabled":true,"region":"eu","cc":"gb","latitude":51.509865,"longitude":-0.118092,"reserved":0,"last_update":"0001-01-01T00:00:00Z","name_a2s":"Uncletopia | London | 7 | Stopwatch","protocol":17,"map":"workshop/pl_badwater_pro_v12.ugc2142942074","folder":"tf","game":"Team Fortress","app_id":440,"player_count":0,"max_players":24,"Bots":0,"server_type":"Dedicated","server_os":"Linux","password":true,"vac":true,"version":"7961495","steam_id":85568392924964314,"keywords":["nocrits","nodmgspread","payload","uncletopia"],"game_id":440,"stv_port":27076,"stv_name":"Uncletopia | London | 7 | Stopwatch | STV","players":null},{"server_id":41,"name":"Uncletopia | London | 8 | Community","name_short":"lon-8","host":"lon-1.uk.uncletopia.com","port":27085,"enabled":true,"region":"eu","cc":"gb","latitude":51.509865,"longitude":-0.118092,"reserved":0,"last_update":"0001-01-01T00:00:00Z","name_a2s":"Uncletopia | London | 8 | Community","protocol":17,"map":"workshop/cp_glassworks_rc7a.ugc454118349","folder":"tf","game":"Team Fortress","app_id":440,"player_count":0,"max_players":24,"Bots":0,"server_type":"Dedicated","server_os":"Linux","password":true,"vac":true,"version":"7961495","steam_id":85568392924964315,"keywords":["cp","nocrits","nodmgspread","uncletopia"],"game_id":440,"stv_port":27086,"stv_name":"Uncletopia | London | 8 | Community | STV","players":null},{"server_id":300,"name":"Uncletopia | Montréal | 1 | One Thousand Uncles","name_short":"mtl-1","host":"mtl-1.ca.uncletopia.com","port":27015,"enabled":true,"region":"us-east","cc":"ca","latitude":45.50889,"longitude":-73.56167,"reserved":0,"last_update":"0001-01-01T00:00:00Z","name_a2s":"Uncletopia | Montréal | 1 | One Thousand Uncles","protocol":17,"map":"pl_hoodoo_final","folder":"tf","game":"Team Fortress","app_id":440,"player_count":22,"max_players":32,"Bots":16,"server_type":"Dedicated","server_os":"Linux","password":true,"vac":true,"version":"7961495","steam_id":85568392924500087,"keywords":["alltalk","bots","danepve","increased_maxplayers","norespawntime","payload","uncletopia"],"game_id":440,"stv_port":0,"stv_name":"","players":[{"user_id":59,"name":"teoisaverycoolguy","steam_id":76561199434109034,"connected_time":3338000000000,"state":"active","ping":152},{"user_id":96,"name":"M.C.Mcmuffins","steam_id":76561198068225535,"connected_time":1915000000000,"state":"active","ping":118},{"user_id":94,"name":"Kazuma Yagami","steam_id":76561199044812516,"connected_time":2775000000000,"state":"active","ping":57},{"user_id":97,"name":"Hoovy Bear","steam_id":76561198168814192,"connected_time":1868000000000,"state":"active","ping":118},{"user_id":99,"name":"robo_xeque","steam_id":76561199467536524,"connected_time":1206000000000,"state":"active","ping":152},{"user_id":100,"name":"colorblindwizardlvl5","steam_id":76561199208988804,"connected_time":1125000000000,"state":"active","ping":62}]},{"server_id":301,"name":"Uncletopia | Montréal | 2 | One Thousand Uncles","name_short":"mtl-2","host":"mtl-1.ca.uncletopia.com","port":27025,"enabled":true,"region":"us-east","cc":"ca","latitude":45.50889,"longitude":-73.56167,"reserved":0,"last_update":"0001-01-01T00:00:00Z","name_a2s":"Uncletopia | Montréal | 2 | One Thousand Uncles","protocol":17,"map":"pl_chilly","folder":"tf","game":"Team Fortress","app_id":440,"player_count":0,"max_players":32,"Bots":0,"server_type":"Dedicated","server_os":"Linux","password":true,"vac":true,"version":"7961495","steam_id":85568392924500088,"keywords":["alltalk","danepve","increased_maxplayers","norespawntime","payload","uncletopia"],"game_id":440,"stv_port":0,"stv_name":"","players":null},{"server_id":302,"name":"Uncletopia | Montréal | 3 | One Thousand Uncles","name_short":"mtl-3","host":"mtl-1.ca.uncletopia.com","port":27035,"enabled":true,"region":"us-east","cc":"ca","latitude":45.50889,"longitude":-73.56167,"reserved":0,"last_update":"0001-01-01T00:00:00Z","name_a2s":"Uncletopia | Montréal | 3 | One Thousand Uncles","protocol":17,"map":"pl_upward","folder":"tf","game":"Team Fortress","app_id":440,"player_count":0,"max_players":32,"Bots":0,"server_type":"Dedicated","server_os":"Linux","password":true,"vac":true,"version":"7961495","steam_id":85568392924500089,"keywords":["alltalk","danepve","increased_maxplayers","norespawntime","payload","uncletopia"],"game_id":440,"stv_port":0,"stv_name":"","players":null},{"server_id":13,"name":"Uncletopia | New York City | 1 | All Maps","name_short":"nyc-1","host":"nyc-1.us.uncletopia.com","port":27015,"enabled":true,"region":"us-east","cc":"us","latitude":40.73061,"longitude":-73.93524,"reserved":0,"last_update":"0001-01-01T00:00:00Z","name_a2s":"Uncletopia | New York City | 1 | All Maps","protocol":17,"map":"koth_cascade","folder":"tf","game":"Team Fortress","app_id":440,"player_count":0,"max_players":24,"Bots":0,"server_type":"Dedicated","server_os":"Linux","password":true,"vac":true,"version":"7961495","steam_id":85568392924469993,"keywords":["cp","nocrits","nodmgspread","uncletopia"],"game_id":440,"stv_port":27016,"stv_name":"Uncletopia | New York City | 1 | All Maps | STV","players":null},{"server_id":14,"name":"Uncletopia | New York City | 2 | All Maps","name_short":"nyc-2","host":"nyc-1.us.uncletopia.com","port":27025,"enabled":true,"region":"us-east","cc":"us","latitude":40.73061,"longitude":-73.93524,"reserved":0,"last_update":"0001-01-01T00:00:00Z","name_a2s":"Uncletopia | New York City | 2 | All Maps","protocol":17,"map":"koth_cascade","folder":"tf","game":"Team Fortress","app_id":440,"player_count":0,"max_players":24,"Bots":0,"server_type":"Dedicated","server_os":"Linux","password":true,"vac":true,"version":"7961495","steam_id":85568392924469994,"keywords":["cp","nocrits","nodmgspread","uncletopia"],"game_id":440,"stv_port":27026,"stv_name":"Uncletopia | New York City | 2 | All Maps | STV","players":null},{"server_id":15,"name":"Uncletopia | New York City | 3 | Stopwatch","name_short":"nyc-3","host":"nyc-1.us.uncletopia.com","port":27035,"enabled":true,"region":"us-east","cc":"us","latitude":40.73061,"longitude":-73.93524,"reserved":0,"last_update":"0001-01-01T00:00:00Z","name_a2s":"Uncletopia | New York City | 3 | Stopwatch","protocol":17,"map":"workshop/cp_reckoner_rc6.ugc674719999","folder":"tf","game":"Team Fortress","app_id":440,"player_count":0,"max_players":24,"Bots":0,"server_type":"Dedicated","server_os":"Linux","password":true,"vac":true,"version":"7961495","steam_id":85568392924742820,"keywords":["cp","nocrits","nodmgspread","uncletopia"],"game_id":440,"stv_port":27036,"stv_name":"Uncletopia | New York City | 3 | Stopwatch | STV","players":null},{"server_id":16,"name":"Uncletopia | New York City | 4 | Community","name_short":"nyc-4","host":"nyc-1.us.uncletopia.com","port":27045,"enabled":true,"region":"us-east","cc":"us","latitude":40.73061,"longitude":-73.93524,"reserved":0,"last_update":"0001-01-01T00:00:00Z","name_a2s":"Uncletopia | New York City | 4 | Community","protocol":17,"map":"workshop/cp_indulge.ugc528106646","folder":"tf","game":"Team Fortress","app_id":440,"player_count":0,"max_players":24,"Bots":0,"server_type":"Dedicated","server_os":"Linux","password":true,"vac":true,"version":"7961495","steam_id":85568392924742821,"keywords":["cp","nocrits","nodmgspread","uncletopia"],"game_id":440,"stv_port":27046,"stv_name":"Uncletopia | New York City | 4 | Community | STV","players":null},{"server_id":142,"name":"Uncletopia | São Paulo | 1 | All Maps","name_short":"sao-1","host":"sao-1.br.uncletopia.com","port":27015,"enabled":true,"region":"sa","cc":"br","latitude":-23.533773,"longitude":-46.62529,"reserved":0,"last_update":"0001-01-01T00:00:00Z","name_a2s":"Uncletopia | São Paulo | 1 | All Maps","protocol":17,"map":"cp_gorge","folder":"tf","game":"Team Fortress","app_id":440,"player_count":0,"max_players":24,"Bots":0,"server_type":"Dedicated","server_os":"Linux","password":true,"vac":true,"version":"7961495","steam_id":85568392924469996,"keywords":["cp","nocrits","nodmgspread","uncletopia"],"game_id":440,"stv_port":27016,"stv_name":"Uncletopia | São Paulo | 1 | All Maps | STV","players":null},{"server_id":143,"name":"Uncletopia | São Paulo | 2 | Community","name_short":"sao-2","host":"sao-2.br.uncletopia.com","port":27015,"enabled":true,"region":"sa","cc":"br","latitude":-23.533773,"longitude":-46.62529,"reserved":0,"last_update":"0001-01-01T00:00:00Z","name_a2s":"Uncletopia | São Paulo | 2 | Community","protocol":17,"map":"workshop/cp_croissant_final.ugc458840209","folder":"tf","game":"Team Fortress","app_id":440,"player_count":0,"max_players":24,"Bots":0,"server_type":"Dedicated","server_os":"Linux","password":true,"vac":true,"version":"7961495","steam_id":85568392924485349,"keywords":["cp","nocrits","nodmgspread","uncletopia"],"game_id":440,"stv_port":27016,"stv_name":"Uncletopia | São Paulo | 2 | Community | STV","players":null},{"server_id":7,"name":"Uncletopia | Seattle | 1 | All Maps","name_short":"sea-1","host":"sea-1.us.uncletopia.com","port":27015,"enabled":true,"region":"us-west","cc":"us","latitude":47.608013,"longitude":-122.33517,"reserved":0,"last_update":"0001-01-01T00:00:00Z","name_a2s":"Uncletopia | Seattle | 1 | All Maps","protocol":17,"map":"pl_upward","folder":"tf","game":"Team Fortress","app_id":440,"player_count":14,"max_players":24,"Bots":0,"server_type":"Dedicated","server_os":"Linux","password":true,"vac":true,"version":"7961495","steam_id":85568392924469997,"keywords":["nocrits","nodmgspread","payload","uncletopia"],"game_id":440,"stv_port":27016,"stv_name":"Uncletopia | Seattle | 1 | All Maps | STV","players":[{"user_id":28,"name":"SibilantSerpent","steam_id":76561198154488754,"connected_time":239000000000,"state":"active","ping":33},{"user_id":19,"name":"Muscle Man","steam_id":76561198248325252,"connected_time":956000000000,"state":"active","ping":72},{"user_id":29,"name":"Furry Femboy Hooters CEO","steam_id":76561198097745857,"connected_time":147000000000,"state":"active","ping":45},{"user_id":16,"name":"Gagerage","steam_id":76561198841926728,"connected_time":1240000000000,"state":"active","ping":105},{"user_id":9,"name":"Moondrop","steam_id":76561199421181719,"connected_time":1817000000000,"state":"active","ping":202},{"user_id":30,"name":"meszaros1293","steam_id":76561198168201600,"connected_time":39000000000,"state":"active","ping":83},{"user_id":31,"name":"kn0n","steam_id":76561198249172818,"connected_time":28000000000,"state":"active","ping":94},{"user_id":12,"name":"RayTrain","steam_id":76561198874299515,"connected_time":1786000000000,"state":"active","ping":195},{"user_id":20,"name":"Confirmed Bachelor","steam_id":76561198441041496,"connected_time":886000000000,"state":"active","ping":44},{"user_id":15,"name":"stir-fried human tonsils","steam_id":76561198312126442,"connected_time":1678000000000,"state":"active","ping":39},{"user_id":17,"name":"Windows Vista Home Premium","steam_id":76561198043764863,"connected_time":1120000000000,"state":"active","ping":73},{"user_id":22,"name":"John Arbuckle gaming","steam_id":76561199061503351,"connected_time":616000000000,"state":"active","ping":79},{"user_id":25,"name":"Trips","steam_id":76561198054581597,"connected_time":303000000000,"state":"active","ping":60},{"user_id":27,"name":"spacetoven","steam_id":76561198115821131,"connected_time":293000000000,"state":"active","ping":64}]},{"server_id":119,"name":"Uncletopia | Seattle | 2 | All Maps","name_short":"sea-2","host":"sea-1.us.uncletopia.com","port":27025,"enabled":true,"region":"us-west","cc":"us","latitude":47.608013,"longitude":-122.33517,"reserved":0,"last_update":"0001-01-01T00:00:00Z","name_a2s":"Uncletopia | Seattle | 2 | All Maps","protocol":17,"map":"koth_lakeside_final","folder":"tf","game":"Team Fortress","app_id":440,"player_count":0,"max_players":24,"Bots":0,"server_type":"Dedicated","server_os":"Linux","password":true,"vac":true,"version":"7961495","steam_id":85568392924469998,"keywords":["cp","nocrits","nodmgspread","uncletopia"],"game_id":440,"stv_port":27026,"stv_name":"Uncletopia | Seattle | 2 | All Maps | STV","players":null},{"server_id":406,"name":"Uncletopia | Seattle | 3 | Stopwatch","name_short":"sea-3","host":"sea-1.us.uncletopia.com","port":27035,"enabled":true,"region":"us-west","cc":"us","latitude":47.608013,"longitude":-122.33517,"reserved":0,"last_update":"0001-01-01T00:00:00Z","name_a2s":"Uncletopia | Seattle | 3 | Stopwatch","protocol":17,"map":"cp_gullywash_final1","folder":"tf","game":"Team Fortress","app_id":440,"player_count":0,"max_players":24,"Bots":0,"server_type":"Dedicated","server_os":"Linux","password":true,"vac":true,"version":"7961495","steam_id":85568392924515217,"keywords":["cp","nocrits","nodmgspread","uncletopia"],"game_id":440,"stv_port":27036,"stv_name":"Uncletopia | Seattle | 3 | Stopwatch | STV","players":null},{"server_id":17,"name":"Uncletopia | San Francisco | 1 | All Maps","name_short":"sfo-1","host":"sfo-1.us.uncletopia.com","port":27015,"enabled":true,"region":"us-west","cc":"us","latitude":37.77397,"longitude":-122.4313,"reserved":0,"last_update":"0001-01-01T00:00:00Z","name_a2s":"Uncletopia | San Francisco | 1 | All Maps","protocol":17,"map":"cp_altitude","folder":"tf","game":"Team Fortress","app_id":440,"player_count":0,"max_players":24,"Bots":0,"server_type":"Dedicated","server_os":"Linux","password":true,"vac":true,"version":"7961495","steam_id":85568392924469999,"keywords":["cp","nocrits","nodmgspread","uncletopia"],"game_id":440,"stv_port":27016,"stv_name":"Uncletopia | San Francisco | 1 | All Maps | STV","players":null},{"server_id":18,"name":"Uncletopia | San Francisco | 2 | All Maps","name_short":"sfo-2","host":"sfo-1.us.uncletopia.com","port":27025,"enabled":true,"region":"us-west","cc":"us","latitude":37.77397,"longitude":-122.4313,"reserved":0,"last_update":"0001-01-01T00:00:00Z","name_a2s":"Uncletopia | San Francisco | 2 | All Maps","protocol":17,"map":"cp_freight_final1","folder":"tf","game":"Team Fortress","app_id":440,"player_count":0,"max_players":24,"Bots":0,"server_type":"Dedicated","server_os":"Linux","password":true,"vac":true,"version":"7961495","steam_id":85568392924470000,"keywords":["cp","nocrits","nodmgspread","uncletopia"],"game_id":440,"stv_port":27026,"stv_name":"Uncletopia | San Francisco | 2 | All Maps | STV","players":null},{"server_id":19,"name":"Uncletopia | San Francisco | 3 | Stopwatch","name_short":"sfo-3","host":"sfo-1.us.uncletopia.com","port":27035,"enabled":true,"region":"us-west","cc":"us","latitude":37.77397,"longitude":-122.4313,"reserved":0,"last_update":"0001-01-01T00:00:00Z","name_a2s":"Uncletopia | San Francisco | 3 | Stopwatch","protocol":17,"map":"workshop/koth_product_final.ugc454272353","folder":"tf","game":"Team Fortress","app_id":440,"player_count":0,"max_players":24,"Bots":0,"server_type":"Dedicated","server_os":"Linux","password":true,"vac":true,"version":"7961495","steam_id":85568392924742824,"keywords":["cp","nocrits","nodmgspread","uncletopia"],"game_id":440,"stv_port":27036,"stv_name":"Uncletopia | San Francisco | 3 | Stopwatch | STV","players":null},{"server_id":20,"name":"Uncletopia | San Francisco | 4 | Community","name_short":"sfo-4","host":"sfo-1.us.uncletopia.com","port":27045,"enabled":true,"region":"us-west","cc":"us","latitude":37.77397,"longitude":-122.4313,"reserved":0,"last_update":"0001-01-01T00:00:00Z","name_a2s":"Uncletopia | San Francisco | 4 | Community","protocol":17,"map":"workshop/koth_slaughter_rc1.ugc1712845210","folder":"tf","game":"Team Fortress","app_id":440,"player_count":0,"max_players":24,"Bots":0,"server_type":"Dedicated","server_os":"Linux","password":true,"vac":true,"version":"7961495","steam_id":85568392924742826,"keywords":["cp","nocrits","nodmgspread","uncletopia"],"game_id":440,"stv_port":27046,"stv_name":"Uncletopia | San Francisco | 4 | Community | STV","players":null},{"server_id":141,"name":"Uncletopia | Sydney | 1 | All Maps","name_short":"syd-1","host":"syd-1.au.uncletopia.com","port":27015,"enabled":true,"region":"au","cc":"au","latitude":-33.865143,"longitude":151.2099,"reserved":0,"last_update":"0001-01-01T00:00:00Z","name_a2s":"Uncletopia | Sydney | 1 | All Maps","protocol":17,"map":"koth_lakeside_final","folder":"tf","game":"Team Fortress","app_id":440,"player_count":0,"max_players":24,"Bots":0,"server_type":"Dedicated","server_os":"Linux","password":true,"vac":true,"version":"7961495","steam_id":85568392924470001,"keywords":["cp","nocrits","nodmgspread","uncletopia"],"game_id":440,"stv_port":27016,"stv_name":"Uncletopia | Sydney | 1 | All Maps | STV","players":null},{"server_id":123,"name":"Uncletopia | Sydney | 2 | All Maps","name_short":"syd-2","host":"syd-1.au.uncletopia.com","port":27025,"enabled":true,"region":"au","cc":"au","latitude":-33.865143,"longitude":151.2099,"reserved":0,"last_update":"0001-01-01T00:00:00Z","name_a2s":"Uncletopia | Sydney | 2 | All Maps","protocol":17,"map":"pl_pier","folder":"tf","game":"Team Fortress","app_id":440,"player_count":0,"max_players":24,"Bots":0,"server_type":"Dedicated","server_os":"Linux","password":true,"vac":true,"version":"7961495","steam_id":85568392924470002,"keywords":["nocrits","nodmgspread","payload","uncletopia"],"game_id":440,"stv_port":27026,"stv_name":"Uncletopia | Sydney | 2 | All Maps | STV","players":null},{"server_id":395,"name":"Uncletopia | Sydney | 3 | All Maps","name_short":"syd-3","host":"syd-1.au.uncletopia.com","port":27035,"enabled":true,"region":"au","cc":"au","latitude":-33.865143,"longitude":151.2099,"reserved":0,"last_update":"0001-01-01T00:00:00Z","name_a2s":"Uncletopia | Sydney | 3 | All Maps","protocol":17,"map":"pl_frontier_final","folder":"tf","game":"Team Fortress","app_id":440,"player_count":0,"max_players":24,"Bots":0,"server_type":"Dedicated","server_os":"Linux","password":true,"vac":true,"version":"7961495","steam_id":85568392925194467,"keywords":["nocrits","nodmgspread","payload","uncletopia"],"game_id":440,"stv_port":27036,"stv_name":"Uncletopia | Sydney | 3 | All Maps | STV","players":null},{"server_id":396,"name":"Uncletopia | Sydney | 4 | All Maps","name_short":"syd-4","host":"syd-1.au.uncletopia.com","port":27045,"enabled":true,"region":"au","cc":"au","latitude":-33.865143,"longitude":151.2099,"reserved":0,"last_update":"0001-01-01T00:00:00Z","name_a2s":"Uncletopia | Sydney | 4 | All Maps","protocol":17,"map":"cp_dustbowl","folder":"tf","game":"Team Fortress","app_id":440,"player_count":0,"max_players":24,"Bots":0,"server_type":"Dedicated","server_os":"Linux","password":true,"vac":true,"version":"7961495","steam_id":85568392925397958,"keywords":["cp","nocrits","nodmgspread","uncletopia"],"game_id":440,"stv_port":27046,"stv_name":"Uncletopia | Sydney | 4 | All Maps | STV","players":null},{"server_id":58,"name":"Uncletopia | Sydney | 5 | Stopwatch","name_short":"syd-5","host":"syd-1.au.uncletopia.com","port":27055,"enabled":true,"region":"au","cc":"au","latitude":-33.865143,"longitude":151.2099,"reserved":0,"last_update":"0001-01-01T00:00:00Z","name_a2s":"Uncletopia | Sydney | 5 | Stopwatch","protocol":17,"map":"workshop/pl_badwater_pro_v12.ugc2142942074","folder":"tf","game":"Team Fortress","app_id":440,"player_count":0,"max_players":24,"Bots":0,"server_type":"Dedicated","server_os":"Linux","password":true,"vac":true,"version":"7961495","steam_id":85568392925397959,"keywords":["nocrits","nodmgspread","payload","uncletopia"],"game_id":440,"stv_port":27056,"stv_name":"Uncletopia | Sydney | 5 | Stopwatch | STV","players":null},{"server_id":59,"name":"Uncletopia | Sydney | 6 | Community","name_short":"syd-6","host":"syd-1.au.uncletopia.com","port":27065,"enabled":true,"region":"au","cc":"au","latitude":-33.865143,"longitude":151.2099,"reserved":0,"last_update":"0001-01-01T00:00:00Z","name_a2s":"Uncletopia | Sydney | 6 | Community","protocol":17,"map":"workshop/pl_shoreleave_rc2.ugc1238849347","folder":"tf","game":"Team Fortress","app_id":440,"player_count":0,"max_players":24,"Bots":0,"server_type":"Dedicated","server_os":"Linux","password":true,"vac":true,"version":"7961495","steam_id":85568392925397960,"keywords":["nocrits","nodmgspread","payload","uncletopia"],"game_id":440,"stv_port":27066,"stv_name":"Uncletopia | Sydney | 6 | Community | STV","players":null},{"server_id":49,"name":"Uncletopia | Warsaw | 1 | One Thousand Uncles","name_short":"waw-1","host":"waw-1.pl.uncletopia.com","port":27015,"enabled":true,"region":"eu","cc":"pl","latitude":52.2297,"longitude":21.017532,"reserved":0,"last_update":"0001-01-01T00:00:00Z","name_a2s":"Uncletopia | Warsaw | 1 | One Thousand Uncles","protocol":17,"map":"pl_badwater","folder":"tf","game":"Team Fortress","app_id":440,"player_count":24,"max_players":32,"Bots":16,"server_type":"Dedicated","server_os":"Linux","password":true,"vac":true,"version":"7961495","steam_id":85568392925397850,"keywords":["alltalk","bots","danepve","increased_maxplayers","norespawntime","payload","uncletopia"],"game_id":440,"stv_port":0,"stv_name":"","players":[{"user_id":438,"name":"Arkenstein","steam_id":76561199091543520,"connected_time":3063000000000,"state":"active","ping":82},{"user_id":486,"name":"Temmie from undertale","steam_id":76561199072364251,"connected_time":45000000000,"state":"active","ping":52},{"user_id":401,"name":"✪✪Maryky✪✪","steam_id":76561198184672426,"connected_time":5826000000000,"state":"active","ping":63},{"user_id":469,"name":"B3N0Ne_","steam_id":76561198918059650,"connected_time":276000000000,"state":"active","ping":116},{"user_id":467,"name":"D4RKERX","steam_id":76561198060537403,"connected_time":1086000000000,"state":"active","ping":233},{"user_id":465,"name":"StAcH from PoLaNd","steam_id":76561199010894745,"connected_time":1348000000000,"state":"active","ping":66},{"user_id":468,"name":"MZ","steam_id":76561199161046583,"connected_time":994000000000,"state":"active","ping":190},{"user_id":444,"name":"MrHenry","steam_id":76561199249662743,"connected_time":2594000000000,"state":"active","ping":156}]},{"server_id":50,"name":"Uncletopia | Warsaw | 2 | One Thousand Uncles","name_short":"waw-2","host":"waw-1.pl.uncletopia.com","port":27025,"enabled":true,"region":"eu","cc":"pl","latitude":52.2297,"longitude":21.017532,"reserved":0,"last_update":"0001-01-01T00:00:00Z","name_a2s":"Uncletopia | Warsaw | 2 | One Thousand Uncles","protocol":17,"map":"cp_egypt_final","folder":"tf","game":"Team Fortress","app_id":440,"player_count":17,"max_players":32,"Bots":16,"server_type":"Dedicated","server_os":"Linux","password":true,"vac":true,"version":"7961495","steam_id":85568392925397851,"keywords":["alltalk","bots","cp","danepve","increased_maxplayers","norespawntime","uncletopia"],"game_id":440,"stv_port":0,"stv_name":"","players":[{"user_id":78,"name":"mihaiandreiaura","steam_id":76561198930688023,"connected_time":256000000000,"state":"active","ping":84}]},{"server_id":51,"name":"Uncletopia | Warsaw | 3 | All Maps","name_short":"waw-3","host":"waw-1.pl.uncletopia.com","port":27035,"enabled":true,"region":"eu","cc":"pl","latitude":52.2297,"longitude":21.017532,"reserved":0,"last_update":"0001-01-01T00:00:00Z","name_a2s":"Uncletopia | Warsaw | 3 | All Maps","protocol":17,"map":"koth_viaduct","folder":"tf","game":"Team Fortress","app_id":440,"player_count":0,"max_players":24,"Bots":0,"server_type":"Dedicated","server_os":"Linux","password":true,"vac":true,"version":"7961495","steam_id":85568392925397852,"keywords":["cp","nocrits","nodmgspread","uncletopia"],"game_id":440,"stv_port":27036,"stv_name":"Uncletopia | Warsaw | 3 | All Maps | STV","players":null},{"server_id":52,"name":"Uncletopia | Warsaw | 4 | All Maps","name_short":"waw-4","host":"waw-1.pl.uncletopia.com","port":27045,"enabled":true,"region":"eu","cc":"pl","latitude":52.2297,"longitude":21.017532,"reserved":0,"last_update":"0001-01-01T00:00:00Z","name_a2s":"Uncletopia | Warsaw | 4 | All Maps","protocol":17,"map":"cp_altitude","folder":"tf","game":"Team Fortress","app_id":440,"player_count":0,"max_players":24,"Bots":0,"server_type":"Dedicated","server_os":"Linux","password":true,"vac":true,"version":"7961495","steam_id":85568392925397853,"keywords":["cp","nocrits","nodmgspread","uncletopia"],"game_id":440,"stv_port":27046,"stv_name":"Uncletopia | Warsaw | 4 | All Maps | STV","players":null},{"server_id":53,"name":"Uncletopia | Warsaw | 5 | Stopwatch","name_short":"waw-5","host":"waw-1.pl.uncletopia.com","port":27055,"enabled":true,"region":"eu","cc":"pl","latitude":52.2297,"longitude":21.017532,"reserved":0,"last_update":"0001-01-01T00:00:00Z","name_a2s":"Uncletopia | Warsaw | 5 | Stopwatch","protocol":17,"map":"workshop/pl_vigil_rc10.ugc1266210012","folder":"tf","game":"Team Fortress","app_id":440,"player_count":0,"max_players":24,"Bots":0,"server_type":"Dedicated","server_os":"Linux","password":true,"vac":true,"version":"7961495","steam_id":85568392925397854,"keywords":["nocrits","nodmgspread","payload","uncletopia"],"game_id":440,"stv_port":27056,"stv_name":"Uncletopia | Warsaw | 5 | Stopwatch | STV","players":null},{"server_id":54,"name":"Uncletopia | Warsaw | 6 | Community","name_short":"waw-6","host":"waw-1.pl.uncletopia.com","port":27065,"enabled":true,"region":"eu","cc":"pl","latitude":52.2297,"longitude":21.017532,"reserved":0,"last_update":"0001-01-01T00:00:00Z","name_a2s":"Uncletopia | Warsaw | 6 | Community","protocol":17,"map":"workshop/cp_fulgur_rc2a.ugc2068252300","folder":"tf","game":"Team Fortress","app_id":440,"player_count":0,"max_players":24,"Bots":0,"server_type":"Dedicated","server_os":"Linux","password":true,"vac":true,"version":"7961495","steam_id":85568392925397856,"keywords":["cp","nocrits","nodmgspread","uncletopia"],"game_id":440,"stv_port":27066,"stv_name":"Uncletopia | Warsaw | 6 | Community | STV","players":null}]}