{"status":true,"message":"","result":[{"server_id":9,"name":"Uncletopia | Atlanta | 1 | All Maps","name_short":"atl-1","host":"atl-1.us.uncletopia.com","port":27015,"enabled":true,"region":"us-east","cc":"us","latitude":33.753746,"longitude":-84.38633,"reserved":0,"last_update":"0001-01-01T00:00:00Z","name_a2s":"Uncletopia | Atlanta | 1 | All Maps","protocol":17,"map":"pl_borneo","folder":"tf","game":"Team Fortress","app_id":440,"player_count":22,"max_players":24,"Bots":0,"server_type":"Dedicated","server_os":"Linux","password":true,"vac":true,"version":"7757534","steam_id":85568392924469982,"keywords":["nocrits","nodmgspread","payload","uncletopia"],"game_id":440,"stv_port":27016,"stv_name":"Uncletopia | Atlanta | 1 | All Maps | STV","players":[{"user_id":27,"name":"wally","steam_id":76561198027450079,"connected_time":4949000000000,"state":"active","ping":61},{"user_id":45,"name":"Skill Saw Stan","steam_id":76561199013064727,"connected_time":3641000000000,"state":"active","ping":106},{"user_id":86,"name":":^|","steam_id":76561198119826352,"connected_time":66000000000,"state":"active","ping":62},{"user_id":87,"name":"amagicowl","steam_id":76561199060487814,"connected_time":54000000000,"state":"active","ping":114},{"user_id":78,"name":"Big lobes","steam_id":76561198069735882,"connected_time":1685000000000,"state":"active","ping":51},{"user_id":76,"name":"Brown_Dream","steam_id":76561198975766145,"connected_time":1811000000000,"state":"active","ping":79},{"user_id":88,"name":"Your Loyal Familiar","steam_id":76561198106476075,"connected_time":53000000000,"state":"active","ping":59},{"user_id":40,"name":"Mokaaaa","steam_id":76561198043659301,"connected_time":3756000000000,"state":"active","ping":58},{"user_id":49,"name":"Dr Kickass","steam_id":76561198069659186,"connected_time":3593000000000,"state":"active","ping":74},{"user_id":41,"name":"Miro","steam_id":76561198936412406,"connected_time":3683000000000,"state":"active","ping":83},{"user_id":89,"name":"Пепси","steam_id":76561198133834262,"connected_time":30000000000,"state":"active","ping":94},{"user_id":85,"name":"Oddball","steam_id":76561198040440984,"connected_time":78000000000,"state":"spawning","ping":135},{"user_id":73,"name":"Ros","steam_id":76561199055963822,"connected_time":2185000000000,"state":"active","ping":59},{"user_id":79,"name":"Kami","steam_id":76561199039249396,"connected_time":1605000000000,"state":"active","ping":97},{"user_id":51,"name":"kris","steam_id":76561199180160219,"connected_time":3564000000000,"state":"active","ping":87},{"user_id":84,"name":"comet","steam_id":76561198149217841,"connected_time":228000000000,"state":"active","ping":118},{"user_id":80,"name":"20 miles for a Quaalude","steam_id":76561198042579477,"connected_time":1265000000000,"state":"active","ping":62},{"user_id":60,"name":"The Announcer's Feet","steam_id":76561199443456893,"connected_time":3299000000000,"state":"active","ping":89},{"user_id":57,"name":"a garbage can","steam_id":76561198403626105,"connected_time":3360000000000,"state":"active","ping":72},{"user_id":64,"name":"   ^ ##","steam_id":76561198328109873,"connected_time":2838000000000,"state":"active","ping":68},{"user_id":75,"name":"Keroro","steam_id":76561198075106705,"connected_time":1815000000000,"state":"active","ping":71},{"user_id":70,"name":"Rx of The Winter","steam_id":76561198018599636,"connected_time":2428000000000,"state":"active","ping":61}]},{"server_id":104,"name":"Uncletopia | Atlanta | 2 | All Maps","name_short":"atl-2","host":"atl-1.us.uncletopia.com","port":27025,"enabled":true,"region":"us-east","cc":"us","latitude":33.753746,"longitude":-84.38633,"reserved":0,"last_update":"0001-01-01T00:00:00Z","name_a2s":"Uncletopia | Atlanta | 2 | All Maps","protocol":17,"map":"cp_dustbowl","folder":"tf","game":"Team Fortress","app_id":440,"player_count":0,"max_players":24,"Bots":0,"server_type":"Dedicated","server_os":"Linux","password":true,"vac":true,"version":"7757534","steam_id":85568392924469983,"keywords":["cp","nocrits","nodmgspread","uncletopia"],"game_id":440,"stv_port":27026,"stv_name":"Uncletopia | Atlanta | 2 | All Maps | STV","players":null},{"server_id":400,"name":"Uncletopia | Atlanta | 3 | Community","name_short":"atl-3","host":"atl-1.us.uncletopia.com","port":27035,"enabled":true,"region":"us-east","cc":"us","latitude":33.753746,"longitude":-84.38633,"reserved":0,"last_update":"0001-01-01T00:00:00Z","name_a2s":"Uncletopia | Atlanta | 3 | Community","protocol":17,"map":"cp_snakewater_final1","folder":"tf","game":"Team Fortress","app_id":440,"player_count":0,"max_players":24,"Bots":0,"server_type":"Dedicated","server_os":"Linux","password":true,"vac":true,"version":"7757534","steam_id":85568392924515187,"keywords":["cp","nocrits","nodmgspread","uncletopia"],"game_id":440,"stv_port":27036,"stv_name":"Uncletopia | Atlanta | 3 | Community | STV","players":null},{"server_id":401,"name":"Uncletopia | Atlanta | 4 | No Payload","name_short":"atl-4","host":"atl-1.us.uncletopia.com","port":27045,"enabled":true,"region":"us-east","cc":"us","latitude":33.753746,"longitude":-84.38633,"reserved":0,"last_update":"0001-01-01T00:00:00Z","name_a2s":"","protocol":0,"map":"","folder":"","game":"","app_id":0,"player_count":0,"max_players":0,"Bots":0,"server_type":"","server_os":"","password":false,"vac":false,"version":"","steam_id":0,"keywords":null,"game_id":0,"stv_port":0,"stv_name":"","players":null},{"server_id":2,"name":"Uncletopia | Chicago | 1 | All Maps","name_short":"chi-1","host":"chi-1.us.uncletopia.com","port":27015,"enabled":true,"region":"us-central","cc":"us","latitude":41.881832,"longitude":-87.62318,"reserved":0,"last_update":"0001-01-01T00:00:00Z","name_a2s":"Uncletopia | Chicago | 1 | All Maps","protocol":17,"map":"pl_barnblitz","folder":"tf","game":"Team Fortress","app_id":440,"player_count":0,"max_players":24,"Bots":0,"server_type":"Dedicated","server_os":"Linux","password":true,"vac":true,"version":"7757534","steam_id":85568392924469984,"keywords":["nocrits","nodmgspread","payload","uncletopia"],"game_id":440,"stv_port":27016,"stv_name":"Uncletopia | Chicago | 1 | All Maps | STV","players":null},{"server_id":106,"name":"Uncletopia | Chicago | 2 | All Maps","name_short":"chi-2","host":"chi-1.us.uncletopia.com","port":27025,"enabled":true,"region":"us-central","cc":"us","latitude":41.881832,"longitude":-87.62318,"reserved":0,"last_update":"0001-01-01T00:00:00Z","name_a2s":"Uncletopia | Chicago | 2 | All Maps","protocol":17,"map":"cp_mountainlab","folder":"tf","game":"Team Fortress","app_id":440,"player_count":0,"max_players":24,"Bots":0,"server_type":"Dedicated","server_os":"Linux","password":true,"vac":true,"version":"7757534","steam_id":85568392924469985,"keywords":["cp","nocrits","nodmgspread","uncletopia"],"game_id":440,"stv_port":27026,"stv_name":"Uncletopia | Chicago | 2 | All Maps | STV","players":null},{"server_id":402,"name":"Uncletopia | Chicago | 3 | All Maps","name_short":"chi-3","host":"chi-1.us.uncletopia.com","port":27035,"enabled":true,"region":"us-central","cc":"us","latitude":41.881832,"longitude":-87.62318,"reserved":0,"last_update":"0001-01-01T00:00:00Z","name_a2s":"Uncletopia | Chicago | 3 | All Maps","protocol":17,"map":"cp_sunshine","folder":"tf","game":"Team Fortress","app_id":440,"player_count":0,"max_players":24,"Bots":0,"server_type":"Dedicated","server_os":"Linux","password":true,"vac":true,"version":"7757534","steam_id":85568392924515191,"keywords":["cp","nocrits","nodmgspread","uncletopia"],"game_id":440,"stv_port":27036,"stv_name":"Uncletopia | Chicago | 3 | All Maps | STV","players":null},{"server_id":403,"name":"Uncletopia | Chicago | 4 | All Maps","name_short":"chi-4","host":"chi-1.us.uncletopia.com","port":27045,"enabled":true,"region":"us-central","cc":"us","latitude":41.881832,"longitude":-87.62318,"reserved":0,"last_update":"0001-01-01T00:00:00Z","name_a2s":"Uncletopia | Chicago | 4 | All Maps","protocol":17,"map":"koth_lakeside_final","folder":"tf","game":"Team Fortress","app_id":440,"player_count":0,"max_players":24,"Bots":0,"server_type":"Dedicated","server_os":"Linux","password":true,"vac":true,"version":"7757534","steam_id":85568392924515193,"keywords":["cp","nocrits","nodmgspread","uncletopia"],"game_id":440,"stv_port":27046,"stv_name":"Uncletopia | Chicago | 4 | All Maps | STV","players":null},{"server_id":36,"name":"Uncletopia | Chicago | 5 | All Maps","name_short":"chi-5","host":"chi-2.us.uncletopia.com","port":27015,"enabled":true,"region":"us-central","cc":"us","latitude":41.881832,"longitude":-87.62318,"reserved":0,"last_update":"0001-01-01T00:00:00Z","name_a2s":"Uncletopia | Chicago | 5 | All Maps","protocol":17,"map":"koth_cascade","folder":"tf","game":"Team Fortress","app_id":440,"player_count":0,"max_players":24,"Bots":0,"server_type":"Dedicated","server_os":"Linux","password":true,"vac":true,"version":"7757534","steam_id":85568392924866362,"keywords":["cp","nocrits","nodmgspread","uncletopia"],"game_id":440,"stv_port":27016,"stv_name":"Uncletopia | Chicago | 5 | All Maps | STV","players":null},{"server_id":37,"name":"Uncletopia | Chicago | 6 | All Maps","name_short":"chi-6","host":"chi-2.us.uncletopia.com","port":27025,"enabled":true,"region":"us-central","cc":"us","latitude":41.881832,"longitude":-87.62318,"reserved":0,"last_update":"0001-01-01T00:00:00Z","name_a2s":"Uncletopia | Chicago | 6 | All Maps","protocol":17,"map":"pl_borneo","folder":"tf","game":"Team Fortress","app_id":440,"player_count":0,"max_players":24,"Bots":0,"server_type":"Dedicated","server_os":"Linux","password":true,"vac":true,"version":"7757534","steam_id":85568392924866363,"keywords":["nocrits","nodmgspread","payload","uncletopia"],"game_id":440,"stv_port":27026,"stv_name":"Uncletopia | Chicago | 6 | All Maps | STV","players":null},{"server_id":38,"name":"Uncletopia | Chicago | 7 | Stopwatch Beta","name_short":"chi-7","host":"chi-2.us.uncletopia.com","port":27035,"enabled":true,"region":"us-central","cc":"us","latitude":41.881832,"longitude":-87.62318,"reserved":0,"last_update":"0001-01-01T00:00:00Z","name_a2s":"Uncletopia | Chicago | 7 | Stopwatch Beta","protocol":17,"map":"pl_barnblitz","folder":"tf","game":"Team Fortress","app_id":440,"player_count":0,"max_players":24,"Bots":0,"server_type":"Dedicated","server_os":"Linux","password":true,"vac":true,"version":"7757534","steam_id":85568392924866364,"keywords":["nocrits","nodmgspread","payload","uncletopia"],"game_id":440,"stv_port":27036,"stv_name":"Uncletopia | Chicago | 7 | Stopwatch Beta | STV","players":null},{"server_id":39,"name":"Uncletopia | Chicago | 8 | Community","name_short":"chi-8","host":"chi-2.us.uncletopia.com","port":27045,"enabled":true,"region":"us-central","cc":"us","latitude":41.881832,"longitude":-87.62318,"reserved":0,"last_update":"0001-01-01T00:00:00Z","name_a2s":"Uncletopia | Chicago | 8 | Community","protocol":17,"map":"koth_cascade","folder":"tf","game":"Team Fortress","app_id":440,"player_count":6,"max_players":24,"Bots":0,"server_type":"Dedicated","server_os":"Linux","password":true,"vac":true,"version":"7757534","steam_id":85568392924866365,"keywords":["cp","nocrits","nodmgspread","uncletopia"],"game_id":440,"stv_port":27046,"stv_name":"Uncletopia | Chicago | 8 | Community | STV","players":[{"user_id":20,"name":"Wilhelmktx","steam_id":76561198158102295,"connected_time":11000000000,"state":"spawning","ping":32},{"user_id":14,"name":"Duckman","steam_id":76561198256238125,"connected_time":483000000000,"state":"active","ping":154},{"user_id":9,"name":"ttv/whiteboyst0ner1997","steam_id":76561198064558316,"connected_time":801000000000,"state":"active","ping":90},{"user_id":11,"name":"Maxxen","steam_id":76561198198054814,"connected_time":694000000000,"state":"active","ping":146},{"user_id":8,"name":"Morattab","steam_id":76561199467853508,"connected_time":1085000000000,"state":"active","ping":98},{"user_id":17,"name":"teaspinator","steam_id":76561199069748074,"connected_time":314000000000,"state":"active","ping":43}]},{"server_id":8,"name":"Uncletopia | Dallas | 1 | All Maps","name_short":"dal-1","host":"dal-1.us.uncletopia.com","port":27015,"enabled":true,"region":"us-central","cc":"us","latitude":32.779167,"longitude":-96.80889,"reserved":0,"last_update":"0001-01-01T00:00:00Z","name_a2s":"Uncletopia | Dallas | 1 | All Maps","protocol":17,"map":"pl_frontier_final","folder":"tf","game":"Team Fortress","app_id":440,"player_count":24,"max_players":24,"Bots":0,"server_type":"Dedicated","server_os":"Linux","password":true,"vac":true,"version":"7757534","steam_id":85568392924469986,"keywords":["nocrits","nodmgspread","payload","uncletopia"],"game_id":440,"stv_port":27016,"stv_name":"Uncletopia | Dallas | 1 | All Maps | STV","players":[{"user_id":94,"name":"cream abdul jabbar (angry)","steam_id":76561198054070811,"connected_time":902000000000,"state":"active","ping":77},{"user_id":92,"name":"effete","steam_id":76561197994376499,"connected_time":1256000000000,"state":"active","ping":91},{"user_id":106,"name":"Mystic man of potatoe","steam_id":76561198027267207,"connected_time":275000000000,"state":"active","ping":70},{"user_id":107,"name":"Minus273C","steam_id":76561197967510404,"connected_time":274000000000,"state":"active","ping":74},{"user_id":103,"name":"Yords","steam_id":76561198027925729,"connected_time":302000000000,"state":"active","ping":51},{"user_id":67,"name":"Zymiren","steam_id":76561198054985471,"connected_time":1806000000000,"state":"active","ping":96},{"user_id":40,"name":"MFShroom","steam_id":76561198305836153,"connected_time":3511000000000,"state":"active","ping":71},{"user_id":97,"name":"Soozy420","steam_id":76561198809074422,"connected_time":737000000000,"state":"active","ping":77},{"user_id":110,"name":"Django","steam_id":76561197971158403,"connected_time":65000000000,"state":"active","ping":87},{"user_id":52,"name":"dmdr1969","steam_id":76561198080469611,"connected_time":2665000000000,"state":"active","ping":72},{"user_id":49,"name":"Joe","steam_id":76561199389283507,"connected_time":2789000000000,"state":"active","ping":99},{"user_id":57,"name":"Sector ^^","steam_id":76561199216049671,"connected_time":2478000000000,"state":"active","ping":107},{"user_id":54,"name":"TheMysteryMan","steam_id":76561199229595389,"connected_time":2579000000000,"state":"active","ping":70},{"user_id":63,"name":"TATARA","steam_id":76561199098759517,"connected_time":1913000000000,"state":"active","ping":113},{"user_id":90,"name":"Kiss Master","steam_id":76561198289572271,"connected_time":1293000000000,"state":"active","ping":82},{"user_id":76,"name":"Zombiehunter11","steam_id":76561198237517830,"connected_time":1615000000000,"state":"active","ping":98},{"user_id":108,"name":"Mean Mr. Mustard","steam_id":76561198025185606,"connected_time":237000000000,"state":"active","ping":182},{"user_id":66,"name":"Daisy Le Nerd","steam_id":76561198149350087,"connected_time":1869000000000,"state":"active","ping":176},{"user_id":104,"name":"Deltaco","steam_id":76561198094572694,"connected_time":290000000000,"state":"active","ping":122},{"user_id":79,"name":"Aycey Spacey","steam_id":76561198862522941,"connected_time":1601000000000,"state":"active","ping":119},{"user_id":93,"name":"PzVIIIMaus","steam_id":76561198346559365,"connected_time":1044000000000,"state":"active","ping":69},{"user_id":95,"name":"TruffShuff","steam_id":76561198055869160,"connected_time":887000000000,"state":"active","ping":63},{"user_id":77,"name":"Ballista","steam_id":76561197983182562,"connected_time":1613000000000,"state":"active","ping":54},{"user_id":105,"name":"Mint Jelly","steam_id":76561197991286751,"connected_time":289000000000,"state":"active","ping":66}]},{"server_id":108,"name":"Uncletopia | Dallas | 2 | All Maps","name_short":"dal-2","host":"dal-1.us.uncletopia.com","port":27025,"enabled":true,"region":"us-central","cc":"us","latitude":32.779167,"longitude":-96.80889,"reserved":0,"last_update":"0001-01-01T00:00:00Z","name_a2s":"Uncletopia | Dallas | 2 | All Maps","protocol":17,"map":"pl_upward","folder":"tf","game":"Team Fortress","app_id":440,"player_count":0,"max_players":24,"Bots":0,"server_type":"Dedicated","server_os":"Linux","password":true,"vac":true,"version":"7757534","steam_id":85568392924469988,"keywords":["nocrits","nodmgspread","payload","uncletopia"],"game_id":440,"stv_port":27026,"stv_name":"Uncletopia | Dallas | 2 | All Maps | STV","players":null},{"server_id":5,"name":"Uncletopia | Frankfurt | 1 | All Maps","name_short":"frk-1","host":"frk-1.de.uncletopia.com","port":27015,"enabled":true,"region":"eu","cc":"de","latitude":50.110924,"longitude":8.682127,"reserved":0,"last_update":"0001-01-01T00:00:00Z","name_a2s":"Uncletopia | Frankfurt | 1 | All Maps","protocol":17,"map":"pl_borneo","folder":"tf","game":"Team Fortress","app_id":440,"player_count":24,"max_players":24,"Bots":0,"server_type":"Dedicated","server_os":"Linux","password":true,"vac":true,"version":"7757534","steam_id":85568392924469989,"keywords":["nocrits","nodmgspread","payload","uncletopia"],"game_id":440,"stv_port":27016,"stv_name":"Uncletopia | Frankfurt | 1 | All Maps | STV","players":[{"user_id":327,"name":"slowdown heavy","steam_id":76561198025916703,"connected_time":124000000000,"state":"active","ping":81},{"user_id":313,"name":"maiden","steam_id":76561197994492154,"connected_time":1288000000000,"state":"active","ping":70},{"user_id":326,"name":"cherry","steam_id":76561199006915718,"connected_time":348000000000,"state":"active","ping":69},{"user_id":311,"name":"GoudAI","steam_id":76561198103391197,"connected_time":1719000000000,"state":"active","ping":103},{"user_id":306,"name":"That Phlog mfer","steam_id":76561198050416948,"connected_time":1879000000000,"state":"active","ping":55},{"user_id":324,"name":"Banana Dispenser","steam_id":76561198446549451,"connected_time":387000000000,"state":"active","ping":143},{"user_id":301,"name":"lieutenant meaw is down meming","steam_id":76561198054313942,"connected_time":2113000000000,"state":"active","ping":170},{"user_id":312,"name":"HilVal","steam_id":76561198015228535,"connected_time":1427000000000,"state":"active","ping":87},{"user_id":289,"name":"pain train tf2","steam_id":76561198111568728,"connected_time":3099000000000,"state":"active","ping":48},{"user_id":320,"name":"panakid","steam_id":76561198364121077,"connected_time":1085000000000,"state":"active","ping":102},{"user_id":316,"name":"finest fucker in dc","steam_id":76561199042470246,"connected_time":1193000000000,"state":"active","ping":55},{"user_id":298,"name":"Bill_nye","steam_id":76561199216249214,"connected_time":2261000000000,"state":"active","ping":146},{"user_id":299,"name":"gort","steam_id":76561198060339391,"connected_time":2199000000000,"state":"active","ping":44},{"user_id":300,"name":"Vanta_BlackLD","steam_id":76561198346271576,"connected_time":2157000000000,"state":"active","ping":56},{"user_id":328,"name":"Menty","steam_id":76561198036748212,"connected_time":32000000000,"state":"active","ping":43},{"user_id":302,"name":"Tiainen","steam_id":76561199274711504,"connected_time":2108000000000,"state":"active","ping":93},{"user_id":281,"name":"quentu-","steam_id":76561198087457220,"connected_time":3429000000000,"state":"active","ping":69},{"user_id":263,"name":"Fish 'n' Chips","steam_id":76561198033476886,"connected_time":4853000000000,"state":"active","ping":45},{"user_id":307,"name":"metamikko","steam_id":76561198324704234,"connected_time":1837000000000,"state":"active","ping":124},{"user_id":321,"name":"bubamara69","steam_id":76561198866870398,"connected_time":931000000000,"state":"active","ping":75},{"user_id":319,"name":"The Original Aboriginal","steam_id":76561198341886313,"connected_time":1135000000000,"state":"active","ping":81},{"user_id":323,"name":"Raufaser","steam_id":76561199266632227,"connected_time":404000000000,"state":"active","ping":66},{"user_id":325,"name":"mitical uknown","steam_id":76561198844852761,"connected_time":382000000000,"state":"active","ping":70},{"user_id":288,"name":"ay","steam_id":76561198033695429,"connected_time":3141000000000,"state":"active","ping":54}]},{"server_id":110,"name":"Uncletopia | Frankfurt | 2 | All Maps","name_short":"frk-2","host":"frk-1.de.uncletopia.com","port":27025,"enabled":true,"region":"eu","cc":"de","latitude":50.110924,"longitude":8.682127,"reserved":0,"last_update":"0001-01-01T00:00:00Z","name_a2s":"Uncletopia | Frankfurt | 2 | All Maps","protocol":17,"map":"koth_viaduct","folder":"tf","game":"Team Fortress","app_id":440,"player_count":0,"max_players":24,"Bots":0,"server_type":"Dedicated","server_os":"Linux","password":true,"vac":true,"version":"7757534","steam_id":85568392924469990,"keywords":["cp","nocrits","nodmgspread","uncletopia"],"game_id":440,"stv_port":27026,"stv_name":"Uncletopia | Frankfurt | 2 | All Maps | STV","players":null},{"server_id":308,"name":"Uncletopia | Frankfurt | 3 | All Maps","name_short":"frk-3","host":"frk-1.de.uncletopia.com","port":27035,"enabled":true,"region":"eu","cc":"de","latitude":50.110924,"longitude":8.682127,"reserved":0,"last_update":"0001-01-01T00:00:00Z","name_a2s":"Uncletopia | Frankfurt | 3 | All Maps","protocol":17,"map":"pl_frontier_final","folder":"tf","game":"Team Fortress","app_id":440,"player_count":24,"max_players":24,"Bots":0,"server_type":"Dedicated","server_os":"Linux","password":true,"vac":true,"version":"7757534","steam_id":85568392924504274,"keywords":["nocrits","nodmgspread","payload","uncletopia"],"game_id":440,"stv_port":27036,"stv_name":"Uncletopia | Frankfurt | 3 | All Maps | STV","players":[{"user_id":164,"name":"Bruh","steam_id":76561199094106464,"connected_time":1435000000000,"state":"active","ping":74},{"user_id":162,"name":"Andreus","steam_id":76561199403926001,"connected_time":1719000000000,"state":"active","ping":62},{"user_id":119,"name":"El Gato Volador","steam_id":76561198021296882,"connected_time":4390000000000,"state":"active","ping":69},{"user_id":139,"name":"tallen","steam_id":76561198061708595,"connected_time":3169000000000,"state":"active","ping":81},{"user_id":173,"name":"Kodutah","steam_id":76561198203405574,"connected_time":782000000000,"state":"active","ping":62},{"user_id":125,"name":"Lyell","steam_id":76561198350329389,"connected_time":3952000000000,"state":"active","ping":86},{"user_id":145,"name":"omiliski","steam_id":76561198180942650,"connected_time":2573000000000,"state":"active","ping":68},{"user_id":160,"name":"RazorsEdge","steam_id":76561198006549279,"connected_time":2000000000000,"state":"active","ping":45},{"user_id":165,"name":"AJ Skye","steam_id":76561198061289475,"connected_time":1102000000000,"state":"active","ping":69},{"user_id":174,"name":"SCRAMMMBLED","steam_id":76561197998307746,"connected_time":668000000000,"state":"active","ping":65},{"user_id":166,"name":"Regan","steam_id":76561198100631086,"connected_time":1092000000000,"state":"active","ping":67},{"user_id":178,"name":"kryhu","steam_id":76561198293327713,"connected_time":242000000000,"state":"active","ping":72},{"user_id":175,"name":"beer thief","steam_id":76561198126524735,"connected_time":403000000000,"state":"active","ping":70},{"user_id":167,"name":"Wattseyy","steam_id":76561198248567360,"connected_time":1089000000000,"state":"active","ping":54},{"user_id":168,"name":"cracker","steam_id":76561198062107879,"connected_time":1082000000000,"state":"active","ping":76},{"user_id":144,"name":"Bred Sheeran","steam_id":76561198045692016,"connected_time":2668000000000,"state":"active","ping":47},{"user_id":151,"name":"Choruptian","steam_id":76561198017686366,"connected_time":2403000000000,"state":"active","ping":57},{"user_id":172,"name":"Mirlok3","steam_id":76561198093167827,"connected_time":807000000000,"state":"active","ping":72},{"user_id":140,"name":"Humle","steam_id":76561198056438772,"connected_time":2997000000000,"state":"active","ping":72},{"user_id":171,"name":"FlameTheGame","steam_id":76561198841108519,"connected_time":1025000000000,"state":"active","ping":75},{"user_id":132,"name":"Znoz","steam_id":76561198012093928,"connected_time":3670000000000,"state":"active","ping":97},{"user_id":177,"name":"\"Long\"","steam_id":76561198126398022,"connected_time":358000000000,"state":"active","ping":69},{"user_id":133,"name":"Bottle O' Scrumpy","steam_id":76561199244250562,"connected_time":3651000000000,"state":"active","ping":86},{"user_id":123,"name":"LOBZIK","steam_id":76561198114830120,"connected_time":4186000000000,"state":"active","ping":80}]},{"server_id":309,"name":"Uncletopia | Frankfurt | 4 | All Maps","name_short":"frk-4","host":"frk-1.de.uncletopia.com","port":27045,"enabled":true,"region":"eu","cc":"de","latitude":50.110924,"longitude":8.682127,"reserved":0,"last_update":"0001-01-01T00:00:00Z","name_a2s":"Uncletopia | Frankfurt | 4 | All Maps","protocol":17,"map":"koth_viaduct","folder":"tf","game":"Team Fortress","app_id":440,"player_count":0,"max_players":24,"Bots":0,"server_type":"Dedicated","server_os":"Linux","password":true,"vac":true,"version":"7757534","steam_id":85568392924504275,"keywords":["cp","nocrits","nodmgspread","uncletopia"],"game_id":440,"stv_port":27046,"stv_name":"Uncletopia | Frankfurt | 4 | All Maps | STV","players":null},{"server_id":310,"name":"Uncletopia | Frankfurt | 5 | All Maps","name_short":"frk-5","host":"frk-1.de.uncletopia.com","port":27055,"enabled":true,"region":"eu","cc":"de","latitude":50.110924,"longitude":8.682127,"reserved":0,"last_update":"0001-01-01T00:00:00Z","name_a2s":"Uncletopia | Frankfurt | 5 | All Maps","protocol":17,"map":"koth_cascade","folder":"tf","game":"Team Fortress","app_id":440,"player_count":23,"max_players":24,"Bots":0,"server_type":"Dedicated","server_os":"Linux","password":true,"vac":true,"version":"7757534","steam_id":85568392924504277,"keywords":["cp","nocrits","nodmgspread","uncletopia"],"game_id":440,"stv_port":27056,"stv_name":"Uncletopia | Frankfurt | 5 | All Maps | STV","players":[{"user_id":237,"name":"Lordware","steam_id":76561198022011299,"connected_time":1745000000000,"state":"active","ping":126},{"user_id":231,"name":"pidgeonlord","steam_id":76561198297290160,"connected_time":2074000000000,"state":"spawning","ping":66},{"user_id":275,"name":"Ratatatatatatouille","steam_id":76561198182267098,"connected_time":21000000000,"state":"connecting","ping":83},{"user_id":276,"name":"mèx","steam_id":76561197975951572,"connected_time":20000000000,"state":"spawning","ping":259},{"user_id":212,"name":"Ladi","steam_id":76561198047735194,"connected_time":2718000000000,"state":"active","ping":169},{"user_id":228,"name":"увынск","steam_id":76561198172046813,"connected_time":2309000000000,"state":"spawning","ping":64},{"user_id":241,"name":"Jeerven","steam_id":76561198259189841,"connected_time":1539000000000,"state":"spawning","ping":62},{"user_id":222,"name":"shit gaming","steam_id":76561198153877395,"connected_time":2480000000000,"state":"spawning","ping":80},{"user_id":243,"name":"I-I","steam_id":76561198267969436,"connected_time":1267000000000,"state":"active","ping":166},{"user_id":242,"name":"Alice can't hit pipes","steam_id":76561198052410860,"connected_time":1529000000000,"state":"spawning","ping":124},{"user_id":219,"name":"benifis163","steam_id":76561198420973492,"connected_time":2516000000000,"state":"spawning","ping":100},{"user_id":245,"name":"Milosz52","steam_id":76561199060940204,"connected_time":1165000000000,"state":"spawning","ping":78},{"user_id":261,"name":"Stragnov☆","steam_id":76561198074702465,"connected_time":735000000000,"state":"active","ping":174},{"user_id":249,"name":"PashaVerti","steam_id":76561199013963024,"connected_time":1013000000000,"state":"active","ping":131},{"user_id":250,"name":"SoupER","steam_id":76561198063056668,"connected_time":992000000000,"state":"spawning","ping":30},{"user_id":252,"name":"funkliner","steam_id":76561198436902492,"connected_time":939000000000,"state":"spawning","ping":89},{"user_id":268,"name":"Fat Pigeon","steam_id":76561198817940142,"connected_time":580000000000,"state":"active","ping":221},{"user_id":256,"name":"Kanksteli","steam_id":76561198035919109,"connected_time":797000000000,"state":"spawning","ping":147},{"user_id":270,"name":"Michael","steam_id":76561198003146906,"connected_time":433000000000,"state":"active","ping":163},{"user_id":260,"name":"TJ1212","steam_id":76561199013575313,"connected_time":753000000000,"state":"spawning","ping":356},{"user_id":272,"name":"chssdk","steam_id":76561198262231733,"connected_time":106000000000,"state":"spawning","ping":69},{"user_id":266,"name":"roblan11","steam_id":76561198066839258,"connected_time":673000000000,"state":"spawning","ping":35},{"user_id":274,"name":"Le Nain","steam_id":76561198050638632,"connected_time":79000000000,"state":"active","ping":209}]},{"server_id":311,"name":"Uncletopia | Frankfurt | 6 | All Maps","name_short":"frk-6","host":"frk-1.de.uncletopia.com","port":27065,"enabled":true,"region":"eu","cc":"de","latitude":50.110924,"longitude":8.682127,"reserved":0,"last_update":"0001-01-01T00:00:00Z","name_a2s":"Uncletopia | Frankfurt | 6 | All Maps","protocol":17,"map":"pl_upward","folder":"tf","game":"Team Fortress","app_id":440,"player_count":24,"max_players":24,"Bots":0,"server_type":"Dedicated","server_os":"Linux","password":true,"vac":true,"version":"7757534","steam_id":85568392924504278,"keywords":["nocrits","nodmgspread","payload","uncletopia"],"game_id":440,"stv_port":27066,"stv_name":"Uncletopia | Frankfurt | 6 | All Maps | STV","players":[{"user_id":250,"name":"goprit","steam_id":76561198072518761,"connected_time":1009000000000,"state":"active","ping":77},{"user_id":119,"name":"Muppburg","steam_id":76561198031070682,"connected_time":11724000000000,"state":"active","ping":75},{"user_id":248,"name":"A Dumbass","steam_id":76561198819665089,"connected_time":1850000000000,"state":"active","ping":66},{"user_id":239,"name":"blurst of times","steam_id":76561197972325640,"connected_time":2292000000000,"state":"active","ping":49},{"user_id":254,"name":"Chef Pesto","steam_id":76561199349742728,"connected_time":631000000000,"state":"active","ping":180},{"user_id":259,"name":"0","steam_id":76561198984436595,"connected_time":249000000000,"state":"active","ping":72},{"user_id":251,"name":"Pingus","steam_id":76561199015156956,"connected_time":878000000000,"state":"active","ping":99},{"user_id":252,"name":"Raulca25","steam_id":76561199068256964,"connected_time":842000000000,"state":"active","ping":92},{"user_id":235,"name":"...","steam_id":76561198312298321,"connected_time":2924000000000,"state":"active","ping":146},{"user_id":255,"name":"(wm) Das Fleisch","steam_id":76561198001250715,"connected_time":576000000000,"state":"active","ping":57},{"user_id":245,"name":"Ecton","steam_id":76561198025103720,"connected_time":2060000000000,"state":"active","ping":62},{"user_id":224,"name":"Turk Scout","steam_id":76561198975267711,"connected_time":4115000000000,"state":"active","ping":103},{"user_id":241,"name":"B@yka","steam_id":76561198986736592,"connected_time":2274000000000,"state":"active","ping":81},{"user_id":242,"name":"Dragon","steam_id":76561198163255365,"connected_time":2265000000000,"state":"active","ping":109},{"user_id":249,"name":"3þ4n","steam_id":76561198411134617,"connected_time":1442000000000,"state":"active","ping":66},{"user_id":256,"name":"willus212","steam_id":76561199182615246,"connected_time":571000000000,"state":"active","ping":81},{"user_id":257,"name":"We are in a world of magic","steam_id":76561198104745492,"connected_time":564000000000,"state":"active","ping":70},{"user_id":219,"name":"Dooting","steam_id":76561199069121777,"connected_time":4377000000000,"state":"active","ping":80},{"user_id":231,"name":"Topi","steam_id":76561198165732391,"connected_time":3652000000000,"state":"active","ping":100},{"user_id":170,"name":"Gioni","steam_id":76561198395912581,"connected_time":7956000000000,"state":"active","ping":120},{"user_id":247,"name":"Saab enjoyer","steam_id":76561199405893396,"connected_time":1969000000000,"state":"active","ping":191},{"user_id":258,"name":"money goblin","steam_id":76561198103175187,"connected_time":442000000000,"state":"active","ping":64},{"user_id":253,"name":"HwK!","steam_id":76561198287835588,"connected_time":747000000000,"state":"active","ping":93},{"user_id":207,"name":"pippis!","steam_id":76561198264553801,"connected_time":5584000000000,"state":"active","ping":88}]},{"server_id":23,"name":"Uncletopia | Frankfurt | 7 | Stopwatch Beta","name_short":"frk-7","host":"frk-1.de.uncletopia.com","port":27075,"enabled":true,"region":"eu","cc":"de","latitude":50.110924,"longitude":8.682127,"reserved":0,"last_update":"0001-01-01T00:00:00Z","name_a2s":"Uncletopia | Frankfurt | 7 | Stopwatch Beta","protocol":17,"map":"workshop/koth_ashville_final.ugc2130459942","folder":"tf","game":"Team Fortress","app_id":440,"player_count":9,"max_players":24,"Bots":0,"server_type":"Dedicated","server_os":"Linux","password":true,"vac":true,"version":"7757534","steam_id":85568392924742827,"keywords":["cp","nocrits","nodmgspread","uncletopia"],"game_id":440,"stv_port":27076,"stv_name":"Uncletopia | Frankfurt | 7 | Stopwatch Beta | STV","players":[{"user_id":5,"name":"esoteric thug hunter","steam_id":76561198367337443,"connected_time":681000000000,"state":"active","ping":89},{"user_id":9,"name":"OSwaldd","steam_id":76561199078712899,"connected_time":545000000000,"state":"active","ping":79},{"user_id":7,"name":"intestine baalism","steam_id":76561198406814499,"connected_time":621000000000,"state":"active","ping":84},{"user_id":10,"name":"Alfred Schroom","steam_id":76561198117990411,"connected_time":316000000000,"state":"active","ping":128},{"user_id":11,"name":"likuor","steam_id":76561198802944473,"connected_time":309000000000,"state":"active","ping":86},{"user_id":12,"name":"Rat King","steam_id":76561198256783599,"connected_time":140000000000,"state":"active","ping":63},{"user_id":13,"name":"spy gaming","steam_id":76561199023265517,"connected_time":14000000000,"state":"spawning","ping":91},{"user_id":14,"name":"Dawu","steam_id":76561198060418376,"connected_time":11000000000,"state":"spawning","ping":163},{"user_id":15,"name":"Flying skyhigh","steam_id":76561198372971096,"connected_time":8000000000,"state":"spawning","ping":142}]},{"server_id":24,"name":"Uncletopia | Frankfurt | 8 | Community","name_short":"frk-8","host":"frk-1.de.uncletopia.com","port":27085,"enabled":true,"region":"eu","cc":"de","latitude":50.110924,"longitude":8.682127,"reserved":0,"last_update":"0001-01-01T00:00:00Z","name_a2s":"Uncletopia | Frankfurt | 8 | Community","protocol":17,"map":"workshop/cp_alloy_rc3.ugc592805587","folder":"tf","game":"Team Fortress","app_id":440,"player_count":0,"max_players":24,"Bots":0,"server_type":"Dedicated","server_os":"Linux","password":true,"vac":true,"version":"7757534","steam_id":85568392924742828,"keywords":["cp","nocrits","nodmgspread","uncletopia"],"game_id":440,"stv_port":27086,"stv_name":"Uncletopia | Frankfurt | 8 | Community | STV","players":null},{"server_id":202,"name":"Uncletopia | Hong Kong | 1 | All Maps","name_short":"hgk-1","host":"hgk-1.hk.uncletopia.com","port":27015,"enabled":true,"region":"asia","cc":"hk","latitude":22.302711,"longitude":114.177216,"reserved":0,"last_update":"0001-01-01T00:00:00Z","name_a2s":"Uncletopia | Hong Kong | 1 | All Maps","protocol":17,"map":"pl_pier","folder":"tf","game":"Team Fortress","app_id":440,"player_count":25,"max_players":24,"Bots":0,"server_type":"Dedicated","server_os":"Linux","password":true,"vac":true,"version":"7757534","steam_id":85568392924494504,"keywords":["nocrits","nodmgspread","payload","uncletopia"],"game_id":440,"stv_port":27016,"stv_name":"Uncletopia | Hong Kong | 1 | All Maps | STV","players":[{"user_id":502,"name":"Hay","steam_id":76561199438952901,"connected_time":4783000000000,"state":"active","ping":51},{"user_id":439,"name":"ZeniaPY (Playing on Wacom)","steam_id":76561198404352831,"connected_time":8365000000000,"state":"active","ping":69},{"user_id":403,"name":"killman47","steam_id":76561198348487408,"connected_time":11172000000000,"state":"active","ping":35},{"user_id":521,"name":"๋","steam_id":76561198413116920,"connected_time":3627000000000,"state":"active","ping":76},{"user_id":568,"name":"Pillboi","steam_id":76561198011172886,"connected_time":535000000000,"state":"active","ping":37},{"user_id":564,"name":"Panfoolery","steam_id":76561199042318535,"connected_time":838000000000,"state":"active","ping":100},{"user_id":576,"name":"sáu thiện nhân","steam_id":76561199373637717,"connected_time":204000000000,"state":"active","ping":96},{"user_id":562,"name":"ase","steam_id":76561198152588681,"connected_time":891000000000,"state":"active","ping":82},{"user_id":546,"name":"17","steam_id":76561198241530712,"connected_time":1741000000000,"state":"active","ping":59},{"user_id":466,"name":"쿠키","steam_id":76561197997220367,"connected_time":7028000000000,"state":"active","ping":45},{"user_id":575,"name":":)","steam_id":76561198437941450,"connected_time":222000000000,"state":"active","ping":115},{"user_id":524,"name":"P","steam_id":76561198304514505,"connected_time":3467000000000,"state":"active","ping":75},{"user_id":565,"name":"Puddin","steam_id":76561198140052918,"connected_time":607000000000,"state":"active","ping":91},{"user_id":579,"name":"Dolla","steam_id":76561199401233865,"connected_time":42000000000,"state":"connecting","ping":0},{"user_id":494,"name":"P 3","steam_id":76561198092969425,"connected_time":5836000000000,"state":"active","ping":115},{"user_id":503,"name":"7853","steam_id":76561199390507975,"connected_time":4766000000000,"state":"active","ping":58},{"user_id":552,"name":"9Д6","steam_id":76561198124697322,"connected_time":1440000000000,"state":"active","ping":98},{"user_id":470,"name":"Stupid B","steam_id":76561198131423270,"connected_time":6835000000000,"state":"active","ping":119},{"user_id":499,"name":"Buttman","steam_id":76561198044693388,"connected_time":5045000000000,"state":"active","ping":55},{"user_id":518,"name":"shenko","steam_id":76561198082921407,"connected_time":3680000000000,"state":"active","ping":128},{"user_id":577,"name":"Pieces","steam_id":76561199215763743,"connected_time":202000000000,"state":"active","ping":86},{"user_id":580,"name":"Doctor!","steam_id":76561198041851238,"connected_time":12000000000,"state":"active","ping":133},{"user_id":540,"name":"TomProPlayer","steam_id":76561199223292521,"connected_time":2486000000000,"state":"active","ping":108},{"user_id":570,"name":"PapaFranku69","steam_id":76561199446266814,"connected_time":364000000000,"state":"active","ping":103},{"user_id":573,"name":"IDontLaunder","steam_id":76561199103223706,"connected_time":352000000000,"state":"active","ping":180}]},{"server_id":1,"name":"Uncletopia | Los Angeles | 1 | All Maps","name_short":"lax-1","host":"lax-1.us.uncletopia.com","port":27015,"enabled":true,"region":"us-west","cc":"us","latitude":33.94279,"longitude":-118.41004,"reserved":0,"last_update":"0001-01-01T00:00:00Z","name_a2s":"Uncletopia | Los Angeles | 1 | All Maps","protocol":17,"map":"koth_lakeside_final","folder":"tf","game":"Team Fortress","app_id":440,"player_count":0,"max_players":24,"Bots":0,"server_type":"Dedicated","server_os":"Linux","password":true,"vac":true,"version":"7757534","steam_id":85568392924469991,"keywords":["cp","nocrits","nodmgspread","uncletopia"],"game_id":440,"stv_port":27016,"stv_name":"Uncletopia | Los Angeles | 1 | All Maps | STV","players":null},{"server_id":112,"name":"Uncletopia | Los Angeles | 2 | All Maps","name_short":"lax-2","host":"lax-1.us.uncletopia.com","port":27025,"enabled":true,"region":"us-west","cc":"us","latitude":33.94279,"longitude":-118.41004,"reserved":0,"last_update":"0001-01-01T00:00:00Z","name_a2s":"Uncletopia | Los Angeles | 2 | All Maps","protocol":17,"map":"pl_badwater","folder":"tf","game":"Team Fortress","app_id":440,"player_count":0,"max_players":24,"Bots":0,"server_type":"Dedicated","server_os":"Linux","password":true,"vac":true,"version":"7757534","steam_id":85568392924469992,"keywords":["nocrits","nodmgspread","payload","uncletopia"],"game_id":440,"stv_port":27026,"stv_name":"Uncletopia | Los Angeles | 2 | All Maps | STV","players":null},{"server_id":324,"name":"Uncletopia | Los Angeles | 3 | All Maps","name_short":"lax-3","host":"lax-1.us.uncletopia.com","port":27035,"enabled":true,"region":"us-west","cc":"us","latitude":33.94279,"longitude":-118.41004,"reserved":0,"last_update":"0001-01-01T00:00:00Z","name_a2s":"Uncletopia | Los Angeles | 3 | All Maps","protocol":17,"map":"pl_barnblitz","folder":"tf","game":"Team Fortress","app_id":440,"player_count":0,"max_players":24,"Bots":0,"server_type":"Dedicated","server_os":"Linux","password":true,"vac":true,"version":"7757534","steam_id":85568392924510198,"keywords":["nocrits","nodmgspread","payload","uncletopia"],"game_id":440,"stv_port":27036,"stv_name":"Uncletopia | Los Angeles | 3 | All Maps | STV","players":null},{"server_id":25,"name":"Uncletopia | Los Angeles | 4 | Stopwatch Beta","name_short":"lax-4","host":"lax-1.us.uncletopia.com","port":27045,"enabled":true,"region":"us-west","cc":"us","latitude":33.94279,"longitude":-118.41004,"reserved":0,"last_update":"0001-01-01T00:00:00Z","name_a2s":"Uncletopia | Los Angeles | 4 | Stopwatch Beta","protocol":17,"map":"pl_swiftwater_final1","folder":"tf","game":"Team Fortress","app_id":440,"player_count":0,"max_players":24,"Bots":0,"server_type":"Dedicated","server_os":"Linux","password":true,"vac":true,"version":"7757534","steam_id":85568392924510199,"keywords":["nocrits","nodmgspread","payload","uncletopia"],"game_id":440,"stv_port":27046,"stv_name":"Uncletopia | Los Angeles | 4 | Stopwatch Beta | STV","players":null},{"server_id":11,"name":"Uncletopia | London | 1 | All Maps","name_short":"lon-1","host":"lon-1.uk.uncletopia.com","port":27015,"enabled":true,"region":"eu","cc":"gb","latitude":51.509865,"longitude":-0.118092,"reserved":0,"last_update":"0001-01-01T00:00:00Z","name_a2s":"Uncletopia | London | 1 | All Maps","protocol":17,"map":"ctf_doublecross","folder":"tf","game":"Team Fortress","app_id":440,"player_count":24,"max_players":24,"Bots":0,"server_type":"Dedicated","server_os":"Linux","password":true,"vac":true,"version":"7757534","steam_id":85568392924367362,"keywords":["ctf","nocrits","nodmgspread","uncletopia"],"game_id":440,"stv_port":27016,"stv_name":"Uncletopia | London | 1 | All Maps | STV","players":[{"user_id":286,"name":"Anoobis","steam_id":76561199419533757,"connected_time":3361000000000,"state":"active","ping":79},{"user_id":317,"name":"bowchika wowa #SlavaUkraine","steam_id":76561198159564550,"connected_time":1337000000000,"state":"active","ping":70},{"user_id":287,"name":"KnugenIV","steam_id":76561198127091993,"connected_time":3356000000000,"state":"active","ping":58},{"user_id":335,"name":"dafydd","steam_id":76561198052200325,"connected_time":72000000000,"state":"active","ping":87},{"user_id":263,"name":"Poppy Stingray","steam_id":76561198049673783,"connected_time":4206000000000,"state":"active","ping":71},{"user_id":326,"name":"Little Gremlin","steam_id":76561199017872113,"connected_time":560000000000,"state":"active","ping":60},{"user_id":327,"name":"impossible whopper eater","steam_id":76561198058641805,"connected_time":528000000000,"state":"active","ping":49},{"user_id":256,"name":"Uncle Terry","steam_id":76561198396415736,"connected_time":4771000000000,"state":"active","ping":54},{"user_id":322,"name":"Alexandre","steam_id":76561198121784446,"connected_time":674000000000,"state":"active","ping":43},{"user_id":325,"name":"Jesus Enjoyer","steam_id":76561198840259819,"connected_time":618000000000,"state":"active","ping":57},{"user_id":315,"name":"mike erhmentraut","steam_id":76561199025378498,"connected_time":1462000000000,"state":"active","ping":33},{"user_id":306,"name":"Mannequin","steam_id":76561198128833974,"connected_time":2070000000000,"state":"active","ping":54},{"user_id":328,"name":"Bob","steam_id":76561199233237550,"connected_time":514000000000,"state":"active","ping":67},{"user_id":323,"name":"theofiel","steam_id":76561198030217950,"connected_time":652000000000,"state":"active","ping":55},{"user_id":241,"name":"porngamer","steam_id":76561198204620491,"connected_time":6108000000000,"state":"active","ping":42},{"user_id":334,"name":"strideΔ","steam_id":76561199007826093,"connected_time":128000000000,"state":"active","ping":72},{"user_id":332,"name":"john fortress","steam_id":76561198013237629,"connected_time":200000000000,"state":"active","ping":89},{"user_id":289,"name":"ijustsmokeandcry","steam_id":76561198044189114,"connected_time":3219000000000,"state":"active","ping":61},{"user_id":314,"name":"Ricky Dicky Grimes","steam_id":76561198065506317,"connected_time":1550000000000,"state":"active","ping":74},{"user_id":319,"name":"Dr. Enforcicle (real)","steam_id":76561198964471859,"connected_time":1233000000000,"state":"active","ping":143},{"user_id":294,"name":"Fwebbie","steam_id":76561199006875621,"connected_time":3069000000000,"state":"active","ping":55},{"user_id":265,"name":"Beta Probopass","steam_id":76561198140806694,"connected_time":4196000000000,"state":"active","ping":89},{"user_id":269,"name":"Mr_Pulse_","steam_id":76561198095001602,"connected_time":4065000000000,"state":"active","ping":104},{"user_id":331,"name":"MT Foxtrot","steam_id":76561198058003989,"connected_time":472000000000,"state":"active","ping":61}]},{"server_id":114,"name":"Uncletopia | London | 2 | All Maps","name_short":"lon-2","host":"lon-1.uk.uncletopia.com","port":27025,"enabled":true,"region":"eu","cc":"gb","latitude":51.509865,"longitude":-0.118092,"reserved":0,"last_update":"0001-01-01T00:00:00Z","name_a2s":"Uncletopia | London | 2 | All Maps","protocol":17,"map":"pl_borneo","folder":"tf","game":"Team Fortress","app_id":440,"player_count":24,"max_players":24,"Bots":0,"server_type":"Dedicated","server_os":"Linux","password":true,"vac":true,"version":"7757534","steam_id":85568392924470941,"keywords":["nocrits","nodmgspread","payload","uncletopia"],"game_id":440,"stv_port":27026,"stv_name":"Uncletopia | London | 2 | All Maps | STV","players":[{"user_id":115,"name":"It's a me Malario","steam_id":76561198176546013,"connected_time":2409000000000,"state":"active","ping":49},{"user_id":106,"name":"Redkiller","steam_id":76561199453655288,"connected_time":2658000000000,"state":"active","ping":138},{"user_id":130,"name":"UnknownHero","steam_id":76561198864766392,"connected_time":1697000000000,"state":"active","ping":91},{"user_id":56,"name":"I eat pigeons","steam_id":76561198073769916,"connected_time":5946000000000,"state":"active","ping":59},{"user_id":157,"name":"Morpheus","steam_id":76561198208349835,"connected_time":402000000000,"state":"active","ping":66},{"user_id":147,"name":"Topia","steam_id":76561198163571788,"connected_time":971000000000,"state":"active","ping":95},{"user_id":145,"name":"Anri Okita's Massive Milkers","steam_id":76561199186352720,"connected_time":1098000000000,"state":"active","ping":58},{"user_id":152,"name":"my mom","steam_id":76561199225201569,"connected_time":776000000000,"state":"active","ping":124},{"user_id":162,"name":"Filleman","steam_id":76561198159386946,"connected_time":49000000000,"state":"spawning","ping":55},{"user_id":151,"name":"Drac","steam_id":76561198031636019,"connected_time":871000000000,"state":"active","ping":61},{"user_id":131,"name":"The tiniest boy","steam_id":76561198044165189,"connected_time":1689000000000,"state":"active","ping":74},{"user_id":110,"name":"nyanezt","steam_id":76561198253734265,"connected_time":2558000000000,"state":"active","ping":117},{"user_id":153,"name":"Mr. Sir Sam Esquire","steam_id":76561199046746665,"connected_time":760000000000,"state":"active","ping":162},{"user_id":116,"name":"*-*","steam_id":76561198119230058,"connected_time":2355000000000,"state":"active","ping":56},{"user_id":141,"name":"Smokio","steam_id":76561198069650580,"connected_time":1285000000000,"state":"active","ping":88},{"user_id":135,"name":"Tesla","steam_id":76561198378649144,"connected_time":1380000000000,"state":"active","ping":70},{"user_id":154,"name":"✪ qua ✪","steam_id":76561198066408333,"connected_time":738000000000,"state":"active","ping":75},{"user_id":144,"name":"Fames","steam_id":76561198050374123,"connected_time":1120000000000,"state":"active","ping":63},{"user_id":156,"name":"Lyzz","steam_id":76561198103622650,"connected_time":428000000000,"state":"active","ping":75},{"user_id":149,"name":"Arkainiel Silver","steam_id":76561198188302519,"connected_time":960000000000,"state":"active","ping":65},{"user_id":125,"name":"Azusa","steam_id":76561198081764271,"connected_time":2190000000000,"state":"active","ping":59},{"user_id":161,"name":"Nifi","steam_id":76561198102682566,"connected_time":126000000000,"state":"active","ping":75},{"user_id":158,"name":"steve","steam_id":76561198335143890,"connected_time":387000000000,"state":"active","ping":48},{"user_id":159,"name":"Morisan","steam_id":76561198043153528,"connected_time":382000000000,"state":"active","ping":44}]},{"server_id":320,"name":"Uncletopia | London | 3 | All Maps","name_short":"lon-3","host":"lon-1.uk.uncletopia.com","port":27035,"enabled":true,"region":"eu","cc":"gb","latitude":51.509865,"longitude":-0.118092,"reserved":0,"last_update":"0001-01-01T00:00:00Z","name_a2s":"Uncletopia | London | 3 | All Maps","protocol":17,"map":"pl_barnblitz","folder":"tf","game":"Team Fortress","app_id":440,"player_count":24,"max_players":24,"Bots":0,"server_type":"Dedicated","server_os":"Linux","password":true,"vac":true,"version":"7757534","steam_id":85568392924510192,"keywords":["nocrits","nodmgspread","payload","uncletopia"],"game_id":440,"stv_port":27036,"stv_name":"Uncletopia | London | 3 | All Maps | STV","players":[{"user_id":164,"name":"whyamialive","steam_id":76561199070008862,"connected_time":8163000000000,"state":"active","ping":37},{"user_id":261,"name":"Jan.","steam_id":76561197974066329,"connected_time":2398000000000,"state":"active","ping":60},{"user_id":268,"name":"unconditional love","steam_id":76561199026097466,"connected_time":1783000000000,"state":"active","ping":74},{"user_id":262,"name":"fifrok","steam_id":76561198799267621,"connected_time":2314000000000,"state":"active","ping":83},{"user_id":276,"name":"juntao","steam_id":76561198363882056,"connected_time":1597000000000,"state":"active","ping":39},{"user_id":241,"name":"w presser","steam_id":76561197994600818,"connected_time":3605000000000,"state":"active","ping":39},{"user_id":270,"name":"SugarPlumb","steam_id":76561198258269600,"connected_time":1768000000000,"state":"active","ping":48},{"user_id":282,"name":"Lethal","steam_id":76561198452042648,"connected_time":915000000000,"state":"active","ping":73},{"user_id":283,"name":"Svilar","steam_id":76561198828348612,"connected_time":719000000000,"state":"active","ping":78},{"user_id":267,"name":"whats an egg","steam_id":76561198991039398,"connected_time":1890000000000,"state":"active","ping":145},{"user_id":272,"name":"fl1p","steam_id":76561198148565659,"connected_time":1721000000000,"state":"active","ping":70},{"user_id":273,"name":"Tort","steam_id":76561198329646769,"connected_time":1702000000000,"state":"active","ping":59},{"user_id":219,"name":"Flare","steam_id":76561198039098320,"connected_time":4453000000000,"state":"active","ping":51},{"user_id":225,"name":"す LightFlight し","steam_id":76561198079007530,"connected_time":4223000000000,"state":"active","ping":53},{"user_id":259,"name":"kicking the can","steam_id":76561198036730191,"connected_time":2721000000000,"state":"active","ping":44},{"user_id":284,"name":"Nekontrolovatelná střela","steam_id":76561198056810212,"connected_time":396000000000,"state":"active","ping":75},{"user_id":274,"name":"MaRo","steam_id":76561198992286676,"connected_time":1669000000000,"state":"active","ping":57},{"user_id":279,"name":"slightly drunk","steam_id":76561199184873889,"connected_time":1495000000000,"state":"active","ping":66},{"user_id":239,"name":"Milca_11 [Wielder of Ham]","steam_id":76561198848650365,"connected_time":3724000000000,"state":"active","ping":77},{"user_id":202,"name":"UltraCoolKiddo","steam_id":76561198102025290,"connected_time":6315000000000,"state":"active","ping":64},{"user_id":277,"name":"Majami","steam_id":76561198054365738,"connected_time":1586000000000,"state":"active","ping":96},{"user_id":240,"name":"Soerlssoelssöen","steam_id":76561197993060585,"connected_time":3669000000000,"state":"active","ping":81},{"user_id":281,"name":"Heck Engine","steam_id":76561198055759310,"connected_time":936000000000,"state":"active","ping":139},{"user_id":278,"name":"Avg. Santa Believer (Nice list)","steam_id":76561198040444697,"connected_time":1581000000000,"state":"active","ping":123}]},{"server_id":321,"name":"Uncletopia | London | 4 | All Maps","name_short":"lon-4","host":"lon-1.uk.uncletopia.com","port":27045,"enabled":true,"region":"eu","cc":"gb","latitude":51.509865,"longitude":-0.118092,"reserved":0,"last_update":"0001-01-01T00:00:00Z","name_a2s":"Uncletopia | London | 4 | All Maps","protocol":17,"map":"koth_highpass","folder":"tf","game":"Team Fortress","app_id":440,"player_count":0,"max_players":24,"Bots":0,"server_type":"Dedicated","server_os":"Linux","password":true,"vac":true,"version":"7757534","steam_id":85568392924510193,"keywords":["cp","nocrits","nodmgspread","uncletopia"],"game_id":440,"stv_port":27046,"stv_name":"Uncletopia | London | 4 | All Maps | STV","players":null},{"server_id":21,"name":"Uncletopia | London | 5 | All Maps","name_short":"lon-5","host":"lon-1.uk.uncletopia.com","port":27055,"enabled":true,"region":"eu","cc":"gb","latitude":51.509865,"longitude":-0.118092,"reserved":0,"last_update":"0001-01-01T00:00:00Z","name_a2s":"Uncletopia | London | 5 | All Maps","protocol":17,"map":"pl_swiftwater_final1","folder":"tf","game":"Team Fortress","app_id":440,"player_count":24,"max_players":24,"Bots":0,"server_type":"Dedicated","server_os":"Linux","password":true,"vac":true,"version":"7757534","steam_id":85568392924742829,"keywords":["nocrits","nodmgspread","payload","uncletopia"],"game_id":440,"stv_port":27056,"stv_name":"Uncletopia | London | 5 | All Maps | STV","players":[{"user_id":15,"name":"Spectre","steam_id":76561198163819482,"connected_time":4837000000000,"state":"active","ping":66},{"user_id":54,"name":"cs_office","steam_id":76561199084788915,"connected_time":1535000000000,"state":"active","ping":45},{"user_id":49,"name":"Mircoxi","steam_id":76561199407632710,"connected_time":1846000000000,"state":"active","ping":52},{"user_id":46,"name":"Replica","steam_id":76561198243258784,"connected_time":2002000000000,"state":"active","ping":76},{"user_id":9,"name":"ThellanM","steam_id":76561199014222387,"connected_time":5475000000000,"state":"active","ping":75},{"user_id":10,"name":"Pruff","steam_id":76561198377084417,"connected_time":5259000000000,"state":"active","ping":63},{"user_id":17,"name":"Manne","steam_id":76561197966137258,"connected_time":4490000000000,"state":"active","ping":86},{"user_id":20,"name":"rhean\u002621","steam_id":76561198389400021,"connected_time":4082000000000,"state":"active","ping":49},{"user_id":18,"name":"Raine","steam_id":76561198098860903,"connected_time":4322000000000,"state":"active","ping":59},{"user_id":50,"name":"Robr","steam_id":76561198321723252,"connected_time":1692000000000,"state":"active","ping":59},{"user_id":63,"name":"Jack","steam_id":76561198325505238,"connected_time":1392000000000,"state":"active","ping":86},{"user_id":31,"name":"CreepyChocolate","steam_id":76561198133541741,"connected_time":3095000000000,"state":"active","ping":72},{"user_id":57,"name":"eboscrabbly","steam_id":76561198377254795,"connected_time":1483000000000,"state":"active","ping":85},{"user_id":25,"name":"꧁๖乡Ðe·SexyLion乡꧂","steam_id":76561198123539320,"connected_time":3508000000000,"state":"active","ping":94},{"user_id":67,"name":"IncrediblyTexan","steam_id":76561199159370663,"connected_time":426000000000,"state":"active","ping":78},{"user_id":66,"name":"LFGGGGGG","steam_id":76561199062586342,"connected_time":978000000000,"state":"active","ping":69},{"user_id":59,"name":"Virgil","steam_id":76561198248786778,"connected_time":1466000000000,"state":"active","ping":109},{"user_id":60,"name":"Dolcelatte","steam_id":76561198038501770,"connected_time":1466000000000,"state":"active","ping":60},{"user_id":61,"name":"Arcane_Artifice","steam_id":76561199042987882,"connected_time":1443000000000,"state":"active","ping":48},{"user_id":69,"name":"dimitrij_6ix_god","steam_id":76561199023275543,"connected_time":362000000000,"state":"active","ping":89},{"user_id":70,"name":"Sch","steam_id":76561198071341689,"connected_time":233000000000,"state":"active","ping":60},{"user_id":62,"name":"Saucy Jack","steam_id":76561198894525288,"connected_time":1408000000000,"state":"active","ping":44},{"user_id":40,"name":"Bill Nye","steam_id":76561198168589809,"connected_time":2636000000000,"state":"active","ping":45},{"user_id":41,"name":"I have aids","steam_id":76561198860347851,"connected_time":2622000000000,"state":"active","ping":117}]},{"server_id":22,"name":"Uncletopia | London | 6 | All Maps","name_short":"lon-6","host":"lon-1.uk.uncletopia.com","port":27065,"enabled":true,"region":"eu","cc":"gb","latitude":51.509865,"longitude":-0.118092,"reserved":0,"last_update":"0001-01-01T00:00:00Z","name_a2s":"Uncletopia | London | 6 | All Maps","protocol":17,"map":"pl_pier","folder":"tf","game":"Team Fortress","app_id":440,"player_count":0,"max_players":24,"Bots":0,"server_type":"Dedicated","server_os":"Linux","password":true,"vac":true,"version":"7757534","steam_id":85568392924742830,"keywords":["nocrits","nodmgspread","payload","uncletopia"],"game_id":440,"stv_port":27066,"stv_name":"Uncletopia | London | 6 | All Maps | STV","players":null},{"server_id":40,"name":"Uncletopia | London | 7 | No Payload","name_short":"lon-7","host":"lon-1.uk.uncletopia.com","port":27075,"enabled":true,"region":"eu","cc":"gb","latitude":51.509865,"longitude":-0.118092,"reserved":0,"last_update":"0001-01-01T00:00:00Z","name_a2s":"Uncletopia | London | 7 | No Payload","protocol":17,"map":"cp_gullywash_final1","folder":"tf","game":"Team Fortress","app_id":440,"player_count":0,"max_players":24,"Bots":0,"server_type":"Dedicated","server_os":"Linux","password":true,"vac":true,"version":"7757534","steam_id":85568392924964314,"keywords":["cp","nocrits","nodmgspread","uncletopia"],"game_id":440,"stv_port":27076,"stv_name":"Uncletopia | London | 7 | No Payload | STV","players":null},{"server_id":41,"name":"Uncletopia | London | 8 | Community","name_short":"lon-8","host":"lon-1.uk.uncletopia.com","port":27085,"enabled":true,"region":"eu","cc":"gb","latitude":51.509865,"longitude":-0.118092,"reserved":0,"last_update":"0001-01-01T00:00:00Z","name_a2s":"Uncletopia | London | 8 | Community","protocol":17,"map":"workshop/cp_alloy_rc3.ugc592805587","folder":"tf","game":"Team Fortress","app_id":440,"player_count":0,"max_players":24,"Bots":0,"server_type":"Dedicated","server_os":"Linux","password":true,"vac":true,"version":"7757534","steam_id":85568392924964315,"keywords":["cp","nocrits","nodmgspread","uncletopia"],"game_id":440,"stv_port":27086,"stv_name":"Uncletopia | London | 8 | Community | STV","players":null},{"server_id":300,"name":"Uncletopia | Montréal | 1 | All Maps","name_short":"mtl-1","host":"mtl-1.ca.uncletopia.com","port":27015,"enabled":true,"region":"us-east","cc":"ca","latitude":45.50889,"longitude":-73.56167,"reserved":0,"last_update":"0001-01-01T00:00:00Z","name_a2s":"Uncletopia | Montréal | 1 | All Maps","protocol":17,"map":"pl_upward","folder":"tf","game":"Team Fortress","app_id":440,"player_count":0,"max_players":24,"Bots":0,"server_type":"Dedicated","server_os":"Linux","password":true,"vac":true,"version":"7757534","steam_id":85568392924500087,"keywords":["nocrits","nodmgspread","payload","uncletopia"],"game_id":440,"stv_port":27016,"stv_name":"Uncletopia | Montréal | 1 | All Maps | STV","players":null},{"server_id":301,"name":"Uncletopia | Montréal | 2 | All Maps","name_short":"mtl-2","host":"mtl-1.ca.uncletopia.com","port":27025,"enabled":true,"region":"us-east","cc":"ca","latitude":45.50889,"longitude":-73.56167,"reserved":0,"last_update":"0001-01-01T00:00:00Z","name_a2s":"Uncletopia | Montréal | 2 | All Maps","protocol":17,"map":"pl_snowycoast","folder":"tf","game":"Team Fortress","app_id":440,"player_count":0,"max_players":24,"Bots":0,"server_type":"Dedicated","server_os":"Linux","password":true,"vac":true,"version":"7757534","steam_id":85568392924500088,"keywords":["nocrits","nodmgspread","payload","uncletopia"],"game_id":440,"stv_port":27026,"stv_name":"Uncletopia | Montréal | 2 | All Maps | STV","players":null},{"server_id":302,"name":"Uncletopia | Montréal | 3 | All Maps","name_short":"mtl-3","host":"mtl-1.ca.uncletopia.com","port":27035,"enabled":true,"region":"us-east","cc":"ca","latitude":45.50889,"longitude":-73.56167,"reserved":0,"last_update":"0001-01-01T00:00:00Z","name_a2s":"Uncletopia | Montréal | 3 | All Maps","protocol":17,"map":"pl_swiftwater_final1","folder":"tf","game":"Team Fortress","app_id":440,"player_count":0,"max_players":24,"Bots":0,"server_type":"Dedicated","server_os":"Linux","password":true,"vac":true,"version":"7757534","steam_id":85568392924500089,"keywords":["nocrits","nodmgspread","payload","uncletopia"],"game_id":440,"stv_port":27036,"stv_name":"Uncletopia | Montréal | 3 | All Maps | STV","players":null},{"server_id":303,"name":"Uncletopia | Montréal | 4 | No Payload","name_short":"mtl-4","host":"mtl-1.ca.uncletopia.com","port":27045,"enabled":true,"region":"us-east","cc":"ca","latitude":45.50889,"longitude":-73.56167,"reserved":0,"last_update":"0001-01-01T00:00:00Z","name_a2s":"Uncletopia | Montréal | 4 | No Payload","protocol":17,"map":"pl_pier","folder":"tf","game":"Team Fortress","app_id":440,"player_count":0,"max_players":24,"Bots":0,"server_type":"Dedicated","server_os":"Linux","password":true,"vac":true,"version":"7757534","steam_id":85568392924500090,"keywords":["nocrits","nodmgspread","payload","uncletopia"],"game_id":440,"stv_port":27046,"stv_name":"Uncletopia | Montréal | 4 | No Payload | STV","players":null},{"server_id":13,"name":"Uncletopia | New York City | 1 | All Maps","name_short":"nyc-1","host":"nyc-1.us.uncletopia.com","port":27015,"enabled":true,"region":"us-east","cc":"us","latitude":40.73061,"longitude":-73.93524,"reserved":0,"last_update":"0001-01-01T00:00:00Z","name_a2s":"Uncletopia | New York City | 1 | All Maps","protocol":17,"map":"cp_altitude","folder":"tf","game":"Team Fortress","app_id":440,"player_count":2,"max_players":24,"Bots":0,"server_type":"Dedicated","server_os":"Linux","password":true,"vac":true,"version":"7757534","steam_id":85568392924469993,"keywords":["cp","nocrits","nodmgspread","uncletopia"],"game_id":440,"stv_port":27016,"stv_name":"Uncletopia | New York City | 1 | All Maps | STV","players":[{"user_id":9,"name":"Wattle","steam_id":76561198036756626,"connected_time":683000000000,"state":"active","ping":48},{"user_id":12,"name":"Kirsk","steam_id":76561198084397649,"connected_time":248000000000,"state":"active","ping":68}]},{"server_id":14,"name":"Uncletopia | New York City | 2 | All Maps","name_short":"nyc-2","host":"nyc-1.us.uncletopia.com","port":27025,"enabled":true,"region":"us-east","cc":"us","latitude":40.73061,"longitude":-73.93524,"reserved":0,"last_update":"0001-01-01T00:00:00Z","name_a2s":"Uncletopia | New York City | 2 | All Maps","protocol":17,"map":"pl_badwater","folder":"tf","game":"Team Fortress","app_id":440,"player_count":1,"max_players":24,"Bots":0,"server_type":"Dedicated","server_os":"Linux","password":true,"vac":true,"version":"7757534","steam_id":85568392924469994,"keywords":["nocrits","nodmgspread","payload","uncletopia"],"game_id":440,"stv_port":27026,"stv_name":"Uncletopia | New York City | 2 | All Maps | STV","players":[{"user_id":8,"name":"millennial on phone","steam_id":76561198316281740,"connected_time":355000000000,"state":"active","ping":92}]},{"server_id":15,"name":"Uncletopia | New York City | 3 | Stopwatch Beta","name_short":"nyc-3","host":"nyc-1.us.uncletopia.com","port":27035,"enabled":true,"region":"us-east","cc":"us","latitude":40.73061,"longitude":-73.93524,"reserved":0,"last_update":"0001-01-01T00:00:00Z","name_a2s":"Uncletopia | New York City | 3 | Stopwatch Beta","protocol":17,"map":"pl_upward","folder":"tf","game":"Team Fortress","app_id":440,"player_count":0,"max_players":24,"Bots":0,"server_type":"Dedicated","server_os":"Linux","password":true,"vac":true,"version":"7757534","steam_id":85568392924742820,"keywords":["nocrits","nodmgspread","payload","uncletopia"],"game_id":440,"stv_port":27036,"stv_name":"Uncletopia | New York City | 3 | Stopwatch Beta | STV","players":null},{"server_id":16,"name":"Uncletopia | New York City | 4 | Community","name_short":"nyc-4","host":"nyc-1.us.uncletopia.com","port":27045,"enabled":true,"region":"us-east","cc":"us","latitude":40.73061,"longitude":-73.93524,"reserved":0,"last_update":"0001-01-01T00:00:00Z","name_a2s":"Uncletopia | New York City | 4 | Community","protocol":17,"map":"pl_swiftwater_final1","folder":"tf","game":"Team Fortress","app_id":440,"player_count":0,"max_players":24,"Bots":0,"server_type":"Dedicated","server_os":"Linux","password":true,"vac":true,"version":"7757534","steam_id":85568392924742821,"keywords":["nocrits","nodmgspread","payload","uncletopia"],"game_id":440,"stv_port":27046,"stv_name":"Uncletopia | New York City | 4 | Community | STV","players":null},{"server_id":142,"name":"Uncletopia | São Paulo | 1 | All Maps","name_short":"sao-1","host":"sao-1.br.uncletopia.com","port":27015,"enabled":true,"region":"sa","cc":"br","latitude":-23.533773,"longitude":-46.62529,"reserved":0,"last_update":"0001-01-01T00:00:00Z","name_a2s":"Uncletopia | São Paulo | 1 | All Maps","protocol":17,"map":"koth_lakeside_final","folder":"tf","game":"Team Fortress","app_id":440,"player_count":0,"max_players":24,"Bots":0,"server_type":"Dedicated","server_os":"Linux","password":true,"vac":true,"version":"7757534","steam_id":85568392924469996,"keywords":["cp","nocrits","nodmgspread","uncletopia"],"game_id":440,"stv_port":27016,"stv_name":"Uncletopia | São Paulo | 1 | All Maps | STV","players":null},{"server_id":143,"name":"Uncletopia | São Paulo | 2 | All Maps","name_short":"sao-2","host":"sao-2.br.uncletopia.com","port":27015,"enabled":true,"region":"sa","cc":"br","latitude":-23.533773,"longitude":-46.62529,"reserved":0,"last_update":"0001-01-01T00:00:00Z","name_a2s":"Uncletopia | São Paulo | 2 | All Maps","protocol":17,"map":"pl_swiftwater_final1","folder":"tf","game":"Team Fortress","app_id":440,"player_count":0,"max_players":24,"Bots":0,"server_type":"Dedicated","server_os":"Linux","password":true,"vac":true,"version":"7757534","steam_id":85568392924485349,"keywords":["nocrits","nodmgspread","payload","uncletopia"],"game_id":440,"stv_port":27016,"stv_name":"Uncletopia | São Paulo | 2 | All Maps | STV","players":null},{"server_id":7,"name":"Uncletopia | Seattle | 1 | All Maps","name_short":"sea-1","host":"sea-1.us.uncletopia.com","port":27015,"enabled":true,"region":"us-west","cc":"us","latitude":47.608013,"longitude":-122.33517,"reserved":0,"last_update":"0001-01-01T00:00:00Z","name_a2s":"Uncletopia | Seattle | 1 | All Maps","protocol":17,"map":"koth_lakeside_final","folder":"tf","game":"Team Fortress","app_id":440,"player_count":13,"max_players":24,"Bots":0,"server_type":"Dedicated","server_os":"Linux","password":true,"vac":true,"version":"7757534","steam_id":85568392924469997,"keywords":["cp","nocrits","nodmgspread","uncletopia"],"game_id":440,"stv_port":27016,"stv_name":"Uncletopia | Seattle | 1 | All Maps | STV","players":[{"user_id":7,"name":"🐺-Iwky-🦊","steam_id":76561198185616311,"connected_time":759000000000,"state":"active","ping":106},{"user_id":4,"name":"Flesh Eating Turtle","steam_id":76561198116742139,"connected_time":782000000000,"state":"active","ping":54},{"user_id":13,"name":"endo","steam_id":76561197995204381,"connected_time":281000000000,"state":"active","ping":76},{"user_id":6,"name":"Tommy Pickles (Very Cool)","steam_id":76561198391261463,"connected_time":778000000000,"state":"active","ping":85},{"user_id":8,"name":"The Great Eagle Scourge of 1822","steam_id":76561198325086209,"connected_time":732000000000,"state":"active","ping":82},{"user_id":9,"name":"Kid named download","steam_id":76561199192074448,"connected_time":660000000000,"state":"active","ping":117},{"user_id":10,"name":"yuuko","steam_id":76561198097711389,"connected_time":503000000000,"state":"active","ping":31},{"user_id":14,"name":"I have taken your liver.","steam_id":76561199137113193,"connected_time":229000000000,"state":"active","ping":125},{"user_id":12,"name":"grrrrrrr","steam_id":76561199079513908,"connected_time":382000000000,"state":"active","ping":190},{"user_id":15,"name":"dysesthesia","steam_id":76561198027159018,"connected_time":216000000000,"state":"active","ping":132},{"user_id":16,"name":"Boostjump","steam_id":76561199207043776,"connected_time":150000000000,"state":"active","ping":207},{"user_id":17,"name":"Vespen","steam_id":76561198259984019,"connected_time":69000000000,"state":"active","ping":68},{"user_id":18,"name":"Noodle","steam_id":76561199156137868,"connected_time":66000000000,"state":"active","ping":119}]},{"server_id":119,"name":"Uncletopia | Seattle | 2 | All Maps","name_short":"sea-2","host":"sea-1.us.uncletopia.com","port":27025,"enabled":true,"region":"us-west","cc":"us","latitude":47.608013,"longitude":-122.33517,"reserved":0,"last_update":"0001-01-01T00:00:00Z","name_a2s":"Uncletopia | Seattle | 2 | All Maps","protocol":17,"map":"pl_badwater","folder":"tf","game":"Team Fortress","app_id":440,"player_count":0,"max_players":24,"Bots":0,"server_type":"Dedicated","server_os":"Linux","password":true,"vac":true,"version":"7757534","steam_id":85568392924469998,"keywords":["nocrits","nodmgspread","payload","uncletopia"],"game_id":440,"stv_port":27026,"stv_name":"Uncletopia | Seattle | 2 | All Maps | STV","players":null},{"server_id":406,"name":"Uncletopia | Seattle | 3 | Stopwatch Beta","name_short":"sea-3","host":"sea-1.us.uncletopia.com","port":27035,"enabled":true,"region":"us-west","cc":"us","latitude":47.608013,"longitude":-122.33517,"reserved":0,"last_update":"0001-01-01T00:00:00Z","name_a2s":"Uncletopia | Seattle | 3 | Stopwatch Beta","protocol":17,"map":"cp_dustbowl","folder":"tf","game":"Team Fortress","app_id":440,"player_count":0,"max_players":24,"Bots":0,"server_type":"Dedicated","server_os":"Linux","password":true,"vac":true,"version":"7757534","steam_id":85568392924515217,"keywords":["cp","nocrits","nodmgspread","uncletopia"],"game_id":440,"stv_port":27036,"stv_name":"Uncletopia | Seattle | 3 | Stopwatch Beta | STV","players":null},{"server_id":17,"name":"Uncletopia | San Francisco | 1 | All Maps","name_short":"sfo-1","host":"sfo-1.us.uncletopia.com","port":27015,"enabled":true,"region":"us-west","cc":"us","latitude":37.77397,"longitude":-122.4313,"reserved":0,"last_update":"0001-01-01T00:00:00Z","name_a2s":"Uncletopia | San Francisco | 1 | All Maps","protocol":17,"map":"cp_process_final","folder":"tf","game":"Team Fortress","app_id":440,"player_count":0,"max_players":24,"Bots":0,"server_type":"Dedicated","server_os":"Linux","password":true,"vac":true,"version":"7757534","steam_id":85568392924469999,"keywords":["cp","nocrits","nodmgspread","uncletopia"],"game_id":440,"stv_port":27016,"stv_name":"Uncletopia | San Francisco | 1 | All Maps | STV","players":null},{"server_id":18,"name":"Uncletopia | San Francisco | 2 | All Maps","name_short":"sfo-2","host":"sfo-1.us.uncletopia.com","port":27025,"enabled":true,"region":"us-west","cc":"us","latitude":37.77397,"longitude":-122.4313,"reserved":0,"last_update":"0001-01-01T00:00:00Z","name_a2s":"Uncletopia | San Francisco | 2 | All Maps","protocol":17,"map":"koth_highpass","folder":"tf","game":"Team Fortress","app_id":440,"player_count":0,"max_players":24,"Bots":0,"server_type":"Dedicated","server_os":"Linux","password":true,"vac":true,"version":"7757534","steam_id":85568392924470000,"keywords":["cp","nocrits","nodmgspread","uncletopia"],"game_id":440,"stv_port":27026,"stv_name":"Uncletopia | San Francisco | 2 | All Maps | STV","players":null},{"server_id":19,"name":"Uncletopia | San Francisco | 3 | Stopwatch Beta","name_short":"sfo-3","host":"sfo-1.us.uncletopia.com","port":27035,"enabled":true,"region":"us-west","cc":"us","latitude":37.77397,"longitude":-122.4313,"reserved":0,"last_update":"0001-01-01T00:00:00Z","name_a2s":"Uncletopia | San Francisco | 3 | Stopwatch Beta","protocol":17,"map":"koth_lakeside_final","folder":"tf","game":"Team Fortress","app_id":440,"player_count":0,"max_players":24,"Bots":0,"server_type":"Dedicated","server_os":"Linux","password":true,"vac":true,"version":"7757534","steam_id":85568392924742824,"keywords":["cp","nocrits","nodmgspread","uncletopia"],"game_id":440,"stv_port":27036,"stv_name":"Uncletopia | San Francisco | 3 | Stopwatch Beta | STV","players":null},{"server_id":20,"name":"Uncletopia | San Francisco | 4 | Community","name_short":"sfo-4","host":"sfo-1.us.uncletopia.com","port":27045,"enabled":true,"region":"us-west","cc":"us","latitude":37.77397,"longitude":-122.4313,"reserved":0,"last_update":"0001-01-01T00:00:00Z","name_a2s":"Uncletopia | San Francisco | 4 | Community","protocol":17,"map":"cp_altitude","folder":"tf","game":"Team Fortress","app_id":440,"player_count":0,"max_players":24,"Bots":0,"server_type":"Dedicated","server_os":"Linux","password":true,"vac":true,"version":"7757534","steam_id":85568392924742826,"keywords":["cp","nocrits","nodmgspread","uncletopia"],"game_id":440,"stv_port":27046,"stv_name":"Uncletopia | San Francisco | 4 | Community | STV","players":null},{"server_id":141,"name":"Uncletopia | Sydney | 1 | All Maps","name_short":"syd-1","host":"syd-1.au.uncletopia.com","port":27015,"enabled":true,"region":"au","cc":"au","latitude":-33.865143,"longitude":151.2099,"reserved":0,"last_update":"0001-01-01T00:00:00Z","name_a2s":"Uncletopia | Sydney | 1 | All Maps","protocol":17,"map":"koth_lakeside_final","folder":"tf","game":"Team Fortress","app_id":440,"player_count":0,"max_players":24,"Bots":0,"server_type":"Dedicated","server_os":"Linux","password":true,"vac":true,"version":"7757534","steam_id":85568392924470001,"keywords":["cp","nocrits","nodmgspread","uncletopia"],"game_id":440,"stv_port":27016,"stv_name":"Uncletopia | Sydney | 1 | All Maps | STV","players":null},{"server_id":123,"name":"Uncletopia | Sydney | 2 | All Maps","name_short":"syd-2","host":"syd-1.au.uncletopia.com","port":27025,"enabled":true,"region":"au","cc":"au","latitude":-33.865143,"longitude":151.2099,"reserved":0,"last_update":"0001-01-01T00:00:00Z","name_a2s":"Uncletopia | Sydney | 2 | All Maps","protocol":17,"map":"plr_bananabay","folder":"tf","game":"Team Fortress","app_id":440,"player_count":15,"max_players":24,"Bots":0,"server_type":"Dedicated","server_os":"Linux","password":true,"vac":true,"version":"7757534","steam_id":85568392924470002,"keywords":["nocrits","nodmgspread","payload","uncletopia"],"game_id":440,"stv_port":27026,"stv_name":"Uncletopia | Sydney | 2 | All Maps | STV","players":[{"user_id":728,"name":"tom :D","steam_id":76561198073393715,"connected_time":402000000000,"state":"active","ping":94},{"user_id":729,"name":"\u003e:FrozenDragon:\u003c","steam_id":76561198227960928,"connected_time":344000000000,"state":"active","ping":89},{"user_id":721,"name":"Skree'kaw / Eryn","steam_id":76561199415758131,"connected_time":1523000000000,"state":"active","ping":63},{"user_id":722,"name":"biff","steam_id":76561198069603865,"connected_time":1176000000000,"state":"active","ping":57},{"user_id":715,"name":"NAMELESS","steam_id":76561198078663840,"connected_time":2418000000000,"state":"active","ping":66},{"user_id":718,"name":"Extra Exotic","steam_id":76561198045191981,"connected_time":2079000000000,"state":"active","ping":58},{"user_id":730,"name":"MikkyD","steam_id":76561198043452962,"connected_time":336000000000,"state":"active","ping":63},{"user_id":727,"name":"paper boat","steam_id":76561198046558051,"connected_time":586000000000,"state":"active","ping":174},{"user_id":684,"name":"soupy","steam_id":76561198073734936,"connected_time":5814000000000,"state":"active","ping":84},{"user_id":733,"name":"Capt. Dea'Claw","steam_id":76561198025419320,"connected_time":6000000000,"state":"spawning","ping":50},{"user_id":699,"name":"BruceWillis235","steam_id":76561198884324029,"connected_time":4031000000000,"state":"active","ping":90},{"user_id":710,"name":"Tetch","steam_id":76561198259803540,"connected_time":3244000000000,"state":"active","ping":70},{"user_id":674,"name":"Rocky","steam_id":76561199195385481,"connected_time":7591000000000,"state":"active","ping":75},{"user_id":694,"name":"Stepford","steam_id":76561198119730738,"connected_time":4664000000000,"state":"active","ping":46},{"user_id":578,"name":"mc.sleek","steam_id":76561198057602720,"connected_time":14036000000000,"state":"active","ping":72}]},{"server_id":395,"name":"Uncletopia | Sydney | 3 | All Maps","name_short":"syd-3","host":"syd-1.au.uncletopia.com","port":27035,"enabled":true,"region":"au","cc":"au","latitude":-33.865143,"longitude":151.2099,"reserved":0,"last_update":"0001-01-01T00:00:00Z","name_a2s":"Uncletopia | Sydney | 3 | All Maps","protocol":17,"map":"koth_lakeside_final","folder":"tf","game":"Team Fortress","app_id":440,"player_count":0,"max_players":24,"Bots":0,"server_type":"Dedicated","server_os":"Linux","password":true,"vac":true,"version":"7757534","steam_id":85568392925194467,"keywords":["cp","nocrits","nodmgspread","uncletopia"],"game_id":440,"stv_port":27036,"stv_name":"Uncletopia | Sydney | 3 | All Maps | STV","players":null},{"server_id":396,"name":"Uncletopia | Sydney | 4 | All Maps","name_short":"syd-4","host":"syd-1.au.uncletopia.com","port":27045,"enabled":true,"region":"au","cc":"au","latitude":-33.865143,"longitude":151.2099,"reserved":0,"last_update":"0001-01-01T00:00:00Z","name_a2s":"Uncletopia | Sydney | 4 | All Maps","protocol":17,"map":"pl_barnblitz","folder":"tf","game":"Team Fortress","app_id":440,"player_count":0,"max_players":24,"Bots":0,"server_type":"Dedicated","server_os":"Linux","password":true,"vac":true,"version":"7757534","steam_id":85568392925397958,"keywords":["nocrits","nodmgspread","payload","uncletopia"],"game_id":440,"stv_port":27046,"stv_name":"Uncletopia | Sydney | 4 | All Maps | STV","players":null},{"server_id":58,"name":"Uncletopia | Sydney | 5 | Stopwatch Beta","name_short":"syd-5","host":"syd-1.au.uncletopia.com","port":27055,"enabled":true,"region":"au","cc":"au","latitude":-33.865143,"longitude":151.2099,"reserved":0,"last_update":"0001-01-01T00:00:00Z","name_a2s":"Uncletopia | Sydney | 5 | Stopwatch Beta","protocol":17,"map":"workshop/pl_summercoast_rc8e.ugc1761528829","folder":"tf","game":"Team Fortress","app_id":440,"player_count":0,"max_players":24,"Bots":0,"server_type":"Dedicated","server_os":"Linux","password":true,"vac":true,"version":"7757534","steam_id":85568392925397959,"keywords":["nocrits","nodmgspread","payload","uncletopia"],"game_id":440,"stv_port":27056,"stv_name":"Uncletopia | Sydney | 5 | Stopwatch Beta | STV","players":null},{"server_id":59,"name":"Uncletopia | Sydney | 6 | Community","name_short":"syd-6","host":"syd-1.au.uncletopia.com","port":27065,"enabled":true,"region":"au","cc":"au","latitude":-33.865143,"longitude":151.2099,"reserved":0,"last_update":"0001-01-01T00:00:00Z","name_a2s":"Uncletopia | Sydney | 6 | Community","protocol":17,"map":"workshop/cp_snowbase_b18.ugc2081770490","folder":"tf","game":"Team Fortress","app_id":440,"player_count":0,"max_players":24,"Bots":0,"server_type":"Dedicated","server_os":"Linux","password":true,"vac":true,"version":"7757534","steam_id":85568392925397960,"keywords":["cp","nocrits","nodmgspread","uncletopia"],"game_id":440,"stv_port":27066,"stv_name":"Uncletopia | Sydney | 6 | Community | STV","players":null},{"server_id":49,"name":"Uncletopia | Warsaw | 1 | All Maps","name_short":"waw-1","host":"waw-1.pl.uncletopia.com","port":27015,"enabled":true,"region":"eu","cc":"pl","latitude":52.2297,"longitude":21.017532,"reserved":0,"last_update":"0001-01-01T00:00:00Z","name_a2s":"","protocol":0,"map":"","folder":"","game":"","app_id":0,"player_count":0,"max_players":0,"Bots":0,"server_type":"","server_os":"","password":false,"vac":false,"version":"","steam_id":0,"keywords":null,"game_id":0,"stv_port":0,"stv_name":"","players":null},{"server_id":50,"name":"Uncletopia | Warsaw | 2 | All Maps","name_short":"waw-2","host":"waw-1.pl.uncletopia.com","port":27025,"enabled":true,"region":"eu","cc":"pl","latitude":52.2297,"longitude":21.017532,"reserved":0,"last_update":"0001-01-01T00:00:00Z","name_a2s":"Uncletopia | Warsaw | 2 | All Maps","protocol":17,"map":"koth_viaduct","folder":"tf","game":"Team Fortress","app_id":440,"player_count":0,"max_players":24,"Bots":0,"server_type":"Dedicated","server_os":"Linux","password":true,"vac":true,"version":"7757534","steam_id":85568392925397851,"keywords":["cp","nocrits","nodmgspread","uncletopia"],"game_id":440,"stv_port":27026,"stv_name":"Uncletopia | Warsaw | 2 | All Maps | STV","players":null},{"server_id":51,"name":"Uncletopia | Warsaw | 3 | All Maps","name_short":"waw-3","host":"waw-1.pl.uncletopia.com","port":27035,"enabled":true,"region":"eu","cc":"pl","latitude":52.2297,"longitude":21.017532,"reserved":0,"last_update":"0001-01-01T00:00:00Z","name_a2s":"Uncletopia | Warsaw | 3 | All Maps","protocol":17,"map":"pl_upward","folder":"tf","game":"Team Fortress","app_id":440,"player_count":0,"max_players":24,"Bots":0,"server_type":"Dedicated","server_os":"Linux","password":true,"vac":true,"version":"7757534","steam_id":85568392925397852,"keywords":["nocrits","nodmgspread","payload","uncletopia"],"game_id":440,"stv_port":27036,"stv_name":"Uncletopia | Warsaw | 3 | All Maps | STV","players":null},{"server_id":52,"name":"Uncletopia | Warsaw | 4 | All Maps","name_short":"waw-4","host":"waw-1.pl.uncletopia.com","port":27045,"enabled":true,"region":"eu","cc":"pl","latitude":52.2297,"longitude":21.017532,"reserved":0,"last_update":"0001-01-01T00:00:00Z","name_a2s":"Uncletopia | Warsaw | 4 | All Maps","protocol":17,"map":"koth_lakeside_final","folder":"tf","game":"Team Fortress","app_id":440,"player_count":0,"max_players":24,"Bots":0,"server_type":"Dedicated","server_os":"Linux","password":true,"vac":true,"version":"7757534","steam_id":85568392925397853,"keywords":["cp","nocrits","nodmgspread","uncletopia"],"game_id":440,"stv_port":27046,"stv_name":"Uncletopia | Warsaw | 4 | All Maps | STV","players":null},{"server_id":53,"name":"Uncletopia | Warsaw | 5 | Stopwatch Beta","name_short":"waw-5","host":"waw-1.pl.uncletopia.com","port":27055,"enabled":true,"region":"eu","cc":"pl","latitude":52.2297,"longitude":21.017532,"reserved":0,"last_update":"0001-01-01T00:00:00Z","name_a2s":"Uncletopia | Warsaw | 5 | Stopwatch Beta","protocol":17,"map":"pl_borneo","folder":"tf","game":"Team Fortress","app_id":440,"player_count":0,"max_players":24,"Bots":0,"server_type":"Dedicated","server_os":"Linux","password":true,"vac":true,"version":"7757534","steam_id":85568392925397854,"keywords":["nocrits","nodmgspread","payload","uncletopia"],"game_id":440,"stv_port":27056,"stv_name":"Uncletopia | Warsaw | 5 | Stopwatch Beta | STV","players":null},{"server_id":54,"name":"Uncletopia | Warsaw | 6 | Community","name_short":"waw-6","host":"waw-1.pl.uncletopia.com","port":27065,"enabled":true,"region":"eu","cc":"pl","latitude":52.2297,"longitude":21.017532,"reserved":0,"last_update":"0001-01-01T00:00:00Z","name_a2s":"Uncletopia | Warsaw | 6 | Community","protocol":17,"map":"workshop/cp_glacier_rc6.ugc2905735376","folder":"tf","game":"Team Fortress","app_id":440,"player_count":0,"max_players":24,"Bots":0,"server_type":"Dedicated","server_os":"Linux","password":true,"vac":true,"version":"7757534","steam_id":85568392925397856,"keywords":["cp","nocrits","nodmgspread","uncletopia"],"game_id":440,"stv_port":27066,"stv_name":"Uncletopia | Warsaw | 6 | Community | STV","players":null}]}