{"status":true,"message":"","result":[{"server_id":9,"name":"Uncletopia | Atlanta | 1 | All Maps","name_short":"atl-1","host":"atl-1.us.uncletopia.com","port":27015,"enabled":true,"region":"us-east","cc":"us","latitude":33.753746,"longitude":-84.38633,"reserved":0,"last_update":"0001-01-01T00:00:00Z","name_a2s":"Uncletopia | Atlanta | 1 | All Maps","protocol":17,"map":"pl_borneo","folder":"tf","game":"Team Fortress","app_id":440,"player_count":24,"max_players":24,"Bots":0,"server_type":"Dedicated","server_os":"Linux","password":true,"vac":true,"version":"7961495","steam_id":85568392924469982,"keywords":["nocrits","nodmgspread","payload","uncletopia"],"game_id":440,"stv_port":27016,"stv_name":"Uncletopia | Atlanta | 1 | All Maps | STV","players":[{"user_id":538,"name":"lynt","steam_id":76561198988333976,"connected_time":17770000000000,"state":"active","ping":45},{"user_id":735,"name":"bobby","steam_id":76561198082277044,"connected_time":518000000000,"state":"active","ping":45},{"user_id":635,"name":"CoffeeZombi","steam_id":76561198172708053,"connected_time":10204000000000,"state":"active","ping":63},{"user_id":692,"name":"mangokip","steam_id":76561198156471516,"connected_time":4718000000000,"state":"active","ping":47},{"user_id":698,"name":"Woke Bush","steam_id":76561198047994501,"connected_time":4403000000000,"state":"active","ping":43},{"user_id":798,"name":"lil hog","steam_id":76561199230929836,"connected_time":1000000000,"state":"spawning","ping":51},{"user_id":714,"name":"Albino Jellyfish","steam_id":76561198208561097,"connected_time":1531000000000,"state":"active","ping":58},{"user_id":715,"name":"crunchy obama","steam_id":76561198044485217,"connected_time":1521000000000,"state":"active","ping":105},{"user_id":675,"name":"Jin Gulilo","steam_id":76561198065151242,"connected_time":6746000000000,"state":"active","ping":70},{"user_id":703,"name":"com lag","steam_id":76561198019019392,"connected_time":3593000000000,"state":"active","ping":59},{"user_id":534,"name":"Heathcliff","steam_id":76561198044288534,"connected_time":18201000000000,"state":"active","ping":76},{"user_id":731,"name":"Vee (very cool)","steam_id":76561198330432889,"connected_time":542000000000,"state":"active","ping":61},{"user_id":717,"name":"The Builder","steam_id":76561198093432863,"connected_time":1252000000000,"state":"active","ping":91},{"user_id":721,"name":"Le4n!!!","steam_id":76561198045522596,"connected_time":671000000000,"state":"active","ping":67},{"user_id":707,"name":"lu","steam_id":76561198080731872,"connected_time":3069000000000,"state":"active","ping":72},{"user_id":713,"name":"cris patt (real)","steam_id":76561199362872879,"connected_time":1532000000000,"state":"active","ping":62},{"user_id":658,"name":"Ashes!","steam_id":76561197998475441,"connected_time":7790000000000,"state":"active","ping":78},{"user_id":673,"name":"Tay1Qr","steam_id":76561198082809935,"connected_time":7098000000000,"state":"active","ping":62},{"user_id":613,"name":"e0e0","steam_id":76561198293839750,"connected_time":12571000000000,"state":"active","ping":60},{"user_id":701,"name":"Doromaina","steam_id":76561198118428095,"connected_time":4274000000000,"state":"active","ping":77},{"user_id":708,"name":"ash","steam_id":76561198127890645,"connected_time":2556000000000,"state":"active","ping":67},{"user_id":719,"name":"kite","steam_id":76561198346516392,"connected_time":822000000000,"state":"active","ping":83},{"user_id":712,"name":"Avo","steam_id":76561197993340494,"connected_time":1901000000000,"state":"active","ping":55},{"user_id":679,"name":"(Mage) damn I must be a genius","steam_id":76561198285026879,"connected_time":6232000000000,"state":"active","ping":82}]},{"server_id":104,"name":"Uncletopia | Atlanta | 2 | All Maps","name_short":"atl-2","host":"atl-1.us.uncletopia.com","port":27025,"enabled":true,"region":"us-east","cc":"us","latitude":33.753746,"longitude":-84.38633,"reserved":0,"last_update":"0001-01-01T00:00:00Z","name_a2s":"Uncletopia | Atlanta | 2 | All Maps","protocol":17,"map":"koth_highpass","folder":"tf","game":"Team Fortress","app_id":440,"player_count":18,"max_players":24,"Bots":0,"server_type":"Dedicated","server_os":"Linux","password":true,"vac":true,"version":"7961495","steam_id":85568392924469983,"keywords":["cp","nocrits","nodmgspread","uncletopia"],"game_id":440,"stv_port":27026,"stv_name":"Uncletopia | Atlanta | 2 | All Maps | STV","players":[{"user_id":455,"name":"SkkiterSkkater","steam_id":76561198410579054,"connected_time":1223000000000,"state":"active","ping":70},{"user_id":462,"name":"Olimario","steam_id":76561198042216669,"connected_time":671000000000,"state":"active","ping":84},{"user_id":466,"name":"Malarkey","steam_id":76561198844473584,"connected_time":375000000000,"state":"active","ping":40},{"user_id":434,"name":"Luci★Fer","steam_id":76561199030343810,"connected_time":2055000000000,"state":"active","ping":46},{"user_id":450,"name":"PiolaCat","steam_id":76561199100535345,"connected_time":1617000000000,"state":"active","ping":108},{"user_id":458,"name":"No, this is Patrick","steam_id":76561198058776774,"connected_time":979000000000,"state":"active","ping":59},{"user_id":463,"name":"Jorge","steam_id":76561198325122339,"connected_time":545000000000,"state":"active","ping":105},{"user_id":467,"name":"misterspud","steam_id":76561198195306218,"connected_time":368000000000,"state":"active","ping":45},{"user_id":302,"name":"mann","steam_id":76561198171239787,"connected_time":10830000000000,"state":"active","ping":79},{"user_id":446,"name":"UNIT 220","steam_id":76561198042243497,"connected_time":1719000000000,"state":"active","ping":73},{"user_id":460,"name":"twitch.tv/Yoshi21 | TF2Pugs.com","steam_id":76561198002516729,"connected_time":879000000000,"state":"active","ping":42},{"user_id":426,"name":"Fatpoob","steam_id":76561198056730096,"connected_time":2931000000000,"state":"active","ping":74},{"user_id":454,"name":"chrischrischris3018@yahoo.com","steam_id":76561198137316053,"connected_time":1373000000000,"state":"active","ping":45},{"user_id":449,"name":"talented","steam_id":76561198800259660,"connected_time":1698000000000,"state":"active","ping":44},{"user_id":407,"name":"potatokinggod1103","steam_id":76561198966636917,"connected_time":4870000000000,"state":"active","ping":57},{"user_id":400,"name":"Spiffyputt","steam_id":76561198439345687,"connected_time":5624000000000,"state":"active","ping":64},{"user_id":452,"name":"WaywardFinn","steam_id":76561198040391296,"connected_time":1471000000000,"state":"active","ping":79},{"user_id":461,"name":"LawlenMcVallen","steam_id":76561198049315303,"connected_time":789000000000,"state":"active","ping":125}]},{"server_id":400,"name":"Uncletopia | Atlanta | 3 | Stopwatch","name_short":"atl-3","host":"atl-1.us.uncletopia.com","port":27035,"enabled":true,"region":"us-east","cc":"us","latitude":33.753746,"longitude":-84.38633,"reserved":0,"last_update":"0001-01-01T00:00:00Z","name_a2s":"Uncletopia | Atlanta | 3 | Stopwatch","protocol":17,"map":"koth_highpass","folder":"tf","game":"Team Fortress","app_id":440,"player_count":0,"max_players":24,"Bots":0,"server_type":"Dedicated","server_os":"Linux","password":true,"vac":true,"version":"7961495","steam_id":85568392924515187,"keywords":["cp","nocrits","nodmgspread","uncletopia"],"game_id":440,"stv_port":27036,"stv_name":"Uncletopia | Atlanta | 3 | Stopwatch | STV","players":null},{"server_id":401,"name":"Uncletopia | Atlanta | 4 | Community","name_short":"atl-4","host":"atl-1.us.uncletopia.com","port":27045,"enabled":true,"region":"us-east","cc":"us","latitude":33.753746,"longitude":-84.38633,"reserved":0,"last_update":"0001-01-01T00:00:00Z","name_a2s":"Uncletopia | Atlanta | 4 | Community","protocol":17,"map":"workshop/koth_bagel_rc6.ugc2514036946","folder":"tf","game":"Team Fortress","app_id":440,"player_count":0,"max_players":24,"Bots":0,"server_type":"Dedicated","server_os":"Linux","password":true,"vac":true,"version":"7961495","steam_id":85568392924515188,"keywords":["cp","nocrits","nodmgspread","uncletopia"],"game_id":440,"stv_port":27046,"stv_name":"Uncletopia | Atlanta | 4 | Community | STV","players":null},{"server_id":2,"name":"Uncletopia | Chicago | 1 | All Maps","name_short":"chi-1","host":"chi-1.us.uncletopia.com","port":27015,"enabled":true,"region":"us-central","cc":"us","latitude":41.881832,"longitude":-87.62318,"reserved":0,"last_update":"0001-01-01T00:00:00Z","name_a2s":"Uncletopia | Chicago | 1 | All Maps","protocol":17,"map":"pl_goldrush","folder":"tf","game":"Team Fortress","app_id":440,"player_count":22,"max_players":24,"Bots":0,"server_type":"Dedicated","server_os":"Linux","password":true,"vac":true,"version":"7961495","steam_id":85568392924469984,"keywords":["nocrits","nodmgspread","payload","uncletopia"],"game_id":440,"stv_port":27016,"stv_name":"Uncletopia | Chicago | 1 | All Maps | STV","players":[{"user_id":545,"name":"loscemo","steam_id":76561197994884609,"connected_time":377000000000,"state":"active","ping":57},{"user_id":544,"name":"RusticCarp42989","steam_id":76561198361151865,"connected_time":437000000000,"state":"active","ping":120},{"user_id":480,"name":"MedRed™ #IATAH","steam_id":76561198002962970,"connected_time":5297000000000,"state":"active","ping":90},{"user_id":536,"name":"Swash","steam_id":76561197969421355,"connected_time":875000000000,"state":"active","ping":47},{"user_id":547,"name":"Snorlax Enjoyer","steam_id":76561198338277839,"connected_time":165000000000,"state":"active","ping":109},{"user_id":519,"name":"minecraft","steam_id":76561198104345201,"connected_time":2168000000000,"state":"active","ping":80},{"user_id":532,"name":"DinkleBerg","steam_id":76561198891626233,"connected_time":1585000000000,"state":"active","ping":66},{"user_id":525,"name":"Sunny D+","steam_id":76561197999371052,"connected_time":1811000000000,"state":"active","ping":59},{"user_id":479,"name":"Morgster","steam_id":76561198131697761,"connected_time":5493000000000,"state":"active","ping":68},{"user_id":515,"name":"Erm... Krill Issue?","steam_id":76561198859118263,"connected_time":2445000000000,"state":"active","ping":63},{"user_id":527,"name":"Pheonix Fel Dragon","steam_id":76561198164974227,"connected_time":1708000000000,"state":"active","ping":83},{"user_id":307,"name":"SammyD","steam_id":76561198057216118,"connected_time":19244000000000,"state":"active","ping":73},{"user_id":533,"name":"Lia_Rein","steam_id":76561198151569597,"connected_time":1556000000000,"state":"active","ping":141},{"user_id":537,"name":"Der Krieger105","steam_id":76561197978384609,"connected_time":782000000000,"state":"active","ping":80},{"user_id":493,"name":"Boxpipe","steam_id":76561197964501915,"connected_time":3983000000000,"state":"active","ping":60},{"user_id":531,"name":"hej","steam_id":76561197996366940,"connected_time":1605000000000,"state":"active","ping":60},{"user_id":548,"name":"Painfully Gay","steam_id":76561198054353610,"connected_time":161000000000,"state":"active","ping":99},{"user_id":534,"name":"capybara","steam_id":76561198798828328,"connected_time":947000000000,"state":"active","ping":49},{"user_id":539,"name":"rin","steam_id":76561198155841915,"connected_time":465000000000,"state":"active","ping":70},{"user_id":540,"name":"SiltyStar85","steam_id":76561198309175923,"connected_time":465000000000,"state":"active","ping":90},{"user_id":542,"name":"Xx_gam3rberg_xX","steam_id":76561199035781025,"connected_time":449000000000,"state":"active","ping":94},{"user_id":486,"name":"Dragon_Spiced","steam_id":76561198097517957,"connected_time":4965000000000,"state":"active","ping":76}]},{"server_id":106,"name":"Uncletopia | Chicago | 2 | All Maps","name_short":"chi-2","host":"chi-1.us.uncletopia.com","port":27025,"enabled":true,"region":"us-central","cc":"us","latitude":41.881832,"longitude":-87.62318,"reserved":0,"last_update":"0001-01-01T00:00:00Z","name_a2s":"Uncletopia | Chicago | 2 | All Maps","protocol":17,"map":"pl_barnblitz","folder":"tf","game":"Team Fortress","app_id":440,"player_count":24,"max_players":24,"Bots":0,"server_type":"Dedicated","server_os":"Linux","password":true,"vac":true,"version":"7961495","steam_id":85568392924469985,"keywords":["nocrits","nodmgspread","payload","uncletopia"],"game_id":440,"stv_port":27026,"stv_name":"Uncletopia | Chicago | 2 | All Maps | STV","players":[{"user_id":617,"name":"Blervis","steam_id":76561198028754781,"connected_time":369000000000,"state":"active","ping":105},{"user_id":619,"name":"luxl1","steam_id":76561198975034056,"connected_time":352000000000,"state":"active","ping":127},{"user_id":610,"name":"object permanence","steam_id":76561198050393061,"connected_time":755000000000,"state":"active","ping":71},{"user_id":427,"name":"The strongest ⑨ ball","steam_id":76561198126760743,"connected_time":14837000000000,"state":"active","ping":75},{"user_id":608,"name":"SilentFootba11","steam_id":76561199006570947,"connected_time":1046000000000,"state":"active","ping":63},{"user_id":620,"name":"Dr.StrangeGlove","steam_id":76561198286114229,"connected_time":322000000000,"state":"active","ping":64},{"user_id":616,"name":"PPFitzenreit","steam_id":76561199381005210,"connected_time":380000000000,"state":"active","ping":71},{"user_id":592,"name":"frank","steam_id":76561198137777483,"connected_time":1809000000000,"state":"active","ping":70},{"user_id":623,"name":"Kzjytsugn","steam_id":76561198130241974,"connected_time":260000000000,"state":"active","ping":90},{"user_id":593,"name":"AlexLovesYou","steam_id":76561199163263543,"connected_time":1768000000000,"state":"active","ping":104},{"user_id":604,"name":"Mr. Tickle","steam_id":76561198126684647,"connected_time":1158000000000,"state":"active","ping":57},{"user_id":583,"name":"The No Longer Mute","steam_id":76561198078359985,"connected_time":2272000000000,"state":"active","ping":59},{"user_id":622,"name":"rf","steam_id":76561198195359229,"connected_time":289000000000,"state":"active","ping":89},{"user_id":625,"name":"GreenApples","steam_id":76561198120559543,"connected_time":144000000000,"state":"active","ping":101},{"user_id":626,"name":"Thank you Mr. Sun","steam_id":76561197998434936,"connected_time":141000000000,"state":"active","ping":60},{"user_id":630,"name":"turn around","steam_id":76561198046526036,"connected_time":14000000000,"state":"active","ping":105},{"user_id":567,"name":"Soy King","steam_id":76561198263025614,"connected_time":4177000000000,"state":"active","ping":102},{"user_id":628,"name":"Gibus Man","steam_id":76561198257241062,"connected_time":114000000000,"state":"active","ping":101},{"user_id":629,"name":"Rein","steam_id":76561198300340427,"connected_time":107000000000,"state":"active","ping":65},{"user_id":382,"name":"Uwu Micster","steam_id":76561198843890616,"connected_time":17718000000000,"state":"active","ping":90},{"user_id":613,"name":"Harry Spotter","steam_id":76561198115714484,"connected_time":665000000000,"state":"active","ping":119},{"user_id":597,"name":"comet sooicidy","steam_id":76561198025173479,"connected_time":1704000000000,"state":"active","ping":81},{"user_id":609,"name":"Leeous","steam_id":76561198081083248,"connected_time":977000000000,"state":"active","ping":99},{"user_id":614,"name":"BeyondInsanity","steam_id":76561198043856409,"connected_time":647000000000,"state":"active","ping":63}]},{"server_id":402,"name":"Uncletopia | Chicago | 3 | All Maps","name_short":"chi-3","host":"chi-1.us.uncletopia.com","port":27035,"enabled":true,"region":"us-central","cc":"us","latitude":41.881832,"longitude":-87.62318,"reserved":0,"last_update":"0001-01-01T00:00:00Z","name_a2s":"Uncletopia | Chicago | 3 | All Maps","protocol":17,"map":"pl_upward","folder":"tf","game":"Team Fortress","app_id":440,"player_count":14,"max_players":24,"Bots":0,"server_type":"Dedicated","server_os":"Linux","password":true,"vac":true,"version":"7961495","steam_id":85568392924515191,"keywords":["nocrits","nodmgspread","payload","uncletopia"],"game_id":440,"stv_port":27036,"stv_name":"Uncletopia | Chicago | 3 | All Maps | STV","players":[{"user_id":356,"name":"Will","steam_id":76561198098057581,"connected_time":1205000000000,"state":"active","ping":88},{"user_id":352,"name":"777","steam_id":76561198277163301,"connected_time":1428000000000,"state":"active","ping":61},{"user_id":360,"name":"Doll coded","steam_id":76561198085813708,"connected_time":355000000000,"state":"active","ping":57},{"user_id":338,"name":"NinjagirlOH","steam_id":76561198964107245,"connected_time":1926000000000,"state":"active","ping":89},{"user_id":363,"name":"jackary","steam_id":76561198193405221,"connected_time":185000000000,"state":"active","ping":45},{"user_id":361,"name":"SubZeroDestruction","steam_id":76561198145082209,"connected_time":336000000000,"state":"active","ping":62},{"user_id":362,"name":"snobis","steam_id":76561198084927866,"connected_time":279000000000,"state":"active","ping":46},{"user_id":342,"name":"ArcoXO","steam_id":76561198392034710,"connected_time":1885000000000,"state":"active","ping":78},{"user_id":337,"name":"NinjaboySC","steam_id":76561198157305426,"connected_time":1999000000000,"state":"active","ping":48},{"user_id":294,"name":"Elias","steam_id":76561198106431732,"connected_time":5252000000000,"state":"active","ping":51},{"user_id":298,"name":"WildMtnMonkey","steam_id":76561199106970995,"connected_time":4875000000000,"state":"active","ping":45},{"user_id":353,"name":"Cranial Brain Trauma","steam_id":76561198055876398,"connected_time":1416000000000,"state":"active","ping":58},{"user_id":336,"name":"Echo","steam_id":76561199165491231,"connected_time":2545000000000,"state":"active","ping":44},{"user_id":345,"name":"Koishi","steam_id":76561198054541054,"connected_time":1870000000000,"state":"active","ping":55}]},{"server_id":403,"name":"Uncletopia | Chicago | 4 | All Maps","name_short":"chi-4","host":"chi-1.us.uncletopia.com","port":27045,"enabled":true,"region":"us-central","cc":"us","latitude":41.881832,"longitude":-87.62318,"reserved":0,"last_update":"0001-01-01T00:00:00Z","name_a2s":"Uncletopia | Chicago | 4 | All Maps","protocol":17,"map":"cp_sunshine","folder":"tf","game":"Team Fortress","app_id":440,"player_count":24,"max_players":24,"Bots":0,"server_type":"Dedicated","server_os":"Linux","password":true,"vac":true,"version":"7961495","steam_id":85568392924515193,"keywords":["cp","nocrits","nodmgspread","uncletopia"],"game_id":440,"stv_port":27046,"stv_name":"Uncletopia | Chicago | 4 | All Maps | STV","players":[{"user_id":690,"name":"Protato","steam_id":76561198061182563,"connected_time":2063000000000,"state":"active","ping":72},{"user_id":650,"name":"gps","steam_id":76561198067492304,"connected_time":6117000000000,"state":"active","ping":80},{"user_id":669,"name":"knip","steam_id":76561198147061182,"connected_time":4305000000000,"state":"active","ping":74},{"user_id":695,"name":"ComatosePhoenix","steam_id":76561198071702821,"connected_time":1588000000000,"state":"active","ping":57},{"user_id":671,"name":"Shrebbie","steam_id":76561198875230824,"connected_time":3594000000000,"state":"active","ping":59},{"user_id":712,"name":"Hawkborne","steam_id":76561198107249245,"connected_time":239000000000,"state":"active","ping":73},{"user_id":675,"name":"biden cart 15 dollars","steam_id":76561198253731826,"connected_time":3533000000000,"state":"active","ping":60},{"user_id":677,"name":"ryler","steam_id":76561198087876394,"connected_time":3095000000000,"state":"active","ping":71},{"user_id":608,"name":"Shapeshiftertrue","steam_id":76561198440835095,"connected_time":9000000000000,"state":"active","ping":88},{"user_id":680,"name":"Rafl","steam_id":76561198055222756,"connected_time":2783000000000,"state":"active","ping":67},{"user_id":697,"name":"Lucius \"Ol' Moss\" Mori 森","steam_id":76561198067436825,"connected_time":1225000000000,"state":"active","ping":85},{"user_id":706,"name":"Bongo Bill","steam_id":76561198028004398,"connected_time":585000000000,"state":"active","ping":67},{"user_id":713,"name":"Bigfoot ate my ass","steam_id":76561198071605190,"connected_time":222000000000,"state":"active","ping":72},{"user_id":700,"name":"Rhutebeer","steam_id":76561198018302761,"connected_time":1156000000000,"state":"active","ping":91},{"user_id":705,"name":"DINGDONG","steam_id":76561199152634546,"connected_time":672000000000,"state":"active","ping":49},{"user_id":657,"name":"kaputon","steam_id":76561198146299782,"connected_time":5381000000000,"state":"active","ping":60},{"user_id":707,"name":"BB Lorexav","steam_id":76561198207565988,"connected_time":550000000000,"state":"active","ping":75},{"user_id":710,"name":"Comrade","steam_id":76561199056721863,"connected_time":303000000000,"state":"active","ping":87},{"user_id":673,"name":"Joseph \"Biden\" Stalin","steam_id":76561198213863907,"connected_time":3586000000000,"state":"active","ping":136},{"user_id":711,"name":"Ludcmorais","steam_id":76561198359217809,"connected_time":288000000000,"state":"active","ping":186},{"user_id":693,"name":"zeplinnn","steam_id":76561198301300987,"connected_time":1747000000000,"state":"active","ping":98},{"user_id":666,"name":"wiiblob","steam_id":76561198109106242,"connected_time":4581000000000,"state":"active","ping":138},{"user_id":714,"name":"TheTalentlessChicken","steam_id":76561198148390834,"connected_time":194000000000,"state":"active","ping":115},{"user_id":676,"name":"Jay","steam_id":76561198084129048,"connected_time":3391000000000,"state":"active","ping":75}]},{"server_id":36,"name":"Uncletopia | Chicago | 5 | All Maps","name_short":"chi-5","host":"chi-2.us.uncletopia.com","port":27015,"enabled":true,"region":"us-central","cc":"us","latitude":41.881832,"longitude":-87.62318,"reserved":0,"last_update":"0001-01-01T00:00:00Z","name_a2s":"Uncletopia | Chicago | 5 | All Maps","protocol":17,"map":"cp_dustbowl","folder":"tf","game":"Team Fortress","app_id":440,"player_count":24,"max_players":24,"Bots":0,"server_type":"Dedicated","server_os":"Linux","password":true,"vac":true,"version":"7961495","steam_id":85568392924866362,"keywords":["cp","nocrits","nodmgspread","uncletopia"],"game_id":440,"stv_port":27016,"stv_name":"Uncletopia | Chicago | 5 | All Maps | STV","players":[{"user_id":390,"name":"[MRY] Sk-iLite","steam_id":76561198041797350,"connected_time":4906000000000,"state":"active","ping":67},{"user_id":436,"name":"Blehnder","steam_id":76561198172097526,"connected_time":1510000000000,"state":"active","ping":76},{"user_id":425,"name":"cotton candy pill bug","steam_id":76561198058998371,"connected_time":2672000000000,"state":"active","ping":68},{"user_id":437,"name":"c64guy","steam_id":76561198023022744,"connected_time":1491000000000,"state":"active","ping":60},{"user_id":441,"name":"Gitt Midgetstien","steam_id":76561198006890639,"connected_time":1126000000000,"state":"active","ping":82},{"user_id":428,"name":"Skyblade64","steam_id":76561198042177790,"connected_time":2410000000000,"state":"active","ping":75},{"user_id":445,"name":"Yeti™","steam_id":76561199151545966,"connected_time":1012000000000,"state":"active","ping":60},{"user_id":449,"name":"Dick to ball ratio","steam_id":76561198072205512,"connected_time":627000000000,"state":"active","ping":70},{"user_id":403,"name":"tylerlamp0","steam_id":76561198896666148,"connected_time":3746000000000,"state":"active","ping":77},{"user_id":451,"name":"Mossssssssss","steam_id":76561199122200727,"connected_time":262000000000,"state":"active","ping":67},{"user_id":426,"name":"dunk","steam_id":76561198132476501,"connected_time":2672000000000,"state":"active","ping":49},{"user_id":442,"name":"Snipe_AT","steam_id":76561197990828006,"connected_time":1117000000000,"state":"active","ping":102},{"user_id":432,"name":"Shorts","steam_id":76561198025009692,"connected_time":2031000000000,"state":"active","ping":82},{"user_id":406,"name":"30-50 Feral Hogs","steam_id":76561199144640325,"connected_time":3488000000000,"state":"active","ping":69},{"user_id":452,"name":"sawrik","steam_id":76561198018808213,"connected_time":107000000000,"state":"active","ping":71},{"user_id":454,"name":"combine soldier","steam_id":76561199153058150,"connected_time":63000000000,"state":"active","ping":66},{"user_id":438,"name":"nibeikaola","steam_id":76561198437088530,"connected_time":1488000000000,"state":"active","ping":90},{"user_id":453,"name":"Banook","steam_id":76561198050852823,"connected_time":95000000000,"state":"active","ping":58},{"user_id":443,"name":"mexen","steam_id":76561198104415164,"connected_time":1103000000000,"state":"active","ping":71},{"user_id":444,"name":"joe swanson gaming","steam_id":76561198179628679,"connected_time":1097000000000,"state":"active","ping":102},{"user_id":435,"name":"WeeajEw","steam_id":76561198142481010,"connected_time":1815000000000,"state":"active","ping":51},{"user_id":421,"name":"LunchTrae","steam_id":76561198041578886,"connected_time":2978000000000,"state":"active","ping":78},{"user_id":422,"name":"lucim","steam_id":76561198064755514,"connected_time":2974000000000,"state":"active","ping":57},{"user_id":450,"name":"[Very_Big_Shot]","steam_id":76561198889449462,"connected_time":561000000000,"state":"active","ping":78}]},{"server_id":37,"name":"Uncletopia | Chicago | 6 | All Maps","name_short":"chi-6","host":"chi-2.us.uncletopia.com","port":27025,"enabled":true,"region":"us-central","cc":"us","latitude":41.881832,"longitude":-87.62318,"reserved":0,"last_update":"0001-01-01T00:00:00Z","name_a2s":"Uncletopia | Chicago | 6 | All Maps","protocol":17,"map":"cp_sunshine","folder":"tf","game":"Team Fortress","app_id":440,"player_count":9,"max_players":24,"Bots":0,"server_type":"Dedicated","server_os":"Linux","password":true,"vac":true,"version":"7961495","steam_id":85568392924866363,"keywords":["cp","nocrits","nodmgspread","uncletopia"],"game_id":440,"stv_port":27026,"stv_name":"Uncletopia | Chicago | 6 | All Maps | STV","players":[{"user_id":904,"name":"Dzhoshua","steam_id":76561198071915251,"connected_time":161000000000,"state":"active","ping":63},{"user_id":882,"name":"aero","steam_id":76561198297202459,"connected_time":1072000000000,"state":"active","ping":47},{"user_id":884,"name":"xxxsinpadres","steam_id":76561198366873419,"connected_time":999000000000,"state":"active","ping":50},{"user_id":899,"name":"Momo","steam_id":76561198815067088,"connected_time":480000000000,"state":"active","ping":63},{"user_id":885,"name":"batheman63","steam_id":76561198881818552,"connected_time":956000000000,"state":"active","ping":76},{"user_id":900,"name":"monsterkill4567","steam_id":76561198272986367,"connected_time":414000000000,"state":"active","ping":105},{"user_id":879,"name":"ImRadX","steam_id":76561198880173496,"connected_time":1299000000000,"state":"active","ping":97},{"user_id":878,"name":"sometimes your made of stupid \u003c","steam_id":76561198849924462,"connected_time":1383000000000,"state":"active","ping":76},{"user_id":843,"name":"Henry Ota-Clay","steam_id":76561198053232470,"connected_time":4396000000000,"state":"active","ping":49}]},{"server_id":38,"name":"Uncletopia | Chicago | 7 | Stopwatch","name_short":"chi-7","host":"chi-2.us.uncletopia.com","port":27035,"enabled":true,"region":"us-central","cc":"us","latitude":41.881832,"longitude":-87.62318,"reserved":0,"last_update":"0001-01-01T00:00:00Z","name_a2s":"Uncletopia | Chicago | 7 | Stopwatch","protocol":17,"map":"workshop/koth_clearcut_b15.ugc2107050255","folder":"tf","game":"Team Fortress","app_id":440,"player_count":0,"max_players":24,"Bots":0,"server_type":"Dedicated","server_os":"Linux","password":true,"vac":true,"version":"7961495","steam_id":85568392924866364,"keywords":["cp","nocrits","nodmgspread","uncletopia"],"game_id":440,"stv_port":27036,"stv_name":"Uncletopia | Chicago | 7 | Stopwatch | STV","players":null},{"server_id":39,"name":"Uncletopia | Chicago | 8 | Community","name_short":"chi-8","host":"chi-2.us.uncletopia.com","port":27045,"enabled":true,"region":"us-central","cc":"us","latitude":41.881832,"longitude":-87.62318,"reserved":0,"last_update":"0001-01-01T00:00:00Z","name_a2s":"Uncletopia | Chicago | 8 | Community","protocol":17,"map":"workshop/pl_oasis_rc3.ugc1366095901","folder":"tf","game":"Team Fortress","app_id":440,"player_count":0,"max_players":24,"Bots":0,"server_type":"Dedicated","server_os":"Linux","password":true,"vac":true,"version":"7961495","steam_id":85568392924866365,"keywords":["nocrits","nodmgspread","payload","uncletopia"],"game_id":440,"stv_port":27046,"stv_name":"Uncletopia | Chicago | 8 | Community | STV","players":null},{"server_id":8,"name":"Uncletopia | Dallas | 1 | All Maps","name_short":"dal-1","host":"dal-1.us.uncletopia.com","port":27015,"enabled":true,"region":"us-central","cc":"us","latitude":32.779167,"longitude":-96.80889,"reserved":0,"last_update":"0001-01-01T00:00:00Z","name_a2s":"Uncletopia | Dallas | 1 | All Maps","protocol":17,"map":"pl_badwater","folder":"tf","game":"Team Fortress","app_id":440,"player_count":24,"max_players":24,"Bots":0,"server_type":"Dedicated","server_os":"Linux","password":true,"vac":true,"version":"7961495","steam_id":85568392924469986,"keywords":["nocrits","nodmgspread","payload","uncletopia"],"game_id":440,"stv_port":27016,"stv_name":"Uncletopia | Dallas | 1 | All Maps | STV","players":[{"user_id":435,"name":"Crescent","steam_id":76561198095124633,"connected_time":4559000000000,"state":"active","ping":72},{"user_id":495,"name":"The Eels of Forgiveness","steam_id":76561198016588501,"connected_time":1317000000000,"state":"active","ping":85},{"user_id":499,"name":"Geno Gaming","steam_id":76561198336554967,"connected_time":1269000000000,"state":"active","ping":152},{"user_id":453,"name":"Mana_Kaktus","steam_id":76561198110468307,"connected_time":2536000000000,"state":"active","ping":91},{"user_id":508,"name":"Traceback","steam_id":76561197993212340,"connected_time":851000000000,"state":"active","ping":71},{"user_id":505,"name":"AlonelyBard","steam_id":76561198333764079,"connected_time":1056000000000,"state":"active","ping":58},{"user_id":515,"name":"Neptune˖⁺｡˚⋆˙♥","steam_id":76561199054203198,"connected_time":243000000000,"state":"active","ping":70},{"user_id":451,"name":"DethSQRL","steam_id":76561199149628610,"connected_time":2759000000000,"state":"active","ping":86},{"user_id":516,"name":"fish fingers","steam_id":76561199078516567,"connected_time":221000000000,"state":"active","ping":120},{"user_id":436,"name":"guy","steam_id":76561198163306561,"connected_time":4322000000000,"state":"active","ping":76},{"user_id":510,"name":"Mr. Hankey","steam_id":76561198872852200,"connected_time":476000000000,"state":"active","ping":143},{"user_id":415,"name":"tsz","steam_id":76561199246231090,"connected_time":5494000000000,"state":"active","ping":82},{"user_id":511,"name":"slammin","steam_id":76561197965022076,"connected_time":462000000000,"state":"active","ping":75},{"user_id":462,"name":"Gnome Tank","steam_id":76561198984179092,"connected_time":2355000000000,"state":"active","ping":75},{"user_id":512,"name":"trucksforducks","steam_id":76561198122970888,"connected_time":450000000000,"state":"active","ping":39},{"user_id":438,"name":"SPYCHECK ME","steam_id":76561198980994364,"connected_time":4219000000000,"state":"active","ping":88},{"user_id":385,"name":"StudioMania (#SAVETF2)","steam_id":76561198211315795,"connected_time":7332000000000,"state":"active","ping":83},{"user_id":513,"name":"The Horselords and Animal Gods","steam_id":76561197975094050,"connected_time":443000000000,"state":"active","ping":83},{"user_id":437,"name":"Saucy Boy","steam_id":76561198178332031,"connected_time":4300000000000,"state":"active","ping":102},{"user_id":402,"name":"J The Jounin","steam_id":76561198034583622,"connected_time":6356000000000,"state":"active","ping":82},{"user_id":514,"name":"AttackCommander","steam_id":76561198111522679,"connected_time":279000000000,"state":"active","ping":49},{"user_id":517,"name":"The Notorious T.A.F.T.","steam_id":76561198073012352,"connected_time":67000000000,"state":"active","ping":50},{"user_id":431,"name":"Pvt. Dimitri Petrenko","steam_id":76561198078040091,"connected_time":4974000000000,"state":"active","ping":53},{"user_id":461,"name":"Hatsune Miku IRL","steam_id":76561198023770512,"connected_time":2361000000000,"state":"active","ping":67}]},{"server_id":108,"name":"Uncletopia | Dallas | 2 | All Maps","name_short":"dal-2","host":"dal-1.us.uncletopia.com","port":27025,"enabled":true,"region":"us-central","cc":"us","latitude":32.779167,"longitude":-96.80889,"reserved":0,"last_update":"0001-01-01T00:00:00Z","name_a2s":"Uncletopia | Dallas | 2 | All Maps","protocol":17,"map":"pl_upward","folder":"tf","game":"Team Fortress","app_id":440,"player_count":24,"max_players":24,"Bots":0,"server_type":"Dedicated","server_os":"Linux","password":true,"vac":true,"version":"7961495","steam_id":85568392924469988,"keywords":["nocrits","nodmgspread","payload","uncletopia"],"game_id":440,"stv_port":27026,"stv_name":"Uncletopia | Dallas | 2 | All Maps | STV","players":[{"user_id":558,"name":"Alteraxia","steam_id":76561198213333961,"connected_time":1088000000000,"state":"active","ping":61},{"user_id":574,"name":"(TPT) Ghost","steam_id":76561198123262873,"connected_time":67000000000,"state":"active","ping":92},{"user_id":538,"name":"Alex","steam_id":76561198116937513,"connected_time":2947000000000,"state":"active","ping":92},{"user_id":548,"name":"✧.*i kiss boys✧.*","steam_id":76561198870687570,"connected_time":2176000000000,"state":"active","ping":76},{"user_id":570,"name":"Femboy Dracula","steam_id":76561198090606686,"connected_time":487000000000,"state":"active","ping":96},{"user_id":517,"name":"Bad Medic Buddy","steam_id":76561198093222632,"connected_time":3900000000000,"state":"active","ping":83},{"user_id":535,"name":"urine trouble","steam_id":76561199013266640,"connected_time":3162000000000,"state":"active","ping":67},{"user_id":494,"name":"Cherubi","steam_id":76561199015772917,"connected_time":6695000000000,"state":"active","ping":100},{"user_id":543,"name":"GUN (▰˘◡˘▰)","steam_id":76561199506973596,"connected_time":2706000000000,"state":"active","ping":101},{"user_id":560,"name":"chiswola","steam_id":76561198046920142,"connected_time":1038000000000,"state":"active","ping":95},{"user_id":561,"name":"Box","steam_id":76561198121444097,"connected_time":1005000000000,"state":"active","ping":79},{"user_id":556,"name":"The Announcer's Feet","steam_id":76561199501227879,"connected_time":1138000000000,"state":"active","ping":60},{"user_id":551,"name":"William","steam_id":76561198099819378,"connected_time":1896000000000,"state":"active","ping":83},{"user_id":564,"name":"The Ambiguous Briton","steam_id":76561198007495748,"connected_time":979000000000,"state":"active","ping":159},{"user_id":566,"name":"GuyGoom","steam_id":76561198254522178,"connected_time":767000000000,"state":"active","ping":75},{"user_id":546,"name":"BaconWizard4","steam_id":76561198384591745,"connected_time":2547000000000,"state":"active","ping":81},{"user_id":549,"name":"Weakforanimebitches","steam_id":76561198217663016,"connected_time":2131000000000,"state":"active","ping":81},{"user_id":545,"name":"✧.*Remzy✧.*","steam_id":76561199239412094,"connected_time":2658000000000,"state":"active","ping":178},{"user_id":565,"name":"Legal Helpy","steam_id":76561198399334453,"connected_time":865000000000,"state":"active","ping":66},{"user_id":571,"name":"37 septillion tapeworms","steam_id":76561198186128723,"connected_time":470000000000,"state":"active","ping":60},{"user_id":500,"name":"PickleHater13","steam_id":76561198259380127,"connected_time":6149000000000,"state":"active","ping":77},{"user_id":573,"name":"Ulrich Stern","steam_id":76561198101739682,"connected_time":163000000000,"state":"active","ping":71},{"user_id":533,"name":"|MT|","steam_id":76561199052865451,"connected_time":3201000000000,"state":"active","ping":89}]},{"server_id":404,"name":"Uncletopia | Dallas | 3 | All Maps","name_short":"dal-3","host":"dal-1.us.uncletopia.com","port":27035,"enabled":true,"region":"us-central","cc":"us","latitude":32.779167,"longitude":-96.80889,"reserved":0,"last_update":"0001-01-01T00:00:00Z","name_a2s":"Uncletopia | Dallas | 3 | All Maps","protocol":17,"map":"pl_thundermountain","folder":"tf","game":"Team Fortress","app_id":440,"player_count":24,"max_players":24,"Bots":0,"server_type":"Dedicated","server_os":"Linux","password":true,"vac":true,"version":"7961495","steam_id":85568392924515219,"keywords":["nocrits","nodmgspread","payload","uncletopia"],"game_id":440,"stv_port":27036,"stv_name":"Uncletopia | Dallas | 3 | All Maps | STV","players":[{"user_id":434,"name":"Rin \"Hindwing\" Redtail","steam_id":76561199074865638,"connected_time":2191000000000,"state":"active","ping":53},{"user_id":455,"name":"Sweater-Fan","steam_id":76561199389567214,"connected_time":406000000000,"state":"active","ping":68},{"user_id":456,"name":"alcovenant","steam_id":76561198066247487,"connected_time":383000000000,"state":"active","ping":89},{"user_id":460,"name":"CALL OF DUTY BLACKOPPS","steam_id":76561198262422184,"connected_time":110000000000,"state":"active","ping":52},{"user_id":378,"name":"Master Of Whales","steam_id":76561198349104889,"connected_time":6765000000000,"state":"active","ping":86},{"user_id":415,"name":"GLG.Liz","steam_id":76561198021957956,"connected_time":3540000000000,"state":"active","ping":51},{"user_id":454,"name":"9/11 Airlines","steam_id":76561198096306325,"connected_time":446000000000,"state":"active","ping":88},{"user_id":447,"name":"Scrux","steam_id":76561198129763115,"connected_time":1304000000000,"state":"active","ping":89},{"user_id":461,"name":"Taskrabbits","steam_id":76561198366682546,"connected_time":97000000000,"state":"active","ping":128},{"user_id":394,"name":"Barmy","steam_id":76561198111626352,"connected_time":5625000000000,"state":"active","ping":79},{"user_id":407,"name":"TheHumanTaco119","steam_id":76561198996107520,"connected_time":4413000000000,"state":"active","ping":86},{"user_id":398,"name":"Glue Sniffer","steam_id":76561198289642788,"connected_time":5462000000000,"state":"active","ping":120},{"user_id":396,"name":"Super_Polite","steam_id":76561198081493839,"connected_time":5587000000000,"state":"active","ping":77},{"user_id":291,"name":"Willy the Wonderdog","steam_id":76561198067089970,"connected_time":12830000000000,"state":"active","ping":43},{"user_id":443,"name":"Enfield","steam_id":76561197961097111,"connected_time":1620000000000,"state":"active","ping":96},{"user_id":448,"name":"CeLeb144","steam_id":76561199089907740,"connected_time":1286000000000,"state":"active","ping":67},{"user_id":452,"name":"bcizzo","steam_id":76561197994399953,"connected_time":646000000000,"state":"active","ping":92},{"user_id":458,"name":"Stillkill","steam_id":76561198065069057,"connected_time":267000000000,"state":"active","ping":37},{"user_id":416,"name":"GLG MUTT","steam_id":76561198147785541,"connected_time":3480000000000,"state":"active","ping":62},{"user_id":453,"name":"Micc","steam_id":76561199447744486,"connected_time":624000000000,"state":"active","ping":114},{"user_id":439,"name":"ronny","steam_id":76561197994180230,"connected_time":2045000000000,"state":"active","ping":60},{"user_id":462,"name":"Brain Magic","steam_id":76561198010201477,"connected_time":56000000000,"state":"active","ping":79},{"user_id":430,"name":"TheInvader01","steam_id":76561198197140935,"connected_time":2675000000000,"state":"active","ping":62},{"user_id":451,"name":"Superangel","steam_id":76561197985566989,"connected_time":1010000000000,"state":"active","ping":121}]},{"server_id":405,"name":"Uncletopia | Dallas | 4 | Community","name_short":"dal-4","host":"dal-1.us.uncletopia.com","port":27045,"enabled":true,"region":"us-central","cc":"us","latitude":32.779167,"longitude":-96.80889,"reserved":0,"last_update":"0001-01-01T00:00:00Z","name_a2s":"Uncletopia | Dallas | 4 | Community","protocol":17,"map":"workshop/pl_badwater_pro_v12.ugc2142942074","folder":"tf","game":"Team Fortress","app_id":440,"player_count":10,"max_players":24,"Bots":0,"server_type":"Dedicated","server_os":"Linux","password":true,"vac":true,"version":"7961495","steam_id":85568392924515220,"keywords":["nocrits","nodmgspread","payload","uncletopia"],"game_id":440,"stv_port":27046,"stv_name":"Uncletopia | Dallas | 4 | Community | STV","players":[{"user_id":32,"name":"toolem","steam_id":76561198075312872,"connected_time":1587000000000,"state":"active","ping":60},{"user_id":33,"name":"Stupidity","steam_id":76561199195880093,"connected_time":1550000000000,"state":"active","ping":88},{"user_id":34,"name":"jhva4109","steam_id":76561199509318767,"connected_time":1544000000000,"state":"active","ping":78},{"user_id":38,"name":"lainondanintendods","steam_id":76561199082495288,"connected_time":625000000000,"state":"active","ping":78},{"user_id":36,"name":"Dr. W0lv","steam_id":76561198129237487,"connected_time":980000000000,"state":"active","ping":54},{"user_id":37,"name":"Chef Drip Boyardeez","steam_id":76561198115958392,"connected_time":849000000000,"state":"active","ping":69},{"user_id":39,"name":"poggerchamp","steam_id":76561199145124973,"connected_time":576000000000,"state":"active","ping":50},{"user_id":40,"name":"Bobletoob","steam_id":76561199184464900,"connected_time":450000000000,"state":"active","ping":82},{"user_id":41,"name":"kevin minion","steam_id":76561198801147541,"connected_time":288000000000,"state":"active","ping":74},{"user_id":42,"name":"campbellsoupcan","steam_id":76561199084866185,"connected_time":287000000000,"state":"active","ping":104}]},{"server_id":5,"name":"Uncletopia | Frankfurt | 1 | All Maps","name_short":"frk-1","host":"frk-1.de.uncletopia.com","port":27015,"enabled":true,"region":"eu","cc":"de","latitude":50.110924,"longitude":8.682127,"reserved":0,"last_update":"0001-01-01T00:00:00Z","name_a2s":"Uncletopia | Frankfurt | 1 | All Maps","protocol":17,"map":"pl_snowycoast","folder":"tf","game":"Team Fortress","app_id":440,"player_count":0,"max_players":24,"Bots":0,"server_type":"Dedicated","server_os":"Linux","password":true,"vac":true,"version":"7961495","steam_id":85568392924469989,"keywords":["nocrits","nodmgspread","payload","uncletopia"],"game_id":440,"stv_port":27016,"stv_name":"Uncletopia | Frankfurt | 1 | All Maps | STV","players":null},{"server_id":110,"name":"Uncletopia | Frankfurt | 2 | All Maps","name_short":"frk-2","host":"frk-1.de.uncletopia.com","port":27025,"enabled":true,"region":"eu","cc":"de","latitude":50.110924,"longitude":8.682127,"reserved":0,"last_update":"0001-01-01T00:00:00Z","name_a2s":"Uncletopia | Frankfurt | 2 | All Maps","protocol":17,"map":"cp_process_final","folder":"tf","game":"Team Fortress","app_id":440,"player_count":0,"max_players":24,"Bots":0,"server_type":"Dedicated","server_os":"Linux","password":true,"vac":true,"version":"7961495","steam_id":85568392924469990,"keywords":["cp","nocrits","nodmgspread","uncletopia"],"game_id":440,"stv_port":27026,"stv_name":"Uncletopia | Frankfurt | 2 | All Maps | STV","players":null},{"server_id":308,"name":"Uncletopia | Frankfurt | 3 | All Maps","name_short":"frk-3","host":"frk-1.de.uncletopia.com","port":27035,"enabled":true,"region":"eu","cc":"de","latitude":50.110924,"longitude":8.682127,"reserved":0,"last_update":"0001-01-01T00:00:00Z","name_a2s":"Uncletopia | Frankfurt | 3 | All Maps","protocol":17,"map":"koth_cascade","folder":"tf","game":"Team Fortress","app_id":440,"player_count":0,"max_players":24,"Bots":0,"server_type":"Dedicated","server_os":"Linux","password":true,"vac":true,"version":"7961495","steam_id":85568392924504274,"keywords":["cp","nocrits","nodmgspread","uncletopia"],"game_id":440,"stv_port":27036,"stv_name":"Uncletopia | Frankfurt | 3 | All Maps | STV","players":null},{"server_id":309,"name":"Uncletopia | Frankfurt | 4 | All Maps","name_short":"frk-4","host":"frk-1.de.uncletopia.com","port":27045,"enabled":true,"region":"eu","cc":"de","latitude":50.110924,"longitude":8.682127,"reserved":0,"last_update":"0001-01-01T00:00:00Z","name_a2s":"Uncletopia | Frankfurt | 4 | All Maps","protocol":17,"map":"cp_granary","folder":"tf","game":"Team Fortress","app_id":440,"player_count":0,"max_players":24,"Bots":0,"server_type":"Dedicated","server_os":"Linux","password":true,"vac":true,"version":"7961495","steam_id":85568392924504275,"keywords":["cp","nocrits","nodmgspread","uncletopia"],"game_id":440,"stv_port":27046,"stv_name":"Uncletopia | Frankfurt | 4 | All Maps | STV","players":null},{"server_id":310,"name":"Uncletopia | Frankfurt | 5 | All Maps","name_short":"frk-5","host":"frk-1.de.uncletopia.com","port":27055,"enabled":true,"region":"eu","cc":"de","latitude":50.110924,"longitude":8.682127,"reserved":0,"last_update":"0001-01-01T00:00:00Z","name_a2s":"Uncletopia | Frankfurt | 5 | All Maps","protocol":17,"map":"pl_pier","folder":"tf","game":"Team Fortress","app_id":440,"player_count":19,"max_players":24,"Bots":0,"server_type":"Dedicated","server_os":"Linux","password":true,"vac":true,"version":"7961495","steam_id":85568392924504277,"keywords":["nocrits","nodmgspread","payload","uncletopia"],"game_id":440,"stv_port":27056,"stv_name":"Uncletopia | Frankfurt | 5 | All Maps | STV","players":[{"user_id":965,"name":"SoupTime","steam_id":76561199178018465,"connected_time":470000000000,"state":"active","ping":89},{"user_id":964,"name":"63756d","steam_id":76561198808699024,"connected_time":600000000000,"state":"active","ping":48},{"user_id":911,"name":"mercedes ben","steam_id":76561198000147423,"connected_time":4554000000000,"state":"active","ping":56},{"user_id":966,"name":"CreepyYellowDuck","steam_id":76561198000479387,"connected_time":437000000000,"state":"active","ping":44},{"user_id":967,"name":"AsuX","steam_id":76561197990333289,"connected_time":378000000000,"state":"active","ping":61},{"user_id":945,"name":"alverol","steam_id":76561198022920660,"connected_time":2030000000000,"state":"active","ping":81},{"user_id":968,"name":"TheHighGroundWins","steam_id":76561198161325391,"connected_time":231000000000,"state":"active","ping":148},{"user_id":928,"name":"three rats in a trenchcoat","steam_id":76561197983889333,"connected_time":3210000000000,"state":"active","ping":48},{"user_id":930,"name":"Jeryx","steam_id":76561197995602803,"connected_time":3068000000000,"state":"active","ping":49},{"user_id":931,"name":"⛧ AlphaSatanOmega ⛧","steam_id":76561198035125511,"connected_time":2989000000000,"state":"active","ping":137},{"user_id":900,"name":"faker","steam_id":76561199179040672,"connected_time":5359000000000,"state":"active","ping":65},{"user_id":959,"name":"Arisu","steam_id":76561198080168182,"connected_time":1009000000000,"state":"active","ping":80},{"user_id":944,"name":"james_bondage","steam_id":76561199476062624,"connected_time":2174000000000,"state":"active","ping":150},{"user_id":951,"name":"$HAD0W W1Z4RD M0N3Y G4NG","steam_id":76561199195985387,"connected_time":1495000000000,"state":"active","ping":79},{"user_id":961,"name":"Yuukine","steam_id":76561198379637598,"connected_time":928000000000,"state":"active","ping":76},{"user_id":949,"name":"bliss","steam_id":76561198210259379,"connected_time":1624000000000,"state":"active","ping":98},{"user_id":963,"name":"Kañul","steam_id":76561198977359464,"connected_time":875000000000,"state":"active","ping":194},{"user_id":850,"name":"Volodya","steam_id":76561198124484658,"connected_time":9477000000000,"state":"active","ping":108},{"user_id":954,"name":"xcd859","steam_id":76561199000490449,"connected_time":1465000000000,"state":"active","ping":119}]},{"server_id":311,"name":"Uncletopia | Frankfurt | 6 | All Maps","name_short":"frk-6","host":"frk-1.de.uncletopia.com","port":27065,"enabled":true,"region":"eu","cc":"de","latitude":50.110924,"longitude":8.682127,"reserved":0,"last_update":"0001-01-01T00:00:00Z","name_a2s":"Uncletopia | Frankfurt | 6 | All Maps","protocol":17,"map":"pl_badwater","folder":"tf","game":"Team Fortress","app_id":440,"player_count":0,"max_players":24,"Bots":0,"server_type":"Dedicated","server_os":"Linux","password":true,"vac":true,"version":"7961495","steam_id":85568392924504278,"keywords":["nocrits","nodmgspread","payload","uncletopia"],"game_id":440,"stv_port":27066,"stv_name":"Uncletopia | Frankfurt | 6 | All Maps | STV","players":null},{"server_id":23,"name":"Uncletopia | Frankfurt | 7 | Stopwatch","name_short":"frk-7","host":"frk-1.de.uncletopia.com","port":27075,"enabled":true,"region":"eu","cc":"de","latitude":50.110924,"longitude":8.682127,"reserved":0,"last_update":"0001-01-01T00:00:00Z","name_a2s":"Uncletopia | Frankfurt | 7 | Stopwatch","protocol":17,"map":"koth_lakeside_final","folder":"tf","game":"Team Fortress","app_id":440,"player_count":0,"max_players":24,"Bots":0,"server_type":"Dedicated","server_os":"Linux","password":true,"vac":true,"version":"7961495","steam_id":85568392924742827,"keywords":["cp","nocrits","nodmgspread","uncletopia"],"game_id":440,"stv_port":27076,"stv_name":"Uncletopia | Frankfurt | 7 | Stopwatch | STV","players":null},{"server_id":24,"name":"Uncletopia | Frankfurt | 8 | Community","name_short":"frk-8","host":"frk-1.de.uncletopia.com","port":27085,"enabled":true,"region":"eu","cc":"de","latitude":50.110924,"longitude":8.682127,"reserved":0,"last_update":"0001-01-01T00:00:00Z","name_a2s":"Uncletopia | Frankfurt | 8 | Community","protocol":17,"map":"workshop/koth_relic_rc3.ugc2965301326","folder":"tf","game":"Team Fortress","app_id":440,"player_count":0,"max_players":24,"Bots":0,"server_type":"Dedicated","server_os":"Linux","password":true,"vac":true,"version":"7961495","steam_id":85568392924742828,"keywords":["cp","nocrits","nodmgspread","uncletopia"],"game_id":440,"stv_port":27086,"stv_name":"Uncletopia | Frankfurt | 8 | Community | STV","players":null},{"server_id":202,"name":"Uncletopia | Hong Kong | 1 | All Maps","name_short":"hgk-1","host":"hgk-1.hk.uncletopia.com","port":27015,"enabled":true,"region":"asia","cc":"hk","latitude":22.302711,"longitude":114.177216,"reserved":0,"last_update":"0001-01-01T00:00:00Z","name_a2s":"Uncletopia | Hong Kong | 1 | All Maps","protocol":17,"map":"pl_swiftwater_final1","folder":"tf","game":"Team Fortress","app_id":440,"player_count":0,"max_players":24,"Bots":0,"server_type":"Dedicated","server_os":"Linux","password":true,"vac":true,"version":"7961495","steam_id":85568392924494504,"keywords":["nocrits","nodmgspread","payload","uncletopia"],"game_id":440,"stv_port":27016,"stv_name":"Uncletopia | Hong Kong | 1 | All Maps | STV","players":null},{"server_id":1,"name":"Uncletopia | Los Angeles | 1 | All Maps","name_short":"lax-1","host":"lax-1.us.uncletopia.com","port":27015,"enabled":true,"region":"us-west","cc":"us","latitude":33.94279,"longitude":-118.41004,"reserved":0,"last_update":"0001-01-01T00:00:00Z","name_a2s":"Uncletopia | Los Angeles | 1 | All Maps","protocol":17,"map":"cp_mountainlab","folder":"tf","game":"Team Fortress","app_id":440,"player_count":24,"max_players":24,"Bots":0,"server_type":"Dedicated","server_os":"Linux","password":true,"vac":true,"version":"7961495","steam_id":85568392924469991,"keywords":["cp","nocrits","nodmgspread","uncletopia"],"game_id":440,"stv_port":27016,"stv_name":"Uncletopia | Los Angeles | 1 | All Maps | STV","players":[{"user_id":170,"name":"krootonitron","steam_id":76561198114113037,"connected_time":1451000000000,"state":"active","ping":49},{"user_id":186,"name":"LG_Fridge_User","steam_id":76561198977815014,"connected_time":855000000000,"state":"active","ping":76},{"user_id":199,"name":"Concede","steam_id":76561198242842394,"connected_time":394000000000,"state":"active","ping":75},{"user_id":175,"name":"Soft copper wings","steam_id":76561198092317849,"connected_time":1211000000000,"state":"active","ping":47},{"user_id":176,"name":"Mexican Elvis","steam_id":76561198165100210,"connected_time":1201000000000,"state":"active","ping":69},{"user_id":196,"name":"courtney freakin' miller","steam_id":76561198168492250,"connected_time":425000000000,"state":"active","ping":65},{"user_id":177,"name":"Reyloko","steam_id":76561198172480913,"connected_time":1198000000000,"state":"active","ping":106},{"user_id":178,"name":"Sak","steam_id":76561198307655707,"connected_time":1152000000000,"state":"active","ping":47},{"user_id":185,"name":"SODA!!!!","steam_id":76561198190997863,"connected_time":879000000000,"state":"active","ping":108},{"user_id":201,"name":"Atari","steam_id":76561199101314006,"connected_time":98000000000,"state":"active","ping":58},{"user_id":180,"name":"jetllamachicken","steam_id":76561199055365143,"connected_time":1145000000000,"state":"active","ping":65},{"user_id":91,"name":"kloo_","steam_id":76561199090218013,"connected_time":7571000000000,"state":"active","ping":81},{"user_id":193,"name":"groovetomanny","steam_id":76561198371660675,"connected_time":553000000000,"state":"active","ping":53},{"user_id":197,"name":"minerkid2004","steam_id":76561198044262827,"connected_time":414000000000,"state":"active","ping":57},{"user_id":183,"name":"Sleezy","steam_id":76561198839500707,"connected_time":906000000000,"state":"active","ping":41},{"user_id":79,"name":"Depresso","steam_id":76561198397540437,"connected_time":8038000000000,"state":"active","ping":84},{"user_id":142,"name":"HAT-WEARING™ Maggot Gamer Cat","steam_id":76561197973992705,"connected_time":3103000000000,"state":"active","ping":67},{"user_id":161,"name":"Several Skeletons","steam_id":76561198043732416,"connected_time":1810000000000,"state":"active","ping":103},{"user_id":131,"name":"Burnbeast","steam_id":76561198088104601,"connected_time":4601000000000,"state":"active","ping":71},{"user_id":188,"name":"Ian","steam_id":76561198159334435,"connected_time":757000000000,"state":"active","ping":165},{"user_id":184,"name":"Eugene Thaddeus Hinkle V","steam_id":76561198821535846,"connected_time":903000000000,"state":"active","ping":107},{"user_id":200,"name":"lordstinkdemon666","steam_id":76561198073914311,"connected_time":116000000000,"state":"active","ping":44},{"user_id":190,"name":"Soviet Potato","steam_id":76561198068546113,"connected_time":738000000000,"state":"active","ping":56},{"user_id":153,"name":"Just a Good Friend","steam_id":76561198140052403,"connected_time":2866000000000,"state":"active","ping":46}]},{"server_id":112,"name":"Uncletopia | Los Angeles | 2 | All Maps","name_short":"lax-2","host":"lax-1.us.uncletopia.com","port":27025,"enabled":true,"region":"us-west","cc":"us","latitude":33.94279,"longitude":-118.41004,"reserved":0,"last_update":"0001-01-01T00:00:00Z","name_a2s":"Uncletopia | Los Angeles | 2 | All Maps","protocol":17,"map":"koth_cascade","folder":"tf","game":"Team Fortress","app_id":440,"player_count":19,"max_players":24,"Bots":0,"server_type":"Dedicated","server_os":"Linux","password":true,"vac":true,"version":"7961495","steam_id":85568392924469992,"keywords":["cp","nocrits","nodmgspread","uncletopia"],"game_id":440,"stv_port":27026,"stv_name":"Uncletopia | Los Angeles | 2 | All Maps | STV","players":[{"user_id":358,"name":"Adam Wixord","steam_id":76561198077881405,"connected_time":1072000000000,"state":"active","ping":73},{"user_id":372,"name":"monkeyclicker","steam_id":76561198095113674,"connected_time":598000000000,"state":"active","ping":50},{"user_id":361,"name":"An00bis","steam_id":76561198044084508,"connected_time":1044000000000,"state":"active","ping":58},{"user_id":356,"name":"darren","steam_id":76561199050155136,"connected_time":1185000000000,"state":"active","ping":48},{"user_id":357,"name":"Firedust19","steam_id":76561198153238631,"connected_time":1147000000000,"state":"active","ping":53},{"user_id":308,"name":"Beef Wellington","steam_id":76561197995635241,"connected_time":4366000000000,"state":"active","ping":162},{"user_id":375,"name":"HooDoo","steam_id":76561198088994018,"connected_time":16000000000,"state":"spawning","ping":67},{"user_id":364,"name":"Goob","steam_id":76561198256918638,"connected_time":981000000000,"state":"active","ping":59},{"user_id":354,"name":"Jesse Thinkman","steam_id":76561198061675475,"connected_time":1309000000000,"state":"active","ping":103},{"user_id":350,"name":"Humble Learner","steam_id":76561198066091050,"connected_time":1403000000000,"state":"active","ping":74},{"user_id":359,"name":"Batso","steam_id":76561198106589452,"connected_time":1067000000000,"state":"active","ping":51},{"user_id":290,"name":"aidonz","steam_id":76561198066395960,"connected_time":5526000000000,"state":"active","ping":101},{"user_id":323,"name":"Antzen","steam_id":76561198041343470,"connected_time":3441000000000,"state":"active","ping":59},{"user_id":373,"name":"flo rida","steam_id":76561198226169704,"connected_time":575000000000,"state":"active","ping":63},{"user_id":349,"name":"lol","steam_id":76561198026491738,"connected_time":1910000000000,"state":"active","ping":61},{"user_id":355,"name":"turnip","steam_id":76561197999375941,"connected_time":1280000000000,"state":"active","ping":91},{"user_id":343,"name":"Sexy Kitten (toxic)","steam_id":76561197979056451,"connected_time":2277000000000,"state":"active","ping":73},{"user_id":368,"name":"Cars 2 Enjoyer","steam_id":76561198880355236,"connected_time":673000000000,"state":"active","ping":45},{"user_id":374,"name":"Sammy!","steam_id":76561198184171743,"connected_time":236000000000,"state":"active","ping":50}]},{"server_id":324,"name":"Uncletopia | Los Angeles | 3 | All Maps","name_short":"lax-3","host":"lax-1.us.uncletopia.com","port":27035,"enabled":true,"region":"us-west","cc":"us","latitude":33.94279,"longitude":-118.41004,"reserved":0,"last_update":"0001-01-01T00:00:00Z","name_a2s":"Uncletopia | Los Angeles | 3 | All Maps","protocol":17,"map":"pl_snowycoast","folder":"tf","game":"Team Fortress","app_id":440,"player_count":7,"max_players":24,"Bots":0,"server_type":"Dedicated","server_os":"Linux","password":true,"vac":true,"version":"7961495","steam_id":85568392924510198,"keywords":["nocrits","nodmgspread","payload","uncletopia"],"game_id":440,"stv_port":27036,"stv_name":"Uncletopia | Los Angeles | 3 | All Maps | STV","players":[{"user_id":39,"name":"Sinno","steam_id":76561198144974589,"connected_time":905000000000,"state":"active","ping":105},{"user_id":24,"name":"[MF] Thicc Dark Elf Meat","steam_id":76561198047681421,"connected_time":4505000000000,"state":"active","ping":114},{"user_id":25,"name":"Monti","steam_id":76561199031515904,"connected_time":4383000000000,"state":"active","ping":214},{"user_id":28,"name":"M.I.R.A.I.Drive","steam_id":76561198098018436,"connected_time":3556000000000,"state":"active","ping":77},{"user_id":22,"name":"S. Kirb","steam_id":76561198255303847,"connected_time":4997000000000,"state":"active","ping":88},{"user_id":41,"name":"johnman gooberguy","steam_id":76561199014859764,"connected_time":191000000000,"state":"active","ping":59},{"user_id":35,"name":"Saiko","steam_id":76561198982717237,"connected_time":1816000000000,"state":"active","ping":52}]},{"server_id":25,"name":"Uncletopia | Los Angeles | 4 | Stopwatch","name_short":"lax-4","host":"lax-1.us.uncletopia.com","port":27045,"enabled":true,"region":"us-west","cc":"us","latitude":33.94279,"longitude":-118.41004,"reserved":0,"last_update":"0001-01-01T00:00:00Z","name_a2s":"Uncletopia | Los Angeles | 4 | Stopwatch","protocol":17,"map":"workshop/koth_ashville_final.ugc2130459942","folder":"tf","game":"Team Fortress","app_id":440,"player_count":5,"max_players":24,"Bots":0,"server_type":"Dedicated","server_os":"Linux","password":true,"vac":true,"version":"7961495","steam_id":85568392924510199,"keywords":["cp","nocrits","nodmgspread","uncletopia"],"game_id":440,"stv_port":27046,"stv_name":"Uncletopia | Los Angeles | 4 | Stopwatch | STV","players":[{"user_id":42,"name":"harambe 101","steam_id":76561198366850003,"connected_time":879000000000,"state":"active","ping":60},{"user_id":29,"name":"FlexTape","steam_id":76561198871834867,"connected_time":4633000000000,"state":"active","ping":60},{"user_id":30,"name":"tigermouse1939","steam_id":76561199078976251,"connected_time":4630000000000,"state":"active","ping":65},{"user_id":31,"name":"TheLiliPad","steam_id":76561198829012349,"connected_time":4384000000000,"state":"active","ping":101},{"user_id":37,"name":"MirrorsAreScary","steam_id":76561198860505587,"connected_time":2828000000000,"state":"active","ping":101}]},{"server_id":11,"name":"Uncletopia | London | 1 | All Maps","name_short":"lon-1","host":"lon-1.uk.uncletopia.com","port":27015,"enabled":true,"region":"eu","cc":"gb","latitude":51.509865,"longitude":-0.118092,"reserved":0,"last_update":"0001-01-01T00:00:00Z","name_a2s":"Uncletopia | London | 1 | All Maps","protocol":17,"map":"koth_lakeside_final","folder":"tf","game":"Team Fortress","app_id":440,"player_count":0,"max_players":24,"Bots":0,"server_type":"Dedicated","server_os":"Linux","password":true,"vac":true,"version":"7961495","steam_id":85568392924367362,"keywords":["cp","nocrits","nodmgspread","uncletopia"],"game_id":440,"stv_port":27016,"stv_name":"Uncletopia | London | 1 | All Maps | STV","players":null},{"server_id":114,"name":"Uncletopia | London | 2 | All Maps","name_short":"lon-2","host":"lon-1.uk.uncletopia.com","port":27025,"enabled":true,"region":"eu","cc":"gb","latitude":51.509865,"longitude":-0.118092,"reserved":0,"last_update":"0001-01-01T00:00:00Z","name_a2s":"Uncletopia | London | 2 | All Maps","protocol":17,"map":"cp_mountainlab","folder":"tf","game":"Team Fortress","app_id":440,"player_count":0,"max_players":24,"Bots":0,"server_type":"Dedicated","server_os":"Linux","password":true,"vac":true,"version":"7961495","steam_id":85568392924470941,"keywords":["cp","nocrits","nodmgspread","uncletopia"],"game_id":440,"stv_port":27026,"stv_name":"Uncletopia | London | 2 | All Maps | STV","players":null},{"server_id":320,"name":"Uncletopia | London | 3 | All Maps","name_short":"lon-3","host":"lon-1.uk.uncletopia.com","port":27035,"enabled":true,"region":"eu","cc":"gb","latitude":51.509865,"longitude":-0.118092,"reserved":0,"last_update":"0001-01-01T00:00:00Z","name_a2s":"Uncletopia | London | 3 | All Maps","protocol":17,"map":"pl_snowycoast","folder":"tf","game":"Team Fortress","app_id":440,"player_count":0,"max_players":24,"Bots":0,"server_type":"Dedicated","server_os":"Linux","password":true,"vac":true,"version":"7961495","steam_id":85568392924510192,"keywords":["nocrits","nodmgspread","payload","uncletopia"],"game_id":440,"stv_port":27036,"stv_name":"Uncletopia | London | 3 | All Maps | STV","players":null},{"server_id":321,"name":"Uncletopia | London | 4 | All Maps","name_short":"lon-4","host":"lon-1.uk.uncletopia.com","port":27045,"enabled":true,"region":"eu","cc":"gb","latitude":51.509865,"longitude":-0.118092,"reserved":0,"last_update":"0001-01-01T00:00:00Z","name_a2s":"Uncletopia | London | 4 | All Maps","protocol":17,"map":"cp_altitude","folder":"tf","game":"Team Fortress","app_id":440,"player_count":0,"max_players":24,"Bots":0,"server_type":"Dedicated","server_os":"Linux","password":true,"vac":true,"version":"7961495","steam_id":85568392924510193,"keywords":["cp","nocrits","nodmgspread","uncletopia"],"game_id":440,"stv_port":27046,"stv_name":"Uncletopia | London | 4 | All Maps | STV","players":null},{"server_id":21,"name":"Uncletopia | London | 5 | All Maps","name_short":"lon-5","host":"lon-1.uk.uncletopia.com","port":27055,"enabled":true,"region":"eu","cc":"gb","latitude":51.509865,"longitude":-0.118092,"reserved":0,"last_update":"0001-01-01T00:00:00Z","name_a2s":"Uncletopia | London | 5 | All Maps","protocol":17,"map":"koth_highpass","folder":"tf","game":"Team Fortress","app_id":440,"player_count":0,"max_players":24,"Bots":0,"server_type":"Dedicated","server_os":"Linux","password":true,"vac":true,"version":"7961495","steam_id":85568392924742829,"keywords":["cp","nocrits","nodmgspread","uncletopia"],"game_id":440,"stv_port":27056,"stv_name":"Uncletopia | London | 5 | All Maps | STV","players":null},{"server_id":22,"name":"Uncletopia | London | 6 | All Maps","name_short":"lon-6","host":"lon-1.uk.uncletopia.com","port":27065,"enabled":true,"region":"eu","cc":"gb","latitude":51.509865,"longitude":-0.118092,"reserved":0,"last_update":"0001-01-01T00:00:00Z","name_a2s":"Uncletopia | London | 6 | All Maps","protocol":17,"map":"koth_lakeside_final","folder":"tf","game":"Team Fortress","app_id":440,"player_count":1,"max_players":24,"Bots":0,"server_type":"Dedicated","server_os":"Linux","password":true,"vac":true,"version":"7961495","steam_id":85568392924742830,"keywords":["cp","nocrits","nodmgspread","uncletopia"],"game_id":440,"stv_port":27066,"stv_name":"Uncletopia | London | 6 | All Maps | STV","players":[{"user_id":424,"name":"Uncle Frank ᗜˬᗜ","steam_id":76561199096268427,"connected_time":174000000000,"state":"active","ping":136}]},{"server_id":40,"name":"Uncletopia | London | 7 | Stopwatch","name_short":"lon-7","host":"lon-1.uk.uncletopia.com","port":27075,"enabled":true,"region":"eu","cc":"gb","latitude":51.509865,"longitude":-0.118092,"reserved":0,"last_update":"0001-01-01T00:00:00Z","name_a2s":"Uncletopia | London | 7 | Stopwatch","protocol":17,"map":"workshop/koth_clearcut_b15.ugc2107050255","folder":"tf","game":"Team Fortress","app_id":440,"player_count":0,"max_players":24,"Bots":0,"server_type":"Dedicated","server_os":"Linux","password":true,"vac":true,"version":"7961495","steam_id":85568392924964314,"keywords":["cp","nocrits","nodmgspread","uncletopia"],"game_id":440,"stv_port":27076,"stv_name":"Uncletopia | London | 7 | Stopwatch | STV","players":null},{"server_id":41,"name":"Uncletopia | London | 8 | Community","name_short":"lon-8","host":"lon-1.uk.uncletopia.com","port":27085,"enabled":true,"region":"eu","cc":"gb","latitude":51.509865,"longitude":-0.118092,"reserved":0,"last_update":"0001-01-01T00:00:00Z","name_a2s":"Uncletopia | London | 8 | Community","protocol":17,"map":"workshop/cp_overgrown_rc8.ugc503939302","folder":"tf","game":"Team Fortress","app_id":440,"player_count":0,"max_players":24,"Bots":0,"server_type":"Dedicated","server_os":"Linux","password":true,"vac":true,"version":"7961495","steam_id":85568392924964315,"keywords":["cp","nocrits","nodmgspread","uncletopia"],"game_id":440,"stv_port":27086,"stv_name":"Uncletopia | London | 8 | Community | STV","players":null},{"server_id":300,"name":"Uncletopia | Montréal | 1 | One Thousand Uncles","name_short":"mtl-1","host":"mtl-1.ca.uncletopia.com","port":27015,"enabled":true,"region":"us-east","cc":"ca","latitude":45.50889,"longitude":-73.56167,"reserved":0,"last_update":"0001-01-01T00:00:00Z","name_a2s":"Uncletopia | Montréal | 1 | One Thousand Uncles","protocol":17,"map":"pl_badwater","folder":"tf","game":"Team Fortress","app_id":440,"player_count":29,"max_players":32,"Bots":20,"server_type":"Dedicated","server_os":"Linux","password":true,"vac":true,"version":"7961495","steam_id":85568392924500087,"keywords":["alltalk","bots","danepve","increased_maxplayers","norespawntime","payload","uncletopia"],"game_id":440,"stv_port":0,"stv_name":"","players":[{"user_id":447,"name":"MagikarpEX","steam_id":76561198166172279,"connected_time":3402000000000,"state":"active","ping":80},{"user_id":409,"name":"Kiervce","steam_id":76561199175427371,"connected_time":7339000000000,"state":"active","ping":58},{"user_id":373,"name":"Flappus","steam_id":76561198857949632,"connected_time":9191000000000,"state":"active","ping":72},{"user_id":488,"name":"1-800-GHOST-DANCE","steam_id":76561198835430429,"connected_time":1560000000000,"state":"active","ping":89},{"user_id":489,"name":"Yankee_Pirate","steam_id":76561198260667117,"connected_time":992000000000,"state":"active","ping":59},{"user_id":376,"name":"The Skyfoogle","steam_id":76561198797090812,"connected_time":9173000000000,"state":"active","ping":91},{"user_id":490,"name":"Pie Eater 9000","steam_id":76561198003791564,"connected_time":710000000000,"state":"active","ping":78},{"user_id":462,"name":"catgirl w/ fat ass","steam_id":76561199040286026,"connected_time":2710000000000,"state":"active","ping":65},{"user_id":381,"name":"Luki","steam_id":76561198180609107,"connected_time":8485000000000,"state":"active","ping":131}]},{"server_id":301,"name":"Uncletopia | Montréal | 2 | One Thousand Uncles","name_short":"mtl-2","host":"mtl-1.ca.uncletopia.com","port":27025,"enabled":true,"region":"us-east","cc":"ca","latitude":45.50889,"longitude":-73.56167,"reserved":0,"last_update":"0001-01-01T00:00:00Z","name_a2s":"Uncletopia | Montréal | 2 | One Thousand Uncles","protocol":17,"map":"cp_dustbowl","folder":"tf","game":"Team Fortress","app_id":440,"player_count":27,"max_players":32,"Bots":20,"server_type":"Dedicated","server_os":"Linux","password":true,"vac":true,"version":"7961495","steam_id":85568392924500088,"keywords":["alltalk","bots","cp","danepve","increased_maxplayers","norespawntime","uncletopia"],"game_id":440,"stv_port":0,"stv_name":"","players":[{"user_id":160,"name":"RacoonGamer","steam_id":76561198100907657,"connected_time":4786000000000,"state":"active","ping":49},{"user_id":181,"name":"Noob","steam_id":76561199211862126,"connected_time":3396000000000,"state":"active","ping":130},{"user_id":184,"name":"Boney_Bonez","steam_id":76561199000434784,"connected_time":3082000000000,"state":"active","ping":139},{"user_id":185,"name":"Herman Bavinck","steam_id":76561197993190216,"connected_time":2210000000000,"state":"active","ping":57},{"user_id":186,"name":"Capnomonkeys","steam_id":76561198180946791,"connected_time":1634000000000,"state":"active","ping":74},{"user_id":211,"name":"Xx_Savage_Twerks_xX","steam_id":76561198011665915,"connected_time":482000000000,"state":"active","ping":55},{"user_id":208,"name":"pooter9","steam_id":76561198357077029,"connected_time":916000000000,"state":"active","ping":73}]},{"server_id":302,"name":"Uncletopia | Montréal | 3 | One Thousand Uncles","name_short":"mtl-3","host":"mtl-1.ca.uncletopia.com","port":27035,"enabled":true,"region":"us-east","cc":"ca","latitude":45.50889,"longitude":-73.56167,"reserved":0,"last_update":"0001-01-01T00:00:00Z","name_a2s":"Uncletopia | Montréal | 3 | One Thousand Uncles","protocol":17,"map":"pl_swiftwater_final1","folder":"tf","game":"Team Fortress","app_id":440,"player_count":0,"max_players":32,"Bots":0,"server_type":"Dedicated","server_os":"Linux","password":true,"vac":true,"version":"7961495","steam_id":85568392924500089,"keywords":["alltalk","danepve","increased_maxplayers","norespawntime","payload","uncletopia"],"game_id":440,"stv_port":0,"stv_name":"","players":null},{"server_id":13,"name":"Uncletopia | New York City | 1 | All Maps","name_short":"nyc-1","host":"nyc-1.us.uncletopia.com","port":27015,"enabled":true,"region":"us-east","cc":"us","latitude":40.73061,"longitude":-73.93524,"reserved":0,"last_update":"0001-01-01T00:00:00Z","name_a2s":"Uncletopia | New York City | 1 | All Maps","protocol":17,"map":"cp_snakewater_final1","folder":"tf","game":"Team Fortress","app_id":440,"player_count":24,"max_players":24,"Bots":0,"server_type":"Dedicated","server_os":"Linux","password":true,"vac":true,"version":"7961495","steam_id":85568392924469993,"keywords":["cp","nocrits","nodmgspread","uncletopia"],"game_id":440,"stv_port":27016,"stv_name":"Uncletopia | New York City | 1 | All Maps | STV","players":[{"user_id":702,"name":"Joey","steam_id":76561198143977957,"connected_time":3316000000000,"state":"active","ping":107},{"user_id":736,"name":"Hithereeric","steam_id":76561199455086806,"connected_time":418000000000,"state":"active","ping":117},{"user_id":739,"name":"bobbymcbobington","steam_id":76561199089411172,"connected_time":312000000000,"state":"active","ping":120},{"user_id":671,"name":"Chillin Turt","steam_id":76561198025796849,"connected_time":5062000000000,"state":"active","ping":71},{"user_id":741,"name":"Maniac Hat","steam_id":76561199082942851,"connected_time":167000000000,"state":"active","ping":77},{"user_id":717,"name":"Butthole Cafeteria","steam_id":76561197986078333,"connected_time":2181000000000,"state":"active","ping":67},{"user_id":660,"name":"beep","steam_id":76561199096448766,"connected_time":5953000000000,"state":"active","ping":86},{"user_id":731,"name":"SPELLSDISASTER","steam_id":76561197995620232,"connected_time":827000000000,"state":"active","ping":46},{"user_id":705,"name":"Cruxxxify","steam_id":76561199402677621,"connected_time":2992000000000,"state":"active","ping":90},{"user_id":744,"name":"-BRH- Tangled up in Bluegrass","steam_id":76561197987181139,"connected_time":71000000000,"state":"active","ping":81},{"user_id":742,"name":"93.77 TAC BIO-JESUS LIVE SAND ","steam_id":76561198012126625,"connected_time":127000000000,"state":"active","ping":56},{"user_id":743,"name":"compassrose","steam_id":76561198103798282,"connected_time":103000000000,"state":"active","ping":55},{"user_id":727,"name":"Seducktive","steam_id":76561198003267177,"connected_time":1408000000000,"state":"active","ping":85},{"user_id":712,"name":"smuffy","steam_id":76561198091459506,"connected_time":2396000000000,"state":"active","ping":50},{"user_id":718,"name":"Stan","steam_id":76561199057962816,"connected_time":2145000000000,"state":"active","ping":60},{"user_id":721,"name":"War on Drugs Fighter","steam_id":76561198103211035,"connected_time":2048000000000,"state":"active","ping":75},{"user_id":713,"name":"SecretRendezvous","steam_id":76561198145565601,"connected_time":2393000000000,"state":"active","ping":81},{"user_id":631,"name":"oppenheimer style","steam_id":76561198026664629,"connected_time":8659000000000,"state":"active","ping":50},{"user_id":726,"name":"Gojira The Fire King","steam_id":76561198442418391,"connected_time":1447000000000,"state":"active","ping":73},{"user_id":719,"name":"Auzelius","steam_id":76561198025803982,"connected_time":2141000000000,"state":"active","ping":70},{"user_id":720,"name":"None of that $9.99 bullshit","steam_id":76561198116169903,"connected_time":2121000000000,"state":"active","ping":60},{"user_id":723,"name":"Bee_Pirate","steam_id":76561199000599111,"connected_time":1926000000000,"state":"active","ping":63},{"user_id":745,"name":"sheeesh","steam_id":76561198038080028,"connected_time":34000000000,"state":"active","ping":105},{"user_id":733,"name":"Terror-Billy #SaveTF2","steam_id":76561198328141870,"connected_time":654000000000,"state":"active","ping":71}]},{"server_id":14,"name":"Uncletopia | New York City | 2 | All Maps","name_short":"nyc-2","host":"nyc-1.us.uncletopia.com","port":27025,"enabled":true,"region":"us-east","cc":"us","latitude":40.73061,"longitude":-73.93524,"reserved":0,"last_update":"0001-01-01T00:00:00Z","name_a2s":"Uncletopia | New York City | 2 | All Maps","protocol":17,"map":"koth_viaduct","folder":"tf","game":"Team Fortress","app_id":440,"player_count":0,"max_players":24,"Bots":0,"server_type":"Dedicated","server_os":"Linux","password":true,"vac":true,"version":"7961495","steam_id":85568392924469994,"keywords":["cp","nocrits","nodmgspread","uncletopia"],"game_id":440,"stv_port":27026,"stv_name":"Uncletopia | New York City | 2 | All Maps | STV","players":null},{"server_id":15,"name":"Uncletopia | New York City | 3 | Stopwatch","name_short":"nyc-3","host":"nyc-1.us.uncletopia.com","port":27035,"enabled":true,"region":"us-east","cc":"us","latitude":40.73061,"longitude":-73.93524,"reserved":0,"last_update":"0001-01-01T00:00:00Z","name_a2s":"Uncletopia | New York City | 3 | Stopwatch","protocol":17,"map":"workshop/pl_vigil_rc10.ugc1266210012","folder":"tf","game":"Team Fortress","app_id":440,"player_count":0,"max_players":24,"Bots":0,"server_type":"Dedicated","server_os":"Linux","password":true,"vac":true,"version":"7961495","steam_id":85568392924742820,"keywords":["nocrits","nodmgspread","payload","uncletopia"],"game_id":440,"stv_port":27036,"stv_name":"Uncletopia | New York City | 3 | Stopwatch | STV","players":null},{"server_id":16,"name":"Uncletopia | New York City | 4 | Community","name_short":"nyc-4","host":"nyc-1.us.uncletopia.com","port":27045,"enabled":true,"region":"us-east","cc":"us","latitude":40.73061,"longitude":-73.93524,"reserved":0,"last_update":"0001-01-01T00:00:00Z","name_a2s":"Uncletopia | New York City | 4 | Community","protocol":17,"map":"workshop/koth_slaughter_rc1.ugc1712845210","folder":"tf","game":"Team Fortress","app_id":440,"player_count":14,"max_players":24,"Bots":0,"server_type":"Dedicated","server_os":"Linux","password":true,"vac":true,"version":"7961495","steam_id":85568392924742821,"keywords":["cp","nocrits","nodmgspread","uncletopia"],"game_id":440,"stv_port":27046,"stv_name":"Uncletopia | New York City | 4 | Community | STV","players":[{"user_id":242,"name":"THEY DONT KNOWWWWWW","steam_id":76561198062991744,"connected_time":1507000000000,"state":"active","ping":48},{"user_id":94,"name":"MichelangeloStark","steam_id":76561197976489900,"connected_time":14513000000000,"state":"active","ping":73},{"user_id":253,"name":"PlagueDocX","steam_id":76561199198719140,"connected_time":72000000000,"state":"active","ping":51},{"user_id":244,"name":"Post nut clarity","steam_id":76561198060246831,"connected_time":1290000000000,"state":"active","ping":73},{"user_id":206,"name":"Smoky Haus","steam_id":76561199040586542,"connected_time":4698000000000,"state":"active","ping":88},{"user_id":234,"name":"Captain Baxter","steam_id":76561198100587328,"connected_time":1990000000000,"state":"active","ping":81},{"user_id":153,"name":"Eiss","steam_id":76561198343183806,"connected_time":9056000000000,"state":"active","ping":60},{"user_id":201,"name":"ender","steam_id":76561198109879778,"connected_time":4944000000000,"state":"active","ping":44},{"user_id":200,"name":"Hot Dog Hero","steam_id":76561198254185589,"connected_time":5231000000000,"state":"active","ping":45},{"user_id":223,"name":"EvilPi99let","steam_id":76561197987243470,"connected_time":3829000000000,"state":"active","ping":69},{"user_id":246,"name":"Ferioth","steam_id":76561197997993090,"connected_time":1149000000000,"state":"active","ping":60},{"user_id":252,"name":"dietcokefan42","steam_id":76561198135307995,"connected_time":672000000000,"state":"active","ping":48},{"user_id":227,"name":"aura40","steam_id":76561198077707267,"connected_time":3263000000000,"state":"active","ping":42},{"user_id":230,"name":"the goob","steam_id":76561198889699622,"connected_time":2855000000000,"state":"active","ping":136}]},{"server_id":142,"name":"Uncletopia | São Paulo | 1 | All Maps","name_short":"sao-1","host":"sao-1.br.uncletopia.com","port":27015,"enabled":true,"region":"sa","cc":"br","latitude":-23.533773,"longitude":-46.62529,"reserved":0,"last_update":"0001-01-01T00:00:00Z","name_a2s":"Uncletopia | São Paulo | 1 | All Maps","protocol":17,"map":"koth_lakeside_final","folder":"tf","game":"Team Fortress","app_id":440,"player_count":0,"max_players":24,"Bots":0,"server_type":"Dedicated","server_os":"Linux","password":true,"vac":true,"version":"7961495","steam_id":85568392924469996,"keywords":["cp","nocrits","nodmgspread","uncletopia"],"game_id":440,"stv_port":27016,"stv_name":"Uncletopia | São Paulo | 1 | All Maps | STV","players":null},{"server_id":143,"name":"Uncletopia | São Paulo | 2 | Community","name_short":"sao-2","host":"sao-2.br.uncletopia.com","port":27015,"enabled":true,"region":"sa","cc":"br","latitude":-23.533773,"longitude":-46.62529,"reserved":0,"last_update":"0001-01-01T00:00:00Z","name_a2s":"Uncletopia | São Paulo | 2 | Community","protocol":17,"map":"workshop/koth_slaughter_rc1.ugc1712845210","folder":"tf","game":"Team Fortress","app_id":440,"player_count":0,"max_players":24,"Bots":0,"server_type":"Dedicated","server_os":"Linux","password":true,"vac":true,"version":"7961495","steam_id":85568392924485349,"keywords":["cp","nocrits","nodmgspread","uncletopia"],"game_id":440,"stv_port":27016,"stv_name":"Uncletopia | São Paulo | 2 | Community | STV","players":null},{"server_id":7,"name":"Uncletopia | Seattle | 1 | All Maps","name_short":"sea-1","host":"sea-1.us.uncletopia.com","port":27015,"enabled":true,"region":"us-west","cc":"us","latitude":47.608013,"longitude":-122.33517,"reserved":0,"last_update":"0001-01-01T00:00:00Z","name_a2s":"Uncletopia | Seattle | 1 | All Maps","protocol":17,"map":"cp_snakewater_final1","folder":"tf","game":"Team Fortress","app_id":440,"player_count":24,"max_players":24,"Bots":0,"server_type":"Dedicated","server_os":"Linux","password":true,"vac":true,"version":"7961495","steam_id":85568392924469997,"keywords":["cp","nocrits","nodmgspread","uncletopia"],"game_id":440,"stv_port":27016,"stv_name":"Uncletopia | Seattle | 1 | All Maps | STV","players":[{"user_id":495,"name":"IzzyHoP","steam_id":76561197995927883,"connected_time":1200000000000,"state":"active","ping":53},{"user_id":496,"name":"God's Drunkest Driver","steam_id":76561199174579733,"connected_time":1138000000000,"state":"active","ping":117},{"user_id":478,"name":"blazed fox","steam_id":76561198421913648,"connected_time":2599000000000,"state":"active","ping":50},{"user_id":423,"name":"The Shaq Attack","steam_id":76561198075285534,"connected_time":6800000000000,"state":"active","ping":32},{"user_id":484,"name":"goofy goober","steam_id":76561199024079388,"connected_time":1605000000000,"state":"active","ping":45},{"user_id":493,"name":"probably","steam_id":76561197975080641,"connected_time":1280000000000,"state":"active","ping":66},{"user_id":498,"name":"NewWorldBlues","steam_id":76561198823311447,"connected_time":784000000000,"state":"active","ping":66},{"user_id":485,"name":"toes","steam_id":76561198221151676,"connected_time":1522000000000,"state":"active","ping":56},{"user_id":489,"name":"Robertred","steam_id":76561199062495086,"connected_time":1492000000000,"state":"active","ping":88},{"user_id":481,"name":"muddy","steam_id":76561198035015260,"connected_time":2540000000000,"state":"active","ping":79},{"user_id":467,"name":"William P. Ennis","steam_id":76561198073464877,"connected_time":3703000000000,"state":"active","ping":104},{"user_id":437,"name":"Napa cabbage","steam_id":76561198103825541,"connected_time":6346000000000,"state":"active","ping":111},{"user_id":483,"name":"Schmalt","steam_id":76561198327938247,"connected_time":1971000000000,"state":"active","ping":132},{"user_id":486,"name":"pipi","steam_id":76561198450073779,"connected_time":1509000000000,"state":"active","ping":46},{"user_id":405,"name":"Monte","steam_id":76561198097499917,"connected_time":9103000000000,"state":"active","ping":75},{"user_id":482,"name":"Drake from State Farm","steam_id":76561199069029812,"connected_time":2530000000000,"state":"active","ping":80},{"user_id":466,"name":"o o o o o o o o o","steam_id":76561197993757506,"connected_time":3767000000000,"state":"active","ping":67},{"user_id":497,"name":"jello","steam_id":76561199274158922,"connected_time":1065000000000,"state":"active","ping":59},{"user_id":189,"name":"Banana Man","steam_id":76561199012105803,"connected_time":26902000000000,"state":"active","ping":51},{"user_id":490,"name":"mohamy_19","steam_id":76561198075833698,"connected_time":1472000000000,"state":"active","ping":74},{"user_id":500,"name":"Ayayayayayayayayayayayayahuasca","steam_id":76561199002906056,"connected_time":760000000000,"state":"active","ping":52},{"user_id":385,"name":"Synergy","steam_id":76561198098630198,"connected_time":10685000000000,"state":"active","ping":54},{"user_id":476,"name":"[COS]SonneyDonkeh","steam_id":76561198091284496,"connected_time":2620000000000,"state":"active","ping":87},{"user_id":502,"name":"IsleBound","steam_id":76561198278451717,"connected_time":753000000000,"state":"active","ping":96}]},{"server_id":119,"name":"Uncletopia | Seattle | 2 | All Maps","name_short":"sea-2","host":"sea-1.us.uncletopia.com","port":27025,"enabled":true,"region":"us-west","cc":"us","latitude":47.608013,"longitude":-122.33517,"reserved":0,"last_update":"0001-01-01T00:00:00Z","name_a2s":"Uncletopia | Seattle | 2 | All Maps","protocol":17,"map":"pl_frontier_final","folder":"tf","game":"Team Fortress","app_id":440,"player_count":24,"max_players":24,"Bots":0,"server_type":"Dedicated","server_os":"Linux","password":true,"vac":true,"version":"7961495","steam_id":85568392924469998,"keywords":["nocrits","nodmgspread","payload","uncletopia"],"game_id":440,"stv_port":27026,"stv_name":"Uncletopia | Seattle | 2 | All Maps | STV","players":[{"user_id":253,"name":"Seriously Bruh","steam_id":76561198070408485,"connected_time":4435000000000,"state":"active","ping":54},{"user_id":319,"name":"The Champagne Of Mayonnaise","steam_id":76561197961107982,"connected_time":84000000000,"state":"active","ping":71},{"user_id":302,"name":"cinnamon","steam_id":76561198130086375,"connected_time":1115000000000,"state":"active","ping":48},{"user_id":308,"name":"Day Man","steam_id":76561198067154807,"connected_time":628000000000,"state":"active","ping":46},{"user_id":310,"name":"Mr.Pwesident","steam_id":76561198058114703,"connected_time":583000000000,"state":"active","ping":140},{"user_id":320,"name":"vfa","steam_id":76561198055729118,"connected_time":69000000000,"state":"active","ping":60},{"user_id":303,"name":"Jill","steam_id":76561198097398193,"connected_time":1111000000000,"state":"active","ping":121},{"user_id":318,"name":"Preston","steam_id":76561198255721392,"connected_time":202000000000,"state":"active","ping":130},{"user_id":278,"name":"Scorcho","steam_id":76561198071413833,"connected_time":2935000000000,"state":"active","ping":54},{"user_id":321,"name":"Username","steam_id":76561198198918781,"connected_time":59000000000,"state":"active","ping":87},{"user_id":289,"name":"Kdash","steam_id":76561198043829155,"connected_time":2360000000000,"state":"active","ping":105},{"user_id":280,"name":"(TTV) The_Astrum_Guardian","steam_id":76561198130134103,"connected_time":2888000000000,"state":"active","ping":113},{"user_id":261,"name":"Dr. Corg","steam_id":76561198039866005,"connected_time":4210000000000,"state":"active","ping":78},{"user_id":316,"name":"Stroop","steam_id":76561198138687730,"connected_time":314000000000,"state":"active","ping":46},{"user_id":322,"name":"booger","steam_id":76561198333832807,"connected_time":59000000000,"state":"spawning","ping":66},{"user_id":323,"name":"Hashbrowncow","steam_id":76561198272021902,"connected_time":15000000000,"state":"active","ping":70},{"user_id":290,"name":"jon pickle water","steam_id":76561199036212135,"connected_time":2323000000000,"state":"active","ping":66},{"user_id":298,"name":"Helmet Hands","steam_id":76561197961141994,"connected_time":1471000000000,"state":"active","ping":97},{"user_id":257,"name":"SmallErection","steam_id":76561198071770147,"connected_time":4336000000000,"state":"active","ping":58},{"user_id":274,"name":"Luigah","steam_id":76561198066306424,"connected_time":3202000000000,"state":"active","ping":57},{"user_id":309,"name":"tacticalAneurysm","steam_id":76561198151089127,"connected_time":625000000000,"state":"active","ping":64},{"user_id":315,"name":"Hemorrhoid Gaming","steam_id":76561199006526991,"connected_time":484000000000,"state":"active","ping":78},{"user_id":317,"name":"booxofdeath","steam_id":76561198358253942,"connected_time":267000000000,"state":"active","ping":75},{"user_id":305,"name":"Fleskore","steam_id":76561198052091103,"connected_time":1097000000000,"state":"active","ping":124}]},{"server_id":406,"name":"Uncletopia | Seattle | 3 | Stopwatch","name_short":"sea-3","host":"sea-1.us.uncletopia.com","port":27035,"enabled":true,"region":"us-west","cc":"us","latitude":47.608013,"longitude":-122.33517,"reserved":0,"last_update":"0001-01-01T00:00:00Z","name_a2s":"Uncletopia | Seattle | 3 | Stopwatch","protocol":17,"map":"workshop/koth_jamram_rc1a.ugc2964065613","folder":"tf","game":"Team Fortress","app_id":440,"player_count":0,"max_players":24,"Bots":0,"server_type":"Dedicated","server_os":"Linux","password":true,"vac":true,"version":"7961495","steam_id":85568392924515217,"keywords":["cp","nocrits","nodmgspread","uncletopia"],"game_id":440,"stv_port":27036,"stv_name":"Uncletopia | Seattle | 3 | Stopwatch | STV","players":null},{"server_id":17,"name":"Uncletopia | San Francisco | 1 | All Maps","name_short":"sfo-1","host":"sfo-1.us.uncletopia.com","port":27015,"enabled":true,"region":"us-west","cc":"us","latitude":37.77397,"longitude":-122.4313,"reserved":0,"last_update":"0001-01-01T00:00:00Z","name_a2s":"Uncletopia | San Francisco | 1 | All Maps","protocol":17,"map":"pl_swiftwater_final1","folder":"tf","game":"Team Fortress","app_id":440,"player_count":20,"max_players":24,"Bots":0,"server_type":"Dedicated","server_os":"Linux","password":true,"vac":true,"version":"7961495","steam_id":85568392924469999,"keywords":["nocrits","nodmgspread","payload","uncletopia"],"game_id":440,"stv_port":27016,"stv_name":"Uncletopia | San Francisco | 1 | All Maps | STV","players":[{"user_id":212,"name":"Amateur Glaswegian","steam_id":76561198030851956,"connected_time":2323000000000,"state":"active","ping":61},{"user_id":237,"name":"shakoiwa","steam_id":76561199059441773,"connected_time":512000000000,"state":"active","ping":60},{"user_id":231,"name":"Greater Ketamine Ape Collective","steam_id":76561197993355194,"connected_time":1196000000000,"state":"active","ping":62},{"user_id":223,"name":"buffny","steam_id":76561199152039138,"connected_time":1819000000000,"state":"active","ping":167},{"user_id":214,"name":"Uh Oh!","steam_id":76561197981137624,"connected_time":2208000000000,"state":"active","ping":114},{"user_id":215,"name":"Lesbian Saul Goodman","steam_id":76561198040812902,"connected_time":2205000000000,"state":"active","ping":121},{"user_id":229,"name":"Stapler","steam_id":76561198099295077,"connected_time":1311000000000,"state":"active","ping":45},{"user_id":204,"name":"Thexx [she/they]","steam_id":76561198113823050,"connected_time":3384000000000,"state":"active","ping":63},{"user_id":117,"name":"SolarusD","steam_id":76561198029279861,"connected_time":8003000000000,"state":"active","ping":48},{"user_id":240,"name":"GuaTii","steam_id":76561198166926843,"connected_time":91000000000,"state":"active","ping":50},{"user_id":233,"name":"FiddyFoMike","steam_id":76561198057072581,"connected_time":1173000000000,"state":"active","ping":45},{"user_id":177,"name":"Sorbis The Grungler","steam_id":76561198057138795,"connected_time":5779000000000,"state":"active","ping":67},{"user_id":216,"name":"wacko corky","steam_id":76561198064373057,"connected_time":2200000000000,"state":"active","ping":120},{"user_id":221,"name":"ferby","steam_id":76561198028229594,"connected_time":2022000000000,"state":"active","ping":51},{"user_id":234,"name":"November","steam_id":76561198131631865,"connected_time":1124000000000,"state":"active","ping":69},{"user_id":238,"name":"|ərsatz|","steam_id":76561198011583236,"connected_time":445000000000,"state":"active","ping":67},{"user_id":241,"name":"Spooky","steam_id":76561198030817605,"connected_time":81000000000,"state":"active","ping":53},{"user_id":179,"name":"Eden","steam_id":76561198081284664,"connected_time":5747000000000,"state":"active","ping":55},{"user_id":226,"name":"Sierra Foxtrot","steam_id":76561197996667382,"connected_time":1473000000000,"state":"active","ping":90},{"user_id":235,"name":"Butterton","steam_id":76561198833286517,"connected_time":1078000000000,"state":"active","ping":66}]},{"server_id":18,"name":"Uncletopia | San Francisco | 2 | All Maps","name_short":"sfo-2","host":"sfo-1.us.uncletopia.com","port":27025,"enabled":true,"region":"us-west","cc":"us","latitude":37.77397,"longitude":-122.4313,"reserved":0,"last_update":"0001-01-01T00:00:00Z","name_a2s":"Uncletopia | San Francisco | 2 | All Maps","protocol":17,"map":"pl_barnblitz","folder":"tf","game":"Team Fortress","app_id":440,"player_count":19,"max_players":24,"Bots":0,"server_type":"Dedicated","server_os":"Linux","password":true,"vac":true,"version":"7961495","steam_id":85568392924470000,"keywords":["nocrits","nodmgspread","payload","uncletopia"],"game_id":440,"stv_port":27026,"stv_name":"Uncletopia | San Francisco | 2 | All Maps | STV","players":[{"user_id":161,"name":"Rick_laszlo","steam_id":76561199486710729,"connected_time":82000000000,"state":"active","ping":97},{"user_id":96,"name":"SWAGMASTER123","steam_id":76561198104517253,"connected_time":1413000000000,"state":"active","ping":71},{"user_id":162,"name":"Prince Crow","steam_id":76561198211160740,"connected_time":61000000000,"state":"active","ping":125},{"user_id":163,"name":"GasterUser","steam_id":76561198828773998,"connected_time":15000000000,"state":"active","ping":56},{"user_id":164,"name":"Maid 'n' China","steam_id":76561198423392976,"connected_time":9000000000,"state":"spawning","ping":28},{"user_id":46,"name":"Kepa","steam_id":76561198091975728,"connected_time":3153000000000,"state":"active","ping":82},{"user_id":158,"name":"hamza","steam_id":76561198996539622,"connected_time":183000000000,"state":"active","ping":70},{"user_id":49,"name":"JayEffem","steam_id":76561198071256796,"connected_time":3148000000000,"state":"active","ping":80},{"user_id":126,"name":"Lord Shmeck","steam_id":76561198023851456,"connected_time":699000000000,"state":"active","ping":71},{"user_id":92,"name":"Celeritas","steam_id":76561198133414847,"connected_time":1534000000000,"state":"active","ping":56},{"user_id":57,"name":"ZemkJval","steam_id":76561198154464008,"connected_time":2892000000000,"state":"active","ping":73},{"user_id":62,"name":"AydeeAychdee","steam_id":76561198205536035,"connected_time":2530000000000,"state":"active","ping":131},{"user_id":79,"name":"dr perky irl","steam_id":76561199467387844,"connected_time":1926000000000,"state":"active","ping":56},{"user_id":103,"name":"Psychcat","steam_id":76561198978665598,"connected_time":1235000000000,"state":"active","ping":31},{"user_id":144,"name":"Laventhey","steam_id":76561198977523626,"connected_time":308000000000,"state":"active","ping":67},{"user_id":104,"name":"yesness09/ttv","steam_id":76561198366274597,"connected_time":1234000000000,"state":"active","ping":92},{"user_id":105,"name":"works cited","steam_id":76561198853297459,"connected_time":1220000000000,"state":"active","ping":70},{"user_id":89,"name":"SDK619","steam_id":76561198066699570,"connected_time":1599000000000,"state":"active","ping":87},{"user_id":154,"name":"Trundlini","steam_id":76561198810160534,"connected_time":234000000000,"state":"active","ping":125}]},{"server_id":19,"name":"Uncletopia | San Francisco | 3 | Stopwatch","name_short":"sfo-3","host":"sfo-1.us.uncletopia.com","port":27035,"enabled":true,"region":"us-west","cc":"us","latitude":37.77397,"longitude":-122.4313,"reserved":0,"last_update":"0001-01-01T00:00:00Z","name_a2s":"Uncletopia | San Francisco | 3 | Stopwatch","protocol":17,"map":"workshop/koth_clearcut_b15.ugc2107050255","folder":"tf","game":"Team Fortress","app_id":440,"player_count":0,"max_players":24,"Bots":0,"server_type":"Dedicated","server_os":"Linux","password":true,"vac":true,"version":"7961495","steam_id":85568392924742824,"keywords":["cp","nocrits","nodmgspread","uncletopia"],"game_id":440,"stv_port":27036,"stv_name":"Uncletopia | San Francisco | 3 | Stopwatch | STV","players":null},{"server_id":20,"name":"Uncletopia | San Francisco | 4 | Community","name_short":"sfo-4","host":"sfo-1.us.uncletopia.com","port":27045,"enabled":true,"region":"us-west","cc":"us","latitude":37.77397,"longitude":-122.4313,"reserved":0,"last_update":"0001-01-01T00:00:00Z","name_a2s":"Uncletopia | San Francisco | 4 | Community","protocol":17,"map":"workshop/cp_reckoner_rc6.ugc674719999","folder":"tf","game":"Team Fortress","app_id":440,"player_count":0,"max_players":24,"Bots":0,"server_type":"Dedicated","server_os":"Linux","password":true,"vac":true,"version":"7961495","steam_id":85568392924742826,"keywords":["cp","nocrits","nodmgspread","uncletopia"],"game_id":440,"stv_port":27046,"stv_name":"Uncletopia | San Francisco | 4 | Community | STV","players":null},{"server_id":141,"name":"Uncletopia | Sydney | 1 | All Maps","name_short":"syd-1","host":"syd-1.au.uncletopia.com","port":27015,"enabled":true,"region":"au","cc":"au","latitude":-33.865143,"longitude":151.2099,"reserved":0,"last_update":"0001-01-01T00:00:00Z","name_a2s":"Uncletopia | Sydney | 1 | All Maps","protocol":17,"map":"pl_borneo","folder":"tf","game":"Team Fortress","app_id":440,"player_count":0,"max_players":24,"Bots":0,"server_type":"Dedicated","server_os":"Linux","password":true,"vac":true,"version":"7961495","steam_id":85568392924470001,"keywords":["nocrits","nodmgspread","payload","uncletopia"],"game_id":440,"stv_port":27016,"stv_name":"Uncletopia | Sydney | 1 | All Maps | STV","players":null},{"server_id":123,"name":"Uncletopia | Sydney | 2 | All Maps","name_short":"syd-2","host":"syd-1.au.uncletopia.com","port":27025,"enabled":true,"region":"au","cc":"au","latitude":-33.865143,"longitude":151.2099,"reserved":0,"last_update":"0001-01-01T00:00:00Z","name_a2s":"Uncletopia | Sydney | 2 | All Maps","protocol":17,"map":"cp_mercenarypark","folder":"tf","game":"Team Fortress","app_id":440,"player_count":0,"max_players":24,"Bots":0,"server_type":"Dedicated","server_os":"Linux","password":true,"vac":true,"version":"7961495","steam_id":85568392924470002,"keywords":["cp","nocrits","nodmgspread","uncletopia"],"game_id":440,"stv_port":27026,"stv_name":"Uncletopia | Sydney | 2 | All Maps | STV","players":null},{"server_id":395,"name":"Uncletopia | Sydney | 3 | All Maps","name_short":"syd-3","host":"syd-1.au.uncletopia.com","port":27035,"enabled":true,"region":"au","cc":"au","latitude":-33.865143,"longitude":151.2099,"reserved":0,"last_update":"0001-01-01T00:00:00Z","name_a2s":"Uncletopia | Sydney | 3 | All Maps","protocol":17,"map":"koth_brazil","folder":"tf","game":"Team Fortress","app_id":440,"player_count":0,"max_players":24,"Bots":0,"server_type":"Dedicated","server_os":"Linux","password":true,"vac":true,"version":"7961495","steam_id":85568392925194467,"keywords":["cp","nocrits","nodmgspread","uncletopia"],"game_id":440,"stv_port":27036,"stv_name":"Uncletopia | Sydney | 3 | All Maps | STV","players":null},{"server_id":396,"name":"Uncletopia | Sydney | 4 | All Maps","name_short":"syd-4","host":"syd-1.au.uncletopia.com","port":27045,"enabled":true,"region":"au","cc":"au","latitude":-33.865143,"longitude":151.2099,"reserved":0,"last_update":"0001-01-01T00:00:00Z","name_a2s":"Uncletopia | Sydney | 4 | All Maps","protocol":17,"map":"cp_standin_final","folder":"tf","game":"Team Fortress","app_id":440,"player_count":0,"max_players":24,"Bots":0,"server_type":"Dedicated","server_os":"Linux","password":true,"vac":true,"version":"7961495","steam_id":85568392925397958,"keywords":["cp","nocrits","nodmgspread","uncletopia"],"game_id":440,"stv_port":27046,"stv_name":"Uncletopia | Sydney | 4 | All Maps | STV","players":null},{"server_id":58,"name":"Uncletopia | Sydney | 5 | Stopwatch","name_short":"syd-5","host":"syd-1.au.uncletopia.com","port":27055,"enabled":true,"region":"au","cc":"au","latitude":-33.865143,"longitude":151.2099,"reserved":0,"last_update":"0001-01-01T00:00:00Z","name_a2s":"Uncletopia | Sydney | 5 | Stopwatch","protocol":17,"map":"koth_highpass","folder":"tf","game":"Team Fortress","app_id":440,"player_count":0,"max_players":24,"Bots":0,"server_type":"Dedicated","server_os":"Linux","password":true,"vac":true,"version":"7961495","steam_id":85568392925397959,"keywords":["cp","nocrits","nodmgspread","uncletopia"],"game_id":440,"stv_port":27056,"stv_name":"Uncletopia | Sydney | 5 | Stopwatch | STV","players":null},{"server_id":59,"name":"Uncletopia | Sydney | 6 | Community","name_short":"syd-6","host":"syd-1.au.uncletopia.com","port":27065,"enabled":true,"region":"au","cc":"au","latitude":-33.865143,"longitude":151.2099,"reserved":0,"last_update":"0001-01-01T00:00:00Z","name_a2s":"Uncletopia | Sydney | 6 | Community","protocol":17,"map":"workshop/koth_soot_final1.ugc2969540689","folder":"tf","game":"Team Fortress","app_id":440,"player_count":0,"max_players":24,"Bots":0,"server_type":"Dedicated","server_os":"Linux","password":true,"vac":true,"version":"7961495","steam_id":85568392925397960,"keywords":["cp","nocrits","nodmgspread","uncletopia"],"game_id":440,"stv_port":27066,"stv_name":"Uncletopia | Sydney | 6 | Community | STV","players":null},{"server_id":49,"name":"Uncletopia | Warsaw | 1 | One Thousand Uncles","name_short":"waw-1","host":"waw-1.pl.uncletopia.com","port":27015,"enabled":true,"region":"eu","cc":"pl","latitude":52.2297,"longitude":21.017532,"reserved":0,"last_update":"0001-01-01T00:00:00Z","name_a2s":"Uncletopia | Warsaw | 1 | One Thousand Uncles","protocol":17,"map":"pl_thundermountain","folder":"tf","game":"Team Fortress","app_id":440,"player_count":0,"max_players":32,"Bots":0,"server_type":"Dedicated","server_os":"Linux","password":true,"vac":true,"version":"7961495","steam_id":85568392925397850,"keywords":["alltalk","danepve","increased_maxplayers","norespawntime","payload","uncletopia"],"game_id":440,"stv_port":0,"stv_name":"","players":null},{"server_id":50,"name":"Uncletopia | Warsaw | 2 | One Thousand Uncles","name_short":"waw-2","host":"waw-1.pl.uncletopia.com","port":27025,"enabled":true,"region":"eu","cc":"pl","latitude":52.2297,"longitude":21.017532,"reserved":0,"last_update":"0001-01-01T00:00:00Z","name_a2s":"Uncletopia | Warsaw | 2 | One Thousand Uncles","protocol":17,"map":"cp_dustbowl","folder":"tf","game":"Team Fortress","app_id":440,"player_count":0,"max_players":32,"Bots":0,"server_type":"Dedicated","server_os":"Linux","password":true,"vac":true,"version":"7961495","steam_id":85568392925397851,"keywords":["alltalk","cp","danepve","increased_maxplayers","norespawntime","uncletopia"],"game_id":440,"stv_port":0,"stv_name":"","players":null},{"server_id":51,"name":"Uncletopia | Warsaw | 3 | All Maps","name_short":"waw-3","host":"waw-1.pl.uncletopia.com","port":27035,"enabled":true,"region":"eu","cc":"pl","latitude":52.2297,"longitude":21.017532,"reserved":0,"last_update":"0001-01-01T00:00:00Z","name_a2s":"Uncletopia | Warsaw | 3 | All Maps","protocol":17,"map":"koth_viaduct","folder":"tf","game":"Team Fortress","app_id":440,"player_count":0,"max_players":24,"Bots":0,"server_type":"Dedicated","server_os":"Linux","password":true,"vac":true,"version":"7961495","steam_id":85568392925397852,"keywords":["cp","nocrits","nodmgspread","uncletopia"],"game_id":440,"stv_port":27036,"stv_name":"Uncletopia | Warsaw | 3 | All Maps | STV","players":null},{"server_id":52,"name":"Uncletopia | Warsaw | 4 | All Maps","name_short":"waw-4","host":"waw-1.pl.uncletopia.com","port":27045,"enabled":true,"region":"eu","cc":"pl","latitude":52.2297,"longitude":21.017532,"reserved":0,"last_update":"0001-01-01T00:00:00Z","name_a2s":"Uncletopia | Warsaw | 4 | All Maps","protocol":17,"map":"koth_viaduct","folder":"tf","game":"Team Fortress","app_id":440,"player_count":0,"max_players":24,"Bots":0,"server_type":"Dedicated","server_os":"Linux","password":true,"vac":true,"version":"7961495","steam_id":85568392925397853,"keywords":["cp","nocrits","nodmgspread","uncletopia"],"game_id":440,"stv_port":27046,"stv_name":"Uncletopia | Warsaw | 4 | All Maps | STV","players":null},{"server_id":53,"name":"Uncletopia | Warsaw | 5 | Stopwatch","name_short":"waw-5","host":"waw-1.pl.uncletopia.com","port":27055,"enabled":true,"region":"eu","cc":"pl","latitude":52.2297,"longitude":21.017532,"reserved":0,"last_update":"0001-01-01T00:00:00Z","name_a2s":"Uncletopia | Warsaw | 5 | Stopwatch","protocol":17,"map":"workshop/koth_clearcut_b15.ugc2107050255","folder":"tf","game":"Team Fortress","app_id":440,"player_count":0,"max_players":24,"Bots":0,"server_type":"Dedicated","server_os":"Linux","password":true,"vac":true,"version":"7961495","steam_id":85568392925397854,"keywords":["cp","nocrits","nodmgspread","uncletopia"],"game_id":440,"stv_port":27056,"stv_name":"Uncletopia | Warsaw | 5 | Stopwatch | STV","players":null},{"server_id":54,"name":"Uncletopia | Warsaw | 6 | Community","name_short":"waw-6","host":"waw-1.pl.uncletopia.com","port":27065,"enabled":true,"region":"eu","cc":"pl","latitude":52.2297,"longitude":21.017532,"reserved":0,"last_update":"0001-01-01T00:00:00Z","name_a2s":"Uncletopia | Warsaw | 6 | Community","protocol":17,"map":"workshop/pl_boundary_final1.ugc456799153","folder":"tf","game":"Team Fortress","app_id":440,"player_count":0,"max_players":24,"Bots":0,"server_type":"Dedicated","server_os":"Linux","password":true,"vac":true,"version":"7961495","steam_id":85568392925397856,"keywords":["nocrits","nodmgspread","payload","uncletopia"],"game_id":440,"stv_port":27066,"stv_name":"Uncletopia | Warsaw | 6 | Community | STV","players":null}]}