{"status":true,"message":"","result":[{"server_id":9,"name":"Uncletopia | Atlanta | 1 | All Maps","name_short":"atl-1","host":"atl-1.us.uncletopia.com","port":27015,"enabled":true,"region":"us-east","cc":"us","latitude":33.753746,"longitude":-84.38633,"reserved":0,"last_update":"0001-01-01T00:00:00Z","name_a2s":"Uncletopia | Atlanta | 1 | All Maps","protocol":17,"map":"koth_highpass","folder":"tf","game":"Team Fortress","app_id":440,"player_count":0,"max_players":24,"Bots":0,"server_type":"Dedicated","server_os":"Linux","password":true,"vac":true,"version":"7757534","steam_id":85568392924469982,"keywords":["cp","nocrits","nodmgspread","uncletopia"],"game_id":440,"stv_port":27016,"stv_name":"Uncletopia | Atlanta | 1 | All Maps | STV","players":null},{"server_id":400,"name":"Uncletopia | Atlanta | 3 | Community","name_short":"atl-3","host":"atl-1.us.uncletopia.com","port":27035,"enabled":true,"region":"us-east","cc":"us","latitude":33.753746,"longitude":-84.38633,"reserved":0,"last_update":"0001-01-01T00:00:00Z","name_a2s":"Uncletopia | Atlanta | 3 | Community","protocol":17,"map":"cp_mountainlab","folder":"tf","game":"Team Fortress","app_id":440,"player_count":0,"max_players":24,"Bots":0,"server_type":"Dedicated","server_os":"Linux","password":true,"vac":true,"version":"7757534","steam_id":85568392924515187,"keywords":["cp","nocrits","nodmgspread","uncletopia"],"game_id":440,"stv_port":27036,"stv_name":"Uncletopia | Atlanta | 3 | Community | STV","players":null},{"server_id":401,"name":"Uncletopia | Atlanta | 4 | No Payload","name_short":"atl-4","host":"atl-1.us.uncletopia.com","port":27045,"enabled":true,"region":"us-east","cc":"us","latitude":33.753746,"longitude":-84.38633,"reserved":0,"last_update":"0001-01-01T00:00:00Z","name_a2s":"","protocol":0,"map":"","folder":"","game":"","app_id":0,"player_count":0,"max_players":0,"Bots":0,"server_type":"","server_os":"","password":false,"vac":false,"version":"","steam_id":0,"keywords":null,"game_id":0,"stv_port":0,"stv_name":"","players":null},{"server_id":2,"name":"Uncletopia | Chicago | 1 | All Maps","name_short":"chi-1","host":"chi-1.us.uncletopia.com","port":27015,"enabled":true,"region":"us-central","cc":"us","latitude":41.881832,"longitude":-87.62318,"reserved":0,"last_update":"0001-01-01T00:00:00Z","name_a2s":"Uncletopia | Chicago | 1 | All Maps","protocol":17,"map":"pl_borneo","folder":"tf","game":"Team Fortress","app_id":440,"player_count":0,"max_players":24,"Bots":0,"server_type":"Dedicated","server_os":"Linux","password":true,"vac":true,"version":"7757534","steam_id":85568392924469984,"keywords":["nocrits","nodmgspread","payload","uncletopia"],"game_id":440,"stv_port":27016,"stv_name":"Uncletopia | Chicago | 1 | All Maps | STV","players":null},{"server_id":106,"name":"Uncletopia | Chicago | 2 | All Maps","name_short":"chi-2","host":"chi-1.us.uncletopia.com","port":27025,"enabled":true,"region":"us-central","cc":"us","latitude":41.881832,"longitude":-87.62318,"reserved":0,"last_update":"0001-01-01T00:00:00Z","name_a2s":"Uncletopia | Chicago | 2 | All Maps","protocol":17,"map":"pl_upward","folder":"tf","game":"Team Fortress","app_id":440,"player_count":0,"max_players":24,"Bots":0,"server_type":"Dedicated","server_os":"Linux","password":true,"vac":true,"version":"7757534","steam_id":85568392924469985,"keywords":["nocrits","nodmgspread","payload","uncletopia"],"game_id":440,"stv_port":27026,"stv_name":"Uncletopia | Chicago | 2 | All Maps | STV","players":null},{"server_id":402,"name":"Uncletopia | Chicago | 3 | All Maps","name_short":"chi-3","host":"chi-1.us.uncletopia.com","port":27035,"enabled":true,"region":"us-central","cc":"us","latitude":41.881832,"longitude":-87.62318,"reserved":0,"last_update":"0001-01-01T00:00:00Z","name_a2s":"Uncletopia | Chicago | 3 | All Maps","protocol":17,"map":"koth_cascade","folder":"tf","game":"Team Fortress","app_id":440,"player_count":0,"max_players":24,"Bots":0,"server_type":"Dedicated","server_os":"Linux","password":true,"vac":true,"version":"7757534","steam_id":85568392924515191,"keywords":["cp","nocrits","nodmgspread","uncletopia"],"game_id":440,"stv_port":27036,"stv_name":"Uncletopia | Chicago | 3 | All Maps | STV","players":null},{"server_id":403,"name":"Uncletopia | Chicago | 4 | All Maps","name_short":"chi-4","host":"chi-1.us.uncletopia.com","port":27045,"enabled":true,"region":"us-central","cc":"us","latitude":41.881832,"longitude":-87.62318,"reserved":0,"last_update":"0001-01-01T00:00:00Z","name_a2s":"Uncletopia | Chicago | 4 | All Maps","protocol":17,"map":"koth_cascade","folder":"tf","game":"Team Fortress","app_id":440,"player_count":0,"max_players":24,"Bots":0,"server_type":"Dedicated","server_os":"Linux","password":true,"vac":true,"version":"7757534","steam_id":85568392924515193,"keywords":["cp","nocrits","nodmgspread","uncletopia"],"game_id":440,"stv_port":27046,"stv_name":"Uncletopia | Chicago | 4 | All Maps | STV","players":null},{"server_id":36,"name":"Uncletopia | Chicago | 5 | All Maps","name_short":"chi-5","host":"chi-2.us.uncletopia.com","port":27015,"enabled":true,"region":"us-central","cc":"us","latitude":41.881832,"longitude":-87.62318,"reserved":0,"last_update":"0001-01-01T00:00:00Z","name_a2s":"Uncletopia | Chicago | 5 | All Maps","protocol":17,"map":"koth_lakeside_final","folder":"tf","game":"Team Fortress","app_id":440,"player_count":0,"max_players":24,"Bots":0,"server_type":"Dedicated","server_os":"Linux","password":true,"vac":true,"version":"7757534","steam_id":85568392924866362,"keywords":["cp","nocrits","nodmgspread","uncletopia"],"game_id":440,"stv_port":27016,"stv_name":"Uncletopia | Chicago | 5 | All Maps | STV","players":null},{"server_id":37,"name":"Uncletopia | Chicago | 6 | All Maps","name_short":"chi-6","host":"chi-2.us.uncletopia.com","port":27025,"enabled":true,"region":"us-central","cc":"us","latitude":41.881832,"longitude":-87.62318,"reserved":0,"last_update":"0001-01-01T00:00:00Z","name_a2s":"Uncletopia | Chicago | 6 | All Maps","protocol":17,"map":"cp_dustbowl","folder":"tf","game":"Team Fortress","app_id":440,"player_count":0,"max_players":24,"Bots":0,"server_type":"Dedicated","server_os":"Linux","password":true,"vac":true,"version":"7757534","steam_id":85568392924866363,"keywords":["cp","nocrits","nodmgspread","uncletopia"],"game_id":440,"stv_port":27026,"stv_name":"Uncletopia | Chicago | 6 | All Maps | STV","players":null},{"server_id":38,"name":"Uncletopia | Chicago | 7 | Stopwatch Beta","name_short":"chi-7","host":"chi-2.us.uncletopia.com","port":27035,"enabled":true,"region":"us-central","cc":"us","latitude":41.881832,"longitude":-87.62318,"reserved":0,"last_update":"0001-01-01T00:00:00Z","name_a2s":"Uncletopia | Chicago | 7 | Stopwatch Beta","protocol":17,"map":"koth_viaduct","folder":"tf","game":"Team Fortress","app_id":440,"player_count":0,"max_players":24,"Bots":0,"server_type":"Dedicated","server_os":"Linux","password":true,"vac":true,"version":"7757534","steam_id":85568392924866364,"keywords":["cp","nocrits","nodmgspread","uncletopia"],"game_id":440,"stv_port":27036,"stv_name":"Uncletopia | Chicago | 7 | Stopwatch Beta | STV","players":null},{"server_id":39,"name":"Uncletopia | Chicago | 8 | Community","name_short":"chi-8","host":"chi-2.us.uncletopia.com","port":27045,"enabled":true,"region":"us-central","cc":"us","latitude":41.881832,"longitude":-87.62318,"reserved":0,"last_update":"0001-01-01T00:00:00Z","name_a2s":"Uncletopia | Chicago | 8 | Community","protocol":17,"map":"koth_lakeside_final","folder":"tf","game":"Team Fortress","app_id":440,"player_count":0,"max_players":24,"Bots":0,"server_type":"Dedicated","server_os":"Linux","password":true,"vac":true,"version":"7757534","steam_id":85568392924866365,"keywords":["cp","nocrits","nodmgspread","uncletopia"],"game_id":440,"stv_port":27046,"stv_name":"Uncletopia | Chicago | 8 | Community | STV","players":null},{"server_id":8,"name":"Uncletopia | Dallas | 1 | All Maps","name_short":"dal-1","host":"dal-1.us.uncletopia.com","port":27015,"enabled":true,"region":"us-central","cc":"us","latitude":32.779167,"longitude":-96.80889,"reserved":0,"last_update":"0001-01-01T00:00:00Z","name_a2s":"Uncletopia | Dallas | 1 | All Maps","protocol":17,"map":"pl_pier","folder":"tf","game":"Team Fortress","app_id":440,"player_count":0,"max_players":24,"Bots":0,"server_type":"Dedicated","server_os":"Linux","password":true,"vac":true,"version":"7757534","steam_id":85568392924469986,"keywords":["nocrits","nodmgspread","payload","uncletopia"],"game_id":440,"stv_port":27016,"stv_name":"Uncletopia | Dallas | 1 | All Maps | STV","players":null},{"server_id":108,"name":"Uncletopia | Dallas | 2 | All Maps","name_short":"dal-2","host":"dal-1.us.uncletopia.com","port":27025,"enabled":true,"region":"us-central","cc":"us","latitude":32.779167,"longitude":-96.80889,"reserved":0,"last_update":"0001-01-01T00:00:00Z","name_a2s":"Uncletopia | Dallas | 2 | All Maps","protocol":17,"map":"cp_altitude","folder":"tf","game":"Team Fortress","app_id":440,"player_count":0,"max_players":24,"Bots":0,"server_type":"Dedicated","server_os":"Linux","password":true,"vac":true,"version":"7757534","steam_id":85568392924469988,"keywords":["cp","nocrits","nodmgspread","uncletopia"],"game_id":440,"stv_port":27026,"stv_name":"Uncletopia | Dallas | 2 | All Maps | STV","players":null},{"server_id":5,"name":"Uncletopia | Frankfurt | 1 | All Maps","name_short":"frk-1","host":"frk-1.de.uncletopia.com","port":27015,"enabled":true,"region":"eu","cc":"de","latitude":50.110924,"longitude":8.682127,"reserved":0,"last_update":"0001-01-01T00:00:00Z","name_a2s":"Uncletopia | Frankfurt | 1 | All Maps","protocol":17,"map":"pl_upward","folder":"tf","game":"Team Fortress","app_id":440,"player_count":24,"max_players":24,"Bots":0,"server_type":"Dedicated","server_os":"Linux","password":true,"vac":true,"version":"7757534","steam_id":85568392924469989,"keywords":["nocrits","nodmgspread","payload","uncletopia"],"game_id":440,"stv_port":27016,"stv_name":"Uncletopia | Frankfurt | 1 | All Maps | STV","players":[{"user_id":187,"name":"Snortman","steam_id":76561199012566222,"connected_time":1878000000000,"state":"active","ping":46},{"user_id":211,"name":"aaaa4","steam_id":76561198080196268,"connected_time":282000000000,"state":"active","ping":78},{"user_id":183,"name":"hud_saytext_time 0","steam_id":76561198010327228,"connected_time":2075000000000,"state":"active","ping":63},{"user_id":216,"name":"Finn","steam_id":76561199404585461,"connected_time":116000000000,"state":"active","ping":81},{"user_id":175,"name":"plazma","steam_id":76561198886594048,"connected_time":2940000000000,"state":"active","ping":102},{"user_id":188,"name":"scumbag","steam_id":76561198129640816,"connected_time":1872000000000,"state":"active","ping":61},{"user_id":110,"name":"guys? guys?","steam_id":76561198157749464,"connected_time":8310000000000,"state":"active","ping":88},{"user_id":190,"name":"leteszem a cigit","steam_id":76561198273042780,"connected_time":1850000000000,"state":"active","ping":61},{"user_id":155,"name":"Wyro","steam_id":76561199176835169,"connected_time":5100000000000,"state":"active","ping":64},{"user_id":184,"name":"9034kh-bgtio","steam_id":76561198401523966,"connected_time":1896000000000,"state":"active","ping":90},{"user_id":131,"name":"LOBZIK","steam_id":76561198114830120,"connected_time":6843000000000,"state":"active","ping":75},{"user_id":151,"name":"player","steam_id":76561198054474684,"connected_time":5365000000000,"state":"active","ping":75},{"user_id":210,"name":"BSantos57","steam_id":76561198000597094,"connected_time":312000000000,"state":"active","ping":91},{"user_id":203,"name":"Kyon","steam_id":76561198024098353,"connected_time":1033000000000,"state":"active","ping":141},{"user_id":212,"name":"Mr.Aromatico","steam_id":76561198157982182,"connected_time":279000000000,"state":"active","ping":55},{"user_id":198,"name":"MaTiN.v2","steam_id":76561199431506131,"connected_time":1298000000000,"state":"active","ping":52},{"user_id":218,"name":"lupus","steam_id":76561198019146522,"connected_time":26000000000,"state":"active","ping":46},{"user_id":217,"name":"crazyredhead yt","steam_id":76561198297679010,"connected_time":87000000000,"state":"active","ping":61},{"user_id":195,"name":"No,Why?","steam_id":76561198888755969,"connected_time":1564000000000,"state":"active","ping":81},{"user_id":166,"name":"Loyde","steam_id":76561198029919524,"connected_time":4011000000000,"state":"active","ping":99},{"user_id":206,"name":"Braum","steam_id":76561198150993155,"connected_time":843000000000,"state":"active","ping":49},{"user_id":214,"name":"Cosmetic brain","steam_id":76561198055936410,"connected_time":222000000000,"state":"active","ping":81},{"user_id":215,"name":"Big Lee","steam_id":76561198137795316,"connected_time":199000000000,"state":"active","ping":86},{"user_id":201,"name":"Quillz","steam_id":76561197996567754,"connected_time":1274000000000,"state":"active","ping":135}]},{"server_id":110,"name":"Uncletopia | Frankfurt | 2 | All Maps","name_short":"frk-2","host":"frk-1.de.uncletopia.com","port":27025,"enabled":true,"region":"eu","cc":"de","latitude":50.110924,"longitude":8.682127,"reserved":0,"last_update":"0001-01-01T00:00:00Z","name_a2s":"Uncletopia | Frankfurt | 2 | All Maps","protocol":17,"map":"pl_barnblitz","folder":"tf","game":"Team Fortress","app_id":440,"player_count":24,"max_players":24,"Bots":0,"server_type":"Dedicated","server_os":"Linux","password":true,"vac":true,"version":"7757534","steam_id":85568392924469990,"keywords":["nocrits","nodmgspread","payload","uncletopia"],"game_id":440,"stv_port":27026,"stv_name":"Uncletopia | Frankfurt | 2 | All Maps | STV","players":[{"user_id":344,"name":"Tlad2","steam_id":76561198854897667,"connected_time":577000000000,"state":"active","ping":75},{"user_id":335,"name":"Egtu","steam_id":76561198013757235,"connected_time":984000000000,"state":"active","ping":62},{"user_id":337,"name":"Ged","steam_id":76561198079288943,"connected_time":911000000000,"state":"active","ping":101},{"user_id":307,"name":"Weenie Hut Jr's","steam_id":76561198050515739,"connected_time":2627000000000,"state":"active","ping":56},{"user_id":338,"name":"Grillem Dafoe","steam_id":76561198306874574,"connected_time":896000000000,"state":"active","ping":78},{"user_id":295,"name":"SocialistBacon","steam_id":76561198055872267,"connected_time":4342000000000,"state":"active","ping":73},{"user_id":318,"name":"moon","steam_id":76561199212557251,"connected_time":2142000000000,"state":"active","ping":131},{"user_id":339,"name":"MaKo","steam_id":76561199013535305,"connected_time":884000000000,"state":"active","ping":74},{"user_id":310,"name":"テイルス","steam_id":76561198022403271,"connected_time":2575000000000,"state":"active","ping":44},{"user_id":324,"name":"Bumblebee","steam_id":76561198033551105,"connected_time":1842000000000,"state":"active","ping":61},{"user_id":330,"name":"Dolcelatte","steam_id":76561198038501770,"connected_time":1348000000000,"state":"active","ping":48},{"user_id":336,"name":"Cuthbert","steam_id":76561198204649481,"connected_time":947000000000,"state":"active","ping":101},{"user_id":328,"name":"♫★Xriasp★♫","steam_id":76561198104721321,"connected_time":1455000000000,"state":"active","ping":70},{"user_id":340,"name":"JunketsGM","steam_id":76561199122728626,"connected_time":880000000000,"state":"active","ping":74},{"user_id":296,"name":"rizook","steam_id":76561198055010039,"connected_time":4162000000000,"state":"active","ping":60},{"user_id":314,"name":"Kwizine","steam_id":76561198147999400,"connected_time":2523000000000,"state":"active","ping":71},{"user_id":327,"name":"axl #pizdaaim","steam_id":76561198991661832,"connected_time":1498000000000,"state":"active","ping":77},{"user_id":346,"name":"PAN","steam_id":76561198118671779,"connected_time":225000000000,"state":"active","ping":107},{"user_id":321,"name":"luma","steam_id":76561198081649669,"connected_time":1931000000000,"state":"active","ping":60},{"user_id":345,"name":"wuwek","steam_id":76561198054296190,"connected_time":303000000000,"state":"active","ping":60},{"user_id":347,"name":"Flex","steam_id":76561197970482191,"connected_time":142000000000,"state":"active","ping":41},{"user_id":342,"name":"Mr. Panny","steam_id":76561198412524704,"connected_time":856000000000,"state":"active","ping":128},{"user_id":333,"name":"Perämiehenä","steam_id":76561197968945306,"connected_time":1221000000000,"state":"active","ping":74},{"user_id":348,"name":"Whirblewind","steam_id":76561197964722449,"connected_time":138000000000,"state":"active","ping":147}]},{"server_id":308,"name":"Uncletopia | Frankfurt | 3 | All Maps","name_short":"frk-3","host":"frk-1.de.uncletopia.com","port":27035,"enabled":true,"region":"eu","cc":"de","latitude":50.110924,"longitude":8.682127,"reserved":0,"last_update":"0001-01-01T00:00:00Z","name_a2s":"Uncletopia | Frankfurt | 3 | All Maps","protocol":17,"map":"pl_borneo","folder":"tf","game":"Team Fortress","app_id":440,"player_count":24,"max_players":24,"Bots":0,"server_type":"Dedicated","server_os":"Linux","password":true,"vac":true,"version":"7757534","steam_id":85568392924504274,"keywords":["nocrits","nodmgspread","payload","uncletopia"],"game_id":440,"stv_port":27036,"stv_name":"Uncletopia | Frankfurt | 3 | All Maps | STV","players":[{"user_id":19,"name":"M0rph","steam_id":76561198127339176,"connected_time":678000000000,"state":"active","ping":53},{"user_id":18,"name":"Acanda","steam_id":76561198123246537,"connected_time":719000000000,"state":"active","ping":49},{"user_id":9,"name":"Zoldatnov","steam_id":76561198093269694,"connected_time":1256000000000,"state":"active","ping":134},{"user_id":10,"name":"alyonamdst","steam_id":76561199060538617,"connected_time":1233000000000,"state":"active","ping":135},{"user_id":40,"name":"xoxoji19910501","steam_id":76561199037007405,"connected_time":2000000000,"state":"spawning","ping":88},{"user_id":38,"name":"Hazzah","steam_id":76561198197242377,"connected_time":209000000000,"state":"active","ping":62},{"user_id":16,"name":"sputnik-666","steam_id":76561199125992135,"connected_time":784000000000,"state":"active","ping":100},{"user_id":17,"name":"banana peel","steam_id":76561198129704959,"connected_time":739000000000,"state":"active","ping":125},{"user_id":20,"name":"Derp","steam_id":76561198197901062,"connected_time":669000000000,"state":"active","ping":49},{"user_id":21,"name":"dungeon","steam_id":76561198880219141,"connected_time":594000000000,"state":"active","ping":110},{"user_id":22,"name":"SirNeeco \u003c3","steam_id":76561198103014203,"connected_time":558000000000,"state":"active","ping":56},{"user_id":24,"name":"dongus","steam_id":76561198042774930,"connected_time":520000000000,"state":"active","ping":72},{"user_id":25,"name":"Enigmus","steam_id":76561197994063627,"connected_time":483000000000,"state":"active","ping":83},{"user_id":26,"name":"WomenBeardLike","steam_id":76561198390184314,"connected_time":471000000000,"state":"active","ping":55},{"user_id":37,"name":"Dr. Cox","steam_id":76561198246629218,"connected_time":254000000000,"state":"active","ping":78},{"user_id":28,"name":"Igames","steam_id":76561198414062544,"connected_time":443000000000,"state":"active","ping":62},{"user_id":29,"name":"Denialman (Muted)","steam_id":76561198309182092,"connected_time":407000000000,"state":"active","ping":58},{"user_id":30,"name":"Mal","steam_id":76561198262337669,"connected_time":394000000000,"state":"active","ping":62},{"user_id":31,"name":"Naginacz","steam_id":76561199099232534,"connected_time":381000000000,"state":"active","ping":63},{"user_id":39,"name":"Dor_atar","steam_id":76561198973980542,"connected_time":172000000000,"state":"active","ping":70},{"user_id":33,"name":"Aregularhuman","steam_id":76561198343319848,"connected_time":374000000000,"state":"active","ping":44},{"user_id":34,"name":"BierBuikBarry","steam_id":76561198345790498,"connected_time":372000000000,"state":"active","ping":69},{"user_id":35,"name":"The cum policeman","steam_id":76561198338129578,"connected_time":357000000000,"state":"active","ping":55},{"user_id":36,"name":"xd","steam_id":76561198066523881,"connected_time":355000000000,"state":"active","ping":59}]},{"server_id":309,"name":"Uncletopia | Frankfurt | 4 | All Maps","name_short":"frk-4","host":"frk-1.de.uncletopia.com","port":27045,"enabled":true,"region":"eu","cc":"de","latitude":50.110924,"longitude":8.682127,"reserved":0,"last_update":"0001-01-01T00:00:00Z","name_a2s":"Uncletopia | Frankfurt | 4 | All Maps","protocol":17,"map":"koth_highpass","folder":"tf","game":"Team Fortress","app_id":440,"player_count":0,"max_players":24,"Bots":0,"server_type":"Dedicated","server_os":"Linux","password":true,"vac":true,"version":"7757534","steam_id":85568392924504275,"keywords":["cp","nocrits","nodmgspread","uncletopia"],"game_id":440,"stv_port":27046,"stv_name":"Uncletopia | Frankfurt | 4 | All Maps | STV","players":null},{"server_id":310,"name":"Uncletopia | Frankfurt | 5 | All Maps","name_short":"frk-5","host":"frk-1.de.uncletopia.com","port":27055,"enabled":true,"region":"eu","cc":"de","latitude":50.110924,"longitude":8.682127,"reserved":0,"last_update":"0001-01-01T00:00:00Z","name_a2s":"Uncletopia | Frankfurt | 5 | All Maps","protocol":17,"map":"koth_lakeside_final","folder":"tf","game":"Team Fortress","app_id":440,"player_count":0,"max_players":24,"Bots":0,"server_type":"Dedicated","server_os":"Linux","password":true,"vac":true,"version":"7757534","steam_id":85568392924504277,"keywords":["cp","nocrits","nodmgspread","uncletopia"],"game_id":440,"stv_port":27056,"stv_name":"Uncletopia | Frankfurt | 5 | All Maps | STV","players":null},{"server_id":311,"name":"Uncletopia | Frankfurt | 6 | All Maps","name_short":"frk-6","host":"frk-1.de.uncletopia.com","port":27065,"enabled":true,"region":"eu","cc":"de","latitude":50.110924,"longitude":8.682127,"reserved":0,"last_update":"0001-01-01T00:00:00Z","name_a2s":"Uncletopia | Frankfurt | 6 | All Maps","protocol":17,"map":"koth_viaduct","folder":"tf","game":"Team Fortress","app_id":440,"player_count":24,"max_players":24,"Bots":0,"server_type":"Dedicated","server_os":"Linux","password":true,"vac":true,"version":"7757534","steam_id":85568392924504278,"keywords":["cp","nocrits","nodmgspread","uncletopia"],"game_id":440,"stv_port":27066,"stv_name":"Uncletopia | Frankfurt | 6 | All Maps | STV","players":[{"user_id":126,"name":"Dmister","steam_id":76561198096001606,"connected_time":801000000000,"state":"active","ping":70},{"user_id":125,"name":"Kemalismus","steam_id":76561198394441106,"connected_time":823000000000,"state":"active","ping":119},{"user_id":112,"name":"CumbustiblePunda","steam_id":76561197974274677,"connected_time":1940000000000,"state":"active","ping":54},{"user_id":72,"name":"balanced diet","steam_id":76561198240320806,"connected_time":4692000000000,"state":"active","ping":71},{"user_id":127,"name":"gta_sa","steam_id":76561199433578516,"connected_time":795000000000,"state":"active","ping":84},{"user_id":128,"name":"cracker","steam_id":76561198062107879,"connected_time":793000000000,"state":"active","ping":78},{"user_id":67,"name":"NotFionn","steam_id":76561198890525176,"connected_time":4806000000000,"state":"active","ping":98},{"user_id":119,"name":"I was good before.","steam_id":76561198187045217,"connected_time":1464000000000,"state":"active","ping":75},{"user_id":120,"name":"MattyCzek","steam_id":76561198881990395,"connected_time":1460000000000,"state":"active","ping":67},{"user_id":130,"name":"VK2124 :D","steam_id":76561198111130688,"connected_time":761000000000,"state":"active","ping":49},{"user_id":138,"name":"day","steam_id":76561198260265302,"connected_time":404000000000,"state":"active","ping":59},{"user_id":122,"name":"(wm) Das Fleisch","steam_id":76561198001250715,"connected_time":1271000000000,"state":"active","ping":58},{"user_id":69,"name":"X-tis","steam_id":76561198043837480,"connected_time":4753000000000,"state":"active","ping":77},{"user_id":124,"name":"Frylock","steam_id":76561198050292560,"connected_time":1030000000000,"state":"active","ping":48},{"user_id":132,"name":"Aaron Rodgers Gaming","steam_id":76561198394221491,"connected_time":746000000000,"state":"active","ping":61},{"user_id":110,"name":"Welder","steam_id":76561198355300561,"connected_time":2340000000000,"state":"active","ping":65},{"user_id":113,"name":"Videogamer","steam_id":76561198106012909,"connected_time":1934000000000,"state":"active","ping":71},{"user_id":133,"name":"beer thief","steam_id":76561198126524735,"connected_time":726000000000,"state":"active","ping":76},{"user_id":134,"name":"Seeker","steam_id":76561198873052772,"connected_time":718000000000,"state":"active","ping":63},{"user_id":136,"name":"Gio'sMonkey","steam_id":76561198892432223,"connected_time":700000000000,"state":"active","ping":86},{"user_id":137,"name":"bepsi","steam_id":76561198360983155,"connected_time":569000000000,"state":"active","ping":84},{"user_id":121,"name":"geno2205","steam_id":76561199029513226,"connected_time":1367000000000,"state":"active","ping":70},{"user_id":82,"name":"Activate Windows","steam_id":76561198260285179,"connected_time":4187000000000,"state":"active","ping":103},{"user_id":96,"name":"PizzaPete123","steam_id":76561198089478290,"connected_time":3128000000000,"state":"active","ping":53}]},{"server_id":23,"name":"Uncletopia | Frankfurt | 7 | Stopwatch Beta","name_short":"frk-7","host":"frk-1.de.uncletopia.com","port":27075,"enabled":true,"region":"eu","cc":"de","latitude":50.110924,"longitude":8.682127,"reserved":0,"last_update":"0001-01-01T00:00:00Z","name_a2s":"Uncletopia | Frankfurt | 7 | Stopwatch Beta","protocol":17,"map":"pl_borneo","folder":"tf","game":"Team Fortress","app_id":440,"player_count":0,"max_players":24,"Bots":0,"server_type":"Dedicated","server_os":"Linux","password":true,"vac":true,"version":"7757534","steam_id":85568392924742827,"keywords":["nocrits","nodmgspread","payload","uncletopia"],"game_id":440,"stv_port":27076,"stv_name":"Uncletopia | Frankfurt | 7 | Stopwatch Beta | STV","players":null},{"server_id":24,"name":"Uncletopia | Frankfurt | 8 | Community","name_short":"frk-8","host":"frk-1.de.uncletopia.com","port":27085,"enabled":true,"region":"eu","cc":"de","latitude":50.110924,"longitude":8.682127,"reserved":0,"last_update":"0001-01-01T00:00:00Z","name_a2s":"Uncletopia | Frankfurt | 8 | Community","protocol":17,"map":"koth_viaduct","folder":"tf","game":"Team Fortress","app_id":440,"player_count":0,"max_players":24,"Bots":0,"server_type":"Dedicated","server_os":"Linux","password":true,"vac":true,"version":"7757534","steam_id":85568392924742828,"keywords":["cp","nocrits","nodmgspread","uncletopia"],"game_id":440,"stv_port":27086,"stv_name":"Uncletopia | Frankfurt | 8 | Community | STV","players":null},{"server_id":202,"name":"Uncletopia | Hong Kong | 1 | All Maps","name_short":"hgk-1","host":"hgk-1.hk.uncletopia.com","port":27015,"enabled":true,"region":"asia","cc":"hk","latitude":22.302711,"longitude":114.177216,"reserved":0,"last_update":"0001-01-01T00:00:00Z","name_a2s":"Uncletopia | Hong Kong | 1 | All Maps","protocol":17,"map":"cp_dustbowl","folder":"tf","game":"Team Fortress","app_id":440,"player_count":24,"max_players":24,"Bots":0,"server_type":"Dedicated","server_os":"Linux","password":true,"vac":true,"version":"7757534","steam_id":85568392924494504,"keywords":["cp","nocrits","nodmgspread","uncletopia"],"game_id":440,"stv_port":27016,"stv_name":"Uncletopia | Hong Kong | 1 | All Maps | STV","players":[{"user_id":363,"name":"EpicToast","steam_id":76561199180133439,"connected_time":3155000000000,"state":"active","ping":99},{"user_id":386,"name":"D43M0ns","steam_id":76561198274037941,"connected_time":1451000000000,"state":"active","ping":119},{"user_id":382,"name":"土曜日のトリスターナ","steam_id":76561198138636195,"connected_time":1843000000000,"state":"active","ping":69},{"user_id":335,"name":"御釜が家に中にいる","steam_id":76561198306574432,"connected_time":3870000000000,"state":"active","ping":75},{"user_id":349,"name":"PapaFranku69","steam_id":76561199446266814,"connected_time":3458000000000,"state":"active","ping":99},{"user_id":396,"name":"kid named kidnap","steam_id":76561199146847474,"connected_time":53000000000,"state":"active","ping":55},{"user_id":385,"name":"煙海 | Enkai","steam_id":76561198050460825,"connected_time":1539000000000,"state":"active","ping":76},{"user_id":365,"name":"P","steam_id":76561198304514505,"connected_time":3048000000000,"state":"active","ping":73},{"user_id":387,"name":"Ivy","steam_id":76561198400698408,"connected_time":1400000000000,"state":"active","ping":89},{"user_id":395,"name":"b（￣▽￣）d　好","steam_id":76561199237383346,"connected_time":423000000000,"state":"active","ping":85},{"user_id":388,"name":"Lelouch","steam_id":76561198828840546,"connected_time":1290000000000,"state":"active","ping":76},{"user_id":361,"name":"Gold","steam_id":76561199008543001,"connected_time":3229000000000,"state":"active","ping":53},{"user_id":317,"name":"母の肉団子@hao123.com","steam_id":76561198069561896,"connected_time":5367000000000,"state":"active","ping":45},{"user_id":372,"name":"AmaiToxic","steam_id":76561199122491157,"connected_time":2516000000000,"state":"active","ping":167},{"user_id":325,"name":"Bertengkar","steam_id":76561198213031155,"connected_time":5240000000000,"state":"active","ping":106},{"user_id":391,"name":"\"SKS\"","steam_id":76561198187995386,"connected_time":1151000000000,"state":"active","ping":89},{"user_id":390,"name":"screw it","steam_id":76561198188905629,"connected_time":1197000000000,"state":"active","ping":48},{"user_id":392,"name":"lemonlmao69","steam_id":76561199016539523,"connected_time":1032000000000,"state":"active","ping":88},{"user_id":318,"name":"SNEAKY AS FUCK","steam_id":76561198083923462,"connected_time":5355000000000,"state":"active","ping":76},{"user_id":394,"name":"Buttman","steam_id":76561198044693388,"connected_time":811000000000,"state":"active","ping":56},{"user_id":384,"name":"force","steam_id":76561199109339247,"connected_time":1606000000000,"state":"active","ping":82},{"user_id":332,"name":"Pillboi","steam_id":76561198011172886,"connected_time":4719000000000,"state":"active","ping":45},{"user_id":358,"name":"Swimming in SEA","steam_id":76561198072963762,"connected_time":3317000000000,"state":"active","ping":57},{"user_id":369,"name":"m1ko-  ❀","steam_id":76561198337154745,"connected_time":2927000000000,"state":"active","ping":173}]},{"server_id":1,"name":"Uncletopia | Los Angeles | 1 | All Maps","name_short":"lax-1","host":"lax-1.us.uncletopia.com","port":27015,"enabled":true,"region":"us-west","cc":"us","latitude":33.94279,"longitude":-118.41004,"reserved":0,"last_update":"0001-01-01T00:00:00Z","name_a2s":"Uncletopia | Los Angeles | 1 | All Maps","protocol":17,"map":"cp_dustbowl","folder":"tf","game":"Team Fortress","app_id":440,"player_count":0,"max_players":24,"Bots":0,"server_type":"Dedicated","server_os":"Linux","password":true,"vac":true,"version":"7757534","steam_id":85568392924469991,"keywords":["cp","nocrits","nodmgspread","uncletopia"],"game_id":440,"stv_port":27016,"stv_name":"Uncletopia | Los Angeles | 1 | All Maps | STV","players":null},{"server_id":112,"name":"Uncletopia | Los Angeles | 2 | All Maps","name_short":"lax-2","host":"lax-1.us.uncletopia.com","port":27025,"enabled":true,"region":"us-west","cc":"us","latitude":33.94279,"longitude":-118.41004,"reserved":0,"last_update":"0001-01-01T00:00:00Z","name_a2s":"Uncletopia | Los Angeles | 2 | All Maps","protocol":17,"map":"cp_process_final","folder":"tf","game":"Team Fortress","app_id":440,"player_count":0,"max_players":24,"Bots":0,"server_type":"Dedicated","server_os":"Linux","password":true,"vac":true,"version":"7757534","steam_id":85568392924469992,"keywords":["cp","nocrits","nodmgspread","uncletopia"],"game_id":440,"stv_port":27026,"stv_name":"Uncletopia | Los Angeles | 2 | All Maps | STV","players":null},{"server_id":324,"name":"Uncletopia | Los Angeles | 3 | All Maps","name_short":"lax-3","host":"lax-1.us.uncletopia.com","port":27035,"enabled":true,"region":"us-west","cc":"us","latitude":33.94279,"longitude":-118.41004,"reserved":0,"last_update":"0001-01-01T00:00:00Z","name_a2s":"Uncletopia | Los Angeles | 3 | All Maps","protocol":17,"map":"pl_upward","folder":"tf","game":"Team Fortress","app_id":440,"player_count":0,"max_players":24,"Bots":0,"server_type":"Dedicated","server_os":"Linux","password":true,"vac":true,"version":"7757534","steam_id":85568392924510198,"keywords":["nocrits","nodmgspread","payload","uncletopia"],"game_id":440,"stv_port":27036,"stv_name":"Uncletopia | Los Angeles | 3 | All Maps | STV","players":null},{"server_id":25,"name":"Uncletopia | Los Angeles | 4 | Stopwatch Beta","name_short":"lax-4","host":"lax-1.us.uncletopia.com","port":27045,"enabled":true,"region":"us-west","cc":"us","latitude":33.94279,"longitude":-118.41004,"reserved":0,"last_update":"0001-01-01T00:00:00Z","name_a2s":"Uncletopia | Los Angeles | 4 | Stopwatch Beta","protocol":17,"map":"cp_dustbowl","folder":"tf","game":"Team Fortress","app_id":440,"player_count":0,"max_players":24,"Bots":0,"server_type":"Dedicated","server_os":"Linux","password":true,"vac":true,"version":"7757534","steam_id":85568392924510199,"keywords":["cp","nocrits","nodmgspread","uncletopia"],"game_id":440,"stv_port":27046,"stv_name":"Uncletopia | Los Angeles | 4 | Stopwatch Beta | STV","players":null},{"server_id":11,"name":"Uncletopia | London | 1 | All Maps","name_short":"lon-1","host":"lon-1.uk.uncletopia.com","port":27015,"enabled":true,"region":"eu","cc":"gb","latitude":51.509865,"longitude":-0.118092,"reserved":0,"last_update":"0001-01-01T00:00:00Z","name_a2s":"Uncletopia | London | 1 | All Maps","protocol":17,"map":"pl_snowycoast","folder":"tf","game":"Team Fortress","app_id":440,"player_count":0,"max_players":24,"Bots":0,"server_type":"Dedicated","server_os":"Linux","password":true,"vac":true,"version":"7757534","steam_id":85568392924367362,"keywords":["nocrits","nodmgspread","payload","uncletopia"],"game_id":440,"stv_port":27016,"stv_name":"Uncletopia | London | 1 | All Maps | STV","players":null},{"server_id":114,"name":"Uncletopia | London | 2 | All Maps","name_short":"lon-2","host":"lon-1.uk.uncletopia.com","port":27025,"enabled":true,"region":"eu","cc":"gb","latitude":51.509865,"longitude":-0.118092,"reserved":0,"last_update":"0001-01-01T00:00:00Z","name_a2s":"Uncletopia | London | 2 | All Maps","protocol":17,"map":"koth_harvest_final","folder":"tf","game":"Team Fortress","app_id":440,"player_count":25,"max_players":24,"Bots":0,"server_type":"Dedicated","server_os":"Linux","password":true,"vac":true,"version":"7757534","steam_id":85568392924470941,"keywords":["cp","nocrits","nodmgspread","uncletopia"],"game_id":440,"stv_port":27026,"stv_name":"Uncletopia | London | 2 | All Maps | STV","players":[{"user_id":72,"name":"Pingu","steam_id":76561198207966532,"connected_time":818000000000,"state":"active","ping":70},{"user_id":53,"name":"Senior","steam_id":76561198065014164,"connected_time":1984000000000,"state":"active","ping":44},{"user_id":7,"name":"Hattmannen","steam_id":76561198340884902,"connected_time":5098000000000,"state":"active","ping":75},{"user_id":45,"name":"fume.","steam_id":76561197960476801,"connected_time":2445000000000,"state":"active","ping":53},{"user_id":73,"name":"Eggcracker","steam_id":76561199274850641,"connected_time":802000000000,"state":"active","ping":90},{"user_id":52,"name":"Dr. Funkenstein","steam_id":76561197977816210,"connected_time":1993000000000,"state":"active","ping":47},{"user_id":74,"name":"Aquila","steam_id":76561198046440044,"connected_time":792000000000,"state":"active","ping":45},{"user_id":75,"name":"holykyckling","steam_id":76561198040661615,"connected_time":780000000000,"state":"active","ping":77},{"user_id":47,"name":"Zerfesh","steam_id":76561198117534358,"connected_time":2400000000000,"state":"active","ping":97},{"user_id":79,"name":"adam","steam_id":76561199024816404,"connected_time":494000000000,"state":"active","ping":75},{"user_id":46,"name":"Asfreild","steam_id":76561198055901120,"connected_time":2429000000000,"state":"active","ping":74},{"user_id":71,"name":"Fish 'n' Chips","steam_id":76561198033476886,"connected_time":893000000000,"state":"active","ping":58},{"user_id":54,"name":"fazer","steam_id":76561199121283698,"connected_time":1982000000000,"state":"active","ping":64},{"user_id":61,"name":"Shelly1052","steam_id":76561199043551053,"connected_time":1291000000000,"state":"active","ping":36},{"user_id":32,"name":"Raivo","steam_id":76561198388750592,"connected_time":3045000000000,"state":"active","ping":76},{"user_id":60,"name":"errisauroh","steam_id":76561198112701938,"connected_time":1416000000000,"state":"active","ping":60},{"user_id":64,"name":"Holtzer","steam_id":76561198031573426,"connected_time":1180000000000,"state":"active","ping":71},{"user_id":81,"name":"bumby tum bum","steam_id":76561198083615367,"connected_time":24000000000,"state":"spawning","ping":38},{"user_id":80,"name":"Koi-Koi","steam_id":76561198045527771,"connected_time":58000000000,"state":"active","ping":55},{"user_id":43,"name":"Milosz52","steam_id":76561199060940204,"connected_time":2689000000000,"state":"active","ping":90},{"user_id":39,"name":"Jank","steam_id":76561198251508752,"connected_time":2868000000000,"state":"active","ping":53},{"user_id":57,"name":"chocolate flavoured femboy","steam_id":76561198819353867,"connected_time":1921000000000,"state":"active","ping":38},{"user_id":65,"name":"Mr.B","steam_id":76561199204478925,"connected_time":1175000000000,"state":"active","ping":114},{"user_id":82,"name":"DrExplosive","steam_id":76561198063678579,"connected_time":21000000000,"state":"spawning","ping":58},{"user_id":78,"name":"Atlas","steam_id":76561198072189527,"connected_time":571000000000,"state":"active","ping":50}]},{"server_id":320,"name":"Uncletopia | London | 3 | All Maps","name_short":"lon-3","host":"lon-1.uk.uncletopia.com","port":27035,"enabled":true,"region":"eu","cc":"gb","latitude":51.509865,"longitude":-0.118092,"reserved":0,"last_update":"0001-01-01T00:00:00Z","name_a2s":"Uncletopia | London | 3 | All Maps","protocol":17,"map":"pl_badwater","folder":"tf","game":"Team Fortress","app_id":440,"player_count":24,"max_players":24,"Bots":0,"server_type":"Dedicated","server_os":"Linux","password":true,"vac":true,"version":"7757534","steam_id":85568392924510192,"keywords":["nocrits","nodmgspread","payload","uncletopia"],"game_id":440,"stv_port":27036,"stv_name":"Uncletopia | London | 3 | All Maps | STV","players":[{"user_id":209,"name":"Kai","steam_id":76561198800004578,"connected_time":308000000000,"state":"active","ping":56},{"user_id":207,"name":"Topia","steam_id":76561198163571788,"connected_time":419000000000,"state":"active","ping":104},{"user_id":190,"name":"bulletsponge","steam_id":76561199142072298,"connected_time":1843000000000,"state":"active","ping":53},{"user_id":174,"name":"Hot Bean","steam_id":76561198803639155,"connected_time":3397000000000,"state":"active","ping":87},{"user_id":202,"name":"james","steam_id":76561198051623751,"connected_time":1202000000000,"state":"active","ping":77},{"user_id":204,"name":"✪ qua ✪","steam_id":76561198066408333,"connected_time":765000000000,"state":"active","ping":78},{"user_id":172,"name":"Loki Beaker","steam_id":76561198048086250,"connected_time":3470000000000,"state":"active","ping":59},{"user_id":194,"name":"jovi_","steam_id":76561198449280552,"connected_time":1785000000000,"state":"active","ping":53},{"user_id":191,"name":"The Weakest Brazilian Male","steam_id":76561198273215396,"connected_time":1836000000000,"state":"active","ping":47},{"user_id":193,"name":"Wardruna96","steam_id":76561199057083828,"connected_time":1813000000000,"state":"active","ping":75},{"user_id":187,"name":"dodo0472","steam_id":76561198206474699,"connected_time":1877000000000,"state":"active","ping":55},{"user_id":195,"name":"jo bidn' | ETLARTORM","steam_id":76561198869576262,"connected_time":1770000000000,"state":"active","ping":105},{"user_id":183,"name":"Xoukz","steam_id":76561198356014540,"connected_time":2465000000000,"state":"active","ping":101},{"user_id":179,"name":"B.den","steam_id":76561199177668753,"connected_time":2884000000000,"state":"active","ping":36},{"user_id":137,"name":"GMsU | Rebikas","steam_id":76561198077053764,"connected_time":5732000000000,"state":"active","ping":57},{"user_id":200,"name":"Dodoshka","steam_id":76561198093464840,"connected_time":1568000000000,"state":"active","ping":97},{"user_id":171,"name":"MEDiUM","steam_id":76561198112328561,"connected_time":3499000000000,"state":"active","ping":73},{"user_id":180,"name":"Jesse on cocainer","steam_id":76561198355545012,"connected_time":2783000000000,"state":"active","ping":94},{"user_id":173,"name":"GMsU | AuxiliusM","steam_id":76561198071903356,"connected_time":3424000000000,"state":"active","ping":44},{"user_id":182,"name":"bum","steam_id":76561198060105180,"connected_time":2561000000000,"state":"active","ping":63},{"user_id":105,"name":"1couver","steam_id":76561198168553215,"connected_time":7934000000000,"state":"active","ping":107},{"user_id":178,"name":"I have aids","steam_id":76561198860347851,"connected_time":3126000000000,"state":"active","ping":135},{"user_id":206,"name":"blade","steam_id":76561198235739036,"connected_time":512000000000,"state":"active","ping":89},{"user_id":198,"name":"majora's boostio","steam_id":76561198392628642,"connected_time":1745000000000,"state":"active","ping":35}]},{"server_id":321,"name":"Uncletopia | London | 4 | All Maps","name_short":"lon-4","host":"lon-1.uk.uncletopia.com","port":27045,"enabled":true,"region":"eu","cc":"gb","latitude":51.509865,"longitude":-0.118092,"reserved":0,"last_update":"0001-01-01T00:00:00Z","name_a2s":"Uncletopia | London | 4 | All Maps","protocol":17,"map":"pl_barnblitz","folder":"tf","game":"Team Fortress","app_id":440,"player_count":0,"max_players":24,"Bots":0,"server_type":"Dedicated","server_os":"Linux","password":true,"vac":true,"version":"7757534","steam_id":85568392924510193,"keywords":["nocrits","nodmgspread","payload","uncletopia"],"game_id":440,"stv_port":27046,"stv_name":"Uncletopia | London | 4 | All Maps | STV","players":null},{"server_id":21,"name":"Uncletopia | London | 5 | All Maps","name_short":"lon-5","host":"lon-1.uk.uncletopia.com","port":27055,"enabled":true,"region":"eu","cc":"gb","latitude":51.509865,"longitude":-0.118092,"reserved":0,"last_update":"0001-01-01T00:00:00Z","name_a2s":"Uncletopia | London | 5 | All Maps","protocol":17,"map":"pl_pier","folder":"tf","game":"Team Fortress","app_id":440,"player_count":0,"max_players":24,"Bots":0,"server_type":"Dedicated","server_os":"Linux","password":true,"vac":true,"version":"7757534","steam_id":85568392924742829,"keywords":["nocrits","nodmgspread","payload","uncletopia"],"game_id":440,"stv_port":27056,"stv_name":"Uncletopia | London | 5 | All Maps | STV","players":null},{"server_id":22,"name":"Uncletopia | London | 6 | All Maps","name_short":"lon-6","host":"lon-1.uk.uncletopia.com","port":27065,"enabled":true,"region":"eu","cc":"gb","latitude":51.509865,"longitude":-0.118092,"reserved":0,"last_update":"0001-01-01T00:00:00Z","name_a2s":"Uncletopia | London | 6 | All Maps","protocol":17,"map":"koth_highpass","folder":"tf","game":"Team Fortress","app_id":440,"player_count":0,"max_players":24,"Bots":0,"server_type":"Dedicated","server_os":"Linux","password":true,"vac":true,"version":"7757534","steam_id":85568392924742830,"keywords":["cp","nocrits","nodmgspread","uncletopia"],"game_id":440,"stv_port":27066,"stv_name":"Uncletopia | London | 6 | All Maps | STV","players":null},{"server_id":40,"name":"Uncletopia | London | 7 | No Payload","name_short":"lon-7","host":"lon-1.uk.uncletopia.com","port":27075,"enabled":true,"region":"eu","cc":"gb","latitude":51.509865,"longitude":-0.118092,"reserved":0,"last_update":"0001-01-01T00:00:00Z","name_a2s":"Uncletopia | London | 7 | No Payload","protocol":17,"map":"koth_highpass","folder":"tf","game":"Team Fortress","app_id":440,"player_count":0,"max_players":24,"Bots":0,"server_type":"Dedicated","server_os":"Linux","password":true,"vac":true,"version":"7757534","steam_id":85568392924964314,"keywords":["cp","nocrits","nodmgspread","uncletopia"],"game_id":440,"stv_port":27076,"stv_name":"Uncletopia | London | 7 | No Payload | STV","players":null},{"server_id":41,"name":"Uncletopia | London | 8 | Community","name_short":"lon-8","host":"lon-1.uk.uncletopia.com","port":27085,"enabled":true,"region":"eu","cc":"gb","latitude":51.509865,"longitude":-0.118092,"reserved":0,"last_update":"0001-01-01T00:00:00Z","name_a2s":"Uncletopia | London | 8 | Community","protocol":17,"map":"workshop/koth_slaughter_rc1.ugc1712845210","folder":"tf","game":"Team Fortress","app_id":440,"player_count":6,"max_players":24,"Bots":0,"server_type":"Dedicated","server_os":"Linux","password":true,"vac":true,"version":"7757534","steam_id":85568392924964315,"keywords":["cp","nocrits","nodmgspread","uncletopia"],"game_id":440,"stv_port":27086,"stv_name":"Uncletopia | London | 8 | Community | STV","players":[{"user_id":32,"name":"HogerZ","steam_id":76561198993777854,"connected_time":1372000000000,"state":"active","ping":58},{"user_id":39,"name":"AYE","steam_id":76561198181368101,"connected_time":302000000000,"state":"active","ping":58},{"user_id":38,"name":"urinal of dreams","steam_id":76561198142726062,"connected_time":424000000000,"state":"active","ping":123},{"user_id":40,"name":"Swedde","steam_id":76561198297296440,"connected_time":184000000000,"state":"active","ping":57},{"user_id":22,"name":"noamshor","steam_id":76561198974556515,"connected_time":2647000000000,"state":"active","ping":124},{"user_id":29,"name":"desnot","steam_id":76561198862581894,"connected_time":1932000000000,"state":"active","ping":64}]},{"server_id":300,"name":"Uncletopia | Montréal | 1 | All Maps","name_short":"mtl-1","host":"mtl-1.ca.uncletopia.com","port":27015,"enabled":true,"region":"us-east","cc":"ca","latitude":45.50889,"longitude":-73.56167,"reserved":0,"last_update":"0001-01-01T00:00:00Z","name_a2s":"Uncletopia | Montréal | 1 | All Maps","protocol":17,"map":"cp_altitude","folder":"tf","game":"Team Fortress","app_id":440,"player_count":0,"max_players":24,"Bots":0,"server_type":"Dedicated","server_os":"Linux","password":true,"vac":true,"version":"7757534","steam_id":85568392924500087,"keywords":["cp","nocrits","nodmgspread","uncletopia"],"game_id":440,"stv_port":27016,"stv_name":"Uncletopia | Montréal | 1 | All Maps | STV","players":null},{"server_id":301,"name":"Uncletopia | Montréal | 2 | All Maps","name_short":"mtl-2","host":"mtl-1.ca.uncletopia.com","port":27025,"enabled":true,"region":"us-east","cc":"ca","latitude":45.50889,"longitude":-73.56167,"reserved":0,"last_update":"0001-01-01T00:00:00Z","name_a2s":"Uncletopia | Montréal | 2 | All Maps","protocol":17,"map":"cp_sunshine","folder":"tf","game":"Team Fortress","app_id":440,"player_count":0,"max_players":24,"Bots":0,"server_type":"Dedicated","server_os":"Linux","password":true,"vac":true,"version":"7757534","steam_id":85568392924500088,"keywords":["cp","nocrits","nodmgspread","uncletopia"],"game_id":440,"stv_port":27026,"stv_name":"Uncletopia | Montréal | 2 | All Maps | STV","players":null},{"server_id":302,"name":"Uncletopia | Montréal | 3 | All Maps","name_short":"mtl-3","host":"mtl-1.ca.uncletopia.com","port":27035,"enabled":true,"region":"us-east","cc":"ca","latitude":45.50889,"longitude":-73.56167,"reserved":0,"last_update":"0001-01-01T00:00:00Z","name_a2s":"Uncletopia | Montréal | 3 | All Maps","protocol":17,"map":"pl_frontier_final","folder":"tf","game":"Team Fortress","app_id":440,"player_count":0,"max_players":24,"Bots":0,"server_type":"Dedicated","server_os":"Linux","password":true,"vac":true,"version":"7757534","steam_id":85568392924500089,"keywords":["nocrits","nodmgspread","payload","uncletopia"],"game_id":440,"stv_port":27036,"stv_name":"Uncletopia | Montréal | 3 | All Maps | STV","players":null},{"server_id":303,"name":"Uncletopia | Montréal | 4 | No Payload","name_short":"mtl-4","host":"mtl-1.ca.uncletopia.com","port":27045,"enabled":true,"region":"us-east","cc":"ca","latitude":45.50889,"longitude":-73.56167,"reserved":0,"last_update":"0001-01-01T00:00:00Z","name_a2s":"Uncletopia | Montréal | 4 | No Payload","protocol":17,"map":"pl_pier","folder":"tf","game":"Team Fortress","app_id":440,"player_count":0,"max_players":24,"Bots":0,"server_type":"Dedicated","server_os":"Linux","password":true,"vac":true,"version":"7757534","steam_id":85568392924500090,"keywords":["nocrits","nodmgspread","payload","uncletopia"],"game_id":440,"stv_port":27046,"stv_name":"Uncletopia | Montréal | 4 | No Payload | STV","players":null},{"server_id":13,"name":"Uncletopia | New York City | 1 | All Maps","name_short":"nyc-1","host":"nyc-1.us.uncletopia.com","port":27015,"enabled":true,"region":"us-east","cc":"us","latitude":40.73061,"longitude":-73.93524,"reserved":0,"last_update":"0001-01-01T00:00:00Z","name_a2s":"Uncletopia | New York City | 1 | All Maps","protocol":17,"map":"koth_cascade","folder":"tf","game":"Team Fortress","app_id":440,"player_count":0,"max_players":24,"Bots":0,"server_type":"Dedicated","server_os":"Linux","password":true,"vac":true,"version":"7757534","steam_id":85568392924469993,"keywords":["cp","nocrits","nodmgspread","uncletopia"],"game_id":440,"stv_port":27016,"stv_name":"Uncletopia | New York City | 1 | All Maps | STV","players":null},{"server_id":14,"name":"Uncletopia | New York City | 2 | All Maps","name_short":"nyc-2","host":"nyc-1.us.uncletopia.com","port":27025,"enabled":true,"region":"us-east","cc":"us","latitude":40.73061,"longitude":-73.93524,"reserved":0,"last_update":"0001-01-01T00:00:00Z","name_a2s":"Uncletopia | New York City | 2 | All Maps","protocol":17,"map":"cp_dustbowl","folder":"tf","game":"Team Fortress","app_id":440,"player_count":0,"max_players":24,"Bots":0,"server_type":"Dedicated","server_os":"Linux","password":true,"vac":true,"version":"7757534","steam_id":85568392924469994,"keywords":["cp","nocrits","nodmgspread","uncletopia"],"game_id":440,"stv_port":27026,"stv_name":"Uncletopia | New York City | 2 | All Maps | STV","players":null},{"server_id":15,"name":"Uncletopia | New York City | 3 | Stopwatch Beta","name_short":"nyc-3","host":"nyc-1.us.uncletopia.com","port":27035,"enabled":true,"region":"us-east","cc":"us","latitude":40.73061,"longitude":-73.93524,"reserved":0,"last_update":"0001-01-01T00:00:00Z","name_a2s":"Uncletopia | New York City | 3 | Stopwatch Beta","protocol":17,"map":"koth_cascade","folder":"tf","game":"Team Fortress","app_id":440,"player_count":0,"max_players":24,"Bots":0,"server_type":"Dedicated","server_os":"Linux","password":true,"vac":true,"version":"7757534","steam_id":85568392924742820,"keywords":["cp","nocrits","nodmgspread","uncletopia"],"game_id":440,"stv_port":27036,"stv_name":"Uncletopia | New York City | 3 | Stopwatch Beta | STV","players":null},{"server_id":16,"name":"Uncletopia | New York City | 4 | Community","name_short":"nyc-4","host":"nyc-1.us.uncletopia.com","port":27045,"enabled":true,"region":"us-east","cc":"us","latitude":40.73061,"longitude":-73.93524,"reserved":0,"last_update":"0001-01-01T00:00:00Z","name_a2s":"Uncletopia | New York City | 4 | Community","protocol":17,"map":"pl_frontier_final","folder":"tf","game":"Team Fortress","app_id":440,"player_count":0,"max_players":24,"Bots":0,"server_type":"Dedicated","server_os":"Linux","password":true,"vac":true,"version":"7757534","steam_id":85568392924742821,"keywords":["nocrits","nodmgspread","payload","uncletopia"],"game_id":440,"stv_port":27046,"stv_name":"Uncletopia | New York City | 4 | Community | STV","players":null},{"server_id":142,"name":"Uncletopia | São Paulo | 1 | All Maps","name_short":"sao-1","host":"sao-1.br.uncletopia.com","port":27015,"enabled":true,"region":"sa","cc":"br","latitude":-23.533773,"longitude":-46.62529,"reserved":0,"last_update":"0001-01-01T00:00:00Z","name_a2s":"Uncletopia | São Paulo | 1 | All Maps","protocol":17,"map":"cp_altitude","folder":"tf","game":"Team Fortress","app_id":440,"player_count":0,"max_players":24,"Bots":0,"server_type":"Dedicated","server_os":"Linux","password":true,"vac":true,"version":"7757534","steam_id":85568392924469996,"keywords":["cp","nocrits","nodmgspread","uncletopia"],"game_id":440,"stv_port":27016,"stv_name":"Uncletopia | São Paulo | 1 | All Maps | STV","players":null},{"server_id":143,"name":"Uncletopia | São Paulo | 2 | All Maps","name_short":"sao-2","host":"sao-2.br.uncletopia.com","port":27015,"enabled":true,"region":"sa","cc":"br","latitude":-23.533773,"longitude":-46.62529,"reserved":0,"last_update":"0001-01-01T00:00:00Z","name_a2s":"Uncletopia | São Paulo | 2 | All Maps","protocol":17,"map":"koth_viaduct","folder":"tf","game":"Team Fortress","app_id":440,"player_count":0,"max_players":24,"Bots":0,"server_type":"Dedicated","server_os":"Linux","password":true,"vac":true,"version":"7757534","steam_id":85568392924485349,"keywords":["cp","nocrits","nodmgspread","uncletopia"],"game_id":440,"stv_port":27016,"stv_name":"Uncletopia | São Paulo | 2 | All Maps | STV","players":null},{"server_id":7,"name":"Uncletopia | Seattle | 1 | All Maps","name_short":"sea-1","host":"sea-1.us.uncletopia.com","port":27015,"enabled":true,"region":"us-west","cc":"us","latitude":47.608013,"longitude":-122.33517,"reserved":0,"last_update":"0001-01-01T00:00:00Z","name_a2s":"Uncletopia | Seattle | 1 | All Maps","protocol":17,"map":"cp_steel","folder":"tf","game":"Team Fortress","app_id":440,"player_count":15,"max_players":24,"Bots":0,"server_type":"Dedicated","server_os":"Linux","password":true,"vac":true,"version":"7757534","steam_id":85568392924469997,"keywords":["cp","nocrits","nodmgspread","uncletopia"],"game_id":440,"stv_port":27016,"stv_name":"Uncletopia | Seattle | 1 | All Maps | STV","players":[{"user_id":448,"name":"Lost Arachnid","steam_id":76561199012943912,"connected_time":921000000000,"state":"active","ping":142},{"user_id":414,"name":"♥ Femboy♥Ventily ♥","steam_id":76561198157260335,"connected_time":4579000000000,"state":"active","ping":75},{"user_id":455,"name":"east coast pan","steam_id":76561198856903497,"connected_time":284000000000,"state":"active","ping":106},{"user_id":452,"name":"Doc","steam_id":76561198453335611,"connected_time":594000000000,"state":"active","ping":84},{"user_id":387,"name":"The Announcer's Feet","steam_id":76561199443456893,"connected_time":7654000000000,"state":"active","ping":131},{"user_id":459,"name":"RURU","steam_id":76561198039758987,"connected_time":163000000000,"state":"active","ping":54},{"user_id":460,"name":"Mrtpc1","steam_id":76561199222267547,"connected_time":149000000000,"state":"active","ping":239},{"user_id":418,"name":"Dyson","steam_id":76561199081837220,"connected_time":4375000000000,"state":"active","ping":113},{"user_id":444,"name":"[TrC] Nosy","steam_id":76561197978859310,"connected_time":1075000000000,"state":"active","ping":57},{"user_id":461,"name":"nailbxmb98","steam_id":76561199131463997,"connected_time":138000000000,"state":"active","ping":96},{"user_id":408,"name":"Delacroix","steam_id":76561198842964669,"connected_time":5281000000000,"state":"active","ping":110},{"user_id":445,"name":"8888888888888888888888888888888","steam_id":76561198125436343,"connected_time":1072000000000,"state":"active","ping":62},{"user_id":446,"name":"[TrC] Dackstrus","steam_id":76561197973518509,"connected_time":1071000000000,"state":"active","ping":59},{"user_id":442,"name":"Pickle Chips","steam_id":76561198271951504,"connected_time":1616000000000,"state":"active","ping":115},{"user_id":433,"name":"tekan","steam_id":76561199077174231,"connected_time":3680000000000,"state":"active","ping":100}]},{"server_id":119,"name":"Uncletopia | Seattle | 2 | All Maps","name_short":"sea-2","host":"sea-1.us.uncletopia.com","port":27025,"enabled":true,"region":"us-west","cc":"us","latitude":47.608013,"longitude":-122.33517,"reserved":0,"last_update":"0001-01-01T00:00:00Z","name_a2s":"Uncletopia | Seattle | 2 | All Maps","protocol":17,"map":"koth_cascade","folder":"tf","game":"Team Fortress","app_id":440,"player_count":0,"max_players":24,"Bots":0,"server_type":"Dedicated","server_os":"Linux","password":true,"vac":true,"version":"7757534","steam_id":85568392924469998,"keywords":["cp","nocrits","nodmgspread","uncletopia"],"game_id":440,"stv_port":27026,"stv_name":"Uncletopia | Seattle | 2 | All Maps | STV","players":null},{"server_id":406,"name":"Uncletopia | Seattle | 3 | Stopwatch Beta","name_short":"sea-3","host":"sea-1.us.uncletopia.com","port":27035,"enabled":true,"region":"us-west","cc":"us","latitude":47.608013,"longitude":-122.33517,"reserved":0,"last_update":"0001-01-01T00:00:00Z","name_a2s":"Uncletopia | Seattle | 3 | Stopwatch Beta","protocol":17,"map":"pl_swiftwater_final1","folder":"tf","game":"Team Fortress","app_id":440,"player_count":0,"max_players":24,"Bots":0,"server_type":"Dedicated","server_os":"Linux","password":true,"vac":true,"version":"7757534","steam_id":85568392924515217,"keywords":["nocrits","nodmgspread","payload","uncletopia"],"game_id":440,"stv_port":27036,"stv_name":"Uncletopia | Seattle | 3 | Stopwatch Beta | STV","players":null},{"server_id":17,"name":"Uncletopia | San Francisco | 1 | All Maps","name_short":"sfo-1","host":"sfo-1.us.uncletopia.com","port":27015,"enabled":true,"region":"us-west","cc":"us","latitude":37.77397,"longitude":-122.4313,"reserved":0,"last_update":"0001-01-01T00:00:00Z","name_a2s":"Uncletopia | San Francisco | 1 | All Maps","protocol":17,"map":"pl_upward","folder":"tf","game":"Team Fortress","app_id":440,"player_count":24,"max_players":24,"Bots":0,"server_type":"Dedicated","server_os":"Linux","password":true,"vac":true,"version":"7757534","steam_id":85568392924469999,"keywords":["nocrits","nodmgspread","payload","uncletopia"],"game_id":440,"stv_port":27016,"stv_name":"Uncletopia | San Francisco | 1 | All Maps | STV","players":[{"user_id":659,"name":"KingToaster","steam_id":76561198007903802,"connected_time":406000000000,"state":"active","ping":56},{"user_id":643,"name":"professional jort creamer","steam_id":76561198013308693,"connected_time":1007000000000,"state":"active","ping":107},{"user_id":614,"name":"Giddy","steam_id":76561198129732108,"connected_time":2384000000000,"state":"active","ping":43},{"user_id":558,"name":"phoonwax","steam_id":76561198433114405,"connected_time":5001000000000,"state":"active","ping":84},{"user_id":516,"name":"Dr. Hashbrown","steam_id":76561198410780370,"connected_time":7643000000000,"state":"active","ping":67},{"user_id":663,"name":"SgtMaj Soggy Titties","steam_id":76561198067732216,"connected_time":330000000000,"state":"active","ping":93},{"user_id":633,"name":"TheBindingOfTom","steam_id":76561199051901710,"connected_time":1208000000000,"state":"active","ping":62},{"user_id":657,"name":"I AM GOING TO EAT YOUR FACE","steam_id":76561198277449857,"connected_time":743000000000,"state":"active","ping":54},{"user_id":624,"name":"BroDuck","steam_id":76561198000217789,"connected_time":1537000000000,"state":"active","ping":109},{"user_id":606,"name":"Jester","steam_id":76561198153102922,"connected_time":2695000000000,"state":"active","ping":98},{"user_id":623,"name":"spimtmot733","steam_id":76561199029189825,"connected_time":1574000000000,"state":"active","ping":109},{"user_id":644,"name":"Boxxed","steam_id":76561198255787237,"connected_time":993000000000,"state":"active","ping":87},{"user_id":607,"name":"b4rry","steam_id":76561198365887154,"connected_time":2616000000000,"state":"active","ping":121},{"user_id":658,"name":"resh","steam_id":76561198239598834,"connected_time":535000000000,"state":"active","ping":110},{"user_id":664,"name":"the war","steam_id":76561198133360797,"connected_time":263000000000,"state":"active","ping":64},{"user_id":661,"name":"rlty","steam_id":76561198009395055,"connected_time":367000000000,"state":"active","ping":114},{"user_id":618,"name":"G3rockwood","steam_id":76561198103583658,"connected_time":1816000000000,"state":"active","ping":110},{"user_id":610,"name":"0akmask","steam_id":76561198239584280,"connected_time":2581000000000,"state":"active","ping":59},{"user_id":629,"name":"TothBrush","steam_id":76561198028254471,"connected_time":1475000000000,"state":"active","ping":70},{"user_id":619,"name":"Joseph \"Biden\" Stalin","steam_id":76561198213863907,"connected_time":1808000000000,"state":"active","ping":109},{"user_id":665,"name":"plb1337","steam_id":76561198072740690,"connected_time":262000000000,"state":"active","ping":105},{"user_id":515,"name":"Fred","steam_id":76561197983870604,"connected_time":7725000000000,"state":"active","ping":65},{"user_id":627,"name":"The Horselords and Animal Gods","steam_id":76561197975094050,"connected_time":1530000000000,"state":"active","ping":65},{"user_id":641,"name":"Oniko","steam_id":76561198087703138,"connected_time":1138000000000,"state":"active","ping":73}]},{"server_id":18,"name":"Uncletopia | San Francisco | 2 | All Maps","name_short":"sfo-2","host":"sfo-1.us.uncletopia.com","port":27025,"enabled":true,"region":"us-west","cc":"us","latitude":37.77397,"longitude":-122.4313,"reserved":0,"last_update":"0001-01-01T00:00:00Z","name_a2s":"Uncletopia | San Francisco | 2 | All Maps","protocol":17,"map":"cp_process_final","folder":"tf","game":"Team Fortress","app_id":440,"player_count":0,"max_players":24,"Bots":0,"server_type":"Dedicated","server_os":"Linux","password":true,"vac":true,"version":"7757534","steam_id":85568392924470000,"keywords":["cp","nocrits","nodmgspread","uncletopia"],"game_id":440,"stv_port":27026,"stv_name":"Uncletopia | San Francisco | 2 | All Maps | STV","players":null},{"server_id":19,"name":"Uncletopia | San Francisco | 3 | Stopwatch Beta","name_short":"sfo-3","host":"sfo-1.us.uncletopia.com","port":27035,"enabled":true,"region":"us-west","cc":"us","latitude":37.77397,"longitude":-122.4313,"reserved":0,"last_update":"0001-01-01T00:00:00Z","name_a2s":"Uncletopia | San Francisco | 3 | Stopwatch Beta","protocol":17,"map":"workshop/koth_ramjam_rc1.ugc459778887","folder":"tf","game":"Team Fortress","app_id":440,"player_count":0,"max_players":24,"Bots":0,"server_type":"Dedicated","server_os":"Linux","password":true,"vac":true,"version":"7757534","steam_id":85568392924742824,"keywords":["cp","nocrits","nodmgspread","uncletopia"],"game_id":440,"stv_port":27036,"stv_name":"Uncletopia | San Francisco | 3 | Stopwatch Beta | STV","players":null},{"server_id":20,"name":"Uncletopia | San Francisco | 4 | Community","name_short":"sfo-4","host":"sfo-1.us.uncletopia.com","port":27045,"enabled":true,"region":"us-west","cc":"us","latitude":37.77397,"longitude":-122.4313,"reserved":0,"last_update":"0001-01-01T00:00:00Z","name_a2s":"Uncletopia | San Francisco | 4 | Community","protocol":17,"map":"workshop/pl_corrode_rc2.ugc546577989","folder":"tf","game":"Team Fortress","app_id":440,"player_count":0,"max_players":24,"Bots":0,"server_type":"Dedicated","server_os":"Linux","password":true,"vac":true,"version":"7757534","steam_id":85568392924742826,"keywords":["nocrits","nodmgspread","payload","uncletopia"],"game_id":440,"stv_port":27046,"stv_name":"Uncletopia | San Francisco | 4 | Community | STV","players":null},{"server_id":141,"name":"Uncletopia | Sydney | 1 | All Maps","name_short":"syd-1","host":"syd-1.au.uncletopia.com","port":27015,"enabled":true,"region":"au","cc":"au","latitude":-33.865143,"longitude":151.2099,"reserved":0,"last_update":"0001-01-01T00:00:00Z","name_a2s":"Uncletopia | Sydney | 1 | All Maps","protocol":17,"map":"pl_frontier_final","folder":"tf","game":"Team Fortress","app_id":440,"player_count":0,"max_players":24,"Bots":0,"server_type":"Dedicated","server_os":"Linux","password":true,"vac":true,"version":"7757534","steam_id":85568392924470001,"keywords":["nocrits","nodmgspread","payload","uncletopia"],"game_id":440,"stv_port":27016,"stv_name":"Uncletopia | Sydney | 1 | All Maps | STV","players":null},{"server_id":123,"name":"Uncletopia | Sydney | 2 | All Maps","name_short":"syd-2","host":"syd-1.au.uncletopia.com","port":27025,"enabled":true,"region":"au","cc":"au","latitude":-33.865143,"longitude":151.2099,"reserved":0,"last_update":"0001-01-01T00:00:00Z","name_a2s":"Uncletopia | Sydney | 2 | All Maps","protocol":17,"map":"cp_dustbowl","folder":"tf","game":"Team Fortress","app_id":440,"player_count":24,"max_players":24,"Bots":0,"server_type":"Dedicated","server_os":"Linux","password":true,"vac":true,"version":"7757534","steam_id":85568392924470002,"keywords":["cp","nocrits","nodmgspread","uncletopia"],"game_id":440,"stv_port":27026,"stv_name":"Uncletopia | Sydney | 2 | All Maps | STV","players":[{"user_id":504,"name":"Lenia","steam_id":76561198119411410,"connected_time":1962000000000,"state":"active","ping":56},{"user_id":519,"name":"WRERwrAWRF","steam_id":76561199388667527,"connected_time":1464000000000,"state":"active","ping":156},{"user_id":758,"name":"helpme","steam_id":76561199473258522,"connected_time":305000000000,"state":"active","ping":58},{"user_id":501,"name":"KILLER WHALES","steam_id":76561198012422705,"connected_time":1974000000000,"state":"active","ping":57},{"user_id":520,"name":"Genuline","steam_id":76561198126426787,"connected_time":1348000000000,"state":"active","ping":87},{"user_id":497,"name":"jim :)","steam_id":76561198127508905,"connected_time":3638000000000,"state":"active","ping":36},{"user_id":470,"name":"skeledaddy","steam_id":76561197993043203,"connected_time":5799000000000,"state":"active","ping":63},{"user_id":746,"name":"Nat","steam_id":76561197995044074,"connected_time":499000000000,"state":"active","ping":158},{"user_id":738,"name":"Empr","steam_id":76561198024387396,"connected_time":552000000000,"state":"active","ping":68},{"user_id":505,"name":"oldbie","steam_id":76561198053297711,"connected_time":1952000000000,"state":"active","ping":77},{"user_id":507,"name":"Bear","steam_id":76561198050253272,"connected_time":1935000000000,"state":"active","ping":56},{"user_id":526,"name":"old chunk of coal","steam_id":76561197990537324,"connected_time":1249000000000,"state":"active","ping":108},{"user_id":514,"name":"Raypest","steam_id":76561197980678745,"connected_time":1683000000000,"state":"active","ping":42},{"user_id":500,"name":"The Fesh Pince Of Blair","steam_id":76561198124442611,"connected_time":3080000000000,"state":"active","ping":83},{"user_id":499,"name":"zzzzzzz","steam_id":76561198066726621,"connected_time":3140000000000,"state":"active","ping":72},{"user_id":626,"name":"Kouroboros","steam_id":76561198141283669,"connected_time":802000000000,"state":"active","ping":83},{"user_id":524,"name":"Pandora","steam_id":76561198096031453,"connected_time":1268000000000,"state":"active","ping":97},{"user_id":755,"name":"Rat Pope","steam_id":76561199059450243,"connected_time":426000000000,"state":"active","ping":52},{"user_id":512,"name":"Phobia²","steam_id":76561198038833524,"connected_time":1777000000000,"state":"active","ping":54},{"user_id":528,"name":"Bay Goy","steam_id":76561197989541221,"connected_time":1215000000000,"state":"active","ping":68},{"user_id":527,"name":"Editor_Billy","steam_id":76561199165608946,"connected_time":1243000000000,"state":"active","ping":59},{"user_id":539,"name":"Usurper","steam_id":76561198008432357,"connected_time":975000000000,"state":"active","ping":58},{"user_id":541,"name":"stinkysocksweat","steam_id":76561199005935911,"connected_time":959000000000,"state":"active","ping":98},{"user_id":503,"name":"Frog Friend","steam_id":76561198054505772,"connected_time":1972000000000,"state":"active","ping":57}]},{"server_id":395,"name":"Uncletopia | Sydney | 3 | All Maps","name_short":"syd-3","host":"syd-1.au.uncletopia.com","port":27035,"enabled":true,"region":"au","cc":"au","latitude":-33.865143,"longitude":151.2099,"reserved":0,"last_update":"0001-01-01T00:00:00Z","name_a2s":"Uncletopia | Sydney | 3 | All Maps","protocol":17,"map":"koth_lakeside_final","folder":"tf","game":"Team Fortress","app_id":440,"player_count":0,"max_players":24,"Bots":0,"server_type":"Dedicated","server_os":"Linux","password":true,"vac":true,"version":"7757534","steam_id":85568392925194467,"keywords":["cp","nocrits","nodmgspread","uncletopia"],"game_id":440,"stv_port":27036,"stv_name":"Uncletopia | Sydney | 3 | All Maps | STV","players":null},{"server_id":396,"name":"Uncletopia | Sydney | 4 | All Maps","name_short":"syd-4","host":"syd-1.au.uncletopia.com","port":27045,"enabled":true,"region":"au","cc":"au","latitude":-33.865143,"longitude":151.2099,"reserved":0,"last_update":"0001-01-01T00:00:00Z","name_a2s":"Uncletopia | Sydney | 4 | All Maps","protocol":17,"map":"koth_viaduct","folder":"tf","game":"Team Fortress","app_id":440,"player_count":0,"max_players":24,"Bots":0,"server_type":"Dedicated","server_os":"Linux","password":true,"vac":true,"version":"7757534","steam_id":85568392925397958,"keywords":["cp","nocrits","nodmgspread","uncletopia"],"game_id":440,"stv_port":27046,"stv_name":"Uncletopia | Sydney | 4 | All Maps | STV","players":null},{"server_id":58,"name":"Uncletopia | Sydney | 5 | Stopwatch Beta","name_short":"syd-5","host":"syd-1.au.uncletopia.com","port":27055,"enabled":true,"region":"au","cc":"au","latitude":-33.865143,"longitude":151.2099,"reserved":0,"last_update":"0001-01-01T00:00:00Z","name_a2s":"Uncletopia | Sydney | 5 | Stopwatch Beta","protocol":17,"map":"koth_cascade","folder":"tf","game":"Team Fortress","app_id":440,"player_count":0,"max_players":24,"Bots":0,"server_type":"Dedicated","server_os":"Linux","password":true,"vac":true,"version":"7757534","steam_id":85568392925397959,"keywords":["cp","nocrits","nodmgspread","uncletopia"],"game_id":440,"stv_port":27056,"stv_name":"Uncletopia | Sydney | 5 | Stopwatch Beta | STV","players":null},{"server_id":59,"name":"Uncletopia | Sydney | 6 | Community","name_short":"syd-6","host":"syd-1.au.uncletopia.com","port":27065,"enabled":true,"region":"au","cc":"au","latitude":-33.865143,"longitude":151.2099,"reserved":0,"last_update":"0001-01-01T00:00:00Z","name_a2s":"Uncletopia | Sydney | 6 | Community","protocol":17,"map":"workshop/cp_hazyfort_rc6.ugc1365963729","folder":"tf","game":"Team Fortress","app_id":440,"player_count":3,"max_players":24,"Bots":0,"server_type":"Dedicated","server_os":"Linux","password":true,"vac":true,"version":"7757534","steam_id":85568392925397960,"keywords":["cp","nocrits","nodmgspread","uncletopia"],"game_id":440,"stv_port":27066,"stv_name":"Uncletopia | Sydney | 6 | Community | STV","players":[{"user_id":33,"name":"Karlitor","steam_id":76561198004246142,"connected_time":4125000000000,"state":"active","ping":55},{"user_id":34,"name":"lucage","steam_id":76561198857151274,"connected_time":4090000000000,"state":"active","ping":61},{"user_id":40,"name":"Branko","steam_id":76561199262196710,"connected_time":2204000000000,"state":"active","ping":42}]},{"server_id":49,"name":"Uncletopia | Warsaw | 1 | All Maps","name_short":"waw-1","host":"waw-1.pl.uncletopia.com","port":27015,"enabled":true,"region":"eu","cc":"pl","latitude":52.2297,"longitude":21.017532,"reserved":0,"last_update":"0001-01-01T00:00:00Z","name_a2s":"","protocol":0,"map":"","folder":"","game":"","app_id":0,"player_count":0,"max_players":0,"Bots":0,"server_type":"","server_os":"","password":false,"vac":false,"version":"","steam_id":0,"keywords":null,"game_id":0,"stv_port":0,"stv_name":"","players":null},{"server_id":50,"name":"Uncletopia | Warsaw | 2 | All Maps","name_short":"waw-2","host":"waw-1.pl.uncletopia.com","port":27025,"enabled":true,"region":"eu","cc":"pl","latitude":52.2297,"longitude":21.017532,"reserved":0,"last_update":"0001-01-01T00:00:00Z","name_a2s":"Uncletopia | Warsaw | 2 | All Maps","protocol":17,"map":"pl_upward","folder":"tf","game":"Team Fortress","app_id":440,"player_count":0,"max_players":24,"Bots":0,"server_type":"Dedicated","server_os":"Linux","password":true,"vac":true,"version":"7757534","steam_id":85568392925397851,"keywords":["nocrits","nodmgspread","payload","uncletopia"],"game_id":440,"stv_port":27026,"stv_name":"Uncletopia | Warsaw | 2 | All Maps | STV","players":null},{"server_id":51,"name":"Uncletopia | Warsaw | 3 | All Maps","name_short":"waw-3","host":"waw-1.pl.uncletopia.com","port":27035,"enabled":true,"region":"eu","cc":"pl","latitude":52.2297,"longitude":21.017532,"reserved":0,"last_update":"0001-01-01T00:00:00Z","name_a2s":"Uncletopia | Warsaw | 3 | All Maps","protocol":17,"map":"pl_barnblitz","folder":"tf","game":"Team Fortress","app_id":440,"player_count":0,"max_players":24,"Bots":0,"server_type":"Dedicated","server_os":"Linux","password":true,"vac":true,"version":"7757534","steam_id":85568392925397852,"keywords":["nocrits","nodmgspread","payload","uncletopia"],"game_id":440,"stv_port":27036,"stv_name":"Uncletopia | Warsaw | 3 | All Maps | STV","players":null},{"server_id":52,"name":"Uncletopia | Warsaw | 4 | All Maps","name_short":"waw-4","host":"waw-1.pl.uncletopia.com","port":27045,"enabled":true,"region":"eu","cc":"pl","latitude":52.2297,"longitude":21.017532,"reserved":0,"last_update":"0001-01-01T00:00:00Z","name_a2s":"Uncletopia | Warsaw | 4 | All Maps","protocol":17,"map":"cp_altitude","folder":"tf","game":"Team Fortress","app_id":440,"player_count":0,"max_players":24,"Bots":0,"server_type":"Dedicated","server_os":"Linux","password":true,"vac":true,"version":"7757534","steam_id":85568392925397853,"keywords":["cp","nocrits","nodmgspread","uncletopia"],"game_id":440,"stv_port":27046,"stv_name":"Uncletopia | Warsaw | 4 | All Maps | STV","players":null},{"server_id":53,"name":"Uncletopia | Warsaw | 5 | Stopwatch Beta","name_short":"waw-5","host":"waw-1.pl.uncletopia.com","port":27055,"enabled":true,"region":"eu","cc":"pl","latitude":52.2297,"longitude":21.017532,"reserved":0,"last_update":"0001-01-01T00:00:00Z","name_a2s":"Uncletopia | Warsaw | 5 | Stopwatch Beta","protocol":17,"map":"pl_pier","folder":"tf","game":"Team Fortress","app_id":440,"player_count":0,"max_players":24,"Bots":0,"server_type":"Dedicated","server_os":"Linux","password":true,"vac":true,"version":"7757534","steam_id":85568392925397854,"keywords":["nocrits","nodmgspread","payload","uncletopia"],"game_id":440,"stv_port":27056,"stv_name":"Uncletopia | Warsaw | 5 | Stopwatch Beta | STV","players":null},{"server_id":54,"name":"Uncletopia | Warsaw | 6 | Community","name_short":"waw-6","host":"waw-1.pl.uncletopia.com","port":27065,"enabled":true,"region":"eu","cc":"pl","latitude":52.2297,"longitude":21.017532,"reserved":0,"last_update":"0001-01-01T00:00:00Z","name_a2s":"Uncletopia | Warsaw | 6 | Community","protocol":17,"map":"koth_highpass","folder":"tf","game":"Team Fortress","app_id":440,"player_count":0,"max_players":24,"Bots":0,"server_type":"Dedicated","server_os":"Linux","password":true,"vac":true,"version":"7757534","steam_id":85568392925397856,"keywords":["cp","nocrits","nodmgspread","uncletopia"],"game_id":440,"stv_port":27066,"stv_name":"Uncletopia | Warsaw | 6 | Community | STV","players":null}]}