{"status":true,"message":"","result":[{"server_id":9,"name":"Uncletopia | Atlanta | 1 | All Maps","name_short":"atl-1","host":"atl-1.us.uncletopia.com","port":27015,"enabled":true,"region":"us-east","cc":"us","latitude":33.753746,"longitude":-84.38633,"reserved":0,"last_update":"0001-01-01T00:00:00Z","name_a2s":"Uncletopia | Atlanta | 1 | All Maps","protocol":17,"map":"koth_viaduct","folder":"tf","game":"Team Fortress","app_id":440,"player_count":21,"max_players":24,"Bots":0,"server_type":"Dedicated","server_os":"Linux","password":true,"vac":true,"version":"7961495","steam_id":85568392924469982,"keywords":["cp","nocrits","nodmgspread","uncletopia"],"game_id":440,"stv_port":27016,"stv_name":"Uncletopia | Atlanta | 1 | All Maps | STV","players":null},{"server_id":104,"name":"Uncletopia | Atlanta | 2 | All Maps","name_short":"atl-2","host":"atl-1.us.uncletopia.com","port":27025,"enabled":true,"region":"us-east","cc":"us","latitude":33.753746,"longitude":-84.38633,"reserved":0,"last_update":"0001-01-01T00:00:00Z","name_a2s":"","protocol":0,"map":"","folder":"","game":"","app_id":0,"player_count":0,"max_players":0,"Bots":0,"server_type":"","server_os":"","password":false,"vac":false,"version":"","steam_id":0,"keywords":null,"game_id":0,"stv_port":0,"stv_name":"","players":null},{"server_id":400,"name":"Uncletopia | Atlanta | 3 | All Maps","name_short":"atl-3","host":"atl-1.us.uncletopia.com","port":27035,"enabled":true,"region":"us-east","cc":"us","latitude":33.753746,"longitude":-84.38633,"reserved":0,"last_update":"0001-01-01T00:00:00Z","name_a2s":"","protocol":0,"map":"","folder":"","game":"","app_id":0,"player_count":0,"max_players":0,"Bots":0,"server_type":"","server_os":"","password":false,"vac":false,"version":"","steam_id":0,"keywords":null,"game_id":0,"stv_port":0,"stv_name":"","players":null},{"server_id":401,"name":"Uncletopia | Atlanta | 4 | Community","name_short":"atl-4","host":"atl-1.us.uncletopia.com","port":27045,"enabled":true,"region":"us-east","cc":"us","latitude":33.753746,"longitude":-84.38633,"reserved":0,"last_update":"0001-01-01T00:00:00Z","name_a2s":"","protocol":0,"map":"","folder":"","game":"","app_id":0,"player_count":0,"max_players":0,"Bots":0,"server_type":"","server_os":"","password":false,"vac":false,"version":"","steam_id":0,"keywords":null,"game_id":0,"stv_port":0,"stv_name":"","players":null},{"server_id":2,"name":"Uncletopia | Chicago | 1 | All Maps","name_short":"chi-1","host":"chi-1.us.uncletopia.com","port":27015,"enabled":true,"region":"us-central","cc":"us","latitude":41.881832,"longitude":-87.62318,"reserved":0,"last_update":"0001-01-01T00:00:00Z","name_a2s":"Uncletopia | Chicago | 1 | All Maps","protocol":17,"map":"koth_king","folder":"tf","game":"Team Fortress","app_id":440,"player_count":22,"max_players":24,"Bots":0,"server_type":"Dedicated","server_os":"Linux","password":true,"vac":true,"version":"7961495","steam_id":85568392924469984,"keywords":["cp","nocrits","nodmgspread","uncletopia"],"game_id":440,"stv_port":27016,"stv_name":"Uncletopia | Chicago | 1 | All Maps | STV","players":[{"user_id":508,"name":"igotmail","steam_id":76561198070631899,"connected_time":7000000000,"state":"active","ping":170},{"user_id":495,"name":"CaptinBrown","steam_id":76561198127709638,"connected_time":1250000000000,"state":"active","ping":81},{"user_id":498,"name":"Raz","steam_id":76561198002426150,"connected_time":1128000000000,"state":"active","ping":70},{"user_id":480,"name":"Killerkarate","steam_id":76561198067533929,"connected_time":1662000000000,"state":"active","ping":54},{"user_id":454,"name":"Big Business","steam_id":76561198353366625,"connected_time":4076000000000,"state":"active","ping":74},{"user_id":475,"name":"Oddball","steam_id":76561198040440984,"connected_time":1887000000000,"state":"active","ping":93},{"user_id":478,"name":"slep.py","steam_id":76561197988287144,"connected_time":1684000000000,"state":"active","ping":38},{"user_id":449,"name":"Big Herald","steam_id":76561198148859930,"connected_time":4432000000000,"state":"active","ping":55},{"user_id":504,"name":"Joe Family guy","steam_id":76561198065327106,"connected_time":381000000000,"state":"active","ping":74},{"user_id":500,"name":"Glue Gulper","steam_id":76561198158014525,"connected_time":1079000000000,"state":"active","ping":55},{"user_id":507,"name":"LeadHickory","steam_id":76561198219756521,"connected_time":18000000000,"state":"spawning","ping":97},{"user_id":493,"name":"ChickenManPhil","steam_id":76561199139508332,"connected_time":1336000000000,"state":"active","ping":72},{"user_id":446,"name":"blob","steam_id":76561198122375328,"connected_time":4662000000000,"state":"active","ping":59},{"user_id":501,"name":"Doctor Emerald(real)","steam_id":76561199123003872,"connected_time":696000000000,"state":"active","ping":93},{"user_id":503,"name":"SsaucySam","steam_id":76561198362539268,"connected_time":403000000000,"state":"active","ping":85},{"user_id":505,"name":"Sigiferd","steam_id":76561198148788110,"connected_time":100000000000,"state":"active","ping":120},{"user_id":494,"name":"AreYouMyMummy?","steam_id":76561197995101745,"connected_time":1329000000000,"state":"active","ping":60},{"user_id":506,"name":"Thatoneguybunchanumbers","steam_id":76561198028039160,"connected_time":98000000000,"state":"active","ping":77},{"user_id":491,"name":"AimBütter","steam_id":76561198060108739,"connected_time":1429000000000,"state":"active","ping":90},{"user_id":486,"name":"Eric Cartman","steam_id":76561198321468584,"connected_time":1583000000000,"state":"active","ping":58},{"user_id":417,"name":"Ras","steam_id":76561198123546775,"connected_time":7476000000000,"state":"active","ping":90},{"user_id":483,"name":"J.G. Klaus","steam_id":76561198001111196,"connected_time":1616000000000,"state":"active","ping":55}]},{"server_id":106,"name":"Uncletopia | Chicago | 2 | All Maps","name_short":"chi-2","host":"chi-1.us.uncletopia.com","port":27025,"enabled":true,"region":"us-central","cc":"us","latitude":41.881832,"longitude":-87.62318,"reserved":0,"last_update":"0001-01-01T00:00:00Z","name_a2s":"Uncletopia | Chicago | 2 | All Maps","protocol":17,"map":"pl_upward","folder":"tf","game":"Team Fortress","app_id":440,"player_count":24,"max_players":24,"Bots":0,"server_type":"Dedicated","server_os":"Linux","password":true,"vac":true,"version":"7961495","steam_id":85568392924469985,"keywords":["nocrits","nodmgspread","payload","uncletopia"],"game_id":440,"stv_port":27026,"stv_name":"Uncletopia | Chicago | 2 | All Maps | STV","players":[{"user_id":496,"name":"Kev","steam_id":76561198310880776,"connected_time":5047000000000,"state":"active","ping":74},{"user_id":563,"name":"Grilled Jizo","steam_id":76561199250875340,"connected_time":664000000000,"state":"active","ping":76},{"user_id":555,"name":"Pal","steam_id":76561198079657093,"connected_time":1369000000000,"state":"active","ping":63},{"user_id":570,"name":"The Grim Heaper","steam_id":76561197987759101,"connected_time":75000000000,"state":"active","ping":110},{"user_id":564,"name":"Number K","steam_id":76561199030987614,"connected_time":488000000000,"state":"active","ping":72},{"user_id":447,"name":"pele","steam_id":76561198021224745,"connected_time":7206000000000,"state":"active","ping":52},{"user_id":556,"name":"princess fern \u003c3333","steam_id":76561198881792140,"connected_time":1344000000000,"state":"active","ping":79},{"user_id":532,"name":"Kousei","steam_id":76561198080696289,"connected_time":2676000000000,"state":"active","ping":56},{"user_id":366,"name":"Obelisk","steam_id":76561198049416866,"connected_time":12535000000000,"state":"active","ping":86},{"user_id":565,"name":"hoot.","steam_id":76561198066876703,"connected_time":346000000000,"state":"active","ping":56},{"user_id":562,"name":"chuck","steam_id":76561198102300433,"connected_time":791000000000,"state":"active","ping":76},{"user_id":551,"name":"STEVE","steam_id":76561198063475894,"connected_time":1505000000000,"state":"active","ping":63},{"user_id":568,"name":"anonpain","steam_id":76561198081317092,"connected_time":95000000000,"state":"active","ping":56},{"user_id":537,"name":"Bee","steam_id":76561198074681324,"connected_time":2276000000000,"state":"active","ping":65},{"user_id":541,"name":"Rein","steam_id":76561198300340427,"connected_time":1879000000000,"state":"active","ping":62},{"user_id":560,"name":"glankinator","steam_id":76561198354077256,"connected_time":1122000000000,"state":"active","ping":46},{"user_id":538,"name":"thatguy_luigi","steam_id":76561198968055462,"connected_time":2262000000000,"state":"active","ping":130},{"user_id":554,"name":"Copter_Boy","steam_id":76561198322921312,"connected_time":1380000000000,"state":"active","ping":66},{"user_id":566,"name":"freedom staff","steam_id":76561199123218315,"connected_time":226000000000,"state":"active","ping":89},{"user_id":546,"name":"-π- BakaD","steam_id":76561197960559169,"connected_time":1764000000000,"state":"active","ping":59},{"user_id":521,"name":"MikeLovesRabbit","steam_id":76561197997742625,"connected_time":3403000000000,"state":"active","ping":66},{"user_id":557,"name":"JelloSniffer","steam_id":76561198142770733,"connected_time":1334000000000,"state":"active","ping":54},{"user_id":419,"name":"mika ultra","steam_id":76561198139802458,"connected_time":9179000000000,"state":"active","ping":69},{"user_id":571,"name":"IcyScrumpy","steam_id":76561198084605065,"connected_time":61000000000,"state":"active","ping":61}]},{"server_id":402,"name":"Uncletopia | Chicago | 3 | All Maps","name_short":"chi-3","host":"chi-1.us.uncletopia.com","port":27035,"enabled":true,"region":"us-central","cc":"us","latitude":41.881832,"longitude":-87.62318,"reserved":0,"last_update":"0001-01-01T00:00:00Z","name_a2s":"Uncletopia | Chicago | 3 | All Maps","protocol":17,"map":"cp_sunshine","folder":"tf","game":"Team Fortress","app_id":440,"player_count":24,"max_players":24,"Bots":0,"server_type":"Dedicated","server_os":"Linux","password":true,"vac":true,"version":"7961495","steam_id":85568392924515191,"keywords":["cp","nocrits","nodmgspread","uncletopia"],"game_id":440,"stv_port":27036,"stv_name":"Uncletopia | Chicago | 3 | All Maps | STV","players":[{"user_id":654,"name":"maS","steam_id":76561198033846407,"connected_time":1091000000000,"state":"active","ping":48},{"user_id":609,"name":"Medic Bag","steam_id":76561198403209900,"connected_time":3597000000000,"state":"active","ping":64},{"user_id":666,"name":"com lag","steam_id":76561198019019392,"connected_time":625000000000,"state":"active","ping":45},{"user_id":667,"name":"scrich scrich","steam_id":76561198123287268,"connected_time":545000000000,"state":"active","ping":47},{"user_id":614,"name":"Lightish Red","steam_id":76561198060879701,"connected_time":2914000000000,"state":"active","ping":46},{"user_id":615,"name":"BetoelAff es","steam_id":76561198377842585,"connected_time":2890000000000,"state":"active","ping":119},{"user_id":662,"name":"Blood Gal","steam_id":76561198850484924,"connected_time":786000000000,"state":"active","ping":45},{"user_id":661,"name":"I Like Cheese","steam_id":76561198006265659,"connected_time":807000000000,"state":"active","ping":70},{"user_id":670,"name":"Kelkith","steam_id":76561197985450422,"connected_time":478000000000,"state":"active","ping":115},{"user_id":647,"name":"NotHughesy","steam_id":76561198113064655,"connected_time":1342000000000,"state":"active","ping":59},{"user_id":608,"name":"Rodgedan","steam_id":76561198226236524,"connected_time":3604000000000,"state":"active","ping":84},{"user_id":671,"name":"robot","steam_id":76561198018691308,"connected_time":321000000000,"state":"active","ping":75},{"user_id":668,"name":"ZBaldTop","steam_id":76561199396318132,"connected_time":510000000000,"state":"active","ping":52},{"user_id":618,"name":"morsetime","steam_id":76561199116362348,"connected_time":2864000000000,"state":"active","ping":87},{"user_id":665,"name":"Cloud","steam_id":76561198954987128,"connected_time":655000000000,"state":"active","ping":72},{"user_id":672,"name":"Anti swag corporation","steam_id":76561199015453645,"connected_time":316000000000,"state":"active","ping":97},{"user_id":562,"name":"Season Leaf","steam_id":76561198133121805,"connected_time":6551000000000,"state":"active","ping":67},{"user_id":653,"name":"saucy jack","steam_id":76561198307012859,"connected_time":1112000000000,"state":"active","ping":63},{"user_id":659,"name":"big steve","steam_id":76561199037050183,"connected_time":982000000000,"state":"active","ping":118},{"user_id":674,"name":"Ceige (redemption arc)","steam_id":76561198068538473,"connected_time":147000000000,"state":"active","ping":79},{"user_id":657,"name":"Tired","steam_id":76561198072620682,"connected_time":1048000000000,"state":"active","ping":90},{"user_id":645,"name":"SackOfPotatoes","steam_id":76561198799020069,"connected_time":1714000000000,"state":"active","ping":83},{"user_id":669,"name":"Dr. Freeday, E.I.M.B","steam_id":76561198046870291,"connected_time":501000000000,"state":"active","ping":61},{"user_id":646,"name":"cozy","steam_id":76561199044037628,"connected_time":1713000000000,"state":"active","ping":77}]},{"server_id":403,"name":"Uncletopia | Chicago | 4 | All Maps","name_short":"chi-4","host":"chi-1.us.uncletopia.com","port":27045,"enabled":true,"region":"us-central","cc":"us","latitude":41.881832,"longitude":-87.62318,"reserved":0,"last_update":"0001-01-01T00:00:00Z","name_a2s":"Uncletopia | Chicago | 4 | All Maps","protocol":17,"map":"pl_hoodoo_final","folder":"tf","game":"Team Fortress","app_id":440,"player_count":24,"max_players":24,"Bots":0,"server_type":"Dedicated","server_os":"Linux","password":true,"vac":true,"version":"7961495","steam_id":85568392924515193,"keywords":["nocrits","nodmgspread","payload","uncletopia"],"game_id":440,"stv_port":27046,"stv_name":"Uncletopia | Chicago | 4 | All Maps | STV","players":[{"user_id":225,"name":"zzz","steam_id":76561198143727547,"connected_time":1985000000000,"state":"active","ping":96},{"user_id":227,"name":"x","steam_id":76561198013735714,"connected_time":1165000000000,"state":"active","ping":71},{"user_id":213,"name":"CyberZayne","steam_id":76561198002351356,"connected_time":2704000000000,"state":"active","ping":83},{"user_id":182,"name":"SafetyInstructor","steam_id":76561199195205705,"connected_time":4273000000000,"state":"active","ping":84},{"user_id":224,"name":"Wallem","steam_id":76561198052361822,"connected_time":2040000000000,"state":"active","ping":73},{"user_id":230,"name":"greg","steam_id":76561198113531917,"connected_time":1042000000000,"state":"active","ping":30},{"user_id":223,"name":"Toottoot","steam_id":76561197992404836,"connected_time":2128000000000,"state":"active","ping":47},{"user_id":231,"name":"fornite fredy22","steam_id":76561199446471680,"connected_time":1031000000000,"state":"active","ping":81},{"user_id":236,"name":"❤cookie \u0026 Milk❤","steam_id":76561198167488304,"connected_time":201000000000,"state":"active","ping":62},{"user_id":228,"name":"Fever Dreams","steam_id":76561198116614620,"connected_time":1164000000000,"state":"active","ping":71},{"user_id":184,"name":"FOX News goblin","steam_id":76561198167648580,"connected_time":4178000000000,"state":"active","ping":81},{"user_id":196,"name":"Stryder","steam_id":76561199387418697,"connected_time":3520000000000,"state":"active","ping":95},{"user_id":197,"name":"Toxic-Fluid","steam_id":76561198115530353,"connected_time":3517000000000,"state":"active","ping":70},{"user_id":237,"name":"asbestos","steam_id":76561198079178866,"connected_time":77000000000,"state":"active","ping":72},{"user_id":107,"name":"Irritated Duck","steam_id":76561198247792076,"connected_time":9330000000000,"state":"active","ping":140},{"user_id":207,"name":"ImpeachedPear","steam_id":76561199125565239,"connected_time":2876000000000,"state":"active","ping":81},{"user_id":218,"name":"TarrDashie","steam_id":76561198079507614,"connected_time":2205000000000,"state":"active","ping":106},{"user_id":216,"name":"Retro","steam_id":76561198414744723,"connected_time":2345000000000,"state":"active","ping":74},{"user_id":234,"name":"Gamering_funy","steam_id":76561199006503777,"connected_time":830000000000,"state":"active","ping":51},{"user_id":203,"name":"Apetometrist","steam_id":76561198045391635,"connected_time":3227000000000,"state":"active","ping":62},{"user_id":233,"name":"bonk","steam_id":76561198821774697,"connected_time":1003000000000,"state":"active","ping":41},{"user_id":226,"name":"Tay","steam_id":76561198059605568,"connected_time":1390000000000,"state":"active","ping":75},{"user_id":175,"name":"lexi","steam_id":76561198176299759,"connected_time":4897000000000,"state":"active","ping":86},{"user_id":229,"name":"Shad","steam_id":76561198353646485,"connected_time":1070000000000,"state":"active","ping":122}]},{"server_id":36,"name":"Uncletopia | Chicago | 5 | All Maps","name_short":"chi-5","host":"chi-2.us.uncletopia.com","port":27015,"enabled":true,"region":"us-central","cc":"us","latitude":41.881832,"longitude":-87.62318,"reserved":0,"last_update":"0001-01-01T00:00:00Z","name_a2s":"Uncletopia | Chicago | 5 | All Maps","protocol":17,"map":"pl_pier","folder":"tf","game":"Team Fortress","app_id":440,"player_count":24,"max_players":24,"Bots":0,"server_type":"Dedicated","server_os":"Linux","password":true,"vac":true,"version":"7961495","steam_id":85568392924866362,"keywords":["nocrits","nodmgspread","payload","uncletopia"],"game_id":440,"stv_port":27016,"stv_name":"Uncletopia | Chicago | 5 | All Maps | STV","players":[{"user_id":258,"name":"lyra","steam_id":76561198200002859,"connected_time":524000000000,"state":"active","ping":60},{"user_id":205,"name":"Space⭐Taffy","steam_id":76561198002271720,"connected_time":4200000000000,"state":"active","ping":59},{"user_id":259,"name":"Ninetees","steam_id":76561198119483989,"connected_time":429000000000,"state":"active","ping":79},{"user_id":250,"name":"CherryPieRed2023","steam_id":76561198998007496,"connected_time":839000000000,"state":"active","ping":109},{"user_id":264,"name":"Ventastega","steam_id":76561197999366317,"connected_time":128000000000,"state":"active","ping":88},{"user_id":231,"name":"cakgamin","steam_id":76561199088909749,"connected_time":1695000000000,"state":"active","ping":60},{"user_id":207,"name":"Lee?","steam_id":76561199060892634,"connected_time":4049000000000,"state":"active","ping":80},{"user_id":230,"name":"DuckMann","steam_id":76561198197058638,"connected_time":1706000000000,"state":"active","ping":61},{"user_id":248,"name":"Dark Lord","steam_id":76561198044199150,"connected_time":1015000000000,"state":"active","ping":88},{"user_id":260,"name":"aversa","steam_id":76561198840460101,"connected_time":402000000000,"state":"active","ping":72},{"user_id":220,"name":"Pizza","steam_id":76561198118748364,"connected_time":2950000000000,"state":"active","ping":81},{"user_id":214,"name":"Makina","steam_id":76561198057475567,"connected_time":3167000000000,"state":"active","ping":71},{"user_id":198,"name":"MeKaso TropStar","steam_id":76561199109895840,"connected_time":4568000000000,"state":"active","ping":70},{"user_id":245,"name":"Megumin","steam_id":76561198115278249,"connected_time":1210000000000,"state":"active","ping":86},{"user_id":181,"name":"K2f","steam_id":76561198049600563,"connected_time":5381000000000,"state":"active","ping":104},{"user_id":233,"name":"jerma enthusiast","steam_id":76561198359466264,"connected_time":1688000000000,"state":"active","ping":78},{"user_id":257,"name":"Rock005 Enjoyer","steam_id":76561198401455467,"connected_time":551000000000,"state":"active","ping":113},{"user_id":238,"name":"MrDudeMan","steam_id":76561198959351282,"connected_time":1567000000000,"state":"active","ping":72},{"user_id":265,"name":"Wan Shi Tong","steam_id":76561198076441225,"connected_time":120000000000,"state":"active","ping":67},{"user_id":254,"name":"haxxorman","steam_id":76561199155156400,"connected_time":682000000000,"state":"active","ping":66},{"user_id":234,"name":"Aquiles Baesta","steam_id":76561198081053203,"connected_time":1687000000000,"state":"active","ping":136},{"user_id":235,"name":"Peter Popoff","steam_id":76561198027171160,"connected_time":1683000000000,"state":"active","ping":42},{"user_id":239,"name":"ShofaX","steam_id":76561198199768014,"connected_time":1318000000000,"state":"active","ping":76},{"user_id":240,"name":"Maxxycat","steam_id":76561198194062681,"connected_time":1317000000000,"state":"active","ping":64}]},{"server_id":37,"name":"Uncletopia | Chicago | 6 | All Maps","name_short":"chi-6","host":"chi-2.us.uncletopia.com","port":27025,"enabled":true,"region":"us-central","cc":"us","latitude":41.881832,"longitude":-87.62318,"reserved":0,"last_update":"0001-01-01T00:00:00Z","name_a2s":"Uncletopia | Chicago | 6 | All Maps","protocol":17,"map":"pl_borneo","folder":"tf","game":"Team Fortress","app_id":440,"player_count":24,"max_players":24,"Bots":0,"server_type":"Dedicated","server_os":"Linux","password":true,"vac":true,"version":"7961495","steam_id":85568392924866363,"keywords":["nocrits","nodmgspread","payload","uncletopia"],"game_id":440,"stv_port":27026,"stv_name":"Uncletopia | Chicago | 6 | All Maps | STV","players":[{"user_id":182,"name":"Kzjytsugn","steam_id":76561198130241974,"connected_time":106000000000,"state":"active","ping":80},{"user_id":183,"name":"Rappitor","steam_id":76561198105613110,"connected_time":95000000000,"state":"active","ping":59},{"user_id":181,"name":"Full Throttle Axolotl","steam_id":76561198041836477,"connected_time":113000000000,"state":"active","ping":74},{"user_id":184,"name":"cfs._","steam_id":76561198052978969,"connected_time":86000000000,"state":"active","ping":60},{"user_id":145,"name":"Baannaannaa","steam_id":76561198042895194,"connected_time":1863000000000,"state":"active","ping":80},{"user_id":163,"name":"Stranger in a Strange Land","steam_id":76561198049843671,"connected_time":1140000000000,"state":"active","ping":61},{"user_id":185,"name":"Four_My_Penguin","steam_id":76561198311305251,"connected_time":83000000000,"state":"active","ping":60},{"user_id":177,"name":"gary","steam_id":76561198140226890,"connected_time":810000000000,"state":"active","ping":64},{"user_id":78,"name":"ShawnLmao","steam_id":76561198350691501,"connected_time":6723000000000,"state":"active","ping":89},{"user_id":174,"name":"Nyle","steam_id":76561198045652639,"connected_time":886000000000,"state":"active","ping":130},{"user_id":62,"name":"Tri-Dot","steam_id":76561199075186597,"connected_time":8120000000000,"state":"active","ping":58},{"user_id":90,"name":"Nexus","steam_id":76561198305472434,"connected_time":5934000000000,"state":"active","ping":111},{"user_id":162,"name":"Frog On The Floor","steam_id":76561198870349289,"connected_time":1162000000000,"state":"active","ping":87},{"user_id":165,"name":"--_Cook_--","steam_id":76561198080855748,"connected_time":1075000000000,"state":"active","ping":47},{"user_id":88,"name":"Veketzin","steam_id":76561198880024812,"connected_time":5944000000000,"state":"active","ping":90},{"user_id":186,"name":"Ursus Ludius","steam_id":76561198025470722,"connected_time":70000000000,"state":"active","ping":91},{"user_id":128,"name":"notdoxed","steam_id":76561197992591404,"connected_time":2598000000000,"state":"active","ping":51},{"user_id":169,"name":"Shady Businessman","steam_id":76561198143855968,"connected_time":985000000000,"state":"active","ping":87},{"user_id":178,"name":"John","steam_id":76561199116357427,"connected_time":654000000000,"state":"active","ping":115},{"user_id":154,"name":"creal","steam_id":76561198127116199,"connected_time":1469000000000,"state":"active","ping":55},{"user_id":167,"name":"jooce box","steam_id":76561198162717644,"connected_time":1053000000000,"state":"active","ping":108},{"user_id":179,"name":"Tommy Pickles (Very Cool)","steam_id":76561198391261463,"connected_time":280000000000,"state":"active","ping":68},{"user_id":170,"name":"An Erect Penis :)","steam_id":76561198086477485,"connected_time":959000000000,"state":"active","ping":41},{"user_id":176,"name":"_--Baker--_","steam_id":76561198401495362,"connected_time":829000000000,"state":"active","ping":71}]},{"server_id":38,"name":"Uncletopia | Chicago | 7 | Stopwatch Beta","name_short":"chi-7","host":"chi-2.us.uncletopia.com","port":27035,"enabled":true,"region":"us-central","cc":"us","latitude":41.881832,"longitude":-87.62318,"reserved":0,"last_update":"0001-01-01T00:00:00Z","name_a2s":"Uncletopia | Chicago | 7 | Stopwatch Beta","protocol":17,"map":"pl_badwater","folder":"tf","game":"Team Fortress","app_id":440,"player_count":0,"max_players":24,"Bots":0,"server_type":"Dedicated","server_os":"Linux","password":true,"vac":true,"version":"7961495","steam_id":85568392924866364,"keywords":["nocrits","nodmgspread","payload","uncletopia"],"game_id":440,"stv_port":27036,"stv_name":"Uncletopia | Chicago | 7 | Stopwatch Beta | STV","players":null},{"server_id":39,"name":"Uncletopia | Chicago | 8 | Community","name_short":"chi-8","host":"chi-2.us.uncletopia.com","port":27045,"enabled":true,"region":"us-central","cc":"us","latitude":41.881832,"longitude":-87.62318,"reserved":0,"last_update":"0001-01-01T00:00:00Z","name_a2s":"Uncletopia | Chicago | 8 | Community","protocol":17,"map":"workshop/cp_indulge.ugc528106646","folder":"tf","game":"Team Fortress","app_id":440,"player_count":24,"max_players":24,"Bots":0,"server_type":"Dedicated","server_os":"Linux","password":true,"vac":true,"version":"7961495","steam_id":85568392924866365,"keywords":["cp","nocrits","nodmgspread","uncletopia"],"game_id":440,"stv_port":27046,"stv_name":"Uncletopia | Chicago | 8 | Community | STV","players":[{"user_id":189,"name":"canofspaghettios","steam_id":76561198124204246,"connected_time":128000000000,"state":"active","ping":59},{"user_id":112,"name":"dweamy","steam_id":76561198119181880,"connected_time":5187000000000,"state":"active","ping":60},{"user_id":126,"name":"green bean","steam_id":76561198113099204,"connected_time":4158000000000,"state":"active","ping":89},{"user_id":171,"name":"ARP 2600","steam_id":76561198103192069,"connected_time":802000000000,"state":"active","ping":61},{"user_id":177,"name":"comfy","steam_id":76561198258640604,"connected_time":429000000000,"state":"active","ping":86},{"user_id":133,"name":"Alunatic14","steam_id":76561198309321593,"connected_time":3160000000000,"state":"active","ping":89},{"user_id":178,"name":"ice lamb (dunk)","steam_id":76561198260329055,"connected_time":428000000000,"state":"active","ping":89},{"user_id":137,"name":".jpg","steam_id":76561198137237377,"connected_time":3022000000000,"state":"active","ping":100},{"user_id":99,"name":"HatCrafter27","steam_id":76561198043110064,"connected_time":6239000000000,"state":"active","ping":73},{"user_id":191,"name":"Yup","steam_id":76561198847690613,"connected_time":105000000000,"state":"active","ping":69},{"user_id":181,"name":"Hideo","steam_id":76561198390777019,"connected_time":394000000000,"state":"active","ping":99},{"user_id":164,"name":"Tasteful Thickness","steam_id":76561198013901134,"connected_time":1178000000000,"state":"active","ping":75},{"user_id":157,"name":"Ejaculation Zach","steam_id":76561198203765200,"connected_time":1457000000000,"state":"active","ping":60},{"user_id":176,"name":"Trace","steam_id":76561198009486000,"connected_time":650000000000,"state":"active","ping":85},{"user_id":129,"name":"Naffty","steam_id":76561198119734981,"connected_time":3659000000000,"state":"active","ping":102},{"user_id":173,"name":"0ff","steam_id":76561199115773908,"connected_time":710000000000,"state":"active","ping":63},{"user_id":192,"name":"Laogh Marbh","steam_id":76561198115240256,"connected_time":39000000000,"state":"active","ping":59},{"user_id":144,"name":"the rizzard","steam_id":76561198431594430,"connected_time":2327000000000,"state":"active","ping":60},{"user_id":187,"name":"Flyp","steam_id":76561198066104509,"connected_time":274000000000,"state":"active","ping":69},{"user_id":143,"name":"the rizzler","steam_id":76561198012917426,"connected_time":2439000000000,"state":"active","ping":70},{"user_id":163,"name":"The Gunch","steam_id":76561198421107500,"connected_time":1242000000000,"state":"active","ping":59},{"user_id":150,"name":"Bartisfunny64","steam_id":76561199031813278,"connected_time":2048000000000,"state":"active","ping":60},{"user_id":174,"name":"| L O S T |","steam_id":76561198062620333,"connected_time":703000000000,"state":"active","ping":77},{"user_id":184,"name":"Zom","steam_id":76561199293877898,"connected_time":363000000000,"state":"active","ping":71}]},{"server_id":8,"name":"Uncletopia | Dallas | 1 | All Maps","name_short":"dal-1","host":"dal-1.us.uncletopia.com","port":27015,"enabled":true,"region":"us-central","cc":"us","latitude":32.779167,"longitude":-96.80889,"reserved":0,"last_update":"0001-01-01T00:00:00Z","name_a2s":"Uncletopia | Dallas | 1 | All Maps","protocol":17,"map":"cp_steel","folder":"tf","game":"Team Fortress","app_id":440,"player_count":24,"max_players":24,"Bots":0,"server_type":"Dedicated","server_os":"Linux","password":true,"vac":true,"version":"7961495","steam_id":85568392924469986,"keywords":["cp","nocrits","nodmgspread","uncletopia"],"game_id":440,"stv_port":27016,"stv_name":"Uncletopia | Dallas | 1 | All Maps | STV","players":[{"user_id":318,"name":"banana gaming","steam_id":76561198334907218,"connected_time":2705000000000,"state":"active","ping":75},{"user_id":317,"name":"TechnoBear2099","steam_id":76561198238863596,"connected_time":2723000000000,"state":"active","ping":46},{"user_id":339,"name":"Bird","steam_id":76561198061274314,"connected_time":991000000000,"state":"active","ping":92},{"user_id":310,"name":"call of duty","steam_id":76561198279680400,"connected_time":3470000000000,"state":"active","ping":51},{"user_id":333,"name":"Anon","steam_id":76561198109740776,"connected_time":1324000000000,"state":"active","ping":97},{"user_id":343,"name":"Bacon","steam_id":76561199078407152,"connected_time":588000000000,"state":"active","ping":84},{"user_id":323,"name":"Mer","steam_id":76561198192171041,"connected_time":2035000000000,"state":"active","ping":129},{"user_id":331,"name":"LampMan","steam_id":76561198079857527,"connected_time":1380000000000,"state":"active","ping":55},{"user_id":341,"name":"basilberry","steam_id":76561198145275937,"connected_time":864000000000,"state":"active","ping":65},{"user_id":325,"name":"Glaceon","steam_id":76561198177715869,"connected_time":1569000000000,"state":"active","ping":69},{"user_id":329,"name":"TOKENLIZARD","steam_id":76561198218765205,"connected_time":1526000000000,"state":"active","ping":61},{"user_id":327,"name":"Buddha","steam_id":76561198068969202,"connected_time":1547000000000,"state":"active","ping":95},{"user_id":340,"name":"Dreamzapp","steam_id":76561199084936632,"connected_time":874000000000,"state":"active","ping":89},{"user_id":307,"name":"Legless Amphibian","steam_id":76561198880476222,"connected_time":4087000000000,"state":"active","ping":55},{"user_id":315,"name":"SuppressedBarrel","steam_id":76561198032336504,"connected_time":3197000000000,"state":"active","ping":44},{"user_id":332,"name":"Limpin","steam_id":76561198127695985,"connected_time":1373000000000,"state":"active","ping":90},{"user_id":286,"name":"flippercurve","steam_id":76561199238295034,"connected_time":6039000000000,"state":"active","ping":74},{"user_id":314,"name":"Cereal","steam_id":76561198128418112,"connected_time":3256000000000,"state":"active","ping":84},{"user_id":277,"name":"FanaticSalt","steam_id":76561199380123059,"connected_time":6672000000000,"state":"active","ping":47},{"user_id":337,"name":"MysteryLemur","steam_id":76561198083412688,"connected_time":1186000000000,"state":"active","ping":130},{"user_id":344,"name":"Mellou","steam_id":76561198212048740,"connected_time":409000000000,"state":"active","ping":107},{"user_id":330,"name":"Skinny pete","steam_id":76561198801608576,"connected_time":1510000000000,"state":"active","ping":53},{"user_id":335,"name":"Antwan","steam_id":76561198246200638,"connected_time":1291000000000,"state":"active","ping":44},{"user_id":338,"name":"PROFILE NAME","steam_id":76561199438851854,"connected_time":1162000000000,"state":"active","ping":116}]},{"server_id":108,"name":"Uncletopia | Dallas | 2 | All Maps","name_short":"dal-2","host":"dal-1.us.uncletopia.com","port":27025,"enabled":true,"region":"us-central","cc":"us","latitude":32.779167,"longitude":-96.80889,"reserved":0,"last_update":"0001-01-01T00:00:00Z","name_a2s":"Uncletopia | Dallas | 2 | All Maps","protocol":17,"map":"cp_mountainlab","folder":"tf","game":"Team Fortress","app_id":440,"player_count":23,"max_players":24,"Bots":0,"server_type":"Dedicated","server_os":"Linux","password":true,"vac":true,"version":"7961495","steam_id":85568392924469988,"keywords":["cp","nocrits","nodmgspread","uncletopia"],"game_id":440,"stv_port":27026,"stv_name":"Uncletopia | Dallas | 2 | All Maps | STV","players":[{"user_id":242,"name":"2JZ_","steam_id":76561198064027289,"connected_time":1208000000000,"state":"active","ping":69},{"user_id":235,"name":"Noble Sax","steam_id":76561198183283495,"connected_time":1635000000000,"state":"active","ping":62},{"user_id":248,"name":"Super Bullshit Man","steam_id":76561198102416507,"connected_time":441000000000,"state":"active","ping":98},{"user_id":254,"name":"DestroyLonely(she/her)","steam_id":76561199133082806,"connected_time":44000000000,"state":"active","ping":77},{"user_id":231,"name":"My weiner brokeded :(  trade.tf","steam_id":76561198276385778,"connected_time":1875000000000,"state":"active","ping":90},{"user_id":220,"name":"SoldMyKidneyForCollege","steam_id":76561198096329559,"connected_time":2169000000000,"state":"active","ping":79},{"user_id":253,"name":"Maks","steam_id":76561199102485379,"connected_time":84000000000,"state":"active","ping":106},{"user_id":238,"name":"tesagi","steam_id":76561198026664629,"connected_time":1336000000000,"state":"active","ping":63},{"user_id":198,"name":"DMM","steam_id":76561198065426171,"connected_time":5131000000000,"state":"active","ping":46},{"user_id":223,"name":"Acid-talon","steam_id":76561198039545578,"connected_time":2122000000000,"state":"active","ping":86},{"user_id":236,"name":"IlTrashPanda","steam_id":76561198447864095,"connected_time":1407000000000,"state":"active","ping":56},{"user_id":224,"name":"Silly Shark","steam_id":76561198130714378,"connected_time":2112000000000,"state":"active","ping":114},{"user_id":210,"name":"D.E.O","steam_id":76561198096992957,"connected_time":3139000000000,"state":"active","ping":127},{"user_id":225,"name":"dave","steam_id":76561198135961731,"connected_time":2111000000000,"state":"active","ping":62},{"user_id":191,"name":"squirtle","steam_id":76561198211451045,"connected_time":5534000000000,"state":"active","ping":82},{"user_id":239,"name":"Subby Trans GF","steam_id":76561198096221632,"connected_time":1314000000000,"state":"active","ping":60},{"user_id":251,"name":"LaserDog","steam_id":76561199088111891,"connected_time":194000000000,"state":"active","ping":65},{"user_id":229,"name":"LittleFieryOne","steam_id":76561198107463724,"connected_time":1981000000000,"state":"active","ping":82},{"user_id":250,"name":"Redkiller","steam_id":76561199453655288,"connected_time":304000000000,"state":"active","ping":94},{"user_id":244,"name":"SKW14","steam_id":76561198215425735,"connected_time":966000000000,"state":"active","ping":69},{"user_id":246,"name":"mkl","steam_id":76561197986401685,"connected_time":584000000000,"state":"active","ping":69},{"user_id":256,"name":"Heren","steam_id":76561198339110269,"connected_time":32000000000,"state":"active","ping":85},{"user_id":257,"name":"hash","steam_id":76561198058516339,"connected_time":29000000000,"state":"active","ping":151}]},{"server_id":404,"name":"Uncletopia | Dallas | 3 | All Maps","name_short":"dal-3","host":"dal-1.us.uncletopia.com","port":27035,"enabled":true,"region":"us-central","cc":"us","latitude":32.779167,"longitude":-96.80889,"reserved":0,"last_update":"0001-01-01T00:00:00Z","name_a2s":"Uncletopia | Dallas | 3 | All Maps","protocol":17,"map":"pl_badwater","folder":"tf","game":"Team Fortress","app_id":440,"player_count":17,"max_players":24,"Bots":0,"server_type":"Dedicated","server_os":"Linux","password":true,"vac":true,"version":"7961495","steam_id":85568392924515219,"keywords":["nocrits","nodmgspread","payload","uncletopia"],"game_id":440,"stv_port":27036,"stv_name":"Uncletopia | Dallas | 3 | All Maps | STV","players":[{"user_id":326,"name":"Wahooka","steam_id":76561197962240925,"connected_time":749000000000,"state":"active","ping":68},{"user_id":324,"name":"Shneebly","steam_id":76561198046654391,"connected_time":829000000000,"state":"active","ping":65},{"user_id":343,"name":"Ron Paul Sex Cataclysm 2006","steam_id":76561198070694178,"connected_time":73000000000,"state":"active","ping":86},{"user_id":334,"name":"happy man!!! :D!!!!","steam_id":76561198128468316,"connected_time":644000000000,"state":"active","ping":81},{"user_id":344,"name":"Freddi Fish owes me $5","steam_id":76561198112705880,"connected_time":21000000000,"state":"spawning","ping":83},{"user_id":336,"name":"Jae","steam_id":76561198060026844,"connected_time":609000000000,"state":"active","ping":60},{"user_id":340,"name":"codeine demon","steam_id":76561198051015496,"connected_time":346000000000,"state":"active","ping":84},{"user_id":337,"name":"LordKirby","steam_id":76561198006938286,"connected_time":579000000000,"state":"active","ping":89},{"user_id":345,"name":"Primatix","steam_id":76561198449103812,"connected_time":21000000000,"state":"spawning","ping":107},{"user_id":346,"name":"Bheem","steam_id":76561198170453459,"connected_time":9000000000,"state":"active","ping":127},{"user_id":347,"name":"nae nae goblin68","steam_id":76561199115259028,"connected_time":0,"state":"spawning","ping":33},{"user_id":329,"name":"Bob's your Uncle","steam_id":76561197995230744,"connected_time":730000000000,"state":"active","ping":91},{"user_id":330,"name":"bookreader","steam_id":76561198978568007,"connected_time":726000000000,"state":"active","ping":88},{"user_id":331,"name":"Syncronym","steam_id":76561198059808982,"connected_time":713000000000,"state":"active","ping":60},{"user_id":332,"name":"Starfruit66","steam_id":76561198069917277,"connected_time":695000000000,"state":"active","ping":75},{"user_id":287,"name":"Da Policia","steam_id":76561198012762789,"connected_time":3832000000000,"state":"active","ping":45},{"user_id":288,"name":"Ginger Jesus","steam_id":76561198052386458,"connected_time":3821000000000,"state":"active","ping":77}]},{"server_id":405,"name":"Uncletopia | Dallas | 4 | Community","name_short":"dal-4","host":"dal-1.us.uncletopia.com","port":27045,"enabled":true,"region":"us-central","cc":"us","latitude":32.779167,"longitude":-96.80889,"reserved":0,"last_update":"0001-01-01T00:00:00Z","name_a2s":"Uncletopia | Dallas | 4 | Community","protocol":17,"map":"workshop/cp_snowbase_b18.ugc2081770490","folder":"tf","game":"Team Fortress","app_id":440,"player_count":0,"max_players":24,"Bots":0,"server_type":"Dedicated","server_os":"Linux","password":true,"vac":true,"version":"7961495","steam_id":85568392924515220,"keywords":["cp","nocrits","nodmgspread","uncletopia"],"game_id":440,"stv_port":27046,"stv_name":"Uncletopia | Dallas | 4 | Community | STV","players":null},{"server_id":5,"name":"Uncletopia | Frankfurt | 1 | All Maps","name_short":"frk-1","host":"frk-1.de.uncletopia.com","port":27015,"enabled":true,"region":"eu","cc":"de","latitude":50.110924,"longitude":8.682127,"reserved":0,"last_update":"0001-01-01T00:00:00Z","name_a2s":"Uncletopia | Frankfurt | 1 | All Maps","protocol":17,"map":"pl_badwater","folder":"tf","game":"Team Fortress","app_id":440,"player_count":0,"max_players":24,"Bots":0,"server_type":"Dedicated","server_os":"Linux","password":true,"vac":true,"version":"7961495","steam_id":85568392924469989,"keywords":["nocrits","nodmgspread","payload","uncletopia"],"game_id":440,"stv_port":27016,"stv_name":"Uncletopia | Frankfurt | 1 | All Maps | STV","players":null},{"server_id":110,"name":"Uncletopia | Frankfurt | 2 | All Maps","name_short":"frk-2","host":"frk-1.de.uncletopia.com","port":27025,"enabled":true,"region":"eu","cc":"de","latitude":50.110924,"longitude":8.682127,"reserved":0,"last_update":"0001-01-01T00:00:00Z","name_a2s":"Uncletopia | Frankfurt | 2 | All Maps","protocol":17,"map":"koth_lakeside_final","folder":"tf","game":"Team Fortress","app_id":440,"player_count":0,"max_players":24,"Bots":0,"server_type":"Dedicated","server_os":"Linux","password":true,"vac":true,"version":"7961495","steam_id":85568392924469990,"keywords":["cp","nocrits","nodmgspread","uncletopia"],"game_id":440,"stv_port":27026,"stv_name":"Uncletopia | Frankfurt | 2 | All Maps | STV","players":null},{"server_id":308,"name":"Uncletopia | Frankfurt | 3 | All Maps","name_short":"frk-3","host":"frk-1.de.uncletopia.com","port":27035,"enabled":true,"region":"eu","cc":"de","latitude":50.110924,"longitude":8.682127,"reserved":0,"last_update":"0001-01-01T00:00:00Z","name_a2s":"Uncletopia | Frankfurt | 3 | All Maps","protocol":17,"map":"cp_sunshine","folder":"tf","game":"Team Fortress","app_id":440,"player_count":0,"max_players":24,"Bots":0,"server_type":"Dedicated","server_os":"Linux","password":true,"vac":true,"version":"7961495","steam_id":85568392924504274,"keywords":["cp","nocrits","nodmgspread","uncletopia"],"game_id":440,"stv_port":27036,"stv_name":"Uncletopia | Frankfurt | 3 | All Maps | STV","players":null},{"server_id":309,"name":"Uncletopia | Frankfurt | 4 | All Maps","name_short":"frk-4","host":"frk-1.de.uncletopia.com","port":27045,"enabled":true,"region":"eu","cc":"de","latitude":50.110924,"longitude":8.682127,"reserved":0,"last_update":"0001-01-01T00:00:00Z","name_a2s":"Uncletopia | Frankfurt | 4 | All Maps","protocol":17,"map":"cp_altitude","folder":"tf","game":"Team Fortress","app_id":440,"player_count":0,"max_players":24,"Bots":0,"server_type":"Dedicated","server_os":"Linux","password":true,"vac":true,"version":"7961495","steam_id":85568392924504275,"keywords":["cp","nocrits","nodmgspread","uncletopia"],"game_id":440,"stv_port":27046,"stv_name":"Uncletopia | Frankfurt | 4 | All Maps | STV","players":null},{"server_id":310,"name":"Uncletopia | Frankfurt | 5 | All Maps","name_short":"frk-5","host":"frk-1.de.uncletopia.com","port":27055,"enabled":true,"region":"eu","cc":"de","latitude":50.110924,"longitude":8.682127,"reserved":0,"last_update":"0001-01-01T00:00:00Z","name_a2s":"Uncletopia | Frankfurt | 5 | All Maps","protocol":17,"map":"cp_process_final","folder":"tf","game":"Team Fortress","app_id":440,"player_count":0,"max_players":24,"Bots":0,"server_type":"Dedicated","server_os":"Linux","password":true,"vac":true,"version":"7961495","steam_id":85568392924504277,"keywords":["cp","nocrits","nodmgspread","uncletopia"],"game_id":440,"stv_port":27056,"stv_name":"Uncletopia | Frankfurt | 5 | All Maps | STV","players":null},{"server_id":311,"name":"Uncletopia | Frankfurt | 6 | All Maps","name_short":"frk-6","host":"frk-1.de.uncletopia.com","port":27065,"enabled":true,"region":"eu","cc":"de","latitude":50.110924,"longitude":8.682127,"reserved":0,"last_update":"0001-01-01T00:00:00Z","name_a2s":"Uncletopia | Frankfurt | 6 | All Maps","protocol":17,"map":"pl_barnblitz","folder":"tf","game":"Team Fortress","app_id":440,"player_count":0,"max_players":24,"Bots":0,"server_type":"Dedicated","server_os":"Linux","password":true,"vac":true,"version":"7961495","steam_id":85568392924504278,"keywords":["nocrits","nodmgspread","payload","uncletopia"],"game_id":440,"stv_port":27066,"stv_name":"Uncletopia | Frankfurt | 6 | All Maps | STV","players":null},{"server_id":23,"name":"Uncletopia | Frankfurt | 7 | Stopwatch Beta","name_short":"frk-7","host":"frk-1.de.uncletopia.com","port":27075,"enabled":true,"region":"eu","cc":"de","latitude":50.110924,"longitude":8.682127,"reserved":0,"last_update":"0001-01-01T00:00:00Z","name_a2s":"Uncletopia | Frankfurt | 7 | Stopwatch Beta","protocol":17,"map":"koth_cascade","folder":"tf","game":"Team Fortress","app_id":440,"player_count":0,"max_players":24,"Bots":0,"server_type":"Dedicated","server_os":"Linux","password":true,"vac":true,"version":"7961495","steam_id":85568392924742827,"keywords":["cp","nocrits","nodmgspread","uncletopia"],"game_id":440,"stv_port":27076,"stv_name":"Uncletopia | Frankfurt | 7 | Stopwatch Beta | STV","players":null},{"server_id":24,"name":"Uncletopia | Frankfurt | 8 | Community","name_short":"frk-8","host":"frk-1.de.uncletopia.com","port":27085,"enabled":true,"region":"eu","cc":"de","latitude":50.110924,"longitude":8.682127,"reserved":0,"last_update":"0001-01-01T00:00:00Z","name_a2s":"Uncletopia | Frankfurt | 8 | Community","protocol":17,"map":"cp_dustbowl","folder":"tf","game":"Team Fortress","app_id":440,"player_count":0,"max_players":24,"Bots":0,"server_type":"Dedicated","server_os":"Linux","password":true,"vac":true,"version":"7961495","steam_id":85568392924742828,"keywords":["cp","nocrits","nodmgspread","uncletopia"],"game_id":440,"stv_port":27086,"stv_name":"Uncletopia | Frankfurt | 8 | Community | STV","players":null},{"server_id":202,"name":"Uncletopia | Hong Kong | 1 | All Maps","name_short":"hgk-1","host":"hgk-1.hk.uncletopia.com","port":27015,"enabled":true,"region":"asia","cc":"hk","latitude":22.302711,"longitude":114.177216,"reserved":0,"last_update":"0001-01-01T00:00:00Z","name_a2s":"Uncletopia | Hong Kong | 1 | All Maps","protocol":17,"map":"koth_viaduct","folder":"tf","game":"Team Fortress","app_id":440,"player_count":0,"max_players":24,"Bots":0,"server_type":"Dedicated","server_os":"Linux","password":true,"vac":true,"version":"7961495","steam_id":85568392924494504,"keywords":["cp","nocrits","nodmgspread","uncletopia"],"game_id":440,"stv_port":27016,"stv_name":"Uncletopia | Hong Kong | 1 | All Maps | STV","players":null},{"server_id":1,"name":"Uncletopia | Los Angeles | 1 | All Maps","name_short":"lax-1","host":"lax-1.us.uncletopia.com","port":27015,"enabled":true,"region":"us-west","cc":"us","latitude":33.94279,"longitude":-118.41004,"reserved":0,"last_update":"0001-01-01T00:00:00Z","name_a2s":"Uncletopia | Los Angeles | 1 | All Maps","protocol":17,"map":"pl_upward","folder":"tf","game":"Team Fortress","app_id":440,"player_count":24,"max_players":24,"Bots":0,"server_type":"Dedicated","server_os":"Linux","password":true,"vac":true,"version":"7961495","steam_id":85568392924469991,"keywords":["nocrits","nodmgspread","payload","uncletopia"],"game_id":440,"stv_port":27016,"stv_name":"Uncletopia | Los Angeles | 1 | All Maps | STV","players":[{"user_id":299,"name":"ang","steam_id":76561198435151254,"connected_time":133000000000,"state":"active","ping":52},{"user_id":295,"name":"a_lilypup","steam_id":76561198163640324,"connected_time":240000000000,"state":"active","ping":50},{"user_id":272,"name":"Cael Thavain","steam_id":76561198136789464,"connected_time":2998000000000,"state":"active","ping":61},{"user_id":273,"name":"Skunk","steam_id":76561198132597265,"connected_time":2991000000000,"state":"active","ping":53},{"user_id":291,"name":"Reem0h","steam_id":76561198169848690,"connected_time":491000000000,"state":"active","ping":107},{"user_id":297,"name":"McSpazatron","steam_id":76561198955942148,"connected_time":175000000000,"state":"active","ping":85},{"user_id":288,"name":"TheGhostThatWas","steam_id":76561198055836483,"connected_time":1037000000000,"state":"active","ping":103},{"user_id":294,"name":"Wolfer","steam_id":76561198098153246,"connected_time":256000000000,"state":"active","ping":87},{"user_id":285,"name":"wheresgeorge","steam_id":76561198986281248,"connected_time":1932000000000,"state":"active","ping":107},{"user_id":235,"name":"Imnotnuggets","steam_id":76561198886670414,"connected_time":6509000000000,"state":"active","ping":72},{"user_id":298,"name":"blue","steam_id":76561198170224531,"connected_time":172000000000,"state":"active","ping":61},{"user_id":286,"name":"heavy","steam_id":76561199391478575,"connected_time":1552000000000,"state":"active","ping":98},{"user_id":254,"name":"Tmiracle","steam_id":76561198052375275,"connected_time":4621000000000,"state":"active","ping":47},{"user_id":287,"name":"Gerbias","steam_id":76561198001002427,"connected_time":1400000000000,"state":"active","ping":60},{"user_id":250,"name":"Mr Sir Logan","steam_id":76561198088803891,"connected_time":4946000000000,"state":"active","ping":60},{"user_id":267,"name":"Majin","steam_id":76561198198244701,"connected_time":3348000000000,"state":"active","ping":63},{"user_id":274,"name":"d4ngerd4n","steam_id":76561198043758735,"connected_time":2570000000000,"state":"active","ping":65},{"user_id":300,"name":"Menlymen","steam_id":76561198046508051,"connected_time":15000000000,"state":"active","ping":104},{"user_id":281,"name":"LUCIFER MORNINGSTAR FAN LOVE!","steam_id":76561198029305102,"connected_time":2000000000000,"state":"active","ping":71},{"user_id":263,"name":"TTV/ChadMorningWood","steam_id":76561198139832291,"connected_time":3969000000000,"state":"active","ping":50},{"user_id":296,"name":"Scout Player (Derogatory)","steam_id":76561198046526036,"connected_time":236000000000,"state":"active","ping":45},{"user_id":259,"name":"Hektur Salmondchonka","steam_id":76561198136982572,"connected_time":4187000000000,"state":"active","ping":91},{"user_id":171,"name":"Drive-By-Fish-Guy","steam_id":76561198105513652,"connected_time":10387000000000,"state":"active","ping":56},{"user_id":270,"name":"Lucas","steam_id":76561198399704604,"connected_time":3273000000000,"state":"active","ping":64}]},{"server_id":112,"name":"Uncletopia | Los Angeles | 2 | All Maps","name_short":"lax-2","host":"lax-1.us.uncletopia.com","port":27025,"enabled":true,"region":"us-west","cc":"us","latitude":33.94279,"longitude":-118.41004,"reserved":0,"last_update":"0001-01-01T00:00:00Z","name_a2s":"Uncletopia | Los Angeles | 2 | All Maps","protocol":17,"map":"koth_cascade","folder":"tf","game":"Team Fortress","app_id":440,"player_count":0,"max_players":24,"Bots":0,"server_type":"Dedicated","server_os":"Linux","password":true,"vac":true,"version":"7961495","steam_id":85568392924469992,"keywords":["cp","nocrits","nodmgspread","uncletopia"],"game_id":440,"stv_port":27026,"stv_name":"Uncletopia | Los Angeles | 2 | All Maps | STV","players":null},{"server_id":324,"name":"Uncletopia | Los Angeles | 3 | All Maps","name_short":"lax-3","host":"lax-1.us.uncletopia.com","port":27035,"enabled":true,"region":"us-west","cc":"us","latitude":33.94279,"longitude":-118.41004,"reserved":0,"last_update":"0001-01-01T00:00:00Z","name_a2s":"Uncletopia | Los Angeles | 3 | All Maps","protocol":17,"map":"pl_swiftwater_final1","folder":"tf","game":"Team Fortress","app_id":440,"player_count":0,"max_players":24,"Bots":0,"server_type":"Dedicated","server_os":"Linux","password":true,"vac":true,"version":"7961495","steam_id":85568392924510198,"keywords":["nocrits","nodmgspread","payload","uncletopia"],"game_id":440,"stv_port":27036,"stv_name":"Uncletopia | Los Angeles | 3 | All Maps | STV","players":null},{"server_id":25,"name":"Uncletopia | Los Angeles | 4 | Stopwatch Beta","name_short":"lax-4","host":"lax-1.us.uncletopia.com","port":27045,"enabled":true,"region":"us-west","cc":"us","latitude":33.94279,"longitude":-118.41004,"reserved":0,"last_update":"0001-01-01T00:00:00Z","name_a2s":"Uncletopia | Los Angeles | 4 | Stopwatch Beta","protocol":17,"map":"workshop/pl_vigil_rc9.ugc1266210012","folder":"tf","game":"Team Fortress","app_id":440,"player_count":0,"max_players":24,"Bots":0,"server_type":"Dedicated","server_os":"Linux","password":true,"vac":true,"version":"7961495","steam_id":85568392924510199,"keywords":["nocrits","nodmgspread","payload","uncletopia"],"game_id":440,"stv_port":27046,"stv_name":"Uncletopia | Los Angeles | 4 | Stopwatch Beta | STV","players":null},{"server_id":11,"name":"Uncletopia | London | 1 | All Maps","name_short":"lon-1","host":"lon-1.uk.uncletopia.com","port":27015,"enabled":true,"region":"eu","cc":"gb","latitude":51.509865,"longitude":-0.118092,"reserved":0,"last_update":"0001-01-01T00:00:00Z","name_a2s":"Uncletopia | London | 1 | All Maps","protocol":17,"map":"cp_coldfront","folder":"tf","game":"Team Fortress","app_id":440,"player_count":23,"max_players":24,"Bots":0,"server_type":"Dedicated","server_os":"Linux","password":true,"vac":true,"version":"7961495","steam_id":85568392924367362,"keywords":["cp","nocrits","nodmgspread","uncletopia"],"game_id":440,"stv_port":27016,"stv_name":"Uncletopia | London | 1 | All Maps | STV","players":[{"user_id":770,"name":"shooer!","steam_id":76561198110531281,"connected_time":147000000000,"state":"active","ping":67},{"user_id":758,"name":"modavak","steam_id":76561198946290908,"connected_time":707000000000,"state":"active","ping":98},{"user_id":750,"name":"Shynii","steam_id":76561198194682105,"connected_time":1277000000000,"state":"active","ping":59},{"user_id":742,"name":"Morseerman","steam_id":76561198040169391,"connected_time":1635000000000,"state":"active","ping":61},{"user_id":734,"name":"Evil Boss","steam_id":76561198096570937,"connected_time":3293000000000,"state":"active","ping":65},{"user_id":757,"name":"ted","steam_id":76561198119568042,"connected_time":752000000000,"state":"active","ping":49},{"user_id":762,"name":"spinning on uncletopia","steam_id":76561199233979726,"connected_time":612000000000,"state":"active","ping":93},{"user_id":748,"name":"Gnome561","steam_id":76561198183771141,"connected_time":1399000000000,"state":"active","ping":62},{"user_id":740,"name":"tobi ^︿^","steam_id":76561198023388785,"connected_time":2132000000000,"state":"active","ping":70},{"user_id":752,"name":"invis","steam_id":76561198120668070,"connected_time":1045000000000,"state":"active","ping":69},{"user_id":648,"name":"Saul Goodman","steam_id":76561199182988206,"connected_time":9155000000000,"state":"active","ping":87},{"user_id":768,"name":"t0ast","steam_id":76561198141722573,"connected_time":272000000000,"state":"active","ping":30},{"user_id":755,"name":"Bobirulez","steam_id":76561198009125458,"connected_time":938000000000,"state":"active","ping":75},{"user_id":741,"name":"Minimi","steam_id":76561198873850443,"connected_time":2053000000000,"state":"active","ping":44},{"user_id":769,"name":"Zwoz","steam_id":76561198221841968,"connected_time":271000000000,"state":"active","ping":67},{"user_id":749,"name":"19raic","steam_id":76561199093514786,"connected_time":1325000000000,"state":"active","ping":66},{"user_id":754,"name":"bird ideas","steam_id":76561199480942903,"connected_time":975000000000,"state":"active","ping":78},{"user_id":691,"name":"Slifer the Sky Dragon","steam_id":76561198062255803,"connected_time":6281000000000,"state":"active","ping":69},{"user_id":699,"name":"fifty hoes","steam_id":76561198097712283,"connected_time":5830000000000,"state":"active","ping":75},{"user_id":759,"name":"Stewie","steam_id":76561198112550403,"connected_time":694000000000,"state":"active","ping":59},{"user_id":756,"name":"caramelldancin'","steam_id":76561198193357946,"connected_time":927000000000,"state":"active","ping":107},{"user_id":767,"name":"Not Steven","steam_id":76561198051881261,"connected_time":296000000000,"state":"active","ping":40},{"user_id":729,"name":"hmscole09","steam_id":76561198811362788,"connected_time":3377000000000,"state":"active","ping":59}]},{"server_id":114,"name":"Uncletopia | London | 2 | All Maps","name_short":"lon-2","host":"lon-1.uk.uncletopia.com","port":27025,"enabled":true,"region":"eu","cc":"gb","latitude":51.509865,"longitude":-0.118092,"reserved":0,"last_update":"0001-01-01T00:00:00Z","name_a2s":"Uncletopia | London | 2 | All Maps","protocol":17,"map":"pl_snowycoast","folder":"tf","game":"Team Fortress","app_id":440,"player_count":0,"max_players":24,"Bots":0,"server_type":"Dedicated","server_os":"Linux","password":true,"vac":true,"version":"7961495","steam_id":85568392924470941,"keywords":["nocrits","nodmgspread","payload","uncletopia"],"game_id":440,"stv_port":27026,"stv_name":"Uncletopia | London | 2 | All Maps | STV","players":null},{"server_id":320,"name":"Uncletopia | London | 3 | All Maps","name_short":"lon-3","host":"lon-1.uk.uncletopia.com","port":27035,"enabled":true,"region":"eu","cc":"gb","latitude":51.509865,"longitude":-0.118092,"reserved":0,"last_update":"0001-01-01T00:00:00Z","name_a2s":"Uncletopia | London | 3 | All Maps","protocol":17,"map":"cp_well","folder":"tf","game":"Team Fortress","app_id":440,"player_count":0,"max_players":24,"Bots":0,"server_type":"Dedicated","server_os":"Linux","password":true,"vac":true,"version":"7961495","steam_id":85568392924510192,"keywords":["cp","nocrits","nodmgspread","uncletopia"],"game_id":440,"stv_port":27036,"stv_name":"Uncletopia | London | 3 | All Maps | STV","players":null},{"server_id":321,"name":"Uncletopia | London | 4 | All Maps","name_short":"lon-4","host":"lon-1.uk.uncletopia.com","port":27045,"enabled":true,"region":"eu","cc":"gb","latitude":51.509865,"longitude":-0.118092,"reserved":0,"last_update":"0001-01-01T00:00:00Z","name_a2s":"Uncletopia | London | 4 | All Maps","protocol":17,"map":"pl_borneo","folder":"tf","game":"Team Fortress","app_id":440,"player_count":22,"max_players":24,"Bots":0,"server_type":"Dedicated","server_os":"Linux","password":true,"vac":true,"version":"7961495","steam_id":85568392924510193,"keywords":["nocrits","nodmgspread","payload","uncletopia"],"game_id":440,"stv_port":27046,"stv_name":"Uncletopia | London | 4 | All Maps | STV","players":[{"user_id":630,"name":"VampWolfDoll (She/Her)","steam_id":76561198102301491,"connected_time":109000000000,"state":"active","ping":125},{"user_id":553,"name":"Kabachok Aeronavt","steam_id":76561198123659806,"connected_time":5379000000000,"state":"active","ping":93},{"user_id":604,"name":"Труп Володя","steam_id":76561198035718457,"connected_time":1203000000000,"state":"active","ping":92},{"user_id":631,"name":"Mr.B","steam_id":76561199204478925,"connected_time":91000000000,"state":"active","ping":110},{"user_id":605,"name":"Laryssa","steam_id":76561198271084076,"connected_time":1076000000000,"state":"active","ping":90},{"user_id":582,"name":"Traylie","steam_id":76561198050797796,"connected_time":3072000000000,"state":"active","ping":56},{"user_id":606,"name":"wG auto","steam_id":76561198062247888,"connected_time":1053000000000,"state":"active","ping":57},{"user_id":614,"name":"BU Baggead","steam_id":76561198852902827,"connected_time":615000000000,"state":"active","ping":137},{"user_id":619,"name":"my fault og","steam_id":76561198256811438,"connected_time":348000000000,"state":"active","ping":89},{"user_id":474,"name":"halow","steam_id":76561198061505163,"connected_time":10350000000000,"state":"active","ping":99},{"user_id":580,"name":"Littleyoshifan","steam_id":76561198445491045,"connected_time":3124000000000,"state":"active","ping":43},{"user_id":613,"name":"SmalecMaslo","steam_id":76561198094277425,"connected_time":663000000000,"state":"active","ping":86},{"user_id":621,"name":"You're gay (Complimentary)","steam_id":76561198130793160,"connected_time":272000000000,"state":"active","ping":45},{"user_id":601,"name":"eevee","steam_id":76561198447072392,"connected_time":1643000000000,"state":"active","ping":86},{"user_id":622,"name":"Hamst123","steam_id":76561198957312452,"connected_time":234000000000,"state":"active","ping":67},{"user_id":627,"name":"TEMZ","steam_id":76561198799288322,"connected_time":160000000000,"state":"active","ping":55},{"user_id":623,"name":"FOR DANMARK","steam_id":76561199380849468,"connected_time":218000000000,"state":"active","ping":63},{"user_id":624,"name":"Bill Carr","steam_id":76561198110033943,"connected_time":202000000000,"state":"active","ping":37},{"user_id":625,"name":"Dragioner","steam_id":76561198021172381,"connected_time":177000000000,"state":"active","ping":61},{"user_id":626,"name":"❤Kogu❤","steam_id":76561198062396512,"connected_time":175000000000,"state":"active","ping":136},{"user_id":632,"name":"SuntanPikachu","steam_id":76561198121242476,"connected_time":64000000000,"state":"active","ping":50},{"user_id":629,"name":"Tx_madmash","steam_id":76561198924656512,"connected_time":157000000000,"state":"active","ping":79}]},{"server_id":21,"name":"Uncletopia | London | 5 | All Maps","name_short":"lon-5","host":"lon-1.uk.uncletopia.com","port":27055,"enabled":true,"region":"eu","cc":"gb","latitude":51.509865,"longitude":-0.118092,"reserved":0,"last_update":"0001-01-01T00:00:00Z","name_a2s":"Uncletopia | London | 5 | All Maps","protocol":17,"map":"pl_upward","folder":"tf","game":"Team Fortress","app_id":440,"player_count":0,"max_players":24,"Bots":0,"server_type":"Dedicated","server_os":"Linux","password":true,"vac":true,"version":"7961495","steam_id":85568392924742829,"keywords":["nocrits","nodmgspread","payload","uncletopia"],"game_id":440,"stv_port":27056,"stv_name":"Uncletopia | London | 5 | All Maps | STV","players":null},{"server_id":22,"name":"Uncletopia | London | 6 | All Maps","name_short":"lon-6","host":"lon-1.uk.uncletopia.com","port":27065,"enabled":true,"region":"eu","cc":"gb","latitude":51.509865,"longitude":-0.118092,"reserved":0,"last_update":"0001-01-01T00:00:00Z","name_a2s":"Uncletopia | London | 6 | All Maps","protocol":17,"map":"pl_barnblitz","folder":"tf","game":"Team Fortress","app_id":440,"player_count":0,"max_players":24,"Bots":0,"server_type":"Dedicated","server_os":"Linux","password":true,"vac":true,"version":"7961495","steam_id":85568392924742830,"keywords":["nocrits","nodmgspread","payload","uncletopia"],"game_id":440,"stv_port":27066,"stv_name":"Uncletopia | London | 6 | All Maps | STV","players":null},{"server_id":40,"name":"Uncletopia | London | 7 | No Payload","name_short":"lon-7","host":"lon-1.uk.uncletopia.com","port":27075,"enabled":true,"region":"eu","cc":"gb","latitude":51.509865,"longitude":-0.118092,"reserved":0,"last_update":"0001-01-01T00:00:00Z","name_a2s":"Uncletopia | London | 7 | No Payload","protocol":17,"map":"cp_gullywash_final1","folder":"tf","game":"Team Fortress","app_id":440,"player_count":0,"max_players":24,"Bots":0,"server_type":"Dedicated","server_os":"Linux","password":true,"vac":true,"version":"7961495","steam_id":85568392924964314,"keywords":["cp","nocrits","nodmgspread","uncletopia"],"game_id":440,"stv_port":27076,"stv_name":"Uncletopia | London | 7 | No Payload | STV","players":null},{"server_id":41,"name":"Uncletopia | London | 8 | Community","name_short":"lon-8","host":"lon-1.uk.uncletopia.com","port":27085,"enabled":true,"region":"eu","cc":"gb","latitude":51.509865,"longitude":-0.118092,"reserved":0,"last_update":"0001-01-01T00:00:00Z","name_a2s":"Uncletopia | London | 8 | Community","protocol":17,"map":"workshop/pl_divulgence_b4b.ugc2884808746","folder":"tf","game":"Team Fortress","app_id":440,"player_count":0,"max_players":24,"Bots":0,"server_type":"Dedicated","server_os":"Linux","password":true,"vac":true,"version":"7961495","steam_id":85568392924964315,"keywords":["nocrits","nodmgspread","payload","uncletopia"],"game_id":440,"stv_port":27086,"stv_name":"Uncletopia | London | 8 | Community | STV","players":null},{"server_id":300,"name":"Uncletopia | Montréal | 1 | All Maps","name_short":"mtl-1","host":"mtl-1.ca.uncletopia.com","port":27015,"enabled":true,"region":"us-east","cc":"ca","latitude":45.50889,"longitude":-73.56167,"reserved":0,"last_update":"0001-01-01T00:00:00Z","name_a2s":"Uncletopia | Montréal | 1 | All Maps","protocol":17,"map":"pl_swiftwater_final1","folder":"tf","game":"Team Fortress","app_id":440,"player_count":5,"max_players":24,"Bots":0,"server_type":"Dedicated","server_os":"Linux","password":true,"vac":true,"version":"7961495","steam_id":85568392924500087,"keywords":["nocrits","nodmgspread","payload","uncletopia"],"game_id":440,"stv_port":27016,"stv_name":"Uncletopia | Montréal | 1 | All Maps | STV","players":[{"user_id":12,"name":"Thunder","steam_id":76561199434110716,"connected_time":12000000000,"state":"active","ping":90},{"user_id":6,"name":"NastyGumbo","steam_id":76561198211943176,"connected_time":759000000000,"state":"active","ping":65},{"user_id":7,"name":"BoyKisser","steam_id":76561199200969139,"connected_time":726000000000,"state":"active","ping":134},{"user_id":8,"name":"SwimmingBubrCat","steam_id":76561198411953459,"connected_time":570000000000,"state":"active","ping":59},{"user_id":10,"name":"gideon nav my beloved","steam_id":76561198259092181,"connected_time":347000000000,"state":"active","ping":79}]},{"server_id":301,"name":"Uncletopia | Montréal | 2 | All Maps","name_short":"mtl-2","host":"mtl-1.ca.uncletopia.com","port":27025,"enabled":true,"region":"us-east","cc":"ca","latitude":45.50889,"longitude":-73.56167,"reserved":0,"last_update":"0001-01-01T00:00:00Z","name_a2s":"Uncletopia | Montréal | 2 | All Maps","protocol":17,"map":"cp_dustbowl","folder":"tf","game":"Team Fortress","app_id":440,"player_count":0,"max_players":24,"Bots":0,"server_type":"Dedicated","server_os":"Linux","password":true,"vac":true,"version":"7961495","steam_id":85568392924500088,"keywords":["cp","nocrits","nodmgspread","uncletopia"],"game_id":440,"stv_port":27026,"stv_name":"Uncletopia | Montréal | 2 | All Maps | STV","players":null},{"server_id":302,"name":"Uncletopia | Montréal | 3 | All Maps","name_short":"mtl-3","host":"mtl-1.ca.uncletopia.com","port":27035,"enabled":true,"region":"us-east","cc":"ca","latitude":45.50889,"longitude":-73.56167,"reserved":0,"last_update":"0001-01-01T00:00:00Z","name_a2s":"Uncletopia | Montréal | 3 | All Maps","protocol":17,"map":"koth_cascade","folder":"tf","game":"Team Fortress","app_id":440,"player_count":0,"max_players":24,"Bots":0,"server_type":"Dedicated","server_os":"Linux","password":true,"vac":true,"version":"7961495","steam_id":85568392924500089,"keywords":["cp","nocrits","nodmgspread","uncletopia"],"game_id":440,"stv_port":27036,"stv_name":"Uncletopia | Montréal | 3 | All Maps | STV","players":null},{"server_id":303,"name":"Uncletopia | Montréal | 4 | No Payload","name_short":"mtl-4","host":"mtl-1.ca.uncletopia.com","port":27045,"enabled":true,"region":"us-east","cc":"ca","latitude":45.50889,"longitude":-73.56167,"reserved":0,"last_update":"0001-01-01T00:00:00Z","name_a2s":"Uncletopia | Montréal | 4 | No Payload","protocol":17,"map":"koth_lakeside_final","folder":"tf","game":"Team Fortress","app_id":440,"player_count":0,"max_players":24,"Bots":0,"server_type":"Dedicated","server_os":"Linux","password":true,"vac":true,"version":"7961495","steam_id":85568392924500090,"keywords":["cp","nocrits","nodmgspread","uncletopia"],"game_id":440,"stv_port":27046,"stv_name":"Uncletopia | Montréal | 4 | No Payload | STV","players":null},{"server_id":13,"name":"Uncletopia | New York City | 1 | All Maps","name_short":"nyc-1","host":"nyc-1.us.uncletopia.com","port":27015,"enabled":true,"region":"us-east","cc":"us","latitude":40.73061,"longitude":-73.93524,"reserved":0,"last_update":"0001-01-01T00:00:00Z","name_a2s":"Uncletopia | New York City | 1 | All Maps","protocol":17,"map":"koth_lakeside_final","folder":"tf","game":"Team Fortress","app_id":440,"player_count":24,"max_players":24,"Bots":0,"server_type":"Dedicated","server_os":"Linux","password":true,"vac":true,"version":"7961495","steam_id":85568392924469993,"keywords":["cp","nocrits","nodmgspread","uncletopia"],"game_id":440,"stv_port":27016,"stv_name":"Uncletopia | New York City | 1 | All Maps | STV","players":[{"user_id":367,"name":"Classy","steam_id":76561198128415840,"connected_time":114000000000,"state":"active","ping":50},{"user_id":361,"name":"Piss God","steam_id":76561198090504334,"connected_time":296000000000,"state":"active","ping":61},{"user_id":358,"name":"Mobster Lobster","steam_id":76561198025376883,"connected_time":390000000000,"state":"active","ping":71},{"user_id":320,"name":"anxiety","steam_id":76561198107071834,"connected_time":3257000000000,"state":"active","ping":45},{"user_id":366,"name":"Leaf","steam_id":76561198348965524,"connected_time":122000000000,"state":"active","ping":59},{"user_id":276,"name":"Le4n!!!","steam_id":76561198045522596,"connected_time":7203000000000,"state":"active","ping":82},{"user_id":354,"name":"IMPACT CPU","steam_id":76561198001344879,"connected_time":1104000000000,"state":"active","ping":59},{"user_id":314,"name":"ATL1 | cola","steam_id":76561198374390458,"connected_time":3726000000000,"state":"active","ping":62},{"user_id":277,"name":"Lylith!!!","steam_id":76561198386687546,"connected_time":7105000000000,"state":"active","ping":75},{"user_id":321,"name":"custodian","steam_id":76561198058793778,"connected_time":3201000000000,"state":"active","ping":46},{"user_id":349,"name":"Shame","steam_id":76561198100490994,"connected_time":1585000000000,"state":"active","ping":73},{"user_id":364,"name":"antoniov00gaming","steam_id":76561198364632073,"connected_time":130000000000,"state":"active","ping":72},{"user_id":365,"name":"Flint","steam_id":76561198066547582,"connected_time":127000000000,"state":"active","ping":88},{"user_id":294,"name":"LordOfTheNoobs","steam_id":76561197962697523,"connected_time":5074000000000,"state":"active","ping":74},{"user_id":359,"name":"HeavyMettleDick","steam_id":76561198001925087,"connected_time":389000000000,"state":"active","ping":81},{"user_id":368,"name":"Mika  Laakso","steam_id":76561198115035132,"connected_time":80000000000,"state":"active","ping":75},{"user_id":340,"name":"sansa musa","steam_id":76561198163723555,"connected_time":2446000000000,"state":"active","ping":45},{"user_id":284,"name":"Gentoo Linux Gaming","steam_id":76561197999657118,"connected_time":5715000000000,"state":"active","ping":69},{"user_id":288,"name":"็Periculosum PhD in Funny","steam_id":76561198123370914,"connected_time":5665000000000,"state":"active","ping":88},{"user_id":336,"name":"Clumsy","steam_id":76561198056345245,"connected_time":2778000000000,"state":"active","ping":61},{"user_id":317,"name":"._.","steam_id":76561198300316801,"connected_time":3600000000000,"state":"active","ping":40},{"user_id":369,"name":"Gravity","steam_id":76561198066875223,"connected_time":77000000000,"state":"active","ping":103},{"user_id":347,"name":"dak","steam_id":76561198076596506,"connected_time":1877000000000,"state":"active","ping":60},{"user_id":331,"name":"Dilbert","steam_id":76561198195613682,"connected_time":2974000000000,"state":"active","ping":76}]},{"server_id":14,"name":"Uncletopia | New York City | 2 | All Maps","name_short":"nyc-2","host":"nyc-1.us.uncletopia.com","port":27025,"enabled":true,"region":"us-east","cc":"us","latitude":40.73061,"longitude":-73.93524,"reserved":0,"last_update":"0001-01-01T00:00:00Z","name_a2s":"Uncletopia | New York City | 2 | All Maps","protocol":17,"map":"pl_upward","folder":"tf","game":"Team Fortress","app_id":440,"player_count":24,"max_players":24,"Bots":0,"server_type":"Dedicated","server_os":"Linux","password":true,"vac":true,"version":"7961495","steam_id":85568392924469994,"keywords":["nocrits","nodmgspread","payload","uncletopia"],"game_id":440,"stv_port":27026,"stv_name":"Uncletopia | New York City | 2 | All Maps | STV","players":[{"user_id":544,"name":"Nerf Clean Hit","steam_id":76561198257691881,"connected_time":2547000000000,"state":"active","ping":81},{"user_id":554,"name":"guppy","steam_id":76561198041380190,"connected_time":1158000000000,"state":"active","ping":71},{"user_id":562,"name":"sixshabbyshearedsheepshitting","steam_id":76561197972601902,"connected_time":501000000000,"state":"active","ping":101},{"user_id":538,"name":"Ace","steam_id":76561198086172358,"connected_time":3151000000000,"state":"active","ping":38},{"user_id":564,"name":"Ferret","steam_id":76561198031639822,"connected_time":360000000000,"state":"active","ping":54},{"user_id":533,"name":"Froot Loop box","steam_id":76561198298583060,"connected_time":3418000000000,"state":"active","ping":114},{"user_id":545,"name":"A Puppy","steam_id":76561198828184456,"connected_time":2539000000000,"state":"active","ping":55},{"user_id":568,"name":"jun.","steam_id":76561198820058199,"connected_time":68000000000,"state":"spawning","ping":512},{"user_id":556,"name":"Heathcliff","steam_id":76561198044288534,"connected_time":898000000000,"state":"active","ping":94},{"user_id":539,"name":"maybe have some iscream","steam_id":76561198103496593,"connected_time":2964000000000,"state":"active","ping":66},{"user_id":510,"name":"leesh","steam_id":76561198079603938,"connected_time":4371000000000,"state":"active","ping":61},{"user_id":530,"name":"creeeeeee","steam_id":76561198392539722,"connected_time":3505000000000,"state":"active","ping":85},{"user_id":566,"name":"ZerCroix","steam_id":76561198199523226,"connected_time":326000000000,"state":"active","ping":130},{"user_id":494,"name":"[NAME-REDACTED]","steam_id":76561198035682975,"connected_time":5746000000000,"state":"active","ping":57},{"user_id":549,"name":"Ellis McGruber","steam_id":76561198060739536,"connected_time":1703000000000,"state":"active","ping":58},{"user_id":540,"name":"themouseofchaos","steam_id":76561198256777743,"connected_time":2963000000000,"state":"active","ping":67},{"user_id":559,"name":"artichoke","steam_id":76561198980994364,"connected_time":607000000000,"state":"active","ping":92},{"user_id":553,"name":"Luther_51","steam_id":76561198042994473,"connected_time":1508000000000,"state":"active","ping":69},{"user_id":548,"name":"Unk","steam_id":76561198031717617,"connected_time":2180000000000,"state":"active","ping":38},{"user_id":563,"name":"Icaras","steam_id":76561198416724843,"connected_time":501000000000,"state":"active","ping":115},{"user_id":567,"name":"Yami","steam_id":76561198116546266,"connected_time":119000000000,"state":"active","ping":73},{"user_id":565,"name":"PK","steam_id":76561198368722500,"connected_time":358000000000,"state":"active","ping":65},{"user_id":547,"name":"Stonks","steam_id":76561199490085068,"connected_time":2426000000000,"state":"active","ping":66},{"user_id":561,"name":"Brendan","steam_id":76561198041079914,"connected_time":575000000000,"state":"active","ping":49}]},{"server_id":15,"name":"Uncletopia | New York City | 3 | Stopwatch Beta","name_short":"nyc-3","host":"nyc-1.us.uncletopia.com","port":27035,"enabled":true,"region":"us-east","cc":"us","latitude":40.73061,"longitude":-73.93524,"reserved":0,"last_update":"0001-01-01T00:00:00Z","name_a2s":"Uncletopia | New York City | 3 | Stopwatch Beta","protocol":17,"map":"workshop/koth_bagel_rc6.ugc2514036946","folder":"tf","game":"Team Fortress","app_id":440,"player_count":4,"max_players":24,"Bots":0,"server_type":"Dedicated","server_os":"Linux","password":true,"vac":true,"version":"7961495","steam_id":85568392924742820,"keywords":["cp","nocrits","nodmgspread","uncletopia"],"game_id":440,"stv_port":27036,"stv_name":"Uncletopia | New York City | 3 | Stopwatch Beta | STV","players":[{"user_id":41,"name":"Nice21","steam_id":76561199427548141,"connected_time":2338000000000,"state":"active","ping":75},{"user_id":42,"name":"yer_nerd","steam_id":76561199435454093,"connected_time":2320000000000,"state":"active","ping":134},{"user_id":44,"name":"Fella","steam_id":76561198373886887,"connected_time":1396000000000,"state":"active","ping":82},{"user_id":45,"name":"noa","steam_id":76561199086721697,"connected_time":301000000000,"state":"active","ping":153}]},{"server_id":16,"name":"Uncletopia | New York City | 4 | Community","name_short":"nyc-4","host":"nyc-1.us.uncletopia.com","port":27045,"enabled":true,"region":"us-east","cc":"us","latitude":40.73061,"longitude":-73.93524,"reserved":0,"last_update":"0001-01-01T00:00:00Z","name_a2s":"Uncletopia | New York City | 4 | Community","protocol":17,"map":"workshop/koth_slaughter_rc1.ugc1712845210","folder":"tf","game":"Team Fortress","app_id":440,"player_count":24,"max_players":24,"Bots":0,"server_type":"Dedicated","server_os":"Linux","password":true,"vac":true,"version":"7961495","steam_id":85568392924742821,"keywords":["cp","nocrits","nodmgspread","uncletopia"],"game_id":440,"stv_port":27046,"stv_name":"Uncletopia | New York City | 4 | Community | STV","players":[{"user_id":248,"name":"Node⋄","steam_id":76561198219359475,"connected_time":2998000000000,"state":"active","ping":87},{"user_id":275,"name":"Big Milk","steam_id":76561198066904836,"connected_time":972000000000,"state":"active","ping":83},{"user_id":294,"name":"!!","steam_id":76561198005769466,"connected_time":115000000000,"state":"active","ping":114},{"user_id":241,"name":"Steve","steam_id":76561198073299693,"connected_time":3239000000000,"state":"active","ping":94},{"user_id":292,"name":"The Sinister Potion","steam_id":76561198131280715,"connected_time":172000000000,"state":"active","ping":60},{"user_id":276,"name":"Monke","steam_id":76561198162887886,"connected_time":916000000000,"state":"active","ping":63},{"user_id":257,"name":"nhbiker","steam_id":76561198081277675,"connected_time":2227000000000,"state":"active","ping":45},{"user_id":295,"name":"Grimace D. Drippings","steam_id":76561198050849790,"connected_time":3000000000,"state":"spawning","ping":113},{"user_id":242,"name":"Mr. Milk","steam_id":76561198068902833,"connected_time":3239000000000,"state":"active","ping":98},{"user_id":293,"name":"Papa Jake ✟","steam_id":76561198145503397,"connected_time":168000000000,"state":"active","ping":75},{"user_id":270,"name":"IanTheAwsm","steam_id":76561198093031738,"connected_time":1513000000000,"state":"active","ping":96},{"user_id":271,"name":"timB","steam_id":76561198045840264,"connected_time":1411000000000,"state":"active","ping":56},{"user_id":286,"name":"Parth Makeo","steam_id":76561198002516581,"connected_time":532000000000,"state":"active","ping":45},{"user_id":277,"name":"Killroy NQP ❤","steam_id":76561198006983771,"connected_time":831000000000,"state":"active","ping":82},{"user_id":281,"name":"Patton","steam_id":76561198087871688,"connected_time":754000000000,"state":"active","ping":82},{"user_id":282,"name":"Spectre","steam_id":76561198025652246,"connected_time":713000000000,"state":"active","ping":66},{"user_id":283,"name":"Peter Muskrat (racist)","steam_id":76561198857749738,"connected_time":653000000000,"state":"active","ping":90},{"user_id":265,"name":"Windup Monkey in a Human Suit","steam_id":76561198119501444,"connected_time":2103000000000,"state":"active","ping":98},{"user_id":266,"name":"Synergy","steam_id":76561198098630198,"connected_time":2079000000000,"state":"active","ping":117},{"user_id":284,"name":"Abe","steam_id":76561198079292761,"connected_time":634000000000,"state":"active","ping":88},{"user_id":267,"name":"WoodsRunner","steam_id":76561198121812870,"connected_time":2065000000000,"state":"active","ping":46},{"user_id":285,"name":"Owixan","steam_id":76561198074990070,"connected_time":630000000000,"state":"active","ping":55},{"user_id":268,"name":"MTGbigdog","steam_id":76561198838760637,"connected_time":2061000000000,"state":"active","ping":66},{"user_id":287,"name":"Gram Tokers Count Doinkula","steam_id":76561198112811565,"connected_time":532000000000,"state":"active","ping":60}]},{"server_id":142,"name":"Uncletopia | São Paulo | 1 | All Maps","name_short":"sao-1","host":"sao-1.br.uncletopia.com","port":27015,"enabled":true,"region":"sa","cc":"br","latitude":-23.533773,"longitude":-46.62529,"reserved":0,"last_update":"0001-01-01T00:00:00Z","name_a2s":"Uncletopia | São Paulo | 1 | All Maps","protocol":17,"map":"koth_lakeside_final","folder":"tf","game":"Team Fortress","app_id":440,"player_count":0,"max_players":24,"Bots":0,"server_type":"Dedicated","server_os":"Linux","password":true,"vac":true,"version":"7961495","steam_id":85568392924469996,"keywords":["cp","nocrits","nodmgspread","uncletopia"],"game_id":440,"stv_port":27016,"stv_name":"Uncletopia | São Paulo | 1 | All Maps | STV","players":null},{"server_id":143,"name":"Uncletopia | São Paulo | 2 | Community","name_short":"sao-2","host":"sao-2.br.uncletopia.com","port":27015,"enabled":true,"region":"sa","cc":"br","latitude":-23.533773,"longitude":-46.62529,"reserved":0,"last_update":"0001-01-01T00:00:00Z","name_a2s":"Uncletopia | São Paulo | 2 | Community","protocol":17,"map":"workshop/cp_indulge.ugc528106646","folder":"tf","game":"Team Fortress","app_id":440,"player_count":0,"max_players":24,"Bots":0,"server_type":"Dedicated","server_os":"Linux","password":true,"vac":true,"version":"7961495","steam_id":85568392924485349,"keywords":["cp","nocrits","nodmgspread","uncletopia"],"game_id":440,"stv_port":27016,"stv_name":"Uncletopia | São Paulo | 2 | Community | STV","players":null},{"server_id":7,"name":"Uncletopia | Seattle | 1 | All Maps","name_short":"sea-1","host":"sea-1.us.uncletopia.com","port":27015,"enabled":true,"region":"us-west","cc":"us","latitude":47.608013,"longitude":-122.33517,"reserved":0,"last_update":"0001-01-01T00:00:00Z","name_a2s":"Uncletopia | Seattle | 1 | All Maps","protocol":17,"map":"pl_borneo","folder":"tf","game":"Team Fortress","app_id":440,"player_count":24,"max_players":24,"Bots":0,"server_type":"Dedicated","server_os":"Linux","password":true,"vac":true,"version":"7961495","steam_id":85568392924469997,"keywords":["nocrits","nodmgspread","payload","uncletopia"],"game_id":440,"stv_port":27016,"stv_name":"Uncletopia | Seattle | 1 | All Maps | STV","players":[{"user_id":643,"name":"gnoblin","steam_id":76561198210322871,"connected_time":1180000000000,"state":"active","ping":94},{"user_id":640,"name":"[DATS➡] Sugar Meowth","steam_id":76561197995251793,"connected_time":1232000000000,"state":"active","ping":44},{"user_id":610,"name":"shane","steam_id":76561198060491451,"connected_time":3549000000000,"state":"active","ping":87},{"user_id":567,"name":"Keamy","steam_id":76561199471434875,"connected_time":6689000000000,"state":"active","ping":45},{"user_id":625,"name":"vortex","steam_id":76561199088264352,"connected_time":2229000000000,"state":"active","ping":45},{"user_id":574,"name":"BrightOrangeMango","steam_id":76561198023144607,"connected_time":6595000000000,"state":"active","ping":94},{"user_id":514,"name":"dust | she/it","steam_id":76561198045218909,"connected_time":10539000000000,"state":"active","ping":42},{"user_id":626,"name":"Hope","steam_id":76561199182558088,"connected_time":2139000000000,"state":"active","ping":75},{"user_id":570,"name":"Luca","steam_id":76561198125087140,"connected_time":6656000000000,"state":"active","ping":46},{"user_id":628,"name":"bbbbb","steam_id":76561198095480838,"connected_time":2025000000000,"state":"active","ping":49},{"user_id":569,"name":"ヒプノス","steam_id":76561198403829714,"connected_time":6681000000000,"state":"active","ping":45},{"user_id":612,"name":"Eraser cat","steam_id":76561199045570463,"connected_time":3099000000000,"state":"active","ping":50},{"user_id":641,"name":"The Woman Disrespecter","steam_id":76561198964373968,"connected_time":1212000000000,"state":"active","ping":89},{"user_id":624,"name":"ejschild745","steam_id":76561199013388867,"connected_time":2267000000000,"state":"active","ping":76},{"user_id":642,"name":"blizz","steam_id":76561199139715539,"connected_time":1211000000000,"state":"active","ping":66},{"user_id":598,"name":"jables","steam_id":76561199067882406,"connected_time":4519000000000,"state":"active","ping":99},{"user_id":647,"name":"fungi","steam_id":76561198169755734,"connected_time":341000000000,"state":"active","ping":70},{"user_id":645,"name":"Sgt Autmn","steam_id":76561198072047939,"connected_time":517000000000,"state":"active","ping":48},{"user_id":632,"name":"giant_dork","steam_id":76561199105606956,"connected_time":1882000000000,"state":"active","ping":119},{"user_id":646,"name":"eyesack","steam_id":76561198353654220,"connected_time":516000000000,"state":"active","ping":90},{"user_id":616,"name":"Manchurian Bandit","steam_id":76561198072410042,"connected_time":2588000000000,"state":"active","ping":80},{"user_id":622,"name":"shiadyne","steam_id":76561198271939793,"connected_time":2271000000000,"state":"active","ping":57},{"user_id":644,"name":"[Champ] Marssygurl","steam_id":76561198014928241,"connected_time":970000000000,"state":"active","ping":140},{"user_id":636,"name":"Linkletter","steam_id":76561197970292524,"connected_time":1475000000000,"state":"active","ping":44}]},{"server_id":119,"name":"Uncletopia | Seattle | 2 | All Maps","name_short":"sea-2","host":"sea-1.us.uncletopia.com","port":27025,"enabled":true,"region":"us-west","cc":"us","latitude":47.608013,"longitude":-122.33517,"reserved":0,"last_update":"0001-01-01T00:00:00Z","name_a2s":"Uncletopia | Seattle | 2 | All Maps","protocol":17,"map":"pl_thundermountain","folder":"tf","game":"Team Fortress","app_id":440,"player_count":24,"max_players":24,"Bots":0,"server_type":"Dedicated","server_os":"Linux","password":true,"vac":true,"version":"7961495","steam_id":85568392924469998,"keywords":["nocrits","nodmgspread","payload","uncletopia"],"game_id":440,"stv_port":27026,"stv_name":"Uncletopia | Seattle | 2 | All Maps | STV","players":[{"user_id":155,"name":"C Papi","steam_id":76561198027779564,"connected_time":2819000000000,"state":"active","ping":109},{"user_id":185,"name":"define ok","steam_id":76561198068190834,"connected_time":995000000000,"state":"active","ping":63},{"user_id":190,"name":"Limp Pumpo Discography Fan Club","steam_id":76561198145748479,"connected_time":157000000000,"state":"active","ping":46},{"user_id":87,"name":"NovusOrdoDux","steam_id":76561198271936289,"connected_time":8921000000000,"state":"active","ping":91},{"user_id":191,"name":"Iron Argus","steam_id":76561198181088245,"connected_time":142000000000,"state":"active","ping":125},{"user_id":119,"name":"Kitt(eh) ∑:3","steam_id":76561198110858518,"connected_time":5382000000000,"state":"active","ping":106},{"user_id":158,"name":"Rude Dog","steam_id":76561197980385816,"connected_time":2499000000000,"state":"active","ping":64},{"user_id":193,"name":"Bobert","steam_id":76561198057900081,"connected_time":126000000000,"state":"active","ping":54},{"user_id":181,"name":"jeff from the irs","steam_id":76561198172454407,"connected_time":1120000000000,"state":"active","ping":77},{"user_id":144,"name":"Lordus","steam_id":76561198160381729,"connected_time":3920000000000,"state":"active","ping":57},{"user_id":156,"name":"Ashanti Clan","steam_id":76561198032651105,"connected_time":2514000000000,"state":"active","ping":64},{"user_id":143,"name":"A UsedNom","steam_id":76561198402832756,"connected_time":4512000000000,"state":"active","ping":69},{"user_id":159,"name":"Dura","steam_id":76561198081086998,"connected_time":2496000000000,"state":"active","ping":48},{"user_id":146,"name":"Goose","steam_id":76561198036774894,"connected_time":3818000000000,"state":"active","ping":59},{"user_id":147,"name":"Wheaties","steam_id":76561198060909578,"connected_time":3817000000000,"state":"active","ping":61},{"user_id":187,"name":"Darkspiral","steam_id":76561198080807559,"connected_time":615000000000,"state":"active","ping":77},{"user_id":183,"name":"Strikerbolt","steam_id":76561199095622897,"connected_time":1059000000000,"state":"active","ping":81},{"user_id":157,"name":"Doc","steam_id":76561198052011237,"connected_time":2503000000000,"state":"active","ping":87},{"user_id":173,"name":"PROFILE NAME","steam_id":76561198000136489,"connected_time":1427000000000,"state":"active","ping":44},{"user_id":168,"name":"WaffleWithNoToppings","steam_id":76561199088280111,"connected_time":1870000000000,"state":"active","ping":46},{"user_id":162,"name":"Drake from State Farm","steam_id":76561199069029812,"connected_time":2474000000000,"state":"active","ping":83},{"user_id":184,"name":"The Angel of Death","steam_id":76561198026079349,"connected_time":1054000000000,"state":"active","ping":67},{"user_id":186,"name":"Espresso Enjoyer","steam_id":76561198254238409,"connected_time":946000000000,"state":"active","ping":123},{"user_id":192,"name":"ceres","steam_id":76561198291976960,"connected_time":141000000000,"state":"active","ping":75}]},{"server_id":406,"name":"Uncletopia | Seattle | 3 | Stopwatch Beta","name_short":"sea-3","host":"sea-1.us.uncletopia.com","port":27035,"enabled":true,"region":"us-west","cc":"us","latitude":47.608013,"longitude":-122.33517,"reserved":0,"last_update":"0001-01-01T00:00:00Z","name_a2s":"Uncletopia | Seattle | 3 | Stopwatch Beta","protocol":17,"map":"workshop/koth_ramjam_rc1.ugc459778887","folder":"tf","game":"Team Fortress","app_id":440,"player_count":0,"max_players":24,"Bots":0,"server_type":"Dedicated","server_os":"Linux","password":true,"vac":true,"version":"7961495","steam_id":85568392924515217,"keywords":["cp","nocrits","nodmgspread","uncletopia"],"game_id":440,"stv_port":27036,"stv_name":"Uncletopia | Seattle | 3 | Stopwatch Beta | STV","players":null},{"server_id":17,"name":"Uncletopia | San Francisco | 1 | All Maps","name_short":"sfo-1","host":"sfo-1.us.uncletopia.com","port":27015,"enabled":true,"region":"us-west","cc":"us","latitude":37.77397,"longitude":-122.4313,"reserved":0,"last_update":"0001-01-01T00:00:00Z","name_a2s":"Uncletopia | San Francisco | 1 | All Maps","protocol":17,"map":"koth_cascade","folder":"tf","game":"Team Fortress","app_id":440,"player_count":6,"max_players":24,"Bots":0,"server_type":"Dedicated","server_os":"Linux","password":true,"vac":true,"version":"7961495","steam_id":85568392924469999,"keywords":["cp","nocrits","nodmgspread","uncletopia"],"game_id":440,"stv_port":27016,"stv_name":"Uncletopia | San Francisco | 1 | All Maps | STV","players":[{"user_id":13,"name":"Yackaboi","steam_id":76561199444911765,"connected_time":689000000000,"state":"active","ping":80},{"user_id":14,"name":"homewurk","steam_id":76561199080327081,"connected_time":631000000000,"state":"active","ping":64},{"user_id":17,"name":"WinterCat","steam_id":76561199071923869,"connected_time":285000000000,"state":"active","ping":77},{"user_id":18,"name":"a cat plushie","steam_id":76561198080046542,"connected_time":270000000000,"state":"active","ping":60},{"user_id":19,"name":"Serene Salamander","steam_id":76561198001094770,"connected_time":101000000000,"state":"active","ping":84},{"user_id":20,"name":"Pestilence","steam_id":76561198272327629,"connected_time":87000000000,"state":"active","ping":57}]},{"server_id":18,"name":"Uncletopia | San Francisco | 2 | All Maps","name_short":"sfo-2","host":"sfo-1.us.uncletopia.com","port":27025,"enabled":true,"region":"us-west","cc":"us","latitude":37.77397,"longitude":-122.4313,"reserved":0,"last_update":"0001-01-01T00:00:00Z","name_a2s":"Uncletopia | San Francisco | 2 | All Maps","protocol":17,"map":"pl_badwater","folder":"tf","game":"Team Fortress","app_id":440,"player_count":24,"max_players":24,"Bots":0,"server_type":"Dedicated","server_os":"Linux","password":true,"vac":true,"version":"7961495","steam_id":85568392924470000,"keywords":["nocrits","nodmgspread","payload","uncletopia"],"game_id":440,"stv_port":27026,"stv_name":"Uncletopia | San Francisco | 2 | All Maps | STV","players":[{"user_id":107,"name":"Mom","steam_id":76561198207936000,"connected_time":605000000000,"state":"active","ping":41},{"user_id":53,"name":"Wiggee","steam_id":76561197972792989,"connected_time":2779000000000,"state":"active","ping":81},{"user_id":108,"name":"MintyPawz","steam_id":76561198111430103,"connected_time":524000000000,"state":"active","ping":85},{"user_id":97,"name":"THE GREAT SEAN!!!","steam_id":76561198267958167,"connected_time":1137000000000,"state":"active","ping":118},{"user_id":114,"name":"Untermensch","steam_id":76561198149634242,"connected_time":262000000000,"state":"active","ping":86},{"user_id":79,"name":"Mr. Carfox","steam_id":76561198041664428,"connected_time":1785000000000,"state":"active","ping":51},{"user_id":98,"name":"xXx_FukkyBr4inz69_xXx \u0026","steam_id":76561198027321950,"connected_time":1075000000000,"state":"active","ping":58},{"user_id":109,"name":"Rose","steam_id":76561198955581861,"connected_time":499000000000,"state":"active","ping":54},{"user_id":115,"name":"tntexplosion","steam_id":76561199090152308,"connected_time":261000000000,"state":"active","ping":118},{"user_id":95,"name":"SkidMark","steam_id":76561199092699970,"connected_time":1274000000000,"state":"active","ping":67},{"user_id":112,"name":"Darthteej","steam_id":76561198056885451,"connected_time":435000000000,"state":"active","ping":92},{"user_id":99,"name":"Latedawns82","steam_id":76561199196300397,"connected_time":1052000000000,"state":"active","ping":67},{"user_id":65,"name":"A Pile Of Bacon","steam_id":76561198105243785,"connected_time":2495000000000,"state":"active","ping":60},{"user_id":84,"name":"parallax","steam_id":76561198004438881,"connected_time":1698000000000,"state":"active","ping":58},{"user_id":100,"name":"Shirm","steam_id":76561198068455981,"connected_time":906000000000,"state":"active","ping":77},{"user_id":66,"name":"wtfxid","steam_id":76561198377797212,"connected_time":2480000000000,"state":"active","ping":45},{"user_id":43,"name":"Nondescript Bolian Freighter","steam_id":76561198069735882,"connected_time":4112000000000,"state":"active","ping":115},{"user_id":101,"name":"Thequirka","steam_id":76561198968058652,"connected_time":894000000000,"state":"active","ping":72},{"user_id":102,"name":"riSygneD","steam_id":76561198331618687,"connected_time":890000000000,"state":"active","ping":44},{"user_id":103,"name":"minerkid2004","steam_id":76561198044262827,"connected_time":862000000000,"state":"active","ping":51},{"user_id":90,"name":"big man","steam_id":76561199031963925,"connected_time":1524000000000,"state":"active","ping":59},{"user_id":91,"name":"Das Anchor","steam_id":76561198060173151,"connected_time":1494000000000,"state":"active","ping":86},{"user_id":37,"name":"antiblastic.f2p","steam_id":76561199442190101,"connected_time":4923000000000,"state":"active","ping":75},{"user_id":111,"name":"MR MODE","steam_id":76561198046775352,"connected_time":493000000000,"state":"active","ping":46}]},{"server_id":19,"name":"Uncletopia | San Francisco | 3 | Stopwatch Beta","name_short":"sfo-3","host":"sfo-1.us.uncletopia.com","port":27035,"enabled":true,"region":"us-west","cc":"us","latitude":37.77397,"longitude":-122.4313,"reserved":0,"last_update":"0001-01-01T00:00:00Z","name_a2s":"Uncletopia | San Francisco | 3 | Stopwatch Beta","protocol":17,"map":"pl_borneo","folder":"tf","game":"Team Fortress","app_id":440,"player_count":0,"max_players":24,"Bots":0,"server_type":"Dedicated","server_os":"Linux","password":true,"vac":true,"version":"7961495","steam_id":85568392924742824,"keywords":["nocrits","nodmgspread","payload","uncletopia"],"game_id":440,"stv_port":27036,"stv_name":"Uncletopia | San Francisco | 3 | Stopwatch Beta | STV","players":null},{"server_id":20,"name":"Uncletopia | San Francisco | 4 | Community","name_short":"sfo-4","host":"sfo-1.us.uncletopia.com","port":27045,"enabled":true,"region":"us-west","cc":"us","latitude":37.77397,"longitude":-122.4313,"reserved":0,"last_update":"0001-01-01T00:00:00Z","name_a2s":"Uncletopia | San Francisco | 4 | Community","protocol":17,"map":"workshop/cp_bruhstbowl_b6.ugc2878604990","folder":"tf","game":"Team Fortress","app_id":440,"player_count":0,"max_players":24,"Bots":0,"server_type":"Dedicated","server_os":"Linux","password":true,"vac":true,"version":"7961495","steam_id":85568392924742826,"keywords":["cp","nocrits","nodmgspread","uncletopia"],"game_id":440,"stv_port":27046,"stv_name":"Uncletopia | San Francisco | 4 | Community | STV","players":null},{"server_id":141,"name":"Uncletopia | Sydney | 1 | All Maps","name_short":"syd-1","host":"syd-1.au.uncletopia.com","port":27015,"enabled":true,"region":"au","cc":"au","latitude":-33.865143,"longitude":151.2099,"reserved":0,"last_update":"0001-01-01T00:00:00Z","name_a2s":"Uncletopia | Sydney | 1 | All Maps","protocol":17,"map":"koth_highpass","folder":"tf","game":"Team Fortress","app_id":440,"player_count":0,"max_players":24,"Bots":0,"server_type":"Dedicated","server_os":"Linux","password":true,"vac":true,"version":"7961495","steam_id":85568392924470001,"keywords":["cp","nocrits","nodmgspread","uncletopia"],"game_id":440,"stv_port":27016,"stv_name":"Uncletopia | Sydney | 1 | All Maps | STV","players":null},{"server_id":123,"name":"Uncletopia | Sydney | 2 | All Maps","name_short":"syd-2","host":"syd-1.au.uncletopia.com","port":27025,"enabled":true,"region":"au","cc":"au","latitude":-33.865143,"longitude":151.2099,"reserved":0,"last_update":"0001-01-01T00:00:00Z","name_a2s":"Uncletopia | Sydney | 2 | All Maps","protocol":17,"map":"pl_snowycoast","folder":"tf","game":"Team Fortress","app_id":440,"player_count":0,"max_players":24,"Bots":0,"server_type":"Dedicated","server_os":"Linux","password":true,"vac":true,"version":"7961495","steam_id":85568392924470002,"keywords":["nocrits","nodmgspread","payload","uncletopia"],"game_id":440,"stv_port":27026,"stv_name":"Uncletopia | Sydney | 2 | All Maps | STV","players":null},{"server_id":395,"name":"Uncletopia | Sydney | 3 | All Maps","name_short":"syd-3","host":"syd-1.au.uncletopia.com","port":27035,"enabled":true,"region":"au","cc":"au","latitude":-33.865143,"longitude":151.2099,"reserved":0,"last_update":"0001-01-01T00:00:00Z","name_a2s":"Uncletopia | Sydney | 3 | All Maps","protocol":17,"map":"cp_dustbowl","folder":"tf","game":"Team Fortress","app_id":440,"player_count":0,"max_players":24,"Bots":0,"server_type":"Dedicated","server_os":"Linux","password":true,"vac":true,"version":"7961495","steam_id":85568392925194467,"keywords":["cp","nocrits","nodmgspread","uncletopia"],"game_id":440,"stv_port":27036,"stv_name":"Uncletopia | Sydney | 3 | All Maps | STV","players":null},{"server_id":396,"name":"Uncletopia | Sydney | 4 | All Maps","name_short":"syd-4","host":"syd-1.au.uncletopia.com","port":27045,"enabled":true,"region":"au","cc":"au","latitude":-33.865143,"longitude":151.2099,"reserved":0,"last_update":"0001-01-01T00:00:00Z","name_a2s":"Uncletopia | Sydney | 4 | All Maps","protocol":17,"map":"cp_dustbowl","folder":"tf","game":"Team Fortress","app_id":440,"player_count":0,"max_players":24,"Bots":0,"server_type":"Dedicated","server_os":"Linux","password":true,"vac":true,"version":"7961495","steam_id":85568392925397958,"keywords":["cp","nocrits","nodmgspread","uncletopia"],"game_id":440,"stv_port":27046,"stv_name":"Uncletopia | Sydney | 4 | All Maps | STV","players":null},{"server_id":58,"name":"Uncletopia | Sydney | 5 | Stopwatch Beta","name_short":"syd-5","host":"syd-1.au.uncletopia.com","port":27055,"enabled":true,"region":"au","cc":"au","latitude":-33.865143,"longitude":151.2099,"reserved":0,"last_update":"0001-01-01T00:00:00Z","name_a2s":"Uncletopia | Sydney | 5 | Stopwatch Beta","protocol":17,"map":"koth_viaduct","folder":"tf","game":"Team Fortress","app_id":440,"player_count":0,"max_players":24,"Bots":0,"server_type":"Dedicated","server_os":"Linux","password":true,"vac":true,"version":"7961495","steam_id":85568392925397959,"keywords":["cp","nocrits","nodmgspread","uncletopia"],"game_id":440,"stv_port":27056,"stv_name":"Uncletopia | Sydney | 5 | Stopwatch Beta | STV","players":null},{"server_id":59,"name":"Uncletopia | Sydney | 6 | Community","name_short":"syd-6","host":"syd-1.au.uncletopia.com","port":27065,"enabled":true,"region":"au","cc":"au","latitude":-33.865143,"longitude":151.2099,"reserved":0,"last_update":"0001-01-01T00:00:00Z","name_a2s":"Uncletopia | Sydney | 6 | Community","protocol":17,"map":"koth_cascade","folder":"tf","game":"Team Fortress","app_id":440,"player_count":0,"max_players":24,"Bots":0,"server_type":"Dedicated","server_os":"Linux","password":true,"vac":true,"version":"7961495","steam_id":85568392925397960,"keywords":["cp","nocrits","nodmgspread","uncletopia"],"game_id":440,"stv_port":27066,"stv_name":"Uncletopia | Sydney | 6 | Community | STV","players":null},{"server_id":49,"name":"Uncletopia | Warsaw | 1 | All Maps","name_short":"waw-1","host":"waw-1.pl.uncletopia.com","port":27015,"enabled":true,"region":"eu","cc":"pl","latitude":52.2297,"longitude":21.017532,"reserved":0,"last_update":"0001-01-01T00:00:00Z","name_a2s":"Uncletopia | Warsaw | 1 | All Maps","protocol":17,"map":"koth_viaduct","folder":"tf","game":"Team Fortress","app_id":440,"player_count":0,"max_players":24,"Bots":0,"server_type":"Dedicated","server_os":"Linux","password":true,"vac":true,"version":"7961495","steam_id":85568392925397850,"keywords":["cp","nocrits","nodmgspread","uncletopia"],"game_id":440,"stv_port":27016,"stv_name":"Uncletopia | Warsaw | 1 | All Maps | STV","players":null},{"server_id":50,"name":"Uncletopia | Warsaw | 2 | All Maps","name_short":"waw-2","host":"waw-1.pl.uncletopia.com","port":27025,"enabled":true,"region":"eu","cc":"pl","latitude":52.2297,"longitude":21.017532,"reserved":0,"last_update":"0001-01-01T00:00:00Z","name_a2s":"Uncletopia | Warsaw | 2 | All Maps","protocol":17,"map":"koth_cascade","folder":"tf","game":"Team Fortress","app_id":440,"player_count":0,"max_players":24,"Bots":0,"server_type":"Dedicated","server_os":"Linux","password":true,"vac":true,"version":"7961495","steam_id":85568392925397851,"keywords":["cp","nocrits","nodmgspread","uncletopia"],"game_id":440,"stv_port":27026,"stv_name":"Uncletopia | Warsaw | 2 | All Maps | STV","players":null},{"server_id":51,"name":"Uncletopia | Warsaw | 3 | All Maps","name_short":"waw-3","host":"waw-1.pl.uncletopia.com","port":27035,"enabled":true,"region":"eu","cc":"pl","latitude":52.2297,"longitude":21.017532,"reserved":0,"last_update":"0001-01-01T00:00:00Z","name_a2s":"Uncletopia | Warsaw | 3 | All Maps","protocol":17,"map":"pl_borneo","folder":"tf","game":"Team Fortress","app_id":440,"player_count":0,"max_players":24,"Bots":0,"server_type":"Dedicated","server_os":"Linux","password":true,"vac":true,"version":"7961495","steam_id":85568392925397852,"keywords":["nocrits","nodmgspread","payload","uncletopia"],"game_id":440,"stv_port":27036,"stv_name":"Uncletopia | Warsaw | 3 | All Maps | STV","players":null},{"server_id":52,"name":"Uncletopia | Warsaw | 4 | All Maps","name_short":"waw-4","host":"waw-1.pl.uncletopia.com","port":27045,"enabled":true,"region":"eu","cc":"pl","latitude":52.2297,"longitude":21.017532,"reserved":0,"last_update":"0001-01-01T00:00:00Z","name_a2s":"Uncletopia | Warsaw | 4 | All Maps","protocol":17,"map":"cp_altitude","folder":"tf","game":"Team Fortress","app_id":440,"player_count":0,"max_players":24,"Bots":0,"server_type":"Dedicated","server_os":"Linux","password":true,"vac":true,"version":"7961495","steam_id":85568392925397853,"keywords":["cp","nocrits","nodmgspread","uncletopia"],"game_id":440,"stv_port":27046,"stv_name":"Uncletopia | Warsaw | 4 | All Maps | STV","players":null},{"server_id":53,"name":"Uncletopia | Warsaw | 5 | Stopwatch Beta","name_short":"waw-5","host":"waw-1.pl.uncletopia.com","port":27055,"enabled":true,"region":"eu","cc":"pl","latitude":52.2297,"longitude":21.017532,"reserved":0,"last_update":"0001-01-01T00:00:00Z","name_a2s":"Uncletopia | Warsaw | 5 | Stopwatch Beta","protocol":17,"map":"cp_granary","folder":"tf","game":"Team Fortress","app_id":440,"player_count":0,"max_players":24,"Bots":0,"server_type":"Dedicated","server_os":"Linux","password":true,"vac":true,"version":"7961495","steam_id":85568392925397854,"keywords":["cp","nocrits","nodmgspread","uncletopia"],"game_id":440,"stv_port":27056,"stv_name":"Uncletopia | Warsaw | 5 | Stopwatch Beta | STV","players":null},{"server_id":54,"name":"Uncletopia | Warsaw | 6 | Community","name_short":"waw-6","host":"waw-1.pl.uncletopia.com","port":27065,"enabled":true,"region":"eu","cc":"pl","latitude":52.2297,"longitude":21.017532,"reserved":0,"last_update":"0001-01-01T00:00:00Z","name_a2s":"Uncletopia | Warsaw | 6 | Community","protocol":17,"map":"workshop/koth_product_final.ugc454272353","folder":"tf","game":"Team Fortress","app_id":440,"player_count":0,"max_players":24,"Bots":0,"server_type":"Dedicated","server_os":"Linux","password":true,"vac":true,"version":"7961495","steam_id":85568392925397856,"keywords":["cp","nocrits","nodmgspread","uncletopia"],"game_id":440,"stv_port":27066,"stv_name":"Uncletopia | Warsaw | 6 | Community | STV","players":null}]}