{"status":true,"message":"","result":[{"server_id":9,"name":"Uncletopia | Atlanta | 1 | All Maps","name_short":"atl-1","host":"atl-1.us.uncletopia.com","port":27015,"enabled":true,"region":"us-east","cc":"us","latitude":33.753746,"longitude":-84.38633,"reserved":0,"last_update":"0001-01-01T00:00:00Z","name_a2s":"Uncletopia | Atlanta | 1 | All Maps","protocol":17,"map":"cp_dustbowl","folder":"tf","game":"Team Fortress","app_id":440,"player_count":14,"max_players":24,"Bots":0,"server_type":"Dedicated","server_os":"Linux","password":true,"vac":true,"version":"7757534","steam_id":85568392924469982,"keywords":["cp","nocrits","nodmgspread","uncletopia"],"game_id":440,"stv_port":27016,"stv_name":"Uncletopia | Atlanta | 1 | All Maps | STV","players":[{"user_id":760,"name":"Username","steam_id":76561199033122306,"connected_time":2024000000000,"state":"active","ping":59},{"user_id":744,"name":"Spookskeppnook","steam_id":76561199216336545,"connected_time":3189000000000,"state":"active","ping":70},{"user_id":765,"name":"gordon pootman","steam_id":76561199075532033,"connected_time":945000000000,"state":"active","ping":160},{"user_id":766,"name":"[ØWQJØ]chubacaalatake","steam_id":76561198136201697,"connected_time":945000000000,"state":"active","ping":129},{"user_id":755,"name":"F2P garfield","steam_id":76561198854017372,"connected_time":2444000000000,"state":"active","ping":87},{"user_id":746,"name":"The Horselords and Animal Gods","steam_id":76561197975094050,"connected_time":3148000000000,"state":"active","ping":102},{"user_id":780,"name":"fart challenge survivor","steam_id":76561198190962742,"connected_time":324000000000,"state":"active","ping":52},{"user_id":767,"name":"RuckiC","steam_id":76561198253391237,"connected_time":916000000000,"state":"active","ping":111},{"user_id":768,"name":"BrokenDoop","steam_id":76561198072954386,"connected_time":841000000000,"state":"active","ping":109},{"user_id":721,"name":"mtn.dewdrinker1999","steam_id":76561198021308963,"connected_time":5478000000000,"state":"active","ping":80},{"user_id":775,"name":"Antwan","steam_id":76561198246200638,"connected_time":599000000000,"state":"active","ping":60},{"user_id":770,"name":"xZackAttack27x","steam_id":76561198035446639,"connected_time":744000000000,"state":"active","ping":51},{"user_id":781,"name":"Humble Leader","steam_id":76561198169966346,"connected_time":316000000000,"state":"active","ping":81},{"user_id":782,"name":"The Green One","steam_id":76561198199776974,"connected_time":305000000000,"state":"active","ping":45}]},{"server_id":400,"name":"Uncletopia | Atlanta | 3 | Community","name_short":"atl-3","host":"atl-1.us.uncletopia.com","port":27035,"enabled":true,"region":"us-east","cc":"us","latitude":33.753746,"longitude":-84.38633,"reserved":0,"last_update":"0001-01-01T00:00:00Z","name_a2s":"Uncletopia | Atlanta | 3 | Community","protocol":17,"map":"workshop/koth_slaughter_rc1.ugc1712845210","folder":"tf","game":"Team Fortress","app_id":440,"player_count":0,"max_players":32,"Bots":0,"server_type":"Dedicated","server_os":"Linux","password":true,"vac":true,"version":"7757534","steam_id":85568392924515187,"keywords":["cp","increased_maxplayers","nocrits","nodmgspread","uncletopia"],"game_id":440,"stv_port":27036,"stv_name":"Uncletopia | Atlanta | 3 | Community | STV","players":null},{"server_id":401,"name":"Uncletopia | Atlanta | 4 | No Payload","name_short":"atl-4","host":"atl-1.us.uncletopia.com","port":27045,"enabled":true,"region":"us-east","cc":"us","latitude":33.753746,"longitude":-84.38633,"reserved":0,"last_update":"0001-01-01T00:00:00Z","name_a2s":"","protocol":0,"map":"","folder":"","game":"","app_id":0,"player_count":0,"max_players":0,"Bots":0,"server_type":"","server_os":"","password":false,"vac":false,"version":"","steam_id":0,"keywords":null,"game_id":0,"stv_port":0,"stv_name":"","players":null},{"server_id":2,"name":"Uncletopia | Chicago | 1 | All Maps","name_short":"chi-1","host":"chi-1.us.uncletopia.com","port":27015,"enabled":true,"region":"us-central","cc":"us","latitude":41.881832,"longitude":-87.62318,"reserved":0,"last_update":"0001-01-01T00:00:00Z","name_a2s":"Uncletopia | Chicago | 1 | All Maps","protocol":17,"map":"plr_hightower","folder":"tf","game":"Team Fortress","app_id":440,"player_count":3,"max_players":24,"Bots":0,"server_type":"Dedicated","server_os":"Linux","password":true,"vac":true,"version":"7757534","steam_id":85568392924469984,"keywords":["nocrits","nodmgspread","payload","uncletopia"],"game_id":440,"stv_port":27016,"stv_name":"Uncletopia | Chicago | 1 | All Maps | STV","players":[{"user_id":1006,"name":"ChuChu","steam_id":76561199443647976,"connected_time":6416000000000,"state":"active","ping":146},{"user_id":1038,"name":"Cinna","steam_id":76561198070151387,"connected_time":306000000000,"state":"active","ping":62},{"user_id":1019,"name":"VenANON","steam_id":76561198055676240,"connected_time":4484000000000,"state":"active","ping":76}]},{"server_id":106,"name":"Uncletopia | Chicago | 2 | All Maps","name_short":"chi-2","host":"chi-1.us.uncletopia.com","port":27025,"enabled":true,"region":"us-central","cc":"us","latitude":41.881832,"longitude":-87.62318,"reserved":0,"last_update":"0001-01-01T00:00:00Z","name_a2s":"Uncletopia | Chicago | 2 | All Maps","protocol":17,"map":"pl_badwater","folder":"tf","game":"Team Fortress","app_id":440,"player_count":24,"max_players":24,"Bots":0,"server_type":"Dedicated","server_os":"Linux","password":true,"vac":true,"version":"7757534","steam_id":85568392924469985,"keywords":["nocrits","nodmgspread","payload","uncletopia"],"game_id":440,"stv_port":27026,"stv_name":"Uncletopia | Chicago | 2 | All Maps | STV","players":[{"user_id":495,"name":"Master-e","steam_id":76561198173044685,"connected_time":2743000000000,"state":"active","ping":75},{"user_id":517,"name":"Lucy","steam_id":76561198032590343,"connected_time":1304000000000,"state":"active","ping":89},{"user_id":426,"name":"daemon","steam_id":76561198001541433,"connected_time":10917000000000,"state":"active","ping":55},{"user_id":506,"name":"Nyarlathotep owes me $20","steam_id":76561197991015780,"connected_time":2483000000000,"state":"active","ping":65},{"user_id":503,"name":"PageBoiSkull","steam_id":76561198237353578,"connected_time":2524000000000,"state":"active","ping":107},{"user_id":528,"name":"aim trainer","steam_id":76561198117375532,"connected_time":77000000000,"state":"active","ping":58},{"user_id":466,"name":"jamalsmallzz","steam_id":76561199120206913,"connected_time":5310000000000,"state":"active","ping":59},{"user_id":489,"name":"ඞ Papi","steam_id":76561198027779564,"connected_time":3126000000000,"state":"active","ping":50},{"user_id":510,"name":"Trusty","steam_id":76561198035444237,"connected_time":1944000000000,"state":"active","ping":72},{"user_id":521,"name":"shadowjango","steam_id":76561198001475833,"connected_time":434000000000,"state":"active","ping":60},{"user_id":515,"name":"Aristotle Voulton","steam_id":76561198100174923,"connected_time":1755000000000,"state":"active","ping":101},{"user_id":494,"name":"Fazer","steam_id":76561197979461186,"connected_time":2819000000000,"state":"active","ping":104},{"user_id":501,"name":"Chrisscar","steam_id":76561198086298130,"connected_time":2566000000000,"state":"active","ping":99},{"user_id":523,"name":"BustedRake","steam_id":76561198130489976,"connected_time":398000000000,"state":"active","ping":73},{"user_id":524,"name":"kritz enjoyer","steam_id":76561197979056451,"connected_time":397000000000,"state":"active","ping":90},{"user_id":525,"name":"Buhbuh","steam_id":76561198872613199,"connected_time":327000000000,"state":"active","ping":61},{"user_id":526,"name":"basilberry","steam_id":76561198145275937,"connected_time":305000000000,"state":"active","ping":86},{"user_id":512,"name":"Thorngot","steam_id":76561198398094468,"connected_time":1872000000000,"state":"active","ping":85},{"user_id":491,"name":"Lord Mirror","steam_id":76561198166324507,"connected_time":3014000000000,"state":"active","ping":58},{"user_id":412,"name":"trappy (showered)","steam_id":76561198402801140,"connected_time":12098000000000,"state":"active","ping":60},{"user_id":527,"name":"daniel.ok135","steam_id":76561198157210985,"connected_time":235000000000,"state":"active","ping":199},{"user_id":519,"name":"Rusted Cake","steam_id":76561198209755931,"connected_time":992000000000,"state":"active","ping":102},{"user_id":514,"name":"brodie_backwoods","steam_id":76561198081303855,"connected_time":1796000000000,"state":"active","ping":68},{"user_id":518,"name":"defcon","steam_id":76561198100656328,"connected_time":1084000000000,"state":"active","ping":81}]},{"server_id":402,"name":"Uncletopia | Chicago | 3 | All Maps","name_short":"chi-3","host":"chi-1.us.uncletopia.com","port":27035,"enabled":true,"region":"us-central","cc":"us","latitude":41.881832,"longitude":-87.62318,"reserved":0,"last_update":"0001-01-01T00:00:00Z","name_a2s":"Uncletopia | Chicago | 3 | All Maps","protocol":17,"map":"pl_barnblitz","folder":"tf","game":"Team Fortress","app_id":440,"player_count":22,"max_players":24,"Bots":0,"server_type":"Dedicated","server_os":"Linux","password":true,"vac":true,"version":"7757534","steam_id":85568392924515191,"keywords":["nocrits","nodmgspread","payload","uncletopia"],"game_id":440,"stv_port":27036,"stv_name":"Uncletopia | Chicago | 3 | All Maps | STV","players":[{"user_id":567,"name":"xFactr","steam_id":76561198129007422,"connected_time":4937000000000,"state":"active","ping":54},{"user_id":619,"name":"shephard","steam_id":76561198043367011,"connected_time":326000000000,"state":"active","ping":57},{"user_id":540,"name":"› Mr. Fribbles","steam_id":76561197978962193,"connected_time":6154000000000,"state":"active","ping":77},{"user_id":608,"name":"Green Icicle","steam_id":76561198069624529,"connected_time":1251000000000,"state":"active","ping":83},{"user_id":609,"name":"Quaker Oats","steam_id":76561197992800293,"connected_time":1244000000000,"state":"active","ping":90},{"user_id":620,"name":"chicken wit dah eggrow","steam_id":76561198115458307,"connected_time":293000000000,"state":"active","ping":105},{"user_id":621,"name":"Fargo","steam_id":76561198044703931,"connected_time":290000000000,"state":"active","ping":62},{"user_id":622,"name":"iceman","steam_id":76561198135397441,"connected_time":218000000000,"state":"active","ping":75},{"user_id":593,"name":"noot","steam_id":76561198063946502,"connected_time":2296000000000,"state":"active","ping":68},{"user_id":594,"name":"Clud","steam_id":76561198258058762,"connected_time":2296000000000,"state":"active","ping":90},{"user_id":556,"name":"Lore","steam_id":76561198098407538,"connected_time":5473000000000,"state":"active","ping":51},{"user_id":577,"name":"› snow","steam_id":76561198109783729,"connected_time":4179000000000,"state":"active","ping":47},{"user_id":607,"name":"Not-The-DJ","steam_id":76561198027932833,"connected_time":1276000000000,"state":"active","ping":72},{"user_id":613,"name":"ExplosiveGamer21","steam_id":76561198132370955,"connected_time":1161000000000,"state":"active","ping":114},{"user_id":551,"name":"jesterorb","steam_id":76561197966073560,"connected_time":5879000000000,"state":"active","ping":109},{"user_id":626,"name":"bobbyreinman2009","steam_id":76561198804763186,"connected_time":6000000000,"state":"spawning","ping":63},{"user_id":623,"name":"ARegularJohnDoe","steam_id":76561198015020139,"connected_time":186000000000,"state":"active","ping":60},{"user_id":618,"name":"honk","steam_id":76561198050398028,"connected_time":515000000000,"state":"active","ping":54},{"user_id":616,"name":"103.3 Smut Radio Hour","steam_id":76561198208948773,"connected_time":1053000000000,"state":"active","ping":96},{"user_id":552,"name":"TaintedSyringe","steam_id":76561197971301772,"connected_time":5506000000000,"state":"active","ping":77},{"user_id":624,"name":"Friggy","steam_id":76561198131467867,"connected_time":149000000000,"state":"active","ping":80},{"user_id":574,"name":"Fiendish Frog","steam_id":76561198029478821,"connected_time":4378000000000,"state":"active","ping":70}]},{"server_id":403,"name":"Uncletopia | Chicago | 4 | All Maps","name_short":"chi-4","host":"chi-1.us.uncletopia.com","port":27045,"enabled":true,"region":"us-central","cc":"us","latitude":41.881832,"longitude":-87.62318,"reserved":0,"last_update":"0001-01-01T00:00:00Z","name_a2s":"Uncletopia | Chicago | 4 | All Maps","protocol":17,"map":"pl_swiftwater_final1","folder":"tf","game":"Team Fortress","app_id":440,"player_count":0,"max_players":24,"Bots":0,"server_type":"Dedicated","server_os":"Linux","password":true,"vac":true,"version":"7757534","steam_id":85568392924515193,"keywords":["nocrits","nodmgspread","payload","uncletopia"],"game_id":440,"stv_port":27046,"stv_name":"Uncletopia | Chicago | 4 | All Maps | STV","players":null},{"server_id":36,"name":"Uncletopia | Chicago | 5 | All Maps","name_short":"chi-5","host":"chi-2.us.uncletopia.com","port":27015,"enabled":true,"region":"us-central","cc":"us","latitude":41.881832,"longitude":-87.62318,"reserved":0,"last_update":"0001-01-01T00:00:00Z","name_a2s":"Uncletopia | Chicago | 5 | All Maps","protocol":17,"map":"koth_viaduct","folder":"tf","game":"Team Fortress","app_id":440,"player_count":0,"max_players":24,"Bots":0,"server_type":"Dedicated","server_os":"Linux","password":true,"vac":true,"version":"7757534","steam_id":85568392924866362,"keywords":["cp","nocrits","nodmgspread","uncletopia"],"game_id":440,"stv_port":27016,"stv_name":"Uncletopia | Chicago | 5 | All Maps | STV","players":null},{"server_id":37,"name":"Uncletopia | Chicago | 6 | All Maps","name_short":"chi-6","host":"chi-2.us.uncletopia.com","port":27025,"enabled":true,"region":"us-central","cc":"us","latitude":41.881832,"longitude":-87.62318,"reserved":0,"last_update":"0001-01-01T00:00:00Z","name_a2s":"Uncletopia | Chicago | 6 | All Maps","protocol":17,"map":"cp_altitude","folder":"tf","game":"Team Fortress","app_id":440,"player_count":0,"max_players":24,"Bots":0,"server_type":"Dedicated","server_os":"Linux","password":true,"vac":true,"version":"7757534","steam_id":85568392924866363,"keywords":["cp","nocrits","nodmgspread","uncletopia"],"game_id":440,"stv_port":27026,"stv_name":"Uncletopia | Chicago | 6 | All Maps | STV","players":null},{"server_id":38,"name":"Uncletopia | Chicago | 7 | Stopwatch Beta","name_short":"chi-7","host":"chi-2.us.uncletopia.com","port":27035,"enabled":true,"region":"us-central","cc":"us","latitude":41.881832,"longitude":-87.62318,"reserved":0,"last_update":"0001-01-01T00:00:00Z","name_a2s":"Uncletopia | Chicago | 7 | Stopwatch Beta","protocol":17,"map":"pl_upward","folder":"tf","game":"Team Fortress","app_id":440,"player_count":0,"max_players":24,"Bots":0,"server_type":"Dedicated","server_os":"Linux","password":true,"vac":true,"version":"7757534","steam_id":85568392924866364,"keywords":["nocrits","nodmgspread","payload","uncletopia"],"game_id":440,"stv_port":27036,"stv_name":"Uncletopia | Chicago | 7 | Stopwatch Beta | STV","players":null},{"server_id":39,"name":"Uncletopia | Chicago | 8 | Community","name_short":"chi-8","host":"chi-2.us.uncletopia.com","port":27045,"enabled":true,"region":"us-central","cc":"us","latitude":41.881832,"longitude":-87.62318,"reserved":0,"last_update":"0001-01-01T00:00:00Z","name_a2s":"Uncletopia | Chicago | 8 | Community","protocol":17,"map":"workshop/pl_fifthcurve_rc1.ugc648227046","folder":"tf","game":"Team Fortress","app_id":440,"player_count":0,"max_players":24,"Bots":0,"server_type":"Dedicated","server_os":"Linux","password":true,"vac":true,"version":"7757534","steam_id":85568392924866365,"keywords":["nocrits","nodmgspread","payload","uncletopia"],"game_id":440,"stv_port":27046,"stv_name":"Uncletopia | Chicago | 8 | Community | STV","players":null},{"server_id":8,"name":"Uncletopia | Dallas | 1 | All Maps","name_short":"dal-1","host":"dal-1.us.uncletopia.com","port":27015,"enabled":true,"region":"us-central","cc":"us","latitude":32.779167,"longitude":-96.80889,"reserved":0,"last_update":"0001-01-01T00:00:00Z","name_a2s":"Uncletopia | Dallas | 1 | All Maps","protocol":17,"map":"pl_badwater","folder":"tf","game":"Team Fortress","app_id":440,"player_count":13,"max_players":24,"Bots":0,"server_type":"Dedicated","server_os":"Linux","password":true,"vac":true,"version":"7757534","steam_id":85568392924469986,"keywords":["nocrits","nodmgspread","payload","uncletopia"],"game_id":440,"stv_port":27016,"stv_name":"Uncletopia | Dallas | 1 | All Maps | STV","players":[{"user_id":752,"name":"J O S H³²","steam_id":76561198122603779,"connected_time":69000000000,"state":"active","ping":133},{"user_id":734,"name":"Weegeee","steam_id":76561198049000586,"connected_time":2295000000000,"state":"active","ping":65},{"user_id":751,"name":"Weh","steam_id":76561198098503233,"connected_time":277000000000,"state":"active","ping":55},{"user_id":753,"name":"ƐՌѴƳ","steam_id":76561198099470277,"connected_time":51000000000,"state":"active","ping":85},{"user_id":754,"name":"gravy","steam_id":76561198089644778,"connected_time":2000000000,"state":"spawning","ping":70},{"user_id":718,"name":"robot with human hair","steam_id":76561198018691308,"connected_time":2842000000000,"state":"active","ping":88},{"user_id":696,"name":"saucy jack","steam_id":76561198307012859,"connected_time":4735000000000,"state":"active","ping":93},{"user_id":731,"name":"Burny Sanders","steam_id":76561197961879048,"connected_time":2395000000000,"state":"active","ping":30},{"user_id":715,"name":"soultheori","steam_id":76561198065538342,"connected_time":3220000000000,"state":"active","ping":58},{"user_id":746,"name":"Painkiller","steam_id":76561198049787400,"connected_time":1629000000000,"state":"active","ping":63},{"user_id":723,"name":"Kink Daddy Tex","steam_id":76561198040700875,"connected_time":2631000000000,"state":"active","ping":46},{"user_id":724,"name":"BHSPitMonkey","steam_id":76561198022150506,"connected_time":2603000000000,"state":"active","ping":76},{"user_id":741,"name":"Twixtwolf | HM |","steam_id":76561198873746991,"connected_time":1891000000000,"state":"active","ping":69}]},{"server_id":108,"name":"Uncletopia | Dallas | 2 | All Maps","name_short":"dal-2","host":"dal-1.us.uncletopia.com","port":27025,"enabled":true,"region":"us-central","cc":"us","latitude":32.779167,"longitude":-96.80889,"reserved":0,"last_update":"0001-01-01T00:00:00Z","name_a2s":"Uncletopia | Dallas | 2 | All Maps","protocol":17,"map":"koth_highpass","folder":"tf","game":"Team Fortress","app_id":440,"player_count":0,"max_players":24,"Bots":0,"server_type":"Dedicated","server_os":"Linux","password":true,"vac":true,"version":"7757534","steam_id":85568392924469988,"keywords":["cp","nocrits","nodmgspread","uncletopia"],"game_id":440,"stv_port":27026,"stv_name":"Uncletopia | Dallas | 2 | All Maps | STV","players":null},{"server_id":5,"name":"Uncletopia | Frankfurt | 1 | All Maps","name_short":"frk-1","host":"frk-1.de.uncletopia.com","port":27015,"enabled":true,"region":"eu","cc":"de","latitude":50.110924,"longitude":8.682127,"reserved":0,"last_update":"0001-01-01T00:00:00Z","name_a2s":"Uncletopia | Frankfurt | 1 | All Maps","protocol":17,"map":"pl_swiftwater_final1","folder":"tf","game":"Team Fortress","app_id":440,"player_count":0,"max_players":24,"Bots":0,"server_type":"Dedicated","server_os":"Linux","password":true,"vac":true,"version":"7757534","steam_id":85568392924469989,"keywords":["nocrits","nodmgspread","payload","uncletopia"],"game_id":440,"stv_port":27016,"stv_name":"Uncletopia | Frankfurt | 1 | All Maps | STV","players":null},{"server_id":110,"name":"Uncletopia | Frankfurt | 2 | All Maps","name_short":"frk-2","host":"frk-1.de.uncletopia.com","port":27025,"enabled":true,"region":"eu","cc":"de","latitude":50.110924,"longitude":8.682127,"reserved":0,"last_update":"0001-01-01T00:00:00Z","name_a2s":"Uncletopia | Frankfurt | 2 | All Maps","protocol":17,"map":"pl_snowycoast","folder":"tf","game":"Team Fortress","app_id":440,"player_count":0,"max_players":24,"Bots":0,"server_type":"Dedicated","server_os":"Linux","password":true,"vac":true,"version":"7757534","steam_id":85568392924469990,"keywords":["nocrits","nodmgspread","payload","uncletopia"],"game_id":440,"stv_port":27026,"stv_name":"Uncletopia | Frankfurt | 2 | All Maps | STV","players":null},{"server_id":308,"name":"Uncletopia | Frankfurt | 3 | All Maps","name_short":"frk-3","host":"frk-1.de.uncletopia.com","port":27035,"enabled":true,"region":"eu","cc":"de","latitude":50.110924,"longitude":8.682127,"reserved":0,"last_update":"0001-01-01T00:00:00Z","name_a2s":"Uncletopia | Frankfurt | 3 | All Maps","protocol":17,"map":"pl_upward","folder":"tf","game":"Team Fortress","app_id":440,"player_count":21,"max_players":24,"Bots":0,"server_type":"Dedicated","server_os":"Linux","password":true,"vac":true,"version":"7757534","steam_id":85568392924504274,"keywords":["nocrits","nodmgspread","payload","uncletopia"],"game_id":440,"stv_port":27036,"stv_name":"Uncletopia | Frankfurt | 3 | All Maps | STV","players":[{"user_id":7,"name":"thekoolest88","steam_id":76561199022415672,"connected_time":910000000000,"state":"active","ping":150},{"user_id":8,"name":"dRumata","steam_id":76561198022150210,"connected_time":853000000000,"state":"active","ping":113},{"user_id":9,"name":"bog","steam_id":76561198118412910,"connected_time":799000000000,"state":"active","ping":70},{"user_id":10,"name":"kalwoomba","steam_id":76561198153437860,"connected_time":777000000000,"state":"active","ping":176},{"user_id":11,"name":"Deacon Dracul","steam_id":76561198046880663,"connected_time":757000000000,"state":"active","ping":98},{"user_id":13,"name":"Pan Pan","steam_id":76561199074670515,"connected_time":429000000000,"state":"active","ping":75},{"user_id":14,"name":"...","steam_id":76561198969234594,"connected_time":413000000000,"state":"active","ping":66},{"user_id":15,"name":"Osmo","steam_id":76561199286764992,"connected_time":371000000000,"state":"active","ping":74},{"user_id":16,"name":"ala7mari","steam_id":76561199260819748,"connected_time":317000000000,"state":"active","ping":449},{"user_id":17,"name":"Allereinan","steam_id":76561198342239906,"connected_time":283000000000,"state":"active","ping":110},{"user_id":18,"name":"Clamor_","steam_id":76561198104368295,"connected_time":266000000000,"state":"active","ping":81},{"user_id":19,"name":"El Presidente #savetf2","steam_id":76561198302711029,"connected_time":198000000000,"state":"active","ping":75},{"user_id":20,"name":"Arvi","steam_id":76561199147793578,"connected_time":176000000000,"state":"active","ping":87},{"user_id":21,"name":"Legion of Power Liches","steam_id":76561199414716848,"connected_time":157000000000,"state":"active","ping":74},{"user_id":22,"name":"(wm) Das Fleisch","steam_id":76561198001250715,"connected_time":142000000000,"state":"active","ping":55},{"user_id":23,"name":"Guy with squares as username","steam_id":76561198269524918,"connected_time":138000000000,"state":"active","ping":53},{"user_id":27,"name":"fmdi","steam_id":76561199433879329,"connected_time":91000000000,"state":"active","ping":60},{"user_id":25,"name":"Sneaky boi","steam_id":76561199195985387,"connected_time":120000000000,"state":"active","ping":157},{"user_id":26,"name":"galaxy","steam_id":76561198164819022,"connected_time":108000000000,"state":"active","ping":70},{"user_id":28,"name":"ikeaworst","steam_id":76561198936990378,"connected_time":44000000000,"state":"active","ping":70},{"user_id":29,"name":"I LOVE THE HIGH GROUND","steam_id":76561198989449047,"connected_time":33000000000,"state":"active","ping":133}]},{"server_id":309,"name":"Uncletopia | Frankfurt | 4 | All Maps","name_short":"frk-4","host":"frk-1.de.uncletopia.com","port":27045,"enabled":true,"region":"eu","cc":"de","latitude":50.110924,"longitude":8.682127,"reserved":0,"last_update":"0001-01-01T00:00:00Z","name_a2s":"Uncletopia | Frankfurt | 4 | All Maps","protocol":17,"map":"cp_altitude","folder":"tf","game":"Team Fortress","app_id":440,"player_count":0,"max_players":24,"Bots":0,"server_type":"Dedicated","server_os":"Linux","password":true,"vac":true,"version":"7757534","steam_id":85568392924504275,"keywords":["cp","nocrits","nodmgspread","uncletopia"],"game_id":440,"stv_port":27046,"stv_name":"Uncletopia | Frankfurt | 4 | All Maps | STV","players":null},{"server_id":310,"name":"Uncletopia | Frankfurt | 5 | All Maps","name_short":"frk-5","host":"frk-1.de.uncletopia.com","port":27055,"enabled":true,"region":"eu","cc":"de","latitude":50.110924,"longitude":8.682127,"reserved":0,"last_update":"0001-01-01T00:00:00Z","name_a2s":"Uncletopia | Frankfurt | 5 | All Maps","protocol":17,"map":"cp_altitude","folder":"tf","game":"Team Fortress","app_id":440,"player_count":0,"max_players":24,"Bots":0,"server_type":"Dedicated","server_os":"Linux","password":true,"vac":true,"version":"7757534","steam_id":85568392924504277,"keywords":["cp","nocrits","nodmgspread","uncletopia"],"game_id":440,"stv_port":27056,"stv_name":"Uncletopia | Frankfurt | 5 | All Maps | STV","players":null},{"server_id":311,"name":"Uncletopia | Frankfurt | 6 | All Maps","name_short":"frk-6","host":"frk-1.de.uncletopia.com","port":27065,"enabled":true,"region":"eu","cc":"de","latitude":50.110924,"longitude":8.682127,"reserved":0,"last_update":"0001-01-01T00:00:00Z","name_a2s":"Uncletopia | Frankfurt | 6 | All Maps","protocol":17,"map":"koth_highpass","folder":"tf","game":"Team Fortress","app_id":440,"player_count":1,"max_players":24,"Bots":0,"server_type":"Dedicated","server_os":"Linux","password":true,"vac":true,"version":"7757534","steam_id":85568392924504278,"keywords":["cp","nocrits","nodmgspread","uncletopia"],"game_id":440,"stv_port":27066,"stv_name":"Uncletopia | Frankfurt | 6 | All Maps | STV","players":[{"user_id":9,"name":"Denialman (Muted)","steam_id":76561198309182092,"connected_time":143000000000,"state":"active","ping":55}]},{"server_id":23,"name":"Uncletopia | Frankfurt | 7 | Stopwatch Beta","name_short":"frk-7","host":"frk-1.de.uncletopia.com","port":27075,"enabled":true,"region":"eu","cc":"de","latitude":50.110924,"longitude":8.682127,"reserved":0,"last_update":"0001-01-01T00:00:00Z","name_a2s":"Uncletopia | Frankfurt | 7 | Stopwatch Beta","protocol":17,"map":"pl_frontier_final","folder":"tf","game":"Team Fortress","app_id":440,"player_count":0,"max_players":24,"Bots":0,"server_type":"Dedicated","server_os":"Linux","password":true,"vac":true,"version":"7757534","steam_id":85568392924742827,"keywords":["nocrits","nodmgspread","payload","uncletopia"],"game_id":440,"stv_port":27076,"stv_name":"Uncletopia | Frankfurt | 7 | Stopwatch Beta | STV","players":null},{"server_id":24,"name":"Uncletopia | Frankfurt | 8 | Community","name_short":"frk-8","host":"frk-1.de.uncletopia.com","port":27085,"enabled":true,"region":"eu","cc":"de","latitude":50.110924,"longitude":8.682127,"reserved":0,"last_update":"0001-01-01T00:00:00Z","name_a2s":"Uncletopia | Frankfurt | 8 | Community","protocol":17,"map":"pl_badwater","folder":"tf","game":"Team Fortress","app_id":440,"player_count":0,"max_players":24,"Bots":0,"server_type":"Dedicated","server_os":"Linux","password":true,"vac":true,"version":"7757534","steam_id":85568392924742828,"keywords":["nocrits","nodmgspread","payload","uncletopia"],"game_id":440,"stv_port":27086,"stv_name":"Uncletopia | Frankfurt | 8 | Community | STV","players":null},{"server_id":202,"name":"Uncletopia | Hong Kong | 1 | All Maps","name_short":"hgk-1","host":"hgk-1.hk.uncletopia.com","port":27015,"enabled":true,"region":"asia","cc":"hk","latitude":22.302711,"longitude":114.177216,"reserved":0,"last_update":"0001-01-01T00:00:00Z","name_a2s":"Uncletopia | Hong Kong | 1 | All Maps","protocol":17,"map":"cp_sunshine","folder":"tf","game":"Team Fortress","app_id":440,"player_count":24,"max_players":24,"Bots":0,"server_type":"Dedicated","server_os":"Linux","password":true,"vac":true,"version":"7757534","steam_id":85568392924494504,"keywords":["cp","nocrits","nodmgspread","uncletopia"],"game_id":440,"stv_port":27016,"stv_name":"Uncletopia | Hong Kong | 1 | All Maps | STV","players":[{"user_id":384,"name":"Klutz","steam_id":76561199466998211,"connected_time":2528000000000,"state":"active","ping":164},{"user_id":724,"name":"screaming sniper","steam_id":76561199085568674,"connected_time":153000000000,"state":"active","ping":65},{"user_id":611,"name":"Paragon","steam_id":76561197983816430,"connected_time":885000000000,"state":"active","ping":121},{"user_id":117,"name":"✧BaKa BAzooKA✧(◕▿◕ )","steam_id":76561198061628689,"connected_time":8910000000000,"state":"active","ping":54},{"user_id":669,"name":"TARTAN TYROLEAN FOR 2.66 REFINE","steam_id":76561198981987710,"connected_time":558000000000,"state":"active","ping":97},{"user_id":658,"name":"brizzard","steam_id":76561198048438653,"connected_time":582000000000,"state":"active","ping":46},{"user_id":451,"name":"moguizhong","steam_id":76561198152588681,"connected_time":1979000000000,"state":"active","ping":80},{"user_id":696,"name":"P","steam_id":76561198304514505,"connected_time":475000000000,"state":"active","ping":129},{"user_id":121,"name":"vanidy \u003c3","steam_id":76561198147851090,"connected_time":7786000000000,"state":"active","ping":81},{"user_id":284,"name":":)","steam_id":76561198437941450,"connected_time":4120000000000,"state":"active","ping":85},{"user_id":134,"name":"silverhouse7","steam_id":76561198349634906,"connected_time":7225000000000,"state":"active","ping":90},{"user_id":713,"name":"happyman","steam_id":76561198045585030,"connected_time":358000000000,"state":"active","ping":63},{"user_id":154,"name":"Socello123","steam_id":76561198400838979,"connected_time":6168000000000,"state":"active","ping":102},{"user_id":667,"name":"sloth of the fragment clan","steam_id":76561198214192048,"connected_time":564000000000,"state":"active","ping":99},{"user_id":291,"name":"Nasi Lemak Gaming","steam_id":76561198082921407,"connected_time":3833000000000,"state":"active","ping":83},{"user_id":114,"name":"MsD IV","steam_id":76561198059707655,"connected_time":9298000000000,"state":"active","ping":70},{"user_id":381,"name":"Pillboi","steam_id":76561198011172886,"connected_time":2539000000000,"state":"active","ping":39},{"user_id":386,"name":"bravo","steam_id":76561199081419313,"connected_time":2524000000000,"state":"active","ping":73},{"user_id":485,"name":"rtgod","steam_id":76561198125363469,"connected_time":1621000000000,"state":"active","ping":82},{"user_id":672,"name":"turd","steam_id":76561199006212966,"connected_time":557000000000,"state":"active","ping":89},{"user_id":44,"name":"Urotsuki","steam_id":76561198074339034,"connected_time":17625000000000,"state":"active","ping":77},{"user_id":195,"name":"linne","steam_id":76561198230213828,"connected_time":5591000000000,"state":"active","ping":60},{"user_id":129,"name":"let cook","steam_id":76561198055553140,"connected_time":7274000000000,"state":"active","ping":76},{"user_id":654,"name":"Wx","steam_id":76561199217780897,"connected_time":605000000000,"state":"active","ping":103}]},{"server_id":1,"name":"Uncletopia | Los Angeles | 1 | All Maps","name_short":"lax-1","host":"lax-1.us.uncletopia.com","port":27015,"enabled":true,"region":"us-west","cc":"us","latitude":33.94279,"longitude":-118.41004,"reserved":0,"last_update":"0001-01-01T00:00:00Z","name_a2s":"Uncletopia | Los Angeles | 1 | All Maps","protocol":17,"map":"pl_snowycoast","folder":"tf","game":"Team Fortress","app_id":440,"player_count":0,"max_players":24,"Bots":0,"server_type":"Dedicated","server_os":"Linux","password":true,"vac":true,"version":"7757534","steam_id":85568392924469991,"keywords":["nocrits","nodmgspread","payload","uncletopia"],"game_id":440,"stv_port":27016,"stv_name":"Uncletopia | Los Angeles | 1 | All Maps | STV","players":null},{"server_id":112,"name":"Uncletopia | Los Angeles | 2 | All Maps","name_short":"lax-2","host":"lax-1.us.uncletopia.com","port":27025,"enabled":true,"region":"us-west","cc":"us","latitude":33.94279,"longitude":-118.41004,"reserved":0,"last_update":"0001-01-01T00:00:00Z","name_a2s":"Uncletopia | Los Angeles | 2 | All Maps","protocol":17,"map":"pl_upward","folder":"tf","game":"Team Fortress","app_id":440,"player_count":0,"max_players":24,"Bots":0,"server_type":"Dedicated","server_os":"Linux","password":true,"vac":true,"version":"7757534","steam_id":85568392924469992,"keywords":["nocrits","nodmgspread","payload","uncletopia"],"game_id":440,"stv_port":27026,"stv_name":"Uncletopia | Los Angeles | 2 | All Maps | STV","players":null},{"server_id":324,"name":"Uncletopia | Los Angeles | 3 | All Maps","name_short":"lax-3","host":"lax-1.us.uncletopia.com","port":27035,"enabled":true,"region":"us-west","cc":"us","latitude":33.94279,"longitude":-118.41004,"reserved":0,"last_update":"0001-01-01T00:00:00Z","name_a2s":"Uncletopia | Los Angeles | 3 | All Maps","protocol":17,"map":"pl_snowycoast","folder":"tf","game":"Team Fortress","app_id":440,"player_count":0,"max_players":24,"Bots":0,"server_type":"Dedicated","server_os":"Linux","password":true,"vac":true,"version":"7757534","steam_id":85568392924510198,"keywords":["nocrits","nodmgspread","payload","uncletopia"],"game_id":440,"stv_port":27036,"stv_name":"Uncletopia | Los Angeles | 3 | All Maps | STV","players":null},{"server_id":25,"name":"Uncletopia | Los Angeles | 4 | Stopwatch Beta","name_short":"lax-4","host":"lax-1.us.uncletopia.com","port":27045,"enabled":true,"region":"us-west","cc":"us","latitude":33.94279,"longitude":-118.41004,"reserved":0,"last_update":"0001-01-01T00:00:00Z","name_a2s":"Uncletopia | Los Angeles | 4 | Stopwatch Beta","protocol":17,"map":"pl_frontier_final","folder":"tf","game":"Team Fortress","app_id":440,"player_count":0,"max_players":24,"Bots":0,"server_type":"Dedicated","server_os":"Linux","password":true,"vac":true,"version":"7757534","steam_id":85568392924510199,"keywords":["nocrits","nodmgspread","payload","uncletopia"],"game_id":440,"stv_port":27046,"stv_name":"Uncletopia | Los Angeles | 4 | Stopwatch Beta | STV","players":null},{"server_id":11,"name":"Uncletopia | London | 1 | All Maps","name_short":"lon-1","host":"lon-1.uk.uncletopia.com","port":27015,"enabled":true,"region":"eu","cc":"gb","latitude":51.509865,"longitude":-0.118092,"reserved":0,"last_update":"0001-01-01T00:00:00Z","name_a2s":"Uncletopia | London | 1 | All Maps","protocol":17,"map":"koth_viaduct","folder":"tf","game":"Team Fortress","app_id":440,"player_count":0,"max_players":24,"Bots":0,"server_type":"Dedicated","server_os":"Linux","password":true,"vac":true,"version":"7757534","steam_id":85568392924367362,"keywords":["cp","nocrits","nodmgspread","uncletopia"],"game_id":440,"stv_port":27016,"stv_name":"Uncletopia | London | 1 | All Maps | STV","players":null},{"server_id":114,"name":"Uncletopia | London | 2 | All Maps","name_short":"lon-2","host":"lon-1.uk.uncletopia.com","port":27025,"enabled":true,"region":"eu","cc":"gb","latitude":51.509865,"longitude":-0.118092,"reserved":0,"last_update":"0001-01-01T00:00:00Z","name_a2s":"Uncletopia | London | 2 | All Maps","protocol":17,"map":"cp_dustbowl","folder":"tf","game":"Team Fortress","app_id":440,"player_count":0,"max_players":24,"Bots":0,"server_type":"Dedicated","server_os":"Linux","password":true,"vac":true,"version":"7757534","steam_id":85568392924470941,"keywords":["cp","nocrits","nodmgspread","uncletopia"],"game_id":440,"stv_port":27026,"stv_name":"Uncletopia | London | 2 | All Maps | STV","players":null},{"server_id":320,"name":"Uncletopia | London | 3 | All Maps","name_short":"lon-3","host":"lon-1.uk.uncletopia.com","port":27035,"enabled":true,"region":"eu","cc":"gb","latitude":51.509865,"longitude":-0.118092,"reserved":0,"last_update":"0001-01-01T00:00:00Z","name_a2s":"Uncletopia | London | 3 | All Maps","protocol":17,"map":"pl_badwater","folder":"tf","game":"Team Fortress","app_id":440,"player_count":0,"max_players":24,"Bots":0,"server_type":"Dedicated","server_os":"Linux","password":true,"vac":true,"version":"7757534","steam_id":85568392924510192,"keywords":["nocrits","nodmgspread","payload","uncletopia"],"game_id":440,"stv_port":27036,"stv_name":"Uncletopia | London | 3 | All Maps | STV","players":null},{"server_id":321,"name":"Uncletopia | London | 4 | All Maps","name_short":"lon-4","host":"lon-1.uk.uncletopia.com","port":27045,"enabled":true,"region":"eu","cc":"gb","latitude":51.509865,"longitude":-0.118092,"reserved":0,"last_update":"0001-01-01T00:00:00Z","name_a2s":"Uncletopia | London | 4 | All Maps","protocol":17,"map":"koth_viaduct","folder":"tf","game":"Team Fortress","app_id":440,"player_count":0,"max_players":24,"Bots":0,"server_type":"Dedicated","server_os":"Linux","password":true,"vac":true,"version":"7757534","steam_id":85568392924510193,"keywords":["cp","nocrits","nodmgspread","uncletopia"],"game_id":440,"stv_port":27046,"stv_name":"Uncletopia | London | 4 | All Maps | STV","players":null},{"server_id":21,"name":"Uncletopia | London | 5 | All Maps","name_short":"lon-5","host":"lon-1.uk.uncletopia.com","port":27055,"enabled":true,"region":"eu","cc":"gb","latitude":51.509865,"longitude":-0.118092,"reserved":0,"last_update":"0001-01-01T00:00:00Z","name_a2s":"Uncletopia | London | 5 | All Maps","protocol":17,"map":"cp_snakewater_final1","folder":"tf","game":"Team Fortress","app_id":440,"player_count":0,"max_players":24,"Bots":0,"server_type":"Dedicated","server_os":"Linux","password":true,"vac":true,"version":"7757534","steam_id":85568392924742829,"keywords":["cp","nocrits","nodmgspread","uncletopia"],"game_id":440,"stv_port":27056,"stv_name":"Uncletopia | London | 5 | All Maps | STV","players":null},{"server_id":22,"name":"Uncletopia | London | 6 | All Maps","name_short":"lon-6","host":"lon-1.uk.uncletopia.com","port":27065,"enabled":true,"region":"eu","cc":"gb","latitude":51.509865,"longitude":-0.118092,"reserved":0,"last_update":"0001-01-01T00:00:00Z","name_a2s":"Uncletopia | London | 6 | All Maps","protocol":17,"map":"koth_cascade","folder":"tf","game":"Team Fortress","app_id":440,"player_count":0,"max_players":24,"Bots":0,"server_type":"Dedicated","server_os":"Linux","password":true,"vac":true,"version":"7757534","steam_id":85568392924742830,"keywords":["cp","nocrits","nodmgspread","uncletopia"],"game_id":440,"stv_port":27066,"stv_name":"Uncletopia | London | 6 | All Maps | STV","players":null},{"server_id":40,"name":"Uncletopia | London | 7 | No Payload","name_short":"lon-7","host":"lon-1.uk.uncletopia.com","port":27075,"enabled":true,"region":"eu","cc":"gb","latitude":51.509865,"longitude":-0.118092,"reserved":0,"last_update":"0001-01-01T00:00:00Z","name_a2s":"Uncletopia | London | 7 | No Payload","protocol":17,"map":"cp_process_final","folder":"tf","game":"Team Fortress","app_id":440,"player_count":0,"max_players":24,"Bots":0,"server_type":"Dedicated","server_os":"Linux","password":true,"vac":true,"version":"7757534","steam_id":85568392924964314,"keywords":["cp","nocrits","nodmgspread","uncletopia"],"game_id":440,"stv_port":27076,"stv_name":"Uncletopia | London | 7 | No Payload | STV","players":null},{"server_id":41,"name":"Uncletopia | London | 8 | Community","name_short":"lon-8","host":"lon-1.uk.uncletopia.com","port":27085,"enabled":true,"region":"eu","cc":"gb","latitude":51.509865,"longitude":-0.118092,"reserved":0,"last_update":"0001-01-01T00:00:00Z","name_a2s":"Uncletopia | London | 8 | Community","protocol":17,"map":"pl_upward","folder":"tf","game":"Team Fortress","app_id":440,"player_count":0,"max_players":24,"Bots":0,"server_type":"Dedicated","server_os":"Linux","password":true,"vac":true,"version":"7757534","steam_id":85568392924964315,"keywords":["nocrits","nodmgspread","payload","uncletopia"],"game_id":440,"stv_port":27086,"stv_name":"Uncletopia | London | 8 | Community | STV","players":null},{"server_id":300,"name":"Uncletopia | Montréal | 1 | All Maps","name_short":"mtl-1","host":"mtl-1.ca.uncletopia.com","port":27015,"enabled":true,"region":"us-east","cc":"ca","latitude":45.50889,"longitude":-73.56167,"reserved":0,"last_update":"0001-01-01T00:00:00Z","name_a2s":"Uncletopia | Montréal | 1 | All Maps","protocol":17,"map":"pl_barnblitz","folder":"tf","game":"Team Fortress","app_id":440,"player_count":0,"max_players":24,"Bots":0,"server_type":"Dedicated","server_os":"Linux","password":true,"vac":true,"version":"7757534","steam_id":85568392924500087,"keywords":["nocrits","nodmgspread","payload","uncletopia"],"game_id":440,"stv_port":27016,"stv_name":"Uncletopia | Montréal | 1 | All Maps | STV","players":null},{"server_id":301,"name":"Uncletopia | Montréal | 2 | All Maps","name_short":"mtl-2","host":"mtl-1.ca.uncletopia.com","port":27025,"enabled":true,"region":"us-east","cc":"ca","latitude":45.50889,"longitude":-73.56167,"reserved":0,"last_update":"0001-01-01T00:00:00Z","name_a2s":"Uncletopia | Montréal | 2 | All Maps","protocol":17,"map":"koth_lakeside_final","folder":"tf","game":"Team Fortress","app_id":440,"player_count":0,"max_players":24,"Bots":0,"server_type":"Dedicated","server_os":"Linux","password":true,"vac":true,"version":"7757534","steam_id":85568392924500088,"keywords":["cp","nocrits","nodmgspread","uncletopia"],"game_id":440,"stv_port":27026,"stv_name":"Uncletopia | Montréal | 2 | All Maps | STV","players":null},{"server_id":302,"name":"Uncletopia | Montréal | 3 | All Maps","name_short":"mtl-3","host":"mtl-1.ca.uncletopia.com","port":27035,"enabled":true,"region":"us-east","cc":"ca","latitude":45.50889,"longitude":-73.56167,"reserved":0,"last_update":"0001-01-01T00:00:00Z","name_a2s":"Uncletopia | Montréal | 3 | All Maps","protocol":17,"map":"koth_lakeside_final","folder":"tf","game":"Team Fortress","app_id":440,"player_count":0,"max_players":24,"Bots":0,"server_type":"Dedicated","server_os":"Linux","password":true,"vac":true,"version":"7757534","steam_id":85568392924500089,"keywords":["cp","nocrits","nodmgspread","uncletopia"],"game_id":440,"stv_port":27036,"stv_name":"Uncletopia | Montréal | 3 | All Maps | STV","players":null},{"server_id":303,"name":"Uncletopia | Montréal | 4 | No Payload","name_short":"mtl-4","host":"mtl-1.ca.uncletopia.com","port":27045,"enabled":true,"region":"us-east","cc":"ca","latitude":45.50889,"longitude":-73.56167,"reserved":0,"last_update":"0001-01-01T00:00:00Z","name_a2s":"Uncletopia | Montréal | 4 | No Payload","protocol":17,"map":"pl_borneo","folder":"tf","game":"Team Fortress","app_id":440,"player_count":0,"max_players":24,"Bots":0,"server_type":"Dedicated","server_os":"Linux","password":true,"vac":true,"version":"7757534","steam_id":85568392924500090,"keywords":["nocrits","nodmgspread","payload","uncletopia"],"game_id":440,"stv_port":27046,"stv_name":"Uncletopia | Montréal | 4 | No Payload | STV","players":null},{"server_id":13,"name":"Uncletopia | New York City | 1 | All Maps","name_short":"nyc-1","host":"nyc-1.us.uncletopia.com","port":27015,"enabled":true,"region":"us-east","cc":"us","latitude":40.73061,"longitude":-73.93524,"reserved":0,"last_update":"0001-01-01T00:00:00Z","name_a2s":"Uncletopia | New York City | 1 | All Maps","protocol":17,"map":"pl_swiftwater_final1","folder":"tf","game":"Team Fortress","app_id":440,"player_count":0,"max_players":24,"Bots":0,"server_type":"Dedicated","server_os":"Linux","password":true,"vac":true,"version":"7757534","steam_id":85568392924469993,"keywords":["nocrits","nodmgspread","payload","uncletopia"],"game_id":440,"stv_port":27016,"stv_name":"Uncletopia | New York City | 1 | All Maps | STV","players":null},{"server_id":14,"name":"Uncletopia | New York City | 2 | All Maps","name_short":"nyc-2","host":"nyc-1.us.uncletopia.com","port":27025,"enabled":true,"region":"us-east","cc":"us","latitude":40.73061,"longitude":-73.93524,"reserved":0,"last_update":"0001-01-01T00:00:00Z","name_a2s":"Uncletopia | New York City | 2 | All Maps","protocol":17,"map":"cp_altitude","folder":"tf","game":"Team Fortress","app_id":440,"player_count":0,"max_players":24,"Bots":0,"server_type":"Dedicated","server_os":"Linux","password":true,"vac":true,"version":"7757534","steam_id":85568392924469994,"keywords":["cp","nocrits","nodmgspread","uncletopia"],"game_id":440,"stv_port":27026,"stv_name":"Uncletopia | New York City | 2 | All Maps | STV","players":null},{"server_id":15,"name":"Uncletopia | New York City | 3 | Stopwatch Beta","name_short":"nyc-3","host":"nyc-1.us.uncletopia.com","port":27035,"enabled":true,"region":"us-east","cc":"us","latitude":40.73061,"longitude":-73.93524,"reserved":0,"last_update":"0001-01-01T00:00:00Z","name_a2s":"Uncletopia | New York City | 3 | Stopwatch Beta","protocol":17,"map":"workshop/koth_ashville_final.ugc2130459942","folder":"tf","game":"Team Fortress","app_id":440,"player_count":0,"max_players":24,"Bots":0,"server_type":"Dedicated","server_os":"Linux","password":true,"vac":true,"version":"7757534","steam_id":85568392924742820,"keywords":["cp","nocrits","nodmgspread","uncletopia"],"game_id":440,"stv_port":27036,"stv_name":"Uncletopia | New York City | 3 | Stopwatch Beta | STV","players":null},{"server_id":16,"name":"Uncletopia | New York City | 4 | Community","name_short":"nyc-4","host":"nyc-1.us.uncletopia.com","port":27045,"enabled":true,"region":"us-east","cc":"us","latitude":40.73061,"longitude":-73.93524,"reserved":0,"last_update":"0001-01-01T00:00:00Z","name_a2s":"Uncletopia | New York City | 4 | Community","protocol":17,"map":"workshop/koth_bagel_rc6.ugc2514036946","folder":"tf","game":"Team Fortress","app_id":440,"player_count":0,"max_players":24,"Bots":0,"server_type":"Dedicated","server_os":"Linux","password":true,"vac":true,"version":"7757534","steam_id":85568392924742821,"keywords":["cp","nocrits","nodmgspread","uncletopia"],"game_id":440,"stv_port":27046,"stv_name":"Uncletopia | New York City | 4 | Community | STV","players":null},{"server_id":142,"name":"Uncletopia | São Paulo | 1 | All Maps","name_short":"sao-1","host":"sao-1.br.uncletopia.com","port":27015,"enabled":true,"region":"sa","cc":"br","latitude":-23.533773,"longitude":-46.62529,"reserved":0,"last_update":"0001-01-01T00:00:00Z","name_a2s":"Uncletopia | São Paulo | 1 | All Maps","protocol":17,"map":"pl_pier","folder":"tf","game":"Team Fortress","app_id":440,"player_count":0,"max_players":24,"Bots":0,"server_type":"Dedicated","server_os":"Linux","password":true,"vac":true,"version":"7757534","steam_id":85568392924469996,"keywords":["nocrits","nodmgspread","payload","uncletopia"],"game_id":440,"stv_port":27016,"stv_name":"Uncletopia | São Paulo | 1 | All Maps | STV","players":null},{"server_id":143,"name":"Uncletopia | São Paulo | 2 | All Maps","name_short":"sao-2","host":"sao-2.br.uncletopia.com","port":27015,"enabled":true,"region":"sa","cc":"br","latitude":-23.533773,"longitude":-46.62529,"reserved":0,"last_update":"0001-01-01T00:00:00Z","name_a2s":"Uncletopia | São Paulo | 2 | All Maps","protocol":17,"map":"koth_viaduct","folder":"tf","game":"Team Fortress","app_id":440,"player_count":0,"max_players":24,"Bots":0,"server_type":"Dedicated","server_os":"Linux","password":true,"vac":true,"version":"7757534","steam_id":85568392924485349,"keywords":["cp","nocrits","nodmgspread","uncletopia"],"game_id":440,"stv_port":27016,"stv_name":"Uncletopia | São Paulo | 2 | All Maps | STV","players":null},{"server_id":7,"name":"Uncletopia | Seattle | 1 | All Maps","name_short":"sea-1","host":"sea-1.us.uncletopia.com","port":27015,"enabled":true,"region":"us-west","cc":"us","latitude":47.608013,"longitude":-122.33517,"reserved":0,"last_update":"0001-01-01T00:00:00Z","name_a2s":"Uncletopia | Seattle | 1 | All Maps","protocol":17,"map":"pl_upward","folder":"tf","game":"Team Fortress","app_id":440,"player_count":8,"max_players":24,"Bots":0,"server_type":"Dedicated","server_os":"Linux","password":true,"vac":true,"version":"7757534","steam_id":85568392924469997,"keywords":["nocrits","nodmgspread","payload","uncletopia"],"game_id":440,"stv_port":27016,"stv_name":"Uncletopia | Seattle | 1 | All Maps | STV","players":[{"user_id":839,"name":"kilroy_39","steam_id":76561198205173325,"connected_time":1493000000000,"state":"active","ping":91},{"user_id":841,"name":"Blue 2001 Subaru Forester","steam_id":76561198161200131,"connected_time":1476000000000,"state":"active","ping":82},{"user_id":842,"name":"Red 1994 Toyota Camry","steam_id":76561198189974469,"connected_time":1472000000000,"state":"active","ping":69},{"user_id":849,"name":"Luv","steam_id":76561199200757524,"connected_time":504000000000,"state":"active","ping":73},{"user_id":848,"name":"deta \"o_O_o_O_o_O_o_O\" zeta","steam_id":76561198143209841,"connected_time":511000000000,"state":"active","ping":74},{"user_id":851,"name":"Henchie!","steam_id":76561198047567464,"connected_time":254000000000,"state":"active","ping":91},{"user_id":852,"name":"BasedGod","steam_id":76561198061177973,"connected_time":200000000000,"state":"active","ping":56},{"user_id":813,"name":"EatSomeBEES","steam_id":76561198047334307,"connected_time":4274000000000,"state":"active","ping":85}]},{"server_id":119,"name":"Uncletopia | Seattle | 2 | All Maps","name_short":"sea-2","host":"sea-1.us.uncletopia.com","port":27025,"enabled":true,"region":"us-west","cc":"us","latitude":47.608013,"longitude":-122.33517,"reserved":0,"last_update":"0001-01-01T00:00:00Z","name_a2s":"Uncletopia | Seattle | 2 | All Maps","protocol":17,"map":"pl_upward","folder":"tf","game":"Team Fortress","app_id":440,"player_count":20,"max_players":24,"Bots":0,"server_type":"Dedicated","server_os":"Linux","password":true,"vac":true,"version":"7757534","steam_id":85568392924469998,"keywords":["nocrits","nodmgspread","payload","uncletopia"],"game_id":440,"stv_port":27026,"stv_name":"Uncletopia | Seattle | 2 | All Maps | STV","players":[{"user_id":909,"name":"Kazuto Kurosaki #savetf2","steam_id":76561199132440619,"connected_time":1774000000000,"state":"spawning","ping":725},{"user_id":859,"name":"Ping","steam_id":76561198072947773,"connected_time":5618000000000,"state":"active","ping":107},{"user_id":927,"name":"seats","steam_id":76561197998756039,"connected_time":720000000000,"state":"active","ping":65},{"user_id":930,"name":"Ash!❤","steam_id":76561198070398840,"connected_time":10000000000,"state":"spawning","ping":1267},{"user_id":796,"name":"Lz","steam_id":76561198445689515,"connected_time":10163000000000,"state":"active","ping":115},{"user_id":862,"name":"Mom","steam_id":76561198207936000,"connected_time":5469000000000,"state":"active","ping":58},{"user_id":911,"name":"PootisLife","steam_id":76561198074400568,"connected_time":1693000000000,"state":"active","ping":44},{"user_id":929,"name":"waert","steam_id":76561198062054335,"connected_time":33000000000,"state":"active","ping":65},{"user_id":925,"name":"Salazar9","steam_id":76561198049903973,"connected_time":1024000000000,"state":"active","ping":55},{"user_id":915,"name":"KitKat :)","steam_id":76561198191536489,"connected_time":1581000000000,"state":"active","ping":84},{"user_id":907,"name":"Disc0","steam_id":76561198067337267,"connected_time":1965000000000,"state":"active","ping":47},{"user_id":878,"name":"SvicidalBug","steam_id":76561198221390504,"connected_time":4511000000000,"state":"active","ping":64},{"user_id":916,"name":"Matty the Baby Sloth","steam_id":76561198130993937,"connected_time":1570000000000,"state":"active","ping":62},{"user_id":880,"name":"TeriyakiDynamite","steam_id":76561198050049346,"connected_time":4368000000000,"state":"active","ping":78},{"user_id":889,"name":"pookus","steam_id":76561198114239912,"connected_time":3820000000000,"state":"active","ping":43},{"user_id":908,"name":"Killer_Bite_","steam_id":76561198153259922,"connected_time":1914000000000,"state":"active","ping":63},{"user_id":922,"name":"Zorlovo","steam_id":76561198006443283,"connected_time":1356000000000,"state":"active","ping":79},{"user_id":918,"name":"Willoe","steam_id":76561198244889942,"connected_time":1537000000000,"state":"active","ping":49},{"user_id":899,"name":"rat eater","steam_id":76561198955453886,"connected_time":3343000000000,"state":"active","ping":88},{"user_id":869,"name":"Training Arc","steam_id":76561198038832034,"connected_time":5267000000000,"state":"active","ping":103}]},{"server_id":406,"name":"Uncletopia | Seattle | 3 | Stopwatch Beta","name_short":"sea-3","host":"sea-1.us.uncletopia.com","port":27035,"enabled":true,"region":"us-west","cc":"us","latitude":47.608013,"longitude":-122.33517,"reserved":0,"last_update":"0001-01-01T00:00:00Z","name_a2s":"Uncletopia | Seattle | 3 | Stopwatch Beta","protocol":17,"map":"koth_lakeside_final","folder":"tf","game":"Team Fortress","app_id":440,"player_count":3,"max_players":24,"Bots":0,"server_type":"Dedicated","server_os":"Linux","password":true,"vac":true,"version":"7757534","steam_id":85568392924515217,"keywords":["cp","nocrits","nodmgspread","uncletopia"],"game_id":440,"stv_port":27036,"stv_name":"Uncletopia | Seattle | 3 | Stopwatch Beta | STV","players":[{"user_id":43,"name":"sexylobster","steam_id":76561198080739551,"connected_time":6592000000000,"state":"active","ping":51},{"user_id":45,"name":"Engi","steam_id":76561198054885630,"connected_time":6251000000000,"state":"active","ping":55},{"user_id":48,"name":"Homunculus Humphrey","steam_id":76561198079797048,"connected_time":6000000000,"state":"spawning","ping":73}]},{"server_id":17,"name":"Uncletopia | San Francisco | 1 | All Maps","name_short":"sfo-1","host":"sfo-1.us.uncletopia.com","port":27015,"enabled":true,"region":"us-west","cc":"us","latitude":37.77397,"longitude":-122.4313,"reserved":0,"last_update":"0001-01-01T00:00:00Z","name_a2s":"Uncletopia | San Francisco | 1 | All Maps","protocol":17,"map":"pl_barnblitz","folder":"tf","game":"Team Fortress","app_id":440,"player_count":23,"max_players":24,"Bots":0,"server_type":"Dedicated","server_os":"Linux","password":true,"vac":true,"version":"7757534","steam_id":85568392924469999,"keywords":["nocrits","nodmgspread","payload","uncletopia"],"game_id":440,"stv_port":27016,"stv_name":"Uncletopia | San Francisco | 1 | All Maps | STV","players":[{"user_id":519,"name":"plutonium isotope","steam_id":76561198319442494,"connected_time":138000000000,"state":"active","ping":61},{"user_id":466,"name":"Lambchop","steam_id":76561198043900363,"connected_time":3136000000000,"state":"active","ping":60},{"user_id":508,"name":"i have teeth","steam_id":76561198014008520,"connected_time":668000000000,"state":"active","ping":50},{"user_id":493,"name":"Scrombello Portabello","steam_id":76561198193574042,"connected_time":1922000000000,"state":"active","ping":76},{"user_id":495,"name":"TeCon","steam_id":76561198049127236,"connected_time":1917000000000,"state":"active","ping":67},{"user_id":437,"name":"Oomitch","steam_id":76561198071702759,"connected_time":6766000000000,"state":"active","ping":73},{"user_id":387,"name":"zeel107","steam_id":76561198063892990,"connected_time":8860000000000,"state":"active","ping":70},{"user_id":482,"name":"flo rida","steam_id":76561198226169704,"connected_time":2451000000000,"state":"active","ping":73},{"user_id":512,"name":"gep","steam_id":76561198416545930,"connected_time":481000000000,"state":"active","ping":35},{"user_id":515,"name":"ThisBot","steam_id":76561198074123607,"connected_time":412000000000,"state":"active","ping":60},{"user_id":497,"name":"Boat","steam_id":76561198319185335,"connected_time":1896000000000,"state":"active","ping":76},{"user_id":517,"name":"esdot","steam_id":76561198836178527,"connected_time":249000000000,"state":"active","ping":70},{"user_id":516,"name":"HetchHetchy","steam_id":76561198128125728,"connected_time":412000000000,"state":"active","ping":59},{"user_id":479,"name":"Thunderchief","steam_id":76561198022802780,"connected_time":2662000000000,"state":"active","ping":78},{"user_id":514,"name":"Chalks","steam_id":76561198045978275,"connected_time":472000000000,"state":"active","ping":60},{"user_id":521,"name":"Gordon Ramsay","steam_id":76561198890245253,"connected_time":50000000000,"state":"spawning","ping":670},{"user_id":520,"name":"IHave2000HoursButPlayLIkeIHave1","steam_id":76561198295280927,"connected_time":70000000000,"state":"active","ping":78},{"user_id":511,"name":"Puskinti","steam_id":76561198032120688,"connected_time":494000000000,"state":"active","ping":81},{"user_id":499,"name":"MINI CRIT!999","steam_id":76561198027649268,"connected_time":1887000000000,"state":"active","ping":85},{"user_id":490,"name":"PopcornNinja101","steam_id":76561198330680181,"connected_time":2109000000000,"state":"active","ping":73},{"user_id":409,"name":"Flyingcat9000","steam_id":76561198179561797,"connected_time":8064000000000,"state":"active","ping":42},{"user_id":462,"name":"00","steam_id":76561198041700636,"connected_time":4167000000000,"state":"active","ping":44},{"user_id":503,"name":"SonicTheHedgehogEpicGamer2013","steam_id":76561199229577594,"connected_time":1567000000000,"state":"active","ping":75}]},{"server_id":18,"name":"Uncletopia | San Francisco | 2 | All Maps","name_short":"sfo-2","host":"sfo-1.us.uncletopia.com","port":27025,"enabled":true,"region":"us-west","cc":"us","latitude":37.77397,"longitude":-122.4313,"reserved":0,"last_update":"0001-01-01T00:00:00Z","name_a2s":"Uncletopia | San Francisco | 2 | All Maps","protocol":17,"map":"cp_process_final","folder":"tf","game":"Team Fortress","app_id":440,"player_count":0,"max_players":24,"Bots":0,"server_type":"Dedicated","server_os":"Linux","password":true,"vac":true,"version":"7757534","steam_id":85568392924470000,"keywords":["cp","nocrits","nodmgspread","uncletopia"],"game_id":440,"stv_port":27026,"stv_name":"Uncletopia | San Francisco | 2 | All Maps | STV","players":null},{"server_id":19,"name":"Uncletopia | San Francisco | 3 | Stopwatch Beta","name_short":"sfo-3","host":"sfo-1.us.uncletopia.com","port":27035,"enabled":true,"region":"us-west","cc":"us","latitude":37.77397,"longitude":-122.4313,"reserved":0,"last_update":"0001-01-01T00:00:00Z","name_a2s":"Uncletopia | San Francisco | 3 | Stopwatch Beta","protocol":17,"map":"pl_borneo","folder":"tf","game":"Team Fortress","app_id":440,"player_count":0,"max_players":24,"Bots":0,"server_type":"Dedicated","server_os":"Linux","password":true,"vac":true,"version":"7757534","steam_id":85568392924742824,"keywords":["nocrits","nodmgspread","payload","uncletopia"],"game_id":440,"stv_port":27036,"stv_name":"Uncletopia | San Francisco | 3 | Stopwatch Beta | STV","players":null},{"server_id":20,"name":"Uncletopia | San Francisco | 4 | Community","name_short":"sfo-4","host":"sfo-1.us.uncletopia.com","port":27045,"enabled":true,"region":"us-west","cc":"us","latitude":37.77397,"longitude":-122.4313,"reserved":0,"last_update":"0001-01-01T00:00:00Z","name_a2s":"Uncletopia | San Francisco | 4 | Community","protocol":17,"map":"koth_highpass","folder":"tf","game":"Team Fortress","app_id":440,"player_count":0,"max_players":24,"Bots":0,"server_type":"Dedicated","server_os":"Linux","password":true,"vac":true,"version":"7757534","steam_id":85568392924742826,"keywords":["cp","nocrits","nodmgspread","uncletopia"],"game_id":440,"stv_port":27046,"stv_name":"Uncletopia | San Francisco | 4 | Community | STV","players":null},{"server_id":141,"name":"Uncletopia | Sydney | 1 | All Maps","name_short":"syd-1","host":"syd-1.au.uncletopia.com","port":27015,"enabled":true,"region":"au","cc":"au","latitude":-33.865143,"longitude":151.2099,"reserved":0,"last_update":"0001-01-01T00:00:00Z","name_a2s":"Uncletopia | Sydney | 1 | All Maps","protocol":17,"map":"pl_frontier_final","folder":"tf","game":"Team Fortress","app_id":440,"player_count":20,"max_players":24,"Bots":0,"server_type":"Dedicated","server_os":"Linux","password":true,"vac":true,"version":"7757534","steam_id":85568392924470001,"keywords":["nocrits","nodmgspread","payload","uncletopia"],"game_id":440,"stv_port":27016,"stv_name":"Uncletopia | Sydney | 1 | All Maps | STV","players":[{"user_id":379,"name":"Strike","steam_id":76561198254083849,"connected_time":285000000000,"state":"active","ping":73},{"user_id":380,"name":"Not A F2P","steam_id":76561198376756608,"connected_time":238000000000,"state":"active","ping":66},{"user_id":325,"name":"korn","steam_id":76561198022563294,"connected_time":4243000000000,"state":"active","ping":107},{"user_id":377,"name":"BlueHellFire","steam_id":76561198431962234,"connected_time":345000000000,"state":"active","ping":50},{"user_id":374,"name":"dinxie","steam_id":76561199448765541,"connected_time":467000000000,"state":"active","ping":66},{"user_id":383,"name":"Arc2clone1117","steam_id":76561199034638746,"connected_time":90000000000,"state":"active","ping":63},{"user_id":381,"name":"bangerlop","steam_id":76561199349993627,"connected_time":193000000000,"state":"active","ping":184},{"user_id":371,"name":"Mith","steam_id":76561197970294899,"connected_time":801000000000,"state":"active","ping":52},{"user_id":372,"name":"Gasoline","steam_id":76561198879023728,"connected_time":629000000000,"state":"active","ping":83},{"user_id":271,"name":"Fleetfoot","steam_id":76561198072845816,"connected_time":8588000000000,"state":"active","ping":50},{"user_id":344,"name":"A KNIFE!","steam_id":76561198160390701,"connected_time":2728000000000,"state":"active","ping":62},{"user_id":347,"name":"voxii","steam_id":76561198099698281,"connected_time":1987000000000,"state":"active","ping":68},{"user_id":331,"name":"MEGA","steam_id":76561198201819060,"connected_time":3969000000000,"state":"active","ping":122},{"user_id":382,"name":"Emanuel Augustus","steam_id":76561199081848498,"connected_time":175000000000,"state":"active","ping":68},{"user_id":384,"name":"Fuzz","steam_id":76561198063077180,"connected_time":44000000000,"state":"active","ping":45},{"user_id":355,"name":"Cofwee","steam_id":76561198072414195,"connected_time":1756000000000,"state":"active","ping":72},{"user_id":385,"name":"IZ*","steam_id":76561198834621927,"connected_time":32000000000,"state":"active","ping":158},{"user_id":360,"name":"still myself","steam_id":76561198132937542,"connected_time":1598000000000,"state":"active","ping":52},{"user_id":324,"name":"blicky","steam_id":76561198029829077,"connected_time":4346000000000,"state":"active","ping":91},{"user_id":334,"name":"Stubborn Sheepcow","steam_id":76561198065334258,"connected_time":3573000000000,"state":"active","ping":86}]},{"server_id":123,"name":"Uncletopia | Sydney | 2 | All Maps","name_short":"syd-2","host":"syd-1.au.uncletopia.com","port":27025,"enabled":true,"region":"au","cc":"au","latitude":-33.865143,"longitude":151.2099,"reserved":0,"last_update":"0001-01-01T00:00:00Z","name_a2s":"Uncletopia | Sydney | 2 | All Maps","protocol":17,"map":"pl_badwater","folder":"tf","game":"Team Fortress","app_id":440,"player_count":20,"max_players":24,"Bots":0,"server_type":"Dedicated","server_os":"Linux","password":true,"vac":true,"version":"7757534","steam_id":85568392924470002,"keywords":["nocrits","nodmgspread","payload","uncletopia"],"game_id":440,"stv_port":27026,"stv_name":"Uncletopia | Sydney | 2 | All Maps | STV","players":[{"user_id":139,"name":"KnowZero","steam_id":76561198095752015,"connected_time":417000000000,"state":"active","ping":54},{"user_id":85,"name":"Shadow Puppeteer","steam_id":76561198151121997,"connected_time":9416000000000,"state":"active","ping":74},{"user_id":127,"name":"Doctor Zarlo","steam_id":76561198040635388,"connected_time":825000000000,"state":"active","ping":35},{"user_id":112,"name":"doris","steam_id":76561198985688207,"connected_time":1906000000000,"state":"active","ping":53},{"user_id":146,"name":"Deal","steam_id":76561199141649504,"connected_time":56000000000,"state":"active","ping":67},{"user_id":116,"name":"xX_sexhaver_Xx(real)","steam_id":76561199205171109,"connected_time":1394000000000,"state":"active","ping":63},{"user_id":117,"name":"shaymii","steam_id":76561198058562392,"connected_time":1382000000000,"state":"active","ping":84},{"user_id":135,"name":"Radial","steam_id":76561198850076584,"connected_time":511000000000,"state":"active","ping":64},{"user_id":147,"name":"frozenwasanokmovie","steam_id":76561198157407952,"connected_time":33000000000,"state":"active","ping":184},{"user_id":128,"name":"yoga","steam_id":76561199163801558,"connected_time":792000000000,"state":"active","ping":45},{"user_id":123,"name":"MikkyD","steam_id":76561198043452962,"connected_time":1060000000000,"state":"active","ping":82},{"user_id":124,"name":"sausage","steam_id":76561199184344763,"connected_time":1036000000000,"state":"active","ping":178},{"user_id":142,"name":"the normoaner","steam_id":76561198082423230,"connected_time":287000000000,"state":"active","ping":77},{"user_id":144,"name":"wse.","steam_id":76561198272148020,"connected_time":247000000000,"state":"active","ping":49},{"user_id":131,"name":"eekynetwo(F2P Piss Sniper)","steam_id":76561198990017441,"connected_time":593000000000,"state":"active","ping":146},{"user_id":130,"name":"ToadFungus","steam_id":76561199219667039,"connected_time":610000000000,"state":"active","ping":109},{"user_id":132,"name":"¯\\_(ツ)_/¯","steam_id":76561199206182584,"connected_time":591000000000,"state":"active","ping":61},{"user_id":143,"name":"seiran","steam_id":76561198880907232,"connected_time":286000000000,"state":"active","ping":99},{"user_id":145,"name":"NiceName","steam_id":76561198398046309,"connected_time":227000000000,"state":"active","ping":41},{"user_id":138,"name":"SUSHIMAN","steam_id":76561199089989428,"connected_time":475000000000,"state":"active","ping":88}]},{"server_id":395,"name":"Uncletopia | Sydney | 3 | All Maps","name_short":"syd-3","host":"syd-1.au.uncletopia.com","port":27035,"enabled":true,"region":"au","cc":"au","latitude":-33.865143,"longitude":151.2099,"reserved":0,"last_update":"0001-01-01T00:00:00Z","name_a2s":"Uncletopia | Sydney | 3 | All Maps","protocol":17,"map":"koth_highpass","folder":"tf","game":"Team Fortress","app_id":440,"player_count":0,"max_players":24,"Bots":0,"server_type":"Dedicated","server_os":"Linux","password":true,"vac":true,"version":"7757534","steam_id":85568392925194467,"keywords":["cp","nocrits","nodmgspread","uncletopia"],"game_id":440,"stv_port":27036,"stv_name":"Uncletopia | Sydney | 3 | All Maps | STV","players":null},{"server_id":396,"name":"Uncletopia | Sydney | 4 | All Maps","name_short":"syd-4","host":"syd-1.au.uncletopia.com","port":27045,"enabled":true,"region":"au","cc":"au","latitude":-33.865143,"longitude":151.2099,"reserved":0,"last_update":"0001-01-01T00:00:00Z","name_a2s":"Uncletopia | Sydney | 4 | All Maps","protocol":17,"map":"pl_badwater","folder":"tf","game":"Team Fortress","app_id":440,"player_count":0,"max_players":24,"Bots":0,"server_type":"Dedicated","server_os":"Linux","password":true,"vac":true,"version":"7757534","steam_id":85568392925397958,"keywords":["nocrits","nodmgspread","payload","uncletopia"],"game_id":440,"stv_port":27046,"stv_name":"Uncletopia | Sydney | 4 | All Maps | STV","players":null},{"server_id":58,"name":"Uncletopia | Sydney | 5 | Stopwatch Beta","name_short":"syd-5","host":"syd-1.au.uncletopia.com","port":27055,"enabled":true,"region":"au","cc":"au","latitude":-33.865143,"longitude":151.2099,"reserved":0,"last_update":"0001-01-01T00:00:00Z","name_a2s":"Uncletopia | Sydney | 5 | Stopwatch Beta","protocol":17,"map":"pl_swiftwater_final1","folder":"tf","game":"Team Fortress","app_id":440,"player_count":0,"max_players":24,"Bots":0,"server_type":"Dedicated","server_os":"Linux","password":true,"vac":true,"version":"7757534","steam_id":85568392925397959,"keywords":["nocrits","nodmgspread","payload","uncletopia"],"game_id":440,"stv_port":27056,"stv_name":"Uncletopia | Sydney | 5 | Stopwatch Beta | STV","players":null},{"server_id":59,"name":"Uncletopia | Sydney | 6 | Community","name_short":"syd-6","host":"syd-1.au.uncletopia.com","port":27065,"enabled":true,"region":"au","cc":"au","latitude":-33.865143,"longitude":151.2099,"reserved":0,"last_update":"0001-01-01T00:00:00Z","name_a2s":"Uncletopia | Sydney | 6 | Community","protocol":17,"map":"workshop/koth_synthetic_rc6a.ugc1549817316","folder":"tf","game":"Team Fortress","app_id":440,"player_count":0,"max_players":24,"Bots":0,"server_type":"Dedicated","server_os":"Linux","password":true,"vac":true,"version":"7757534","steam_id":85568392925397960,"keywords":["cp","nocrits","nodmgspread","uncletopia"],"game_id":440,"stv_port":27066,"stv_name":"Uncletopia | Sydney | 6 | Community | STV","players":null},{"server_id":49,"name":"Uncletopia | Warsaw | 1 | All Maps","name_short":"waw-1","host":"waw-1.pl.uncletopia.com","port":27015,"enabled":true,"region":"eu","cc":"pl","latitude":52.2297,"longitude":21.017532,"reserved":0,"last_update":"0001-01-01T00:00:00Z","name_a2s":"","protocol":0,"map":"","folder":"","game":"","app_id":0,"player_count":0,"max_players":0,"Bots":0,"server_type":"","server_os":"","password":false,"vac":false,"version":"","steam_id":0,"keywords":null,"game_id":0,"stv_port":0,"stv_name":"","players":null},{"server_id":50,"name":"Uncletopia | Warsaw | 2 | All Maps","name_short":"waw-2","host":"waw-1.pl.uncletopia.com","port":27025,"enabled":true,"region":"eu","cc":"pl","latitude":52.2297,"longitude":21.017532,"reserved":0,"last_update":"0001-01-01T00:00:00Z","name_a2s":"Uncletopia | Warsaw | 2 | All Maps","protocol":17,"map":"cp_process_final","folder":"tf","game":"Team Fortress","app_id":440,"player_count":0,"max_players":24,"Bots":0,"server_type":"Dedicated","server_os":"Linux","password":true,"vac":true,"version":"7757534","steam_id":85568392925397851,"keywords":["cp","nocrits","nodmgspread","uncletopia"],"game_id":440,"stv_port":27026,"stv_name":"Uncletopia | Warsaw | 2 | All Maps | STV","players":null},{"server_id":51,"name":"Uncletopia | Warsaw | 3 | All Maps","name_short":"waw-3","host":"waw-1.pl.uncletopia.com","port":27035,"enabled":true,"region":"eu","cc":"pl","latitude":52.2297,"longitude":21.017532,"reserved":0,"last_update":"0001-01-01T00:00:00Z","name_a2s":"Uncletopia | Warsaw | 3 | All Maps","protocol":17,"map":"pl_barnblitz","folder":"tf","game":"Team Fortress","app_id":440,"player_count":0,"max_players":24,"Bots":0,"server_type":"Dedicated","server_os":"Linux","password":true,"vac":true,"version":"7757534","steam_id":85568392925397852,"keywords":["nocrits","nodmgspread","payload","uncletopia"],"game_id":440,"stv_port":27036,"stv_name":"Uncletopia | Warsaw | 3 | All Maps | STV","players":null},{"server_id":52,"name":"Uncletopia | Warsaw | 4 | All Maps","name_short":"waw-4","host":"waw-1.pl.uncletopia.com","port":27045,"enabled":true,"region":"eu","cc":"pl","latitude":52.2297,"longitude":21.017532,"reserved":0,"last_update":"0001-01-01T00:00:00Z","name_a2s":"Uncletopia | Warsaw | 4 | All Maps","protocol":17,"map":"pl_snowycoast","folder":"tf","game":"Team Fortress","app_id":440,"player_count":0,"max_players":24,"Bots":0,"server_type":"Dedicated","server_os":"Linux","password":true,"vac":true,"version":"7757534","steam_id":85568392925397853,"keywords":["nocrits","nodmgspread","payload","uncletopia"],"game_id":440,"stv_port":27046,"stv_name":"Uncletopia | Warsaw | 4 | All Maps | STV","players":null},{"server_id":53,"name":"Uncletopia | Warsaw | 5 | Stopwatch Beta","name_short":"waw-5","host":"waw-1.pl.uncletopia.com","port":27055,"enabled":true,"region":"eu","cc":"pl","latitude":52.2297,"longitude":21.017532,"reserved":0,"last_update":"0001-01-01T00:00:00Z","name_a2s":"Uncletopia | Warsaw | 5 | Stopwatch Beta","protocol":17,"map":"pl_barnblitz","folder":"tf","game":"Team Fortress","app_id":440,"player_count":0,"max_players":24,"Bots":0,"server_type":"Dedicated","server_os":"Linux","password":true,"vac":true,"version":"7757534","steam_id":85568392925397854,"keywords":["nocrits","nodmgspread","payload","uncletopia"],"game_id":440,"stv_port":27056,"stv_name":"Uncletopia | Warsaw | 5 | Stopwatch Beta | STV","players":null},{"server_id":54,"name":"Uncletopia | Warsaw | 6 | Community","name_short":"waw-6","host":"waw-1.pl.uncletopia.com","port":27065,"enabled":true,"region":"eu","cc":"pl","latitude":52.2297,"longitude":21.017532,"reserved":0,"last_update":"0001-01-01T00:00:00Z","name_a2s":"Uncletopia | Warsaw | 6 | Community","protocol":17,"map":"pl_swiftwater_final1","folder":"tf","game":"Team Fortress","app_id":440,"player_count":0,"max_players":24,"Bots":0,"server_type":"Dedicated","server_os":"Linux","password":true,"vac":true,"version":"7757534","steam_id":85568392925397856,"keywords":["nocrits","nodmgspread","payload","uncletopia"],"game_id":440,"stv_port":27066,"stv_name":"Uncletopia | Warsaw | 6 | Community | STV","players":null}]}