{"status":true,"message":"","result":[{"server_id":9,"name":"Uncletopia | Atlanta | 1 | All Maps","name_short":"atl-1","host":"atl-1.us.uncletopia.com","port":27015,"enabled":true,"region":"us-east","cc":"us","latitude":33.753746,"longitude":-84.38633,"reserved":0,"last_update":"0001-01-01T00:00:00Z","name_a2s":"Uncletopia | Atlanta | 1 | All Maps","protocol":17,"map":"pl_swiftwater_final1","folder":"tf","game":"Team Fortress","app_id":440,"player_count":12,"max_players":24,"Bots":0,"server_type":"Dedicated","server_os":"Linux","password":true,"vac":true,"version":"7757534","steam_id":85568392924469982,"keywords":["nocrits","nodmgspread","payload","uncletopia"],"game_id":440,"stv_port":27016,"stv_name":"Uncletopia | Atlanta | 1 | All Maps | STV","players":[{"user_id":908,"name":"reptiledone3airshotsinademoman","steam_id":76561198055972894,"connected_time":502000000000,"state":"active","ping":105},{"user_id":909,"name":"Thequirka","steam_id":76561198968058652,"connected_time":479000000000,"state":"active","ping":100},{"user_id":899,"name":"ToddStool","steam_id":76561198338144919,"connected_time":1547000000000,"state":"active","ping":129},{"user_id":912,"name":"Gay Cake","steam_id":76561198004388831,"connected_time":259000000000,"state":"active","ping":76},{"user_id":851,"name":"sticky keys on","steam_id":76561198089638718,"connected_time":6651000000000,"state":"active","ping":47},{"user_id":845,"name":"Albino Jellyfish","steam_id":76561198208561097,"connected_time":7308000000000,"state":"active","ping":61},{"user_id":913,"name":"John;Titor","steam_id":76561198266404287,"connected_time":255000000000,"state":"active","ping":111},{"user_id":914,"name":"WitheringLeo","steam_id":76561198046722918,"connected_time":75000000000,"state":"active","ping":73},{"user_id":915,"name":"Lt. Dan's Legs","steam_id":76561198043851584,"connected_time":42000000000,"state":"active","ping":116},{"user_id":876,"name":"Brian D","steam_id":76561198074638559,"connected_time":3371000000000,"state":"active","ping":80},{"user_id":855,"name":"Karma","steam_id":76561198030565234,"connected_time":6106000000000,"state":"active","ping":67},{"user_id":863,"name":"xX_HimboSwallower_Xx","steam_id":76561198016029965,"connected_time":4575000000000,"state":"active","ping":63}]},{"server_id":400,"name":"Uncletopia | Atlanta | 3 | Community","name_short":"atl-3","host":"atl-1.us.uncletopia.com","port":27035,"enabled":true,"region":"us-east","cc":"us","latitude":33.753746,"longitude":-84.38633,"reserved":0,"last_update":"0001-01-01T00:00:00Z","name_a2s":"Uncletopia | Atlanta | 3 | Community","protocol":17,"map":"workshop/cp_reckoner_rc6.ugc674719999","folder":"tf","game":"Team Fortress","app_id":440,"player_count":0,"max_players":24,"Bots":0,"server_type":"Dedicated","server_os":"Linux","password":true,"vac":true,"version":"7757534","steam_id":85568392924515187,"keywords":["cp","nocrits","nodmgspread","uncletopia"],"game_id":440,"stv_port":27036,"stv_name":"Uncletopia | Atlanta | 3 | Community | STV","players":null},{"server_id":401,"name":"Uncletopia | Atlanta | 4 | No Payload","name_short":"atl-4","host":"atl-1.us.uncletopia.com","port":27045,"enabled":true,"region":"us-east","cc":"us","latitude":33.753746,"longitude":-84.38633,"reserved":0,"last_update":"0001-01-01T00:00:00Z","name_a2s":"","protocol":0,"map":"","folder":"","game":"","app_id":0,"player_count":0,"max_players":0,"Bots":0,"server_type":"","server_os":"","password":false,"vac":false,"version":"","steam_id":0,"keywords":null,"game_id":0,"stv_port":0,"stv_name":"","players":null},{"server_id":2,"name":"Uncletopia | Chicago | 1 | All Maps","name_short":"chi-1","host":"chi-1.us.uncletopia.com","port":27015,"enabled":true,"region":"us-central","cc":"us","latitude":41.881832,"longitude":-87.62318,"reserved":0,"last_update":"0001-01-01T00:00:00Z","name_a2s":"Uncletopia | Chicago | 1 | All Maps","protocol":17,"map":"pl_badwater","folder":"tf","game":"Team Fortress","app_id":440,"player_count":24,"max_players":24,"Bots":0,"server_type":"Dedicated","server_os":"Linux","password":true,"vac":true,"version":"7757534","steam_id":85568392924469984,"keywords":["nocrits","nodmgspread","payload","uncletopia"],"game_id":440,"stv_port":27016,"stv_name":"Uncletopia | Chicago | 1 | All Maps | STV","players":[{"user_id":569,"name":"WildMtnMonkey","steam_id":76561199106970995,"connected_time":4827000000000,"state":"active","ping":65},{"user_id":667,"name":"calo","steam_id":76561198078373457,"connected_time":489000000000,"state":"active","ping":75},{"user_id":673,"name":"48","steam_id":76561198894676484,"connected_time":393000000000,"state":"active","ping":101},{"user_id":646,"name":"Xraverz","steam_id":76561198008891628,"connected_time":794000000000,"state":"active","ping":82},{"user_id":627,"name":"mastercoms","steam_id":76561198046110893,"connected_time":1758000000000,"state":"active","ping":57},{"user_id":674,"name":"cat","steam_id":76561199014638094,"connected_time":10000000000,"state":"spawning","ping":211},{"user_id":636,"name":"smells like up gamer","steam_id":76561198010364153,"connected_time":1411000000000,"state":"active","ping":117},{"user_id":638,"name":"joyeuxnoelle","steam_id":76561198062423120,"connected_time":1242000000000,"state":"active","ping":71},{"user_id":666,"name":"chicanery","steam_id":76561198081654907,"connected_time":498000000000,"state":"active","ping":72},{"user_id":631,"name":"a crazy hobo","steam_id":76561198289650060,"connected_time":1690000000000,"state":"active","ping":87},{"user_id":640,"name":"Country Dish Towel","steam_id":76561198068958789,"connected_time":1010000000000,"state":"active","ping":67},{"user_id":664,"name":"Δ ryan b'y","steam_id":76561197977850475,"connected_time":516000000000,"state":"active","ping":100},{"user_id":672,"name":"Alikchi","steam_id":76561197969594220,"connected_time":402000000000,"state":"active","ping":71},{"user_id":626,"name":"MayKilya","steam_id":76561198076369527,"connected_time":1805000000000,"state":"active","ping":84},{"user_id":621,"name":"mopsyNYAA","steam_id":76561199044347663,"connected_time":2636000000000,"state":"active","ping":43},{"user_id":671,"name":"mbs","steam_id":76561198013079739,"connected_time":416000000000,"state":"active","ping":62},{"user_id":635,"name":"nerd9167new","steam_id":76561199456605785,"connected_time":1426000000000,"state":"active","ping":135},{"user_id":669,"name":"ev","steam_id":76561198059005191,"connected_time":457000000000,"state":"active","ping":144},{"user_id":647,"name":"MarioManz @lan","steam_id":76561198123454475,"connected_time":790000000000,"state":"active","ping":52},{"user_id":637,"name":"debin","steam_id":76561198070711217,"connected_time":1273000000000,"state":"active","ping":56},{"user_id":648,"name":"KillPact","steam_id":76561197976319415,"connected_time":789000000000,"state":"active","ping":69},{"user_id":563,"name":"Nani?","steam_id":76561198130982692,"connected_time":5018000000000,"state":"active","ping":64},{"user_id":649,"name":"nerfington","steam_id":76561198062785419,"connected_time":779000000000,"state":"active","ping":85},{"user_id":661,"name":"NOLSEY","steam_id":76561198108959504,"connected_time":530000000000,"state":"active","ping":60}]},{"server_id":106,"name":"Uncletopia | Chicago | 2 | All Maps","name_short":"chi-2","host":"chi-1.us.uncletopia.com","port":27025,"enabled":true,"region":"us-central","cc":"us","latitude":41.881832,"longitude":-87.62318,"reserved":0,"last_update":"0001-01-01T00:00:00Z","name_a2s":"Uncletopia | Chicago | 2 | All Maps","protocol":17,"map":"cp_dustbowl","folder":"tf","game":"Team Fortress","app_id":440,"player_count":0,"max_players":24,"Bots":0,"server_type":"Dedicated","server_os":"Linux","password":true,"vac":true,"version":"7757534","steam_id":85568392924469985,"keywords":["cp","nocrits","nodmgspread","uncletopia"],"game_id":440,"stv_port":27026,"stv_name":"Uncletopia | Chicago | 2 | All Maps | STV","players":null},{"server_id":402,"name":"Uncletopia | Chicago | 3 | All Maps","name_short":"chi-3","host":"chi-1.us.uncletopia.com","port":27035,"enabled":true,"region":"us-central","cc":"us","latitude":41.881832,"longitude":-87.62318,"reserved":0,"last_update":"0001-01-01T00:00:00Z","name_a2s":"Uncletopia | Chicago | 3 | All Maps","protocol":17,"map":"pl_snowycoast","folder":"tf","game":"Team Fortress","app_id":440,"player_count":24,"max_players":24,"Bots":0,"server_type":"Dedicated","server_os":"Linux","password":true,"vac":true,"version":"7757534","steam_id":85568392924515191,"keywords":["nocrits","nodmgspread","payload","uncletopia"],"game_id":440,"stv_port":27036,"stv_name":"Uncletopia | Chicago | 3 | All Maps | STV","players":[{"user_id":569,"name":"Araaksa","steam_id":76561198931153864,"connected_time":2174000000000,"state":"active","ping":59},{"user_id":589,"name":"baklava","steam_id":76561198124591302,"connected_time":34000000000,"state":"active","ping":71},{"user_id":520,"name":"❤Blunt.Babe420❤","steam_id":76561199014055970,"connected_time":5353000000000,"state":"active","ping":68},{"user_id":581,"name":"Krellah","steam_id":76561198287045069,"connected_time":826000000000,"state":"active","ping":55},{"user_id":571,"name":"Talent","steam_id":76561198153880354,"connected_time":2040000000000,"state":"active","ping":139},{"user_id":577,"name":"Maj. Problem","steam_id":76561198240148840,"connected_time":1438000000000,"state":"active","ping":86},{"user_id":579,"name":"LJ PRODUCTIONS","steam_id":76561198061697475,"connected_time":1032000000000,"state":"active","ping":74},{"user_id":582,"name":"kn","steam_id":76561198388123421,"connected_time":754000000000,"state":"active","ping":106},{"user_id":586,"name":"Sokky","steam_id":76561198001798544,"connected_time":107000000000,"state":"active","ping":62},{"user_id":570,"name":"Dispenser (Twan)","steam_id":76561197991064908,"connected_time":2104000000000,"state":"active","ping":71},{"user_id":555,"name":"Fresh","steam_id":76561198068565728,"connected_time":3126000000000,"state":"active","ping":105},{"user_id":563,"name":"Horrizan","steam_id":76561197965028480,"connected_time":2873000000000,"state":"active","ping":75},{"user_id":547,"name":"Stormz64","steam_id":76561198239036482,"connected_time":3645000000000,"state":"active","ping":62},{"user_id":575,"name":"loco503","steam_id":76561198827495121,"connected_time":1897000000000,"state":"active","ping":117},{"user_id":482,"name":"C4K3","steam_id":76561197996963285,"connected_time":7746000000000,"state":"active","ping":72},{"user_id":551,"name":"sly1","steam_id":76561198049014977,"connected_time":3324000000000,"state":"active","ping":73},{"user_id":587,"name":"wongo","steam_id":76561198064420072,"connected_time":85000000000,"state":"active","ping":67},{"user_id":588,"name":"sweaterfan","steam_id":76561199389567214,"connected_time":82000000000,"state":"active","ping":62},{"user_id":515,"name":"Cocksneed Fartin","steam_id":76561198126675787,"connected_time":5772000000000,"state":"active","ping":78},{"user_id":590,"name":"White women when great dane :0","steam_id":76561198168613016,"connected_time":18000000000,"state":"spawning","ping":55},{"user_id":516,"name":"Joe Grumbo","steam_id":76561198048485190,"connected_time":5747000000000,"state":"active","ping":73},{"user_id":553,"name":"Noobot9k","steam_id":76561198067338651,"connected_time":3236000000000,"state":"active","ping":72},{"user_id":557,"name":"8core","steam_id":76561198131163454,"connected_time":3048000000000,"state":"active","ping":89},{"user_id":585,"name":"bikerkid207","steam_id":76561198390782783,"connected_time":124000000000,"state":"active","ping":69}]},{"server_id":403,"name":"Uncletopia | Chicago | 4 | All Maps","name_short":"chi-4","host":"chi-1.us.uncletopia.com","port":27045,"enabled":true,"region":"us-central","cc":"us","latitude":41.881832,"longitude":-87.62318,"reserved":0,"last_update":"0001-01-01T00:00:00Z","name_a2s":"Uncletopia | Chicago | 4 | All Maps","protocol":17,"map":"cp_dustbowl","folder":"tf","game":"Team Fortress","app_id":440,"player_count":0,"max_players":24,"Bots":0,"server_type":"Dedicated","server_os":"Linux","password":true,"vac":true,"version":"7757534","steam_id":85568392924515193,"keywords":["cp","nocrits","nodmgspread","uncletopia"],"game_id":440,"stv_port":27046,"stv_name":"Uncletopia | Chicago | 4 | All Maps | STV","players":null},{"server_id":36,"name":"Uncletopia | Chicago | 5 | All Maps","name_short":"chi-5","host":"chi-2.us.uncletopia.com","port":27015,"enabled":true,"region":"us-central","cc":"us","latitude":41.881832,"longitude":-87.62318,"reserved":0,"last_update":"0001-01-01T00:00:00Z","name_a2s":"Uncletopia | Chicago | 5 | All Maps","protocol":17,"map":"pl_upward","folder":"tf","game":"Team Fortress","app_id":440,"player_count":0,"max_players":24,"Bots":0,"server_type":"Dedicated","server_os":"Linux","password":true,"vac":true,"version":"7757534","steam_id":85568392924866362,"keywords":["nocrits","nodmgspread","payload","uncletopia"],"game_id":440,"stv_port":27016,"stv_name":"Uncletopia | Chicago | 5 | All Maps | STV","players":null},{"server_id":37,"name":"Uncletopia | Chicago | 6 | All Maps","name_short":"chi-6","host":"chi-2.us.uncletopia.com","port":27025,"enabled":true,"region":"us-central","cc":"us","latitude":41.881832,"longitude":-87.62318,"reserved":0,"last_update":"0001-01-01T00:00:00Z","name_a2s":"Uncletopia | Chicago | 6 | All Maps","protocol":17,"map":"cp_dustbowl","folder":"tf","game":"Team Fortress","app_id":440,"player_count":24,"max_players":24,"Bots":0,"server_type":"Dedicated","server_os":"Linux","password":true,"vac":true,"version":"7757534","steam_id":85568392924866363,"keywords":["cp","nocrits","nodmgspread","uncletopia"],"game_id":440,"stv_port":27026,"stv_name":"Uncletopia | Chicago | 6 | All Maps | STV","players":[{"user_id":369,"name":"Engorged Strobiloid","steam_id":76561198344030647,"connected_time":1196000000000,"state":"active","ping":81},{"user_id":370,"name":"xBETRAYALBLOODx","steam_id":76561198245277696,"connected_time":1192000000000,"state":"active","ping":66},{"user_id":357,"name":"cixcin","steam_id":76561199215821942,"connected_time":1612000000000,"state":"active","ping":71},{"user_id":347,"name":"ZanoSkull","steam_id":76561198095644372,"connected_time":2784000000000,"state":"active","ping":69},{"user_id":331,"name":"Ace Chromatica","steam_id":76561198042211131,"connected_time":3352000000000,"state":"active","ping":64},{"user_id":372,"name":"chaz","steam_id":76561198377430626,"connected_time":741000000000,"state":"active","ping":76},{"user_id":376,"name":"heimdall","steam_id":76561198069380992,"connected_time":368000000000,"state":"active","ping":91},{"user_id":358,"name":"Excis","steam_id":76561198103598619,"connected_time":1611000000000,"state":"active","ping":51},{"user_id":292,"name":"Windex","steam_id":76561198105561395,"connected_time":7188000000000,"state":"active","ping":82},{"user_id":359,"name":"i luv fat bitches","steam_id":76561198038291026,"connected_time":1584000000000,"state":"active","ping":59},{"user_id":338,"name":"izzydex","steam_id":76561199101531034,"connected_time":3171000000000,"state":"active","ping":67},{"user_id":307,"name":"BattlePants","steam_id":76561198345056717,"connected_time":5553000000000,"state":"active","ping":93},{"user_id":374,"name":"Thirty Thirty","steam_id":76561197987242808,"connected_time":532000000000,"state":"active","ping":88},{"user_id":371,"name":"EERIE OREO","steam_id":76561199013454294,"connected_time":1121000000000,"state":"active","ping":166},{"user_id":361,"name":"softest_Poly","steam_id":76561198192264662,"connected_time":1343000000000,"state":"active","ping":78},{"user_id":362,"name":"Karma's Camera","steam_id":76561198059385185,"connected_time":1338000000000,"state":"active","ping":74},{"user_id":352,"name":"LevelZ3R0","steam_id":76561199239710681,"connected_time":2105000000000,"state":"active","ping":115},{"user_id":321,"name":"NUt","steam_id":76561198031007966,"connected_time":4308000000000,"state":"active","ping":75},{"user_id":363,"name":"godtierJack.jpeg","steam_id":76561198089827454,"connected_time":1322000000000,"state":"active","ping":67},{"user_id":364,"name":"lammy","steam_id":76561198101185527,"connected_time":1310000000000,"state":"active","ping":82},{"user_id":365,"name":"Markz","steam_id":76561197996278159,"connected_time":1305000000000,"state":"active","ping":120},{"user_id":345,"name":"Stock Medic","steam_id":76561198065479730,"connected_time":2987000000000,"state":"active","ping":46},{"user_id":366,"name":"That_Guy_Serj","steam_id":76561198075886098,"connected_time":1295000000000,"state":"active","ping":69},{"user_id":367,"name":"hungry home invader","steam_id":76561198190962742,"connected_time":1287000000000,"state":"active","ping":69}]},{"server_id":38,"name":"Uncletopia | Chicago | 7 | Stopwatch Beta","name_short":"chi-7","host":"chi-2.us.uncletopia.com","port":27035,"enabled":true,"region":"us-central","cc":"us","latitude":41.881832,"longitude":-87.62318,"reserved":0,"last_update":"0001-01-01T00:00:00Z","name_a2s":"Uncletopia | Chicago | 7 | Stopwatch Beta","protocol":17,"map":"pl_swiftwater_final1","folder":"tf","game":"Team Fortress","app_id":440,"player_count":0,"max_players":24,"Bots":0,"server_type":"Dedicated","server_os":"Linux","password":true,"vac":true,"version":"7757534","steam_id":85568392924866364,"keywords":["nocrits","nodmgspread","payload","uncletopia"],"game_id":440,"stv_port":27036,"stv_name":"Uncletopia | Chicago | 7 | Stopwatch Beta | STV","players":null},{"server_id":39,"name":"Uncletopia | Chicago | 8 | Community","name_short":"chi-8","host":"chi-2.us.uncletopia.com","port":27045,"enabled":true,"region":"us-central","cc":"us","latitude":41.881832,"longitude":-87.62318,"reserved":0,"last_update":"0001-01-01T00:00:00Z","name_a2s":"Uncletopia | Chicago | 8 | Community","protocol":17,"map":"workshop/koth_trenchfoot_b1a.ugc731436616","folder":"tf","game":"Team Fortress","app_id":440,"player_count":0,"max_players":24,"Bots":0,"server_type":"Dedicated","server_os":"Linux","password":true,"vac":true,"version":"7757534","steam_id":85568392924866365,"keywords":["cp","nocrits","nodmgspread","uncletopia"],"game_id":440,"stv_port":27046,"stv_name":"Uncletopia | Chicago | 8 | Community | STV","players":null},{"server_id":8,"name":"Uncletopia | Dallas | 1 | All Maps","name_short":"dal-1","host":"dal-1.us.uncletopia.com","port":27015,"enabled":true,"region":"us-central","cc":"us","latitude":32.779167,"longitude":-96.80889,"reserved":0,"last_update":"0001-01-01T00:00:00Z","name_a2s":"Uncletopia | Dallas | 1 | All Maps","protocol":17,"map":"pl_borneo","folder":"tf","game":"Team Fortress","app_id":440,"player_count":24,"max_players":24,"Bots":0,"server_type":"Dedicated","server_os":"Linux","password":true,"vac":true,"version":"7757534","steam_id":85568392924469986,"keywords":["nocrits","nodmgspread","payload","uncletopia"],"game_id":440,"stv_port":27016,"stv_name":"Uncletopia | Dallas | 1 | All Maps | STV","players":[{"user_id":341,"name":"Beeveelution","steam_id":76561198331526301,"connected_time":990000000000,"state":"active","ping":92},{"user_id":317,"name":"trainmarine -bt","steam_id":76561198341784551,"connected_time":3957000000000,"state":"active","ping":61},{"user_id":336,"name":"Major_Pippy","steam_id":76561198004482878,"connected_time":1868000000000,"state":"active","ping":93},{"user_id":343,"name":"Fargo","steam_id":76561198044703931,"connected_time":961000000000,"state":"active","ping":64},{"user_id":319,"name":"skrt","steam_id":76561198233984300,"connected_time":3810000000000,"state":"active","ping":66},{"user_id":267,"name":"Krow","steam_id":76561198010392099,"connected_time":6196000000000,"state":"active","ping":55},{"user_id":339,"name":"UpDiaz","steam_id":76561198186863733,"connected_time":1020000000000,"state":"active","ping":72},{"user_id":327,"name":"Major Marshtomp","steam_id":76561198060473622,"connected_time":3076000000000,"state":"active","ping":73},{"user_id":299,"name":"Randy \"the Man\" Johnson","steam_id":76561198039124445,"connected_time":5151000000000,"state":"active","ping":113},{"user_id":334,"name":"Jkbh1","steam_id":76561198093449670,"connected_time":2058000000000,"state":"active","ping":120},{"user_id":337,"name":"RagingRoosevelt","steam_id":76561197985483153,"connected_time":1861000000000,"state":"active","ping":103},{"user_id":329,"name":"Sven2Win","steam_id":76561198067289446,"connected_time":2136000000000,"state":"active","ping":87},{"user_id":344,"name":"Vortex","steam_id":76561198033021268,"connected_time":946000000000,"state":"active","ping":95},{"user_id":274,"name":"SodaKid_7","steam_id":76561198079419485,"connected_time":6085000000000,"state":"active","ping":78},{"user_id":314,"name":"PINGAS DISPENSER™","steam_id":76561198014868070,"connected_time":4680000000000,"state":"active","ping":70},{"user_id":342,"name":"Seraph Guardian","steam_id":76561198162891621,"connected_time":968000000000,"state":"active","ping":78},{"user_id":345,"name":"Nax","steam_id":76561198149591366,"connected_time":937000000000,"state":"active","ping":85},{"user_id":331,"name":"World Famous Skater Sean Pablo","steam_id":76561197999261387,"connected_time":2131000000000,"state":"active","ping":87},{"user_id":346,"name":"Lore","steam_id":76561198098407538,"connected_time":903000000000,"state":"active","ping":74},{"user_id":293,"name":"Qwerty","steam_id":76561198082874885,"connected_time":5428000000000,"state":"active","ping":77},{"user_id":349,"name":"trash beast","steam_id":76561198015792736,"connected_time":545000000000,"state":"active","ping":77},{"user_id":300,"name":"Short Circuit Bill","steam_id":76561198120379171,"connected_time":5139000000000,"state":"active","ping":370},{"user_id":348,"name":"Panckakebro","steam_id":76561198106419992,"connected_time":847000000000,"state":"active","ping":56},{"user_id":330,"name":"waffen's kid","steam_id":76561197972661434,"connected_time":2136000000000,"state":"active","ping":59}]},{"server_id":108,"name":"Uncletopia | Dallas | 2 | All Maps","name_short":"dal-2","host":"dal-1.us.uncletopia.com","port":27025,"enabled":true,"region":"us-central","cc":"us","latitude":32.779167,"longitude":-96.80889,"reserved":0,"last_update":"0001-01-01T00:00:00Z","name_a2s":"Uncletopia | Dallas | 2 | All Maps","protocol":17,"map":"pl_upward","folder":"tf","game":"Team Fortress","app_id":440,"player_count":18,"max_players":24,"Bots":0,"server_type":"Dedicated","server_os":"Linux","password":true,"vac":true,"version":"7757534","steam_id":85568392924469988,"keywords":["nocrits","nodmgspread","payload","uncletopia"],"game_id":440,"stv_port":27026,"stv_name":"Uncletopia | Dallas | 2 | All Maps | STV","players":[{"user_id":432,"name":"nell","steam_id":76561198136225723,"connected_time":232000000000,"state":"active","ping":83},{"user_id":436,"name":"white ray","steam_id":76561198026664629,"connected_time":109000000000,"state":"active","ping":68},{"user_id":439,"name":"Alex","steam_id":76561198098800540,"connected_time":84000000000,"state":"active","ping":78},{"user_id":419,"name":"boi","steam_id":76561199213975119,"connected_time":2133000000000,"state":"active","ping":85},{"user_id":433,"name":"Berserk","steam_id":76561198000357361,"connected_time":181000000000,"state":"active","ping":264},{"user_id":344,"name":"inzang","steam_id":76561198088318074,"connected_time":5825000000000,"state":"active","ping":51},{"user_id":434,"name":"chuckleberry","steam_id":76561197987025017,"connected_time":162000000000,"state":"active","ping":69},{"user_id":435,"name":"Ohail","steam_id":76561198033073709,"connected_time":156000000000,"state":"active","ping":89},{"user_id":404,"name":"Etomb","steam_id":76561198210017208,"connected_time":2979000000000,"state":"active","ping":70},{"user_id":407,"name":"Knower","steam_id":76561198036213722,"connected_time":2649000000000,"state":"active","ping":88},{"user_id":431,"name":"VixianUwU","steam_id":76561198948815060,"connected_time":1072000000000,"state":"active","ping":67},{"user_id":440,"name":"Maxxycat","steam_id":76561198194062681,"connected_time":71000000000,"state":"active","ping":76},{"user_id":397,"name":"worldspawn","steam_id":76561198020271760,"connected_time":3169000000000,"state":"active","ping":102},{"user_id":441,"name":"god's drunkest driver","steam_id":76561198212115640,"connected_time":42000000000,"state":"active","ping":78},{"user_id":381,"name":"OddSlaush","steam_id":76561198043898488,"connected_time":3612000000000,"state":"active","ping":75},{"user_id":411,"name":"feertuwdwdsdss","steam_id":76561198195717911,"connected_time":2578000000000,"state":"active","ping":135},{"user_id":385,"name":"Professor Peppermint","steam_id":76561198184017082,"connected_time":3530000000000,"state":"active","ping":60},{"user_id":422,"name":"El pandora","steam_id":76561198075490385,"connected_time":1788000000000,"state":"active","ping":75}]},{"server_id":5,"name":"Uncletopia | Frankfurt | 1 | All Maps","name_short":"frk-1","host":"frk-1.de.uncletopia.com","port":27015,"enabled":true,"region":"eu","cc":"de","latitude":50.110924,"longitude":8.682127,"reserved":0,"last_update":"0001-01-01T00:00:00Z","name_a2s":"Uncletopia | Frankfurt | 1 | All Maps","protocol":17,"map":"pl_snowycoast","folder":"tf","game":"Team Fortress","app_id":440,"player_count":1,"max_players":24,"Bots":0,"server_type":"Dedicated","server_os":"Linux","password":true,"vac":true,"version":"7757534","steam_id":85568392924469989,"keywords":["nocrits","nodmgspread","payload","uncletopia"],"game_id":440,"stv_port":27016,"stv_name":"Uncletopia | Frankfurt | 1 | All Maps | STV","players":[{"user_id":4,"name":"Karma","steam_id":76561198162154135,"connected_time":261000000000,"state":"active","ping":66}]},{"server_id":110,"name":"Uncletopia | Frankfurt | 2 | All Maps","name_short":"frk-2","host":"frk-1.de.uncletopia.com","port":27025,"enabled":true,"region":"eu","cc":"de","latitude":50.110924,"longitude":8.682127,"reserved":0,"last_update":"0001-01-01T00:00:00Z","name_a2s":"Uncletopia | Frankfurt | 2 | All Maps","protocol":17,"map":"koth_lakeside_final","folder":"tf","game":"Team Fortress","app_id":440,"player_count":0,"max_players":24,"Bots":0,"server_type":"Dedicated","server_os":"Linux","password":true,"vac":true,"version":"7757534","steam_id":85568392924469990,"keywords":["cp","nocrits","nodmgspread","uncletopia"],"game_id":440,"stv_port":27026,"stv_name":"Uncletopia | Frankfurt | 2 | All Maps | STV","players":null},{"server_id":308,"name":"Uncletopia | Frankfurt | 3 | All Maps","name_short":"frk-3","host":"frk-1.de.uncletopia.com","port":27035,"enabled":true,"region":"eu","cc":"de","latitude":50.110924,"longitude":8.682127,"reserved":0,"last_update":"0001-01-01T00:00:00Z","name_a2s":"Uncletopia | Frankfurt | 3 | All Maps","protocol":17,"map":"cp_altitude","folder":"tf","game":"Team Fortress","app_id":440,"player_count":0,"max_players":24,"Bots":0,"server_type":"Dedicated","server_os":"Linux","password":true,"vac":true,"version":"7757534","steam_id":85568392924504274,"keywords":["cp","nocrits","nodmgspread","uncletopia"],"game_id":440,"stv_port":27036,"stv_name":"Uncletopia | Frankfurt | 3 | All Maps | STV","players":null},{"server_id":309,"name":"Uncletopia | Frankfurt | 4 | All Maps","name_short":"frk-4","host":"frk-1.de.uncletopia.com","port":27045,"enabled":true,"region":"eu","cc":"de","latitude":50.110924,"longitude":8.682127,"reserved":0,"last_update":"0001-01-01T00:00:00Z","name_a2s":"Uncletopia | Frankfurt | 4 | All Maps","protocol":17,"map":"cp_altitude","folder":"tf","game":"Team Fortress","app_id":440,"player_count":0,"max_players":24,"Bots":0,"server_type":"Dedicated","server_os":"Linux","password":true,"vac":true,"version":"7757534","steam_id":85568392924504275,"keywords":["cp","nocrits","nodmgspread","uncletopia"],"game_id":440,"stv_port":27046,"stv_name":"Uncletopia | Frankfurt | 4 | All Maps | STV","players":null},{"server_id":310,"name":"Uncletopia | Frankfurt | 5 | All Maps","name_short":"frk-5","host":"frk-1.de.uncletopia.com","port":27055,"enabled":true,"region":"eu","cc":"de","latitude":50.110924,"longitude":8.682127,"reserved":0,"last_update":"0001-01-01T00:00:00Z","name_a2s":"Uncletopia | Frankfurt | 5 | All Maps","protocol":17,"map":"cp_altitude","folder":"tf","game":"Team Fortress","app_id":440,"player_count":0,"max_players":24,"Bots":0,"server_type":"Dedicated","server_os":"Linux","password":true,"vac":true,"version":"7757534","steam_id":85568392924504277,"keywords":["cp","nocrits","nodmgspread","uncletopia"],"game_id":440,"stv_port":27056,"stv_name":"Uncletopia | Frankfurt | 5 | All Maps | STV","players":null},{"server_id":311,"name":"Uncletopia | Frankfurt | 6 | All Maps","name_short":"frk-6","host":"frk-1.de.uncletopia.com","port":27065,"enabled":true,"region":"eu","cc":"de","latitude":50.110924,"longitude":8.682127,"reserved":0,"last_update":"0001-01-01T00:00:00Z","name_a2s":"Uncletopia | Frankfurt | 6 | All Maps","protocol":17,"map":"koth_highpass","folder":"tf","game":"Team Fortress","app_id":440,"player_count":0,"max_players":24,"Bots":0,"server_type":"Dedicated","server_os":"Linux","password":true,"vac":true,"version":"7757534","steam_id":85568392924504278,"keywords":["cp","nocrits","nodmgspread","uncletopia"],"game_id":440,"stv_port":27066,"stv_name":"Uncletopia | Frankfurt | 6 | All Maps | STV","players":null},{"server_id":23,"name":"Uncletopia | Frankfurt | 7 | Stopwatch Beta","name_short":"frk-7","host":"frk-1.de.uncletopia.com","port":27075,"enabled":true,"region":"eu","cc":"de","latitude":50.110924,"longitude":8.682127,"reserved":0,"last_update":"0001-01-01T00:00:00Z","name_a2s":"Uncletopia | Frankfurt | 7 | Stopwatch Beta","protocol":17,"map":"pl_frontier_final","folder":"tf","game":"Team Fortress","app_id":440,"player_count":0,"max_players":24,"Bots":0,"server_type":"Dedicated","server_os":"Linux","password":true,"vac":true,"version":"7757534","steam_id":85568392924742827,"keywords":["nocrits","nodmgspread","payload","uncletopia"],"game_id":440,"stv_port":27076,"stv_name":"Uncletopia | Frankfurt | 7 | Stopwatch Beta | STV","players":null},{"server_id":24,"name":"Uncletopia | Frankfurt | 8 | Community","name_short":"frk-8","host":"frk-1.de.uncletopia.com","port":27085,"enabled":true,"region":"eu","cc":"de","latitude":50.110924,"longitude":8.682127,"reserved":0,"last_update":"0001-01-01T00:00:00Z","name_a2s":"Uncletopia | Frankfurt | 8 | Community","protocol":17,"map":"pl_badwater","folder":"tf","game":"Team Fortress","app_id":440,"player_count":0,"max_players":24,"Bots":0,"server_type":"Dedicated","server_os":"Linux","password":true,"vac":true,"version":"7757534","steam_id":85568392924742828,"keywords":["nocrits","nodmgspread","payload","uncletopia"],"game_id":440,"stv_port":27086,"stv_name":"Uncletopia | Frankfurt | 8 | Community | STV","players":null},{"server_id":202,"name":"Uncletopia | Hong Kong | 1 | All Maps","name_short":"hgk-1","host":"hgk-1.hk.uncletopia.com","port":27015,"enabled":true,"region":"asia","cc":"hk","latitude":22.302711,"longitude":114.177216,"reserved":0,"last_update":"0001-01-01T00:00:00Z","name_a2s":"Uncletopia | Hong Kong | 1 | All Maps","protocol":17,"map":"koth_cascade","folder":"tf","game":"Team Fortress","app_id":440,"player_count":0,"max_players":24,"Bots":0,"server_type":"Dedicated","server_os":"Linux","password":true,"vac":true,"version":"7757534","steam_id":85568392924494504,"keywords":["cp","nocrits","nodmgspread","uncletopia"],"game_id":440,"stv_port":27016,"stv_name":"Uncletopia | Hong Kong | 1 | All Maps | STV","players":null},{"server_id":1,"name":"Uncletopia | Los Angeles | 1 | All Maps","name_short":"lax-1","host":"lax-1.us.uncletopia.com","port":27015,"enabled":true,"region":"us-west","cc":"us","latitude":33.94279,"longitude":-118.41004,"reserved":0,"last_update":"0001-01-01T00:00:00Z","name_a2s":"Uncletopia | Los Angeles | 1 | All Maps","protocol":17,"map":"pl_snowycoast","folder":"tf","game":"Team Fortress","app_id":440,"player_count":24,"max_players":24,"Bots":0,"server_type":"Dedicated","server_os":"Linux","password":true,"vac":true,"version":"7757534","steam_id":85568392924469991,"keywords":["nocrits","nodmgspread","payload","uncletopia"],"game_id":440,"stv_port":27016,"stv_name":"Uncletopia | Los Angeles | 1 | All Maps | STV","players":[{"user_id":303,"name":"Wub","steam_id":76561198072947773,"connected_time":2595000000000,"state":"active","ping":103},{"user_id":304,"name":"reverie","steam_id":76561198168158637,"connected_time":2518000000000,"state":"active","ping":73},{"user_id":313,"name":"a chicken","steam_id":76561198313121580,"connected_time":2089000000000,"state":"active","ping":49},{"user_id":320,"name":"The Announcer's Feet","steam_id":76561199443456893,"connected_time":1277000000000,"state":"active","ping":77},{"user_id":260,"name":"Tyth","steam_id":76561198062543298,"connected_time":5741000000000,"state":"active","ping":64},{"user_id":316,"name":"Lord Headass","steam_id":76561198296532053,"connected_time":1852000000000,"state":"active","ping":45},{"user_id":319,"name":"Owl_eyes","steam_id":76561198066199203,"connected_time":1515000000000,"state":"active","ping":54},{"user_id":328,"name":"lker","steam_id":76561197976975075,"connected_time":813000000000,"state":"active","ping":90},{"user_id":323,"name":"AKconner","steam_id":76561198312569787,"connected_time":1145000000000,"state":"active","ping":118},{"user_id":302,"name":"June","steam_id":76561198141803658,"connected_time":2620000000000,"state":"active","ping":53},{"user_id":330,"name":"HeroOfTime","steam_id":76561199096218001,"connected_time":559000000000,"state":"active","ping":53},{"user_id":312,"name":"Camden","steam_id":76561198060172263,"connected_time":2134000000000,"state":"active","ping":73},{"user_id":296,"name":"⛧","steam_id":76561198021308963,"connected_time":3671000000000,"state":"active","ping":76},{"user_id":332,"name":"Chrisscar","steam_id":76561198086298130,"connected_time":346000000000,"state":"active","ping":47},{"user_id":324,"name":"Large Kup","steam_id":76561198864295695,"connected_time":1120000000000,"state":"active","ping":129},{"user_id":325,"name":"sora","steam_id":76561198094256973,"connected_time":1060000000000,"state":"active","ping":59},{"user_id":331,"name":"soft bostonian cute girl voice","steam_id":76561198050192689,"connected_time":511000000000,"state":"active","ping":55},{"user_id":326,"name":"The Super Mario Bros. Movie","steam_id":76561198871692156,"connected_time":1051000000000,"state":"active","ping":82},{"user_id":252,"name":"goldhed","steam_id":76561198051751133,"connected_time":6159000000000,"state":"active","ping":85},{"user_id":288,"name":"ice cream (冰淇淋)","steam_id":76561198976530881,"connected_time":4504000000000,"state":"active","ping":44},{"user_id":219,"name":"Electric Hawk","steam_id":76561198129732108,"connected_time":8499000000000,"state":"active","ping":40},{"user_id":317,"name":"HOG RIDER","steam_id":76561198298589502,"connected_time":1844000000000,"state":"active","ping":78},{"user_id":327,"name":"moe","steam_id":76561198929586245,"connected_time":1049000000000,"state":"active","ping":46},{"user_id":310,"name":"SHADOW (he/him)","steam_id":76561198207768148,"connected_time":2420000000000,"state":"active","ping":68}]},{"server_id":112,"name":"Uncletopia | Los Angeles | 2 | All Maps","name_short":"lax-2","host":"lax-1.us.uncletopia.com","port":27025,"enabled":true,"region":"us-west","cc":"us","latitude":33.94279,"longitude":-118.41004,"reserved":0,"last_update":"0001-01-01T00:00:00Z","name_a2s":"Uncletopia | Los Angeles | 2 | All Maps","protocol":17,"map":"koth_cascade","folder":"tf","game":"Team Fortress","app_id":440,"player_count":0,"max_players":24,"Bots":0,"server_type":"Dedicated","server_os":"Linux","password":true,"vac":true,"version":"7757534","steam_id":85568392924469992,"keywords":["cp","nocrits","nodmgspread","uncletopia"],"game_id":440,"stv_port":27026,"stv_name":"Uncletopia | Los Angeles | 2 | All Maps | STV","players":null},{"server_id":324,"name":"Uncletopia | Los Angeles | 3 | All Maps","name_short":"lax-3","host":"lax-1.us.uncletopia.com","port":27035,"enabled":true,"region":"us-west","cc":"us","latitude":33.94279,"longitude":-118.41004,"reserved":0,"last_update":"0001-01-01T00:00:00Z","name_a2s":"Uncletopia | Los Angeles | 3 | All Maps","protocol":17,"map":"pl_snowycoast","folder":"tf","game":"Team Fortress","app_id":440,"player_count":24,"max_players":24,"Bots":0,"server_type":"Dedicated","server_os":"Linux","password":true,"vac":true,"version":"7757534","steam_id":85568392924510198,"keywords":["nocrits","nodmgspread","payload","uncletopia"],"game_id":440,"stv_port":27036,"stv_name":"Uncletopia | Los Angeles | 3 | All Maps | STV","players":[{"user_id":232,"name":"kayaas","steam_id":76561198108685037,"connected_time":644000000000,"state":"active","ping":85},{"user_id":194,"name":"noelle","steam_id":76561198842577534,"connected_time":3641000000000,"state":"active","ping":92},{"user_id":234,"name":"wee wiw gamewr","steam_id":76561198314221897,"connected_time":623000000000,"state":"active","ping":76},{"user_id":231,"name":"NW","steam_id":76561199092907535,"connected_time":669000000000,"state":"active","ping":98},{"user_id":225,"name":"soda heater","steam_id":76561198864545608,"connected_time":1848000000000,"state":"active","ping":72},{"user_id":235,"name":"StrangeMachine","steam_id":76561198046628064,"connected_time":618000000000,"state":"active","ping":75},{"user_id":236,"name":"Matisguy","steam_id":76561199020903681,"connected_time":614000000000,"state":"active","ping":91},{"user_id":233,"name":"Focus","steam_id":76561198205915163,"connected_time":643000000000,"state":"active","ping":91},{"user_id":240,"name":"cuppo","steam_id":76561198022008901,"connected_time":96000000000,"state":"active","ping":72},{"user_id":217,"name":"JustAGuy676","steam_id":76561199111878235,"connected_time":2223000000000,"state":"active","ping":98},{"user_id":223,"name":"Steve Jobs' cousin Hand Jobs","steam_id":76561198282766831,"connected_time":1929000000000,"state":"active","ping":106},{"user_id":212,"name":"Feel the bern","steam_id":76561198078824519,"connected_time":2326000000000,"state":"active","ping":71},{"user_id":125,"name":"cabin","steam_id":76561198113194774,"connected_time":9161000000000,"state":"active","ping":60},{"user_id":219,"name":"Satori Komeiji","steam_id":76561198158211423,"connected_time":2191000000000,"state":"active","ping":49},{"user_id":238,"name":"1 MILLION","steam_id":76561198823852521,"connected_time":605000000000,"state":"active","ping":63},{"user_id":224,"name":"Land0","steam_id":76561198321264704,"connected_time":1852000000000,"state":"active","ping":51},{"user_id":205,"name":"Swifty","steam_id":76561198131704765,"connected_time":3123000000000,"state":"active","ping":53},{"user_id":239,"name":"oil","steam_id":76561198099980149,"connected_time":604000000000,"state":"active","ping":49},{"user_id":218,"name":"junkgle","steam_id":76561198259507820,"connected_time":2197000000000,"state":"active","ping":67},{"user_id":230,"name":"ChibiFerrari","steam_id":76561198825330201,"connected_time":690000000000,"state":"active","ping":75},{"user_id":229,"name":"PirateJet","steam_id":76561198050858744,"connected_time":1651000000000,"state":"active","ping":58},{"user_id":221,"name":"Duncle Racco","steam_id":76561198009983499,"connected_time":2040000000000,"state":"active","ping":120},{"user_id":204,"name":"cjetson","steam_id":76561198074482272,"connected_time":3220000000000,"state":"active","ping":61},{"user_id":222,"name":"u know i keep","steam_id":76561198094615739,"connected_time":2039000000000,"state":"active","ping":124}]},{"server_id":25,"name":"Uncletopia | Los Angeles | 4 | Stopwatch Beta","name_short":"lax-4","host":"lax-1.us.uncletopia.com","port":27045,"enabled":true,"region":"us-west","cc":"us","latitude":33.94279,"longitude":-118.41004,"reserved":0,"last_update":"0001-01-01T00:00:00Z","name_a2s":"Uncletopia | Los Angeles | 4 | Stopwatch Beta","protocol":17,"map":"pl_frontier_final","folder":"tf","game":"Team Fortress","app_id":440,"player_count":0,"max_players":24,"Bots":0,"server_type":"Dedicated","server_os":"Linux","password":true,"vac":true,"version":"7757534","steam_id":85568392924510199,"keywords":["nocrits","nodmgspread","payload","uncletopia"],"game_id":440,"stv_port":27046,"stv_name":"Uncletopia | Los Angeles | 4 | Stopwatch Beta | STV","players":null},{"server_id":11,"name":"Uncletopia | London | 1 | All Maps","name_short":"lon-1","host":"lon-1.uk.uncletopia.com","port":27015,"enabled":true,"region":"eu","cc":"gb","latitude":51.509865,"longitude":-0.118092,"reserved":0,"last_update":"0001-01-01T00:00:00Z","name_a2s":"Uncletopia | London | 1 | All Maps","protocol":17,"map":"koth_viaduct","folder":"tf","game":"Team Fortress","app_id":440,"player_count":0,"max_players":24,"Bots":0,"server_type":"Dedicated","server_os":"Linux","password":true,"vac":true,"version":"7757534","steam_id":85568392924367362,"keywords":["cp","nocrits","nodmgspread","uncletopia"],"game_id":440,"stv_port":27016,"stv_name":"Uncletopia | London | 1 | All Maps | STV","players":null},{"server_id":114,"name":"Uncletopia | London | 2 | All Maps","name_short":"lon-2","host":"lon-1.uk.uncletopia.com","port":27025,"enabled":true,"region":"eu","cc":"gb","latitude":51.509865,"longitude":-0.118092,"reserved":0,"last_update":"0001-01-01T00:00:00Z","name_a2s":"Uncletopia | London | 2 | All Maps","protocol":17,"map":"cp_dustbowl","folder":"tf","game":"Team Fortress","app_id":440,"player_count":0,"max_players":24,"Bots":0,"server_type":"Dedicated","server_os":"Linux","password":true,"vac":true,"version":"7757534","steam_id":85568392924470941,"keywords":["cp","nocrits","nodmgspread","uncletopia"],"game_id":440,"stv_port":27026,"stv_name":"Uncletopia | London | 2 | All Maps | STV","players":null},{"server_id":320,"name":"Uncletopia | London | 3 | All Maps","name_short":"lon-3","host":"lon-1.uk.uncletopia.com","port":27035,"enabled":true,"region":"eu","cc":"gb","latitude":51.509865,"longitude":-0.118092,"reserved":0,"last_update":"0001-01-01T00:00:00Z","name_a2s":"Uncletopia | London | 3 | All Maps","protocol":17,"map":"pl_badwater","folder":"tf","game":"Team Fortress","app_id":440,"player_count":0,"max_players":24,"Bots":0,"server_type":"Dedicated","server_os":"Linux","password":true,"vac":true,"version":"7757534","steam_id":85568392924510192,"keywords":["nocrits","nodmgspread","payload","uncletopia"],"game_id":440,"stv_port":27036,"stv_name":"Uncletopia | London | 3 | All Maps | STV","players":null},{"server_id":321,"name":"Uncletopia | London | 4 | All Maps","name_short":"lon-4","host":"lon-1.uk.uncletopia.com","port":27045,"enabled":true,"region":"eu","cc":"gb","latitude":51.509865,"longitude":-0.118092,"reserved":0,"last_update":"0001-01-01T00:00:00Z","name_a2s":"Uncletopia | London | 4 | All Maps","protocol":17,"map":"koth_viaduct","folder":"tf","game":"Team Fortress","app_id":440,"player_count":0,"max_players":24,"Bots":0,"server_type":"Dedicated","server_os":"Linux","password":true,"vac":true,"version":"7757534","steam_id":85568392924510193,"keywords":["cp","nocrits","nodmgspread","uncletopia"],"game_id":440,"stv_port":27046,"stv_name":"Uncletopia | London | 4 | All Maps | STV","players":null},{"server_id":21,"name":"Uncletopia | London | 5 | All Maps","name_short":"lon-5","host":"lon-1.uk.uncletopia.com","port":27055,"enabled":true,"region":"eu","cc":"gb","latitude":51.509865,"longitude":-0.118092,"reserved":0,"last_update":"0001-01-01T00:00:00Z","name_a2s":"Uncletopia | London | 5 | All Maps","protocol":17,"map":"cp_snakewater_final1","folder":"tf","game":"Team Fortress","app_id":440,"player_count":0,"max_players":24,"Bots":0,"server_type":"Dedicated","server_os":"Linux","password":true,"vac":true,"version":"7757534","steam_id":85568392924742829,"keywords":["cp","nocrits","nodmgspread","uncletopia"],"game_id":440,"stv_port":27056,"stv_name":"Uncletopia | London | 5 | All Maps | STV","players":null},{"server_id":22,"name":"Uncletopia | London | 6 | All Maps","name_short":"lon-6","host":"lon-1.uk.uncletopia.com","port":27065,"enabled":true,"region":"eu","cc":"gb","latitude":51.509865,"longitude":-0.118092,"reserved":0,"last_update":"0001-01-01T00:00:00Z","name_a2s":"Uncletopia | London | 6 | All Maps","protocol":17,"map":"koth_cascade","folder":"tf","game":"Team Fortress","app_id":440,"player_count":0,"max_players":24,"Bots":0,"server_type":"Dedicated","server_os":"Linux","password":true,"vac":true,"version":"7757534","steam_id":85568392924742830,"keywords":["cp","nocrits","nodmgspread","uncletopia"],"game_id":440,"stv_port":27066,"stv_name":"Uncletopia | London | 6 | All Maps | STV","players":null},{"server_id":40,"name":"Uncletopia | London | 7 | No Payload","name_short":"lon-7","host":"lon-1.uk.uncletopia.com","port":27075,"enabled":true,"region":"eu","cc":"gb","latitude":51.509865,"longitude":-0.118092,"reserved":0,"last_update":"0001-01-01T00:00:00Z","name_a2s":"Uncletopia | London | 7 | No Payload","protocol":17,"map":"cp_process_final","folder":"tf","game":"Team Fortress","app_id":440,"player_count":0,"max_players":24,"Bots":0,"server_type":"Dedicated","server_os":"Linux","password":true,"vac":true,"version":"7757534","steam_id":85568392924964314,"keywords":["cp","nocrits","nodmgspread","uncletopia"],"game_id":440,"stv_port":27076,"stv_name":"Uncletopia | London | 7 | No Payload | STV","players":null},{"server_id":41,"name":"Uncletopia | London | 8 | Community","name_short":"lon-8","host":"lon-1.uk.uncletopia.com","port":27085,"enabled":true,"region":"eu","cc":"gb","latitude":51.509865,"longitude":-0.118092,"reserved":0,"last_update":"0001-01-01T00:00:00Z","name_a2s":"Uncletopia | London | 8 | Community","protocol":17,"map":"pl_upward","folder":"tf","game":"Team Fortress","app_id":440,"player_count":0,"max_players":24,"Bots":0,"server_type":"Dedicated","server_os":"Linux","password":true,"vac":true,"version":"7757534","steam_id":85568392924964315,"keywords":["nocrits","nodmgspread","payload","uncletopia"],"game_id":440,"stv_port":27086,"stv_name":"Uncletopia | London | 8 | Community | STV","players":null},{"server_id":300,"name":"Uncletopia | Montréal | 1 | All Maps","name_short":"mtl-1","host":"mtl-1.ca.uncletopia.com","port":27015,"enabled":true,"region":"us-east","cc":"ca","latitude":45.50889,"longitude":-73.56167,"reserved":0,"last_update":"0001-01-01T00:00:00Z","name_a2s":"Uncletopia | Montréal | 1 | All Maps","protocol":17,"map":"koth_cascade","folder":"tf","game":"Team Fortress","app_id":440,"player_count":0,"max_players":24,"Bots":0,"server_type":"Dedicated","server_os":"Linux","password":true,"vac":true,"version":"7757534","steam_id":85568392924500087,"keywords":["cp","nocrits","nodmgspread","uncletopia"],"game_id":440,"stv_port":27016,"stv_name":"Uncletopia | Montréal | 1 | All Maps | STV","players":null},{"server_id":301,"name":"Uncletopia | Montréal | 2 | All Maps","name_short":"mtl-2","host":"mtl-1.ca.uncletopia.com","port":27025,"enabled":true,"region":"us-east","cc":"ca","latitude":45.50889,"longitude":-73.56167,"reserved":0,"last_update":"0001-01-01T00:00:00Z","name_a2s":"Uncletopia | Montréal | 2 | All Maps","protocol":17,"map":"koth_highpass","folder":"tf","game":"Team Fortress","app_id":440,"player_count":0,"max_players":24,"Bots":0,"server_type":"Dedicated","server_os":"Linux","password":true,"vac":true,"version":"7757534","steam_id":85568392924500088,"keywords":["cp","nocrits","nodmgspread","uncletopia"],"game_id":440,"stv_port":27026,"stv_name":"Uncletopia | Montréal | 2 | All Maps | STV","players":null},{"server_id":302,"name":"Uncletopia | Montréal | 3 | All Maps","name_short":"mtl-3","host":"mtl-1.ca.uncletopia.com","port":27035,"enabled":true,"region":"us-east","cc":"ca","latitude":45.50889,"longitude":-73.56167,"reserved":0,"last_update":"0001-01-01T00:00:00Z","name_a2s":"Uncletopia | Montréal | 3 | All Maps","protocol":17,"map":"cp_altitude","folder":"tf","game":"Team Fortress","app_id":440,"player_count":0,"max_players":24,"Bots":0,"server_type":"Dedicated","server_os":"Linux","password":true,"vac":true,"version":"7757534","steam_id":85568392924500089,"keywords":["cp","nocrits","nodmgspread","uncletopia"],"game_id":440,"stv_port":27036,"stv_name":"Uncletopia | Montréal | 3 | All Maps | STV","players":null},{"server_id":303,"name":"Uncletopia | Montréal | 4 | No Payload","name_short":"mtl-4","host":"mtl-1.ca.uncletopia.com","port":27045,"enabled":true,"region":"us-east","cc":"ca","latitude":45.50889,"longitude":-73.56167,"reserved":0,"last_update":"0001-01-01T00:00:00Z","name_a2s":"Uncletopia | Montréal | 4 | No Payload","protocol":17,"map":"koth_lazarus","folder":"tf","game":"Team Fortress","app_id":440,"player_count":0,"max_players":24,"Bots":0,"server_type":"Dedicated","server_os":"Linux","password":true,"vac":true,"version":"7757534","steam_id":85568392924500090,"keywords":["cp","nocrits","nodmgspread","uncletopia"],"game_id":440,"stv_port":27046,"stv_name":"Uncletopia | Montréal | 4 | No Payload | STV","players":null},{"server_id":13,"name":"Uncletopia | New York City | 1 | All Maps","name_short":"nyc-1","host":"nyc-1.us.uncletopia.com","port":27015,"enabled":true,"region":"us-east","cc":"us","latitude":40.73061,"longitude":-73.93524,"reserved":0,"last_update":"0001-01-01T00:00:00Z","name_a2s":"Uncletopia | New York City | 1 | All Maps","protocol":17,"map":"koth_lakeside_final","folder":"tf","game":"Team Fortress","app_id":440,"player_count":0,"max_players":24,"Bots":0,"server_type":"Dedicated","server_os":"Linux","password":true,"vac":true,"version":"7757534","steam_id":85568392924469993,"keywords":["cp","nocrits","nodmgspread","uncletopia"],"game_id":440,"stv_port":27016,"stv_name":"Uncletopia | New York City | 1 | All Maps | STV","players":null},{"server_id":14,"name":"Uncletopia | New York City | 2 | All Maps","name_short":"nyc-2","host":"nyc-1.us.uncletopia.com","port":27025,"enabled":true,"region":"us-east","cc":"us","latitude":40.73061,"longitude":-73.93524,"reserved":0,"last_update":"0001-01-01T00:00:00Z","name_a2s":"Uncletopia | New York City | 2 | All Maps","protocol":17,"map":"pl_pier","folder":"tf","game":"Team Fortress","app_id":440,"player_count":24,"max_players":24,"Bots":0,"server_type":"Dedicated","server_os":"Linux","password":true,"vac":true,"version":"7757534","steam_id":85568392924469994,"keywords":["nocrits","nodmgspread","payload","uncletopia"],"game_id":440,"stv_port":27026,"stv_name":"Uncletopia | New York City | 2 | All Maps | STV","players":[{"user_id":533,"name":"atlas","steam_id":76561198398383076,"connected_time":1885000000000,"state":"active","ping":103},{"user_id":540,"name":"nazuna","steam_id":76561198078395002,"connected_time":1528000000000,"state":"active","ping":84},{"user_id":521,"name":"survivalist keeda","steam_id":76561198277979851,"connected_time":2376000000000,"state":"active","ping":81},{"user_id":513,"name":"trappy (showered)","steam_id":76561198402801140,"connected_time":3028000000000,"state":"active","ping":85},{"user_id":514,"name":"MAXIMUS","steam_id":76561198085809453,"connected_time":2883000000000,"state":"active","ping":75},{"user_id":548,"name":"bbbbbbbbbbbbbbbbbbbbbbbbbbbbbbb","steam_id":76561198339644583,"connected_time":282000000000,"state":"active","ping":79},{"user_id":522,"name":"nomallife","steam_id":76561198066078134,"connected_time":2347000000000,"state":"active","ping":57},{"user_id":545,"name":"brian eno enjoyer","steam_id":76561198056467179,"connected_time":1180000000000,"state":"active","ping":105},{"user_id":543,"name":"Ham","steam_id":76561198219857080,"connected_time":1292000000000,"state":"active","ping":52},{"user_id":535,"name":"UnsungPotate","steam_id":76561198123138410,"connected_time":1780000000000,"state":"active","ping":89},{"user_id":544,"name":"®","steam_id":76561198276258112,"connected_time":1285000000000,"state":"active","ping":55},{"user_id":546,"name":"notatrip (l.i.b)","steam_id":76561198046109327,"connected_time":1170000000000,"state":"active","ping":78},{"user_id":527,"name":"illious","steam_id":76561198169925494,"connected_time":2078000000000,"state":"active","ping":75},{"user_id":549,"name":"{FITH}™ Halcyon","steam_id":76561198049132808,"connected_time":137000000000,"state":"active","ping":90},{"user_id":499,"name":"Bliztank | RGL.gg","steam_id":76561198019252798,"connected_time":4002000000000,"state":"active","ping":45},{"user_id":529,"name":"KoolBucky","steam_id":76561198147927648,"connected_time":2026000000000,"state":"active","ping":81},{"user_id":550,"name":"Big Cock Brock","steam_id":76561198093244204,"connected_time":115000000000,"state":"active","ping":65},{"user_id":500,"name":"C papi","steam_id":76561198027779564,"connected_time":3983000000000,"state":"active","ping":64},{"user_id":538,"name":"Zaider","steam_id":76561198049839645,"connected_time":1646000000000,"state":"active","ping":53},{"user_id":539,"name":"Vladikr1","steam_id":76561198401495362,"connected_time":1588000000000,"state":"active","ping":70},{"user_id":479,"name":"Riske","steam_id":76561198115840568,"connected_time":5570000000000,"state":"active","ping":65},{"user_id":536,"name":"Chermernd","steam_id":76561198137092500,"connected_time":1773000000000,"state":"active","ping":54},{"user_id":537,"name":"LookAtMeGo!","steam_id":76561198105741724,"connected_time":1716000000000,"state":"active","ping":47}]},{"server_id":15,"name":"Uncletopia | New York City | 3 | Stopwatch Beta","name_short":"nyc-3","host":"nyc-1.us.uncletopia.com","port":27035,"enabled":true,"region":"us-east","cc":"us","latitude":40.73061,"longitude":-73.93524,"reserved":0,"last_update":"0001-01-01T00:00:00Z","name_a2s":"Uncletopia | New York City | 3 | Stopwatch Beta","protocol":17,"map":"workshop/pl_vigil_rc9.ugc1266210012","folder":"tf","game":"Team Fortress","app_id":440,"player_count":0,"max_players":24,"Bots":0,"server_type":"Dedicated","server_os":"Linux","password":true,"vac":true,"version":"7757534","steam_id":85568392924742820,"keywords":["nocrits","nodmgspread","payload","uncletopia"],"game_id":440,"stv_port":27036,"stv_name":"Uncletopia | New York City | 3 | Stopwatch Beta | STV","players":null},{"server_id":16,"name":"Uncletopia | New York City | 4 | Community","name_short":"nyc-4","host":"nyc-1.us.uncletopia.com","port":27045,"enabled":true,"region":"us-east","cc":"us","latitude":40.73061,"longitude":-73.93524,"reserved":0,"last_update":"0001-01-01T00:00:00Z","name_a2s":"Uncletopia | New York City | 4 | Community","protocol":17,"map":"workshop/cp_croissant_final.ugc458840209","folder":"tf","game":"Team Fortress","app_id":440,"player_count":0,"max_players":24,"Bots":0,"server_type":"Dedicated","server_os":"Linux","password":true,"vac":true,"version":"7757534","steam_id":85568392924742821,"keywords":["cp","nocrits","nodmgspread","uncletopia"],"game_id":440,"stv_port":27046,"stv_name":"Uncletopia | New York City | 4 | Community | STV","players":null},{"server_id":142,"name":"Uncletopia | São Paulo | 1 | All Maps","name_short":"sao-1","host":"sao-1.br.uncletopia.com","port":27015,"enabled":true,"region":"sa","cc":"br","latitude":-23.533773,"longitude":-46.62529,"reserved":0,"last_update":"0001-01-01T00:00:00Z","name_a2s":"Uncletopia | São Paulo | 1 | All Maps","protocol":17,"map":"koth_cascade","folder":"tf","game":"Team Fortress","app_id":440,"player_count":0,"max_players":24,"Bots":0,"server_type":"Dedicated","server_os":"Linux","password":true,"vac":true,"version":"7757534","steam_id":85568392924469996,"keywords":["cp","nocrits","nodmgspread","uncletopia"],"game_id":440,"stv_port":27016,"stv_name":"Uncletopia | São Paulo | 1 | All Maps | STV","players":null},{"server_id":143,"name":"Uncletopia | São Paulo | 2 | All Maps","name_short":"sao-2","host":"sao-2.br.uncletopia.com","port":27015,"enabled":true,"region":"sa","cc":"br","latitude":-23.533773,"longitude":-46.62529,"reserved":0,"last_update":"0001-01-01T00:00:00Z","name_a2s":"Uncletopia | São Paulo | 2 | All Maps","protocol":17,"map":"pl_barnblitz","folder":"tf","game":"Team Fortress","app_id":440,"player_count":0,"max_players":24,"Bots":0,"server_type":"Dedicated","server_os":"Linux","password":true,"vac":true,"version":"7757534","steam_id":85568392924485349,"keywords":["nocrits","nodmgspread","payload","uncletopia"],"game_id":440,"stv_port":27016,"stv_name":"Uncletopia | São Paulo | 2 | All Maps | STV","players":null},{"server_id":7,"name":"Uncletopia | Seattle | 1 | All Maps","name_short":"sea-1","host":"sea-1.us.uncletopia.com","port":27015,"enabled":true,"region":"us-west","cc":"us","latitude":47.608013,"longitude":-122.33517,"reserved":0,"last_update":"0001-01-01T00:00:00Z","name_a2s":"Uncletopia | Seattle | 1 | All Maps","protocol":17,"map":"koth_sawmill","folder":"tf","game":"Team Fortress","app_id":440,"player_count":24,"max_players":24,"Bots":0,"server_type":"Dedicated","server_os":"Linux","password":true,"vac":true,"version":"7757534","steam_id":85568392924469997,"keywords":["cp","nocrits","nodmgspread","uncletopia"],"game_id":440,"stv_port":27016,"stv_name":"Uncletopia | Seattle | 1 | All Maps | STV","players":[{"user_id":879,"name":"getting railed to Oingo Boingo","steam_id":76561198797611732,"connected_time":3070000000000,"state":"active","ping":67},{"user_id":906,"name":"summerof69","steam_id":76561198069049410,"connected_time":24000000000,"state":"active","ping":105},{"user_id":905,"name":"Oh No! It's Twister!","steam_id":76561198016791916,"connected_time":286000000000,"state":"active","ping":81},{"user_id":899,"name":"Grill Skills","steam_id":76561198053575147,"connected_time":979000000000,"state":"active","ping":63},{"user_id":886,"name":"Dr. Karl, the AUS Science Guy","steam_id":76561198031278747,"connected_time":1854000000000,"state":"active","ping":46},{"user_id":889,"name":"Grammaring","steam_id":76561198867366139,"connected_time":1842000000000,"state":"active","ping":73},{"user_id":830,"name":"rat gets the cheese","steam_id":76561198031234032,"connected_time":7783000000000,"state":"active","ping":94},{"user_id":887,"name":"Sniff","steam_id":76561198010270922,"connected_time":1853000000000,"state":"active","ping":41},{"user_id":881,"name":"DK360","steam_id":76561198796783094,"connected_time":2811000000000,"state":"active","ping":55},{"user_id":904,"name":"Camohno","steam_id":76561198283519918,"connected_time":354000000000,"state":"active","ping":70},{"user_id":867,"name":"shiadyne","steam_id":76561198271939793,"connected_time":3874000000000,"state":"active","ping":45},{"user_id":885,"name":"gorlab","steam_id":76561198025089694,"connected_time":1859000000000,"state":"active","ping":60},{"user_id":884,"name":"Arsonist Goose","steam_id":76561198147441830,"connected_time":1930000000000,"state":"active","ping":73},{"user_id":901,"name":"Fuel","steam_id":76561198115269587,"connected_time":967000000000,"state":"active","ping":122},{"user_id":870,"name":"Ayayahuasca","steam_id":76561199002906056,"connected_time":3474000000000,"state":"active","ping":51},{"user_id":883,"name":"〣dust〣 -she/her-","steam_id":76561198045218909,"connected_time":2266000000000,"state":"active","ping":40},{"user_id":900,"name":"mub","steam_id":76561197961943948,"connected_time":976000000000,"state":"active","ping":50},{"user_id":902,"name":"Bandit","steam_id":76561199087543553,"connected_time":956000000000,"state":"active","ping":98},{"user_id":898,"name":"sky.to16","steam_id":76561199211313763,"connected_time":1146000000000,"state":"active","ping":123},{"user_id":876,"name":"mmmBoyo","steam_id":76561198821360261,"connected_time":3279000000000,"state":"active","ping":57},{"user_id":872,"name":"Nobuunga","steam_id":76561198100614981,"connected_time":3330000000000,"state":"active","ping":58},{"user_id":903,"name":"dave strider","steam_id":76561198065112186,"connected_time":941000000000,"state":"active","ping":63},{"user_id":863,"name":"Mignyanne :3","steam_id":76561198048754056,"connected_time":4068000000000,"state":"active","ping":65},{"user_id":874,"name":"tender mike","steam_id":76561198058821622,"connected_time":3318000000000,"state":"active","ping":105}]},{"server_id":119,"name":"Uncletopia | Seattle | 2 | All Maps","name_short":"sea-2","host":"sea-1.us.uncletopia.com","port":27025,"enabled":true,"region":"us-west","cc":"us","latitude":47.608013,"longitude":-122.33517,"reserved":0,"last_update":"0001-01-01T00:00:00Z","name_a2s":"Uncletopia | Seattle | 2 | All Maps","protocol":17,"map":"pl_snowycoast","folder":"tf","game":"Team Fortress","app_id":440,"player_count":24,"max_players":24,"Bots":0,"server_type":"Dedicated","server_os":"Linux","password":true,"vac":true,"version":"7757534","steam_id":85568392924469998,"keywords":["nocrits","nodmgspread","payload","uncletopia"],"game_id":440,"stv_port":27026,"stv_name":"Uncletopia | Seattle | 2 | All Maps | STV","players":[{"user_id":515,"name":"john","steam_id":76561198850447852,"connected_time":1438000000000,"state":"active","ping":81},{"user_id":497,"name":"Uncle Feathers McGraw","steam_id":76561198046442707,"connected_time":2172000000000,"state":"active","ping":47},{"user_id":511,"name":"S Q U I S H E  T H A T  C A T","steam_id":76561198293865429,"connected_time":1644000000000,"state":"active","ping":36},{"user_id":532,"name":"TROY","steam_id":76561197983852176,"connected_time":936000000000,"state":"active","ping":75},{"user_id":502,"name":"Dextersbrain","steam_id":76561198011831579,"connected_time":2145000000000,"state":"active","ping":71},{"user_id":514,"name":"The Horselords and Animal Gods","steam_id":76561197975094050,"connected_time":1454000000000,"state":"active","ping":92},{"user_id":522,"name":"Hey its me Goku at your service","steam_id":76561198201473635,"connected_time":1253000000000,"state":"active","ping":59},{"user_id":490,"name":"Tom Skirrett","steam_id":76561198014600788,"connected_time":3482000000000,"state":"active","ping":74},{"user_id":526,"name":"makcmik2","steam_id":76561198242544518,"connected_time":1028000000000,"state":"active","ping":69},{"user_id":542,"name":"Many Bees' Chilling","steam_id":76561198079641282,"connected_time":8000000000,"state":"spawning","ping":45},{"user_id":495,"name":"Lmao Zedong","steam_id":76561198043765829,"connected_time":3287000000000,"state":"active","ping":46},{"user_id":538,"name":"ScumCuck","steam_id":76561198105264929,"connected_time":134000000000,"state":"active","ping":56},{"user_id":539,"name":"Greed","steam_id":76561198041628318,"connected_time":95000000000,"state":"active","ping":72},{"user_id":531,"name":"autumnal.messenger","steam_id":76561199345816635,"connected_time":941000000000,"state":"active","ping":52},{"user_id":510,"name":"THAT CAT","steam_id":76561198010828625,"connected_time":1841000000000,"state":"active","ping":37},{"user_id":506,"name":"SvicidalBug","steam_id":76561198221390504,"connected_time":1954000000000,"state":"active","ping":68},{"user_id":533,"name":"JON","steam_id":76561198057971005,"connected_time":923000000000,"state":"active","ping":41},{"user_id":520,"name":"Eris","steam_id":76561199471434875,"connected_time":1356000000000,"state":"active","ping":43},{"user_id":500,"name":"CheeseyJoe","steam_id":76561198062182044,"connected_time":2156000000000,"state":"active","ping":62},{"user_id":540,"name":"Joseph \"Biden\" Stalin","steam_id":76561198213863907,"connected_time":85000000000,"state":"active","ping":161},{"user_id":541,"name":"MarcoTheTaco","steam_id":76561199071115982,"connected_time":72000000000,"state":"active","ping":233},{"user_id":535,"name":"Coffee","steam_id":76561198098622184,"connected_time":817000000000,"state":"active","ping":132},{"user_id":503,"name":"weegeebad","steam_id":76561198280841437,"connected_time":2144000000000,"state":"active","ping":112},{"user_id":536,"name":"Nalyk","steam_id":76561198043886843,"connected_time":783000000000,"state":"active","ping":58}]},{"server_id":406,"name":"Uncletopia | Seattle | 3 | Stopwatch Beta","name_short":"sea-3","host":"sea-1.us.uncletopia.com","port":27035,"enabled":true,"region":"us-west","cc":"us","latitude":47.608013,"longitude":-122.33517,"reserved":0,"last_update":"0001-01-01T00:00:00Z","name_a2s":"Uncletopia | Seattle | 3 | Stopwatch Beta","protocol":17,"map":"workshop/koth_bagel_rc5.ugc2514036946","folder":"tf","game":"Team Fortress","app_id":440,"player_count":0,"max_players":24,"Bots":0,"server_type":"Dedicated","server_os":"Linux","password":true,"vac":true,"version":"7757534","steam_id":85568392924515217,"keywords":["cp","nocrits","nodmgspread","uncletopia"],"game_id":440,"stv_port":27036,"stv_name":"Uncletopia | Seattle | 3 | Stopwatch Beta | STV","players":null},{"server_id":17,"name":"Uncletopia | San Francisco | 1 | All Maps","name_short":"sfo-1","host":"sfo-1.us.uncletopia.com","port":27015,"enabled":true,"region":"us-west","cc":"us","latitude":37.77397,"longitude":-122.4313,"reserved":0,"last_update":"0001-01-01T00:00:00Z","name_a2s":"Uncletopia | San Francisco | 1 | All Maps","protocol":17,"map":"pl_upward","folder":"tf","game":"Team Fortress","app_id":440,"player_count":16,"max_players":24,"Bots":0,"server_type":"Dedicated","server_os":"Linux","password":true,"vac":true,"version":"7757534","steam_id":85568392924469999,"keywords":["nocrits","nodmgspread","payload","uncletopia"],"game_id":440,"stv_port":27016,"stv_name":"Uncletopia | San Francisco | 1 | All Maps | STV","players":[{"user_id":795,"name":"Aubron","steam_id":76561197994782056,"connected_time":1583000000000,"state":"active","ping":45},{"user_id":771,"name":"Calypso","steam_id":76561198082939544,"connected_time":3342000000000,"state":"active","ping":94},{"user_id":818,"name":"Squeakanist","steam_id":76561198265101972,"connected_time":622000000000,"state":"active","ping":66},{"user_id":793,"name":"Kilroy Was Here","steam_id":76561198205702933,"connected_time":1653000000000,"state":"active","ping":51},{"user_id":786,"name":"Whisp","steam_id":76561197990148121,"connected_time":2195000000000,"state":"active","ping":88},{"user_id":796,"name":"Kai","steam_id":76561197972261210,"connected_time":1568000000000,"state":"active","ping":67},{"user_id":797,"name":"Ziox Koa","steam_id":76561198024292650,"connected_time":1563000000000,"state":"active","ping":124},{"user_id":798,"name":"schlarpc","steam_id":76561198007700826,"connected_time":1562000000000,"state":"active","ping":57},{"user_id":799,"name":"Hadn69","steam_id":76561198047885348,"connected_time":1555000000000,"state":"active","ping":45},{"user_id":817,"name":"Big Chungus","steam_id":76561199442404678,"connected_time":848000000000,"state":"active","ping":35},{"user_id":805,"name":"oohho","steam_id":76561198073707607,"connected_time":1488000000000,"state":"active","ping":40},{"user_id":806,"name":"bwuh","steam_id":76561198470818334,"connected_time":1485000000000,"state":"active","ping":167},{"user_id":809,"name":"Shnakes","steam_id":76561198201649518,"connected_time":1438000000000,"state":"active","ping":66},{"user_id":808,"name":"kat","steam_id":76561198335842520,"connected_time":1454000000000,"state":"active","ping":155},{"user_id":821,"name":"Baby Llama","steam_id":76561198407155682,"connected_time":97000000000,"state":"active","ping":74},{"user_id":812,"name":"slate","steam_id":76561198201446799,"connected_time":1404000000000,"state":"active","ping":119}]},{"server_id":18,"name":"Uncletopia | San Francisco | 2 | All Maps","name_short":"sfo-2","host":"sfo-1.us.uncletopia.com","port":27025,"enabled":true,"region":"us-west","cc":"us","latitude":37.77397,"longitude":-122.4313,"reserved":0,"last_update":"0001-01-01T00:00:00Z","name_a2s":"Uncletopia | San Francisco | 2 | All Maps","protocol":17,"map":"koth_lakeside_final","folder":"tf","game":"Team Fortress","app_id":440,"player_count":0,"max_players":24,"Bots":0,"server_type":"Dedicated","server_os":"Linux","password":true,"vac":true,"version":"7757534","steam_id":85568392924470000,"keywords":["cp","nocrits","nodmgspread","uncletopia"],"game_id":440,"stv_port":27026,"stv_name":"Uncletopia | San Francisco | 2 | All Maps | STV","players":null},{"server_id":19,"name":"Uncletopia | San Francisco | 3 | Stopwatch Beta","name_short":"sfo-3","host":"sfo-1.us.uncletopia.com","port":27035,"enabled":true,"region":"us-west","cc":"us","latitude":37.77397,"longitude":-122.4313,"reserved":0,"last_update":"0001-01-01T00:00:00Z","name_a2s":"Uncletopia | San Francisco | 3 | Stopwatch Beta","protocol":17,"map":"pl_borneo","folder":"tf","game":"Team Fortress","app_id":440,"player_count":0,"max_players":24,"Bots":0,"server_type":"Dedicated","server_os":"Linux","password":true,"vac":true,"version":"7757534","steam_id":85568392924742824,"keywords":["nocrits","nodmgspread","payload","uncletopia"],"game_id":440,"stv_port":27036,"stv_name":"Uncletopia | San Francisco | 3 | Stopwatch Beta | STV","players":null},{"server_id":20,"name":"Uncletopia | San Francisco | 4 | Community","name_short":"sfo-4","host":"sfo-1.us.uncletopia.com","port":27045,"enabled":true,"region":"us-west","cc":"us","latitude":37.77397,"longitude":-122.4313,"reserved":0,"last_update":"0001-01-01T00:00:00Z","name_a2s":"Uncletopia | San Francisco | 4 | Community","protocol":17,"map":"workshop/cp_bruhstbowl_b5.ugc2878604990","folder":"tf","game":"Team Fortress","app_id":440,"player_count":22,"max_players":24,"Bots":0,"server_type":"Dedicated","server_os":"Linux","password":true,"vac":true,"version":"7757534","steam_id":85568392924742826,"keywords":["cp","nocrits","nodmgspread","uncletopia"],"game_id":440,"stv_port":27046,"stv_name":"Uncletopia | San Francisco | 4 | Community | STV","players":[{"user_id":14,"name":"Fi \u003c3","steam_id":76561198315348942,"connected_time":5210000000000,"state":"active","ping":70},{"user_id":62,"name":"HammerHead","steam_id":76561197975668646,"connected_time":21000000000,"state":"active","ping":68},{"user_id":17,"name":"frappe444","steam_id":76561199032973937,"connected_time":4180000000000,"state":"active","ping":75},{"user_id":18,"name":"jorts","steam_id":76561199041179985,"connected_time":3773000000000,"state":"active","ping":82},{"user_id":60,"name":"years","steam_id":76561197994098627,"connected_time":794000000000,"state":"active","ping":62},{"user_id":57,"name":"brk","steam_id":76561198079634017,"connected_time":1105000000000,"state":"active","ping":61},{"user_id":38,"name":"smeasly","steam_id":76561198028718812,"connected_time":2901000000000,"state":"active","ping":59},{"user_id":22,"name":"p9 delight","steam_id":76561197980280272,"connected_time":3756000000000,"state":"active","ping":60},{"user_id":23,"name":"rorywashere /ᐠ - ˕ -マ Ⳋ","steam_id":76561198065825165,"connected_time":3750000000000,"state":"active","ping":87},{"user_id":39,"name":"chanoc","steam_id":76561198026734746,"connected_time":2782000000000,"state":"active","ping":48},{"user_id":58,"name":"THIRDPIERCE","steam_id":76561198405366314,"connected_time":1062000000000,"state":"active","ping":97},{"user_id":32,"name":"I don't want to be chopper wedn","steam_id":76561198117057283,"connected_time":3266000000000,"state":"active","ping":97},{"user_id":27,"name":"The Arm","steam_id":76561197983066285,"connected_time":3423000000000,"state":"active","ping":57},{"user_id":28,"name":"Antzen","steam_id":76561198041343470,"connected_time":3364000000000,"state":"active","ping":53},{"user_id":29,"name":"benjamin","steam_id":76561198084679502,"connected_time":3309000000000,"state":"active","ping":98},{"user_id":30,"name":"wepeat","steam_id":76561198085943550,"connected_time":3301000000000,"state":"active","ping":80},{"user_id":63,"name":"mechanicvirus","steam_id":76561198038161480,"connected_time":9000000000,"state":"spawning","ping":81},{"user_id":49,"name":"Loodler","steam_id":76561198426624664,"connected_time":1882000000000,"state":"active","ping":56},{"user_id":47,"name":"doge","steam_id":76561198280088862,"connected_time":2117000000000,"state":"active","ping":58},{"user_id":54,"name":"Wario","steam_id":76561198120669452,"connected_time":1339000000000,"state":"active","ping":84},{"user_id":61,"name":"me","steam_id":76561199468285784,"connected_time":239000000000,"state":"active","ping":32},{"user_id":45,"name":"alaska","steam_id":76561198017030029,"connected_time":2370000000000,"state":"active","ping":51}]},{"server_id":141,"name":"Uncletopia | Sydney | 1 | All Maps","name_short":"syd-1","host":"syd-1.au.uncletopia.com","port":27015,"enabled":true,"region":"au","cc":"au","latitude":-33.865143,"longitude":151.2099,"reserved":0,"last_update":"0001-01-01T00:00:00Z","name_a2s":"Uncletopia | Sydney | 1 | All Maps","protocol":17,"map":"pl_borneo","folder":"tf","game":"Team Fortress","app_id":440,"player_count":23,"max_players":24,"Bots":0,"server_type":"Dedicated","server_os":"Linux","password":true,"vac":true,"version":"7757534","steam_id":85568392924470001,"keywords":["nocrits","nodmgspread","payload","uncletopia"],"game_id":440,"stv_port":27016,"stv_name":"Uncletopia | Sydney | 1 | All Maps | STV","players":[{"user_id":384,"name":"Genuline","steam_id":76561198126426787,"connected_time":234000000000,"state":"active","ping":46},{"user_id":381,"name":"Jy","steam_id":76561198104427524,"connected_time":624000000000,"state":"active","ping":55},{"user_id":388,"name":"dingostern","steam_id":76561198315774295,"connected_time":63000000000,"state":"active","ping":65},{"user_id":373,"name":"Rarity the Fabulous","steam_id":76561198077653287,"connected_time":1430000000000,"state":"active","ping":37},{"user_id":308,"name":"Barry Bougar M.D.","steam_id":76561198301282416,"connected_time":8426000000000,"state":"active","ping":58},{"user_id":346,"name":"stub","steam_id":76561198237014504,"connected_time":3985000000000,"state":"active","ping":70},{"user_id":339,"name":"soupy","steam_id":76561198073734936,"connected_time":4803000000000,"state":"active","ping":81},{"user_id":369,"name":"DF_Dante","steam_id":76561198983142672,"connected_time":2330000000000,"state":"active","ping":44},{"user_id":336,"name":"Empr","steam_id":76561198024387396,"connected_time":5359000000000,"state":"active","ping":66},{"user_id":372,"name":"Atlas","steam_id":76561198069332870,"connected_time":1767000000000,"state":"active","ping":51},{"user_id":360,"name":"CouldBeKarlos","steam_id":76561198956180767,"connected_time":3138000000000,"state":"active","ping":52},{"user_id":385,"name":"Mikey","steam_id":76561198438203131,"connected_time":232000000000,"state":"active","ping":60},{"user_id":359,"name":"SassnCheeky","steam_id":76561197993875592,"connected_time":3143000000000,"state":"active","ping":59},{"user_id":323,"name":"zebulon","steam_id":76561198063481761,"connected_time":6838000000000,"state":"active","ping":45},{"user_id":365,"name":"bonehead #saveTF2","steam_id":76561199020855261,"connected_time":2498000000000,"state":"active","ping":68},{"user_id":370,"name":"enoeht","steam_id":76561198054187483,"connected_time":2254000000000,"state":"active","ping":72},{"user_id":376,"name":"Turbo_dip","steam_id":76561198446508846,"connected_time":1068000000000,"state":"active","ping":72},{"user_id":379,"name":"Just Brando","steam_id":76561198914415738,"connected_time":726000000000,"state":"active","ping":57},{"user_id":343,"name":"Lychee","steam_id":76561198072845816,"connected_time":4268000000000,"state":"active","ping":45},{"user_id":364,"name":"Cup","steam_id":76561198038485845,"connected_time":2878000000000,"state":"active","ping":45},{"user_id":325,"name":"Tantei Rotana","steam_id":76561198041204323,"connected_time":6421000000000,"state":"active","ping":62},{"user_id":380,"name":"Warmwalker","steam_id":76561198025089589,"connected_time":701000000000,"state":"active","ping":138},{"user_id":299,"name":"LittleAucky","steam_id":76561198040678996,"connected_time":8814000000000,"state":"active","ping":84}]},{"server_id":123,"name":"Uncletopia | Sydney | 2 | All Maps","name_short":"syd-2","host":"syd-1.au.uncletopia.com","port":27025,"enabled":true,"region":"au","cc":"au","latitude":-33.865143,"longitude":151.2099,"reserved":0,"last_update":"0001-01-01T00:00:00Z","name_a2s":"Uncletopia | Sydney | 2 | All Maps","protocol":17,"map":"pl_barnblitz","folder":"tf","game":"Team Fortress","app_id":440,"player_count":23,"max_players":24,"Bots":0,"server_type":"Dedicated","server_os":"Linux","password":true,"vac":true,"version":"7757534","steam_id":85568392924470002,"keywords":["nocrits","nodmgspread","payload","uncletopia"],"game_id":440,"stv_port":27026,"stv_name":"Uncletopia | Sydney | 2 | All Maps | STV","players":[{"user_id":150,"name":"Sinister80s","steam_id":76561198343540472,"connected_time":1130000000000,"state":"active","ping":70},{"user_id":136,"name":"FatherThicc","steam_id":76561198959143659,"connected_time":2123000000000,"state":"active","ping":69},{"user_id":123,"name":"ADUCK","steam_id":76561198249887912,"connected_time":3456000000000,"state":"active","ping":68},{"user_id":144,"name":"no teles 4 u","steam_id":76561198018478297,"connected_time":1722000000000,"state":"active","ping":65},{"user_id":148,"name":"Capt. Latrios","steam_id":76561198026398620,"connected_time":1425000000000,"state":"active","ping":67},{"user_id":163,"name":"Pop_corny","steam_id":76561198400595110,"connected_time":21000000000,"state":"active","ping":38},{"user_id":129,"name":"FriskyPotato","steam_id":76561198061320611,"connected_time":3004000000000,"state":"active","ping":59},{"user_id":139,"name":"( ͡° ͜ʖ ͡°)","steam_id":76561199262196710,"connected_time":2057000000000,"state":"active","ping":34},{"user_id":156,"name":"payn.","steam_id":76561199277321828,"connected_time":843000000000,"state":"active","ping":52},{"user_id":149,"name":"zzzzzzz","steam_id":76561198066726621,"connected_time":1260000000000,"state":"active","ping":58},{"user_id":154,"name":"CoolJosh3k | YouTube","steam_id":76561197997407342,"connected_time":929000000000,"state":"active","ping":54},{"user_id":161,"name":"nate jacobs from euphoria","steam_id":76561198093828661,"connected_time":125000000000,"state":"active","ping":79},{"user_id":104,"name":"SaltierThanYou","steam_id":76561198444395188,"connected_time":4219000000000,"state":"active","ping":85},{"user_id":141,"name":"Muffin","steam_id":76561198075391119,"connected_time":1970000000000,"state":"active","ping":55},{"user_id":132,"name":"how to style my ankle monitor","steam_id":76561198836003115,"connected_time":2612000000000,"state":"active","ping":65},{"user_id":134,"name":"iadlin","steam_id":76561197996215700,"connected_time":2556000000000,"state":"active","ping":85},{"user_id":153,"name":"AmethystDragon10","steam_id":76561198412979983,"connected_time":962000000000,"state":"active","ping":77},{"user_id":109,"name":"scout tf2","steam_id":76561198251386932,"connected_time":4172000000000,"state":"active","ping":64},{"user_id":159,"name":"certified disciple of Allah","steam_id":76561199205171109,"connected_time":222000000000,"state":"active","ping":63},{"user_id":128,"name":"doctor morbin' (real)","steam_id":76561199365241695,"connected_time":3290000000000,"state":"active","ping":115},{"user_id":142,"name":"Ack!","steam_id":76561198147967798,"connected_time":1937000000000,"state":"active","ping":69},{"user_id":160,"name":"Pew pew pew!","steam_id":76561198004120277,"connected_time":220000000000,"state":"active","ping":43},{"user_id":113,"name":"JayTheLlamaKing","steam_id":76561198836354249,"connected_time":4140000000000,"state":"active","ping":68}]},{"server_id":395,"name":"Uncletopia | Sydney | 3 | All Maps","name_short":"syd-3","host":"syd-1.au.uncletopia.com","port":27035,"enabled":true,"region":"au","cc":"au","latitude":-33.865143,"longitude":151.2099,"reserved":0,"last_update":"0001-01-01T00:00:00Z","name_a2s":"Uncletopia | Sydney | 3 | All Maps","protocol":17,"map":"pl_badwater","folder":"tf","game":"Team Fortress","app_id":440,"player_count":21,"max_players":24,"Bots":0,"server_type":"Dedicated","server_os":"Linux","password":true,"vac":true,"version":"7757534","steam_id":85568392925194467,"keywords":["nocrits","nodmgspread","payload","uncletopia"],"game_id":440,"stv_port":27036,"stv_name":"Uncletopia | Sydney | 3 | All Maps | STV","players":[{"user_id":11,"name":"Del Davis","steam_id":76561199365669004,"connected_time":2477000000000,"state":"active","ping":59},{"user_id":12,"name":"Demopyro Legend","steam_id":76561198355308266,"connected_time":2465000000000,"state":"active","ping":76},{"user_id":13,"name":"Kouler","steam_id":76561197960804719,"connected_time":2415000000000,"state":"active","ping":65},{"user_id":30,"name":"FatScout","steam_id":76561198013870201,"connected_time":962000000000,"state":"active","ping":58},{"user_id":15,"name":"Evil Dragons 11","steam_id":76561199010001803,"connected_time":2366000000000,"state":"active","ping":51},{"user_id":43,"name":"Mike","steam_id":76561199009189725,"connected_time":235000000000,"state":"active","ping":65},{"user_id":17,"name":"Jetfire","steam_id":76561198047370036,"connected_time":1889000000000,"state":"active","ping":67},{"user_id":18,"name":"Mr.Deathclaw","steam_id":76561198025419320,"connected_time":1862000000000,"state":"active","ping":44},{"user_id":25,"name":"Phobia²","steam_id":76561198038833524,"connected_time":1316000000000,"state":"active","ping":54},{"user_id":44,"name":"BlackeyeI Crejkavika","steam_id":76561198338911262,"connected_time":202000000000,"state":"active","ping":53},{"user_id":28,"name":"Hot Car Resident","steam_id":76561198967034272,"connected_time":1304000000000,"state":"active","ping":70},{"user_id":29,"name":"DIY Miracle","steam_id":76561198046228152,"connected_time":1289000000000,"state":"active","ping":69},{"user_id":32,"name":"wombraider","steam_id":76561199375834537,"connected_time":910000000000,"state":"active","ping":134},{"user_id":33,"name":"P1nned","steam_id":76561199122412618,"connected_time":751000000000,"state":"active","ping":38},{"user_id":45,"name":"Elite Barbarians","steam_id":76561198293586417,"connected_time":68000000000,"state":"active","ping":56},{"user_id":46,"name":"electro599","steam_id":76561198058148858,"connected_time":23000000000,"state":"active","ping":76},{"user_id":36,"name":"Squishy","steam_id":76561198985769205,"connected_time":579000000000,"state":"active","ping":96},{"user_id":37,"name":"KillerBlow","steam_id":76561198930232832,"connected_time":562000000000,"state":"active","ping":82},{"user_id":38,"name":"Dipmouse45","steam_id":76561198955576256,"connected_time":542000000000,"state":"active","ping":65},{"user_id":39,"name":"Zacky","steam_id":76561198313217345,"connected_time":497000000000,"state":"active","ping":75},{"user_id":40,"name":"Cris.p bacon","steam_id":76561199230423491,"connected_time":427000000000,"state":"active","ping":107}]},{"server_id":396,"name":"Uncletopia | Sydney | 4 | All Maps","name_short":"syd-4","host":"syd-1.au.uncletopia.com","port":27045,"enabled":true,"region":"au","cc":"au","latitude":-33.865143,"longitude":151.2099,"reserved":0,"last_update":"0001-01-01T00:00:00Z","name_a2s":"Uncletopia | Sydney | 4 | All Maps","protocol":17,"map":"koth_lakeside_final","folder":"tf","game":"Team Fortress","app_id":440,"player_count":0,"max_players":24,"Bots":0,"server_type":"Dedicated","server_os":"Linux","password":true,"vac":true,"version":"7757534","steam_id":85568392925397958,"keywords":["cp","nocrits","nodmgspread","uncletopia"],"game_id":440,"stv_port":27046,"stv_name":"Uncletopia | Sydney | 4 | All Maps | STV","players":null},{"server_id":58,"name":"Uncletopia | Sydney | 5 | Stopwatch Beta","name_short":"syd-5","host":"syd-1.au.uncletopia.com","port":27055,"enabled":true,"region":"au","cc":"au","latitude":-33.865143,"longitude":151.2099,"reserved":0,"last_update":"0001-01-01T00:00:00Z","name_a2s":"Uncletopia | Sydney | 5 | Stopwatch Beta","protocol":17,"map":"pl_upward","folder":"tf","game":"Team Fortress","app_id":440,"player_count":0,"max_players":24,"Bots":0,"server_type":"Dedicated","server_os":"Linux","password":true,"vac":true,"version":"7757534","steam_id":85568392925397959,"keywords":["nocrits","nodmgspread","payload","uncletopia"],"game_id":440,"stv_port":27056,"stv_name":"Uncletopia | Sydney | 5 | Stopwatch Beta | STV","players":null},{"server_id":59,"name":"Uncletopia | Sydney | 6 | Community","name_short":"syd-6","host":"syd-1.au.uncletopia.com","port":27065,"enabled":true,"region":"au","cc":"au","latitude":-33.865143,"longitude":151.2099,"reserved":0,"last_update":"0001-01-01T00:00:00Z","name_a2s":"Uncletopia | Sydney | 6 | Community","protocol":17,"map":"workshop/koth_product_final.ugc454272353","folder":"tf","game":"Team Fortress","app_id":440,"player_count":0,"max_players":24,"Bots":0,"server_type":"Dedicated","server_os":"Linux","password":true,"vac":true,"version":"7757534","steam_id":85568392925397960,"keywords":["cp","nocrits","nodmgspread","uncletopia"],"game_id":440,"stv_port":27066,"stv_name":"Uncletopia | Sydney | 6 | Community | STV","players":null},{"server_id":49,"name":"Uncletopia | Warsaw | 1 | All Maps","name_short":"waw-1","host":"waw-1.pl.uncletopia.com","port":27015,"enabled":true,"region":"eu","cc":"pl","latitude":52.2297,"longitude":21.017532,"reserved":0,"last_update":"0001-01-01T00:00:00Z","name_a2s":"","protocol":0,"map":"","folder":"","game":"","app_id":0,"player_count":0,"max_players":0,"Bots":0,"server_type":"","server_os":"","password":false,"vac":false,"version":"","steam_id":0,"keywords":null,"game_id":0,"stv_port":0,"stv_name":"","players":null},{"server_id":50,"name":"Uncletopia | Warsaw | 2 | All Maps","name_short":"waw-2","host":"waw-1.pl.uncletopia.com","port":27025,"enabled":true,"region":"eu","cc":"pl","latitude":52.2297,"longitude":21.017532,"reserved":0,"last_update":"0001-01-01T00:00:00Z","name_a2s":"Uncletopia | Warsaw | 2 | All Maps","protocol":17,"map":"cp_process_final","folder":"tf","game":"Team Fortress","app_id":440,"player_count":0,"max_players":24,"Bots":0,"server_type":"Dedicated","server_os":"Linux","password":true,"vac":true,"version":"7757534","steam_id":85568392925397851,"keywords":["cp","nocrits","nodmgspread","uncletopia"],"game_id":440,"stv_port":27026,"stv_name":"Uncletopia | Warsaw | 2 | All Maps | STV","players":null},{"server_id":51,"name":"Uncletopia | Warsaw | 3 | All Maps","name_short":"waw-3","host":"waw-1.pl.uncletopia.com","port":27035,"enabled":true,"region":"eu","cc":"pl","latitude":52.2297,"longitude":21.017532,"reserved":0,"last_update":"0001-01-01T00:00:00Z","name_a2s":"Uncletopia | Warsaw | 3 | All Maps","protocol":17,"map":"pl_barnblitz","folder":"tf","game":"Team Fortress","app_id":440,"player_count":0,"max_players":24,"Bots":0,"server_type":"Dedicated","server_os":"Linux","password":true,"vac":true,"version":"7757534","steam_id":85568392925397852,"keywords":["nocrits","nodmgspread","payload","uncletopia"],"game_id":440,"stv_port":27036,"stv_name":"Uncletopia | Warsaw | 3 | All Maps | STV","players":null},{"server_id":52,"name":"Uncletopia | Warsaw | 4 | All Maps","name_short":"waw-4","host":"waw-1.pl.uncletopia.com","port":27045,"enabled":true,"region":"eu","cc":"pl","latitude":52.2297,"longitude":21.017532,"reserved":0,"last_update":"0001-01-01T00:00:00Z","name_a2s":"Uncletopia | Warsaw | 4 | All Maps","protocol":17,"map":"pl_snowycoast","folder":"tf","game":"Team Fortress","app_id":440,"player_count":0,"max_players":24,"Bots":0,"server_type":"Dedicated","server_os":"Linux","password":true,"vac":true,"version":"7757534","steam_id":85568392925397853,"keywords":["nocrits","nodmgspread","payload","uncletopia"],"game_id":440,"stv_port":27046,"stv_name":"Uncletopia | Warsaw | 4 | All Maps | STV","players":null},{"server_id":53,"name":"Uncletopia | Warsaw | 5 | Stopwatch Beta","name_short":"waw-5","host":"waw-1.pl.uncletopia.com","port":27055,"enabled":true,"region":"eu","cc":"pl","latitude":52.2297,"longitude":21.017532,"reserved":0,"last_update":"0001-01-01T00:00:00Z","name_a2s":"Uncletopia | Warsaw | 5 | Stopwatch Beta","protocol":17,"map":"pl_barnblitz","folder":"tf","game":"Team Fortress","app_id":440,"player_count":0,"max_players":24,"Bots":0,"server_type":"Dedicated","server_os":"Linux","password":true,"vac":true,"version":"7757534","steam_id":85568392925397854,"keywords":["nocrits","nodmgspread","payload","uncletopia"],"game_id":440,"stv_port":27056,"stv_name":"Uncletopia | Warsaw | 5 | Stopwatch Beta | STV","players":null},{"server_id":54,"name":"Uncletopia | Warsaw | 6 | Community","name_short":"waw-6","host":"waw-1.pl.uncletopia.com","port":27065,"enabled":true,"region":"eu","cc":"pl","latitude":52.2297,"longitude":21.017532,"reserved":0,"last_update":"0001-01-01T00:00:00Z","name_a2s":"Uncletopia | Warsaw | 6 | Community","protocol":17,"map":"pl_swiftwater_final1","folder":"tf","game":"Team Fortress","app_id":440,"player_count":0,"max_players":24,"Bots":0,"server_type":"Dedicated","server_os":"Linux","password":true,"vac":true,"version":"7757534","steam_id":85568392925397856,"keywords":["nocrits","nodmgspread","payload","uncletopia"],"game_id":440,"stv_port":27066,"stv_name":"Uncletopia | Warsaw | 6 | Community | STV","players":null}]}