{"status":true,"message":"","result":[{"server_id":9,"name":"Uncletopia | Atlanta | 1 | All Maps","name_short":"atl-1","host":"atl-1.us.uncletopia.com","port":27015,"enabled":true,"region":"us-east","cc":"us","latitude":33.753746,"longitude":-84.38633,"reserved":0,"last_update":"0001-01-01T00:00:00Z","name_a2s":"Uncletopia | Atlanta | 1 | All Maps","protocol":17,"map":"koth_nucleus","folder":"tf","game":"Team Fortress","app_id":440,"player_count":17,"max_players":24,"Bots":0,"server_type":"Dedicated","server_os":"Linux","password":true,"vac":true,"version":"7757534","steam_id":85568392924469982,"keywords":["cp","nocrits","nodmgspread","uncletopia"],"game_id":440,"stv_port":27016,"stv_name":"Uncletopia | Atlanta | 1 | All Maps | STV","players":[{"user_id":437,"name":"IZISOO","steam_id":76561198970380577,"connected_time":1898000000000,"state":"active","ping":73},{"user_id":455,"name":"Frajer","steam_id":76561198059129680,"connected_time":202000000000,"state":"active","ping":71},{"user_id":412,"name":"FemboyNate","steam_id":76561198146636410,"connected_time":5527000000000,"state":"active","ping":66},{"user_id":456,"name":"G_Bob","steam_id":76561198098133233,"connected_time":129000000000,"state":"active","ping":49},{"user_id":428,"name":"CabbageSoup","steam_id":76561198353509149,"connected_time":3166000000000,"state":"active","ping":85},{"user_id":458,"name":"Insert_Name_Here","steam_id":76561198089428414,"connected_time":91000000000,"state":"active","ping":95},{"user_id":426,"name":"AAAAAAAAAAAAAAAAAAAAAAAAAAAAAAA","steam_id":76561198817866879,"connected_time":3772000000000,"state":"active","ping":61},{"user_id":459,"name":"looker","steam_id":76561198388123421,"connected_time":61000000000,"state":"active","ping":99},{"user_id":454,"name":"moe","steam_id":76561198929586245,"connected_time":217000000000,"state":"active","ping":83},{"user_id":429,"name":"schizophrenic with a gun","steam_id":76561198016121536,"connected_time":3071000000000,"state":"active","ping":73},{"user_id":435,"name":"SCATTER [CTF2 DEV]","steam_id":76561198405168492,"connected_time":2548000000000,"state":"active","ping":89},{"user_id":423,"name":"goober","steam_id":76561198943598378,"connected_time":3959000000000,"state":"active","ping":60},{"user_id":444,"name":"puppygirl gaming","steam_id":76561198044363630,"connected_time":1807000000000,"state":"active","ping":52},{"user_id":452,"name":"Hanky","steam_id":76561199042672335,"connected_time":256000000000,"state":"active","ping":70},{"user_id":430,"name":"Shmoopy","steam_id":76561198030459152,"connected_time":3063000000000,"state":"active","ping":61},{"user_id":405,"name":"Karma","steam_id":76561198030565234,"connected_time":5951000000000,"state":"active","ping":70},{"user_id":408,"name":"Mage","steam_id":76561198285026879,"connected_time":5709000000000,"state":"active","ping":72}]},{"server_id":400,"name":"Uncletopia | Atlanta | 3 | Stopwatch Beta","name_short":"atl-3","host":"atl-1.us.uncletopia.com","port":27035,"enabled":true,"region":"us-east","cc":"us","latitude":33.753746,"longitude":-84.38633,"reserved":0,"last_update":"0001-01-01T00:00:00Z","name_a2s":"Uncletopia | Atlanta | 3 | Stopwatch Beta","protocol":17,"map":"workshop/koth_ramjam_rc1.ugc459778887","folder":"tf","game":"Team Fortress","app_id":440,"player_count":0,"max_players":24,"Bots":0,"server_type":"Dedicated","server_os":"Linux","password":true,"vac":true,"version":"7757534","steam_id":85568392924515187,"keywords":["cp","nocrits","nodmgspread","uncletopia"],"game_id":440,"stv_port":27036,"stv_name":"Uncletopia | Atlanta | 3 | Stopwatch Beta | STV","players":null},{"server_id":401,"name":"Uncletopia | Atlanta | 4 | No Payload","name_short":"atl-4","host":"atl-1.us.uncletopia.com","port":27045,"enabled":true,"region":"us-east","cc":"us","latitude":33.753746,"longitude":-84.38633,"reserved":0,"last_update":"0001-01-01T00:00:00Z","name_a2s":"Uncletopia | Atlanta | 4 | No Payload","protocol":17,"map":"pl_pier","folder":"tf","game":"Team Fortress","app_id":440,"player_count":0,"max_players":24,"Bots":0,"server_type":"Dedicated","server_os":"Linux","password":true,"vac":true,"version":"7723704","steam_id":85568392924515188,"keywords":["nocrits","nodmgspread","payload","uncletopia"],"game_id":440,"stv_port":27046,"stv_name":"Uncletopia | Atlanta | 4 | No Payload | STV","players":null},{"server_id":2,"name":"Uncletopia | Chicago | 1 | All Maps","name_short":"chi-1","host":"chi-1.us.uncletopia.com","port":27015,"enabled":true,"region":"us-central","cc":"us","latitude":41.881832,"longitude":-87.62318,"reserved":0,"last_update":"0001-01-01T00:00:00Z","name_a2s":"Uncletopia | Chicago | 1 | All Maps","protocol":17,"map":"pl_barnblitz","folder":"tf","game":"Team Fortress","app_id":440,"player_count":17,"max_players":24,"Bots":0,"server_type":"Dedicated","server_os":"Linux","password":true,"vac":true,"version":"7757534","steam_id":85568392924469984,"keywords":["nocrits","nodmgspread","payload","uncletopia"],"game_id":440,"stv_port":27016,"stv_name":"Uncletopia | Chicago | 1 | All Maps | STV","players":[{"user_id":596,"name":"q!k.glodfyeehs","steam_id":76561198086008437,"connected_time":3837000000000,"state":"active","ping":76},{"user_id":668,"name":"Richard Kickem","steam_id":76561199249733628,"connected_time":102000000000,"state":"active","ping":185},{"user_id":449,"name":"Horrizan","steam_id":76561197965028480,"connected_time":15709000000000,"state":"active","ping":100},{"user_id":633,"name":"SMHTMFTTF","steam_id":76561199079614516,"connected_time":2248000000000,"state":"active","ping":45},{"user_id":622,"name":" è·¥ú·¥ä…™","steam_id":76561198401572620,"connected_time":2879000000000,"state":"active","ping":59},{"user_id":673,"name":"watchfull","steam_id":76561198433266742,"connected_time":9000000000,"state":"spawning","ping":99},{"user_id":674,"name":"what are you made of","steam_id":76561198135559825,"connected_time":0,"state":"connecting","ping":0},{"user_id":669,"name":"‚ô• Femboy‚ô•Ventily ‚ô•","steam_id":76561198157260335,"connected_time":97000000000,"state":"active","ping":45},{"user_id":666,"name":"Fk it we Ball","steam_id":76561198078421075,"connected_time":133000000000,"state":"active","ping":79},{"user_id":670,"name":"The Horselords and Animal Gods","steam_id":76561197975094050,"connected_time":75000000000,"state":"active","ping":113},{"user_id":667,"name":"Wonko the Sober","steam_id":76561198009744133,"connected_time":128000000000,"state":"active","ping":51},{"user_id":671,"name":"Patisserie","steam_id":76561198239169752,"connected_time":71000000000,"state":"active","ping":60},{"user_id":672,"name":"chicanery","steam_id":76561198081654907,"connected_time":63000000000,"state":"active","ping":72},{"user_id":648,"name":"Mothership","steam_id":76561198044029501,"connected_time":1602000000000,"state":"active","ping":150},{"user_id":625,"name":"twitch.tv/Yoshi21 | TF2Pugs.com","steam_id":76561198002516729,"connected_time":2721000000000,"state":"active","ping":60},{"user_id":645,"name":"cheese.","steam_id":76561198093688740,"connected_time":1935000000000,"state":"active","ping":73},{"user_id":651,"name":"Female Gamer","steam_id":76561199366482682,"connected_time":1296000000000,"state":"active","ping":99}]},{"server_id":106,"name":"Uncletopia | Chicago | 2 | All Maps","name_short":"chi-2","host":"chi-1.us.uncletopia.com","port":27025,"enabled":true,"region":"us-central","cc":"us","latitude":41.881832,"longitude":-87.62318,"reserved":0,"last_update":"0001-01-01T00:00:00Z","name_a2s":"Uncletopia | Chicago | 2 | All Maps","protocol":17,"map":"pl_borneo","folder":"tf","game":"Team Fortress","app_id":440,"player_count":24,"max_players":24,"Bots":0,"server_type":"Dedicated","server_os":"Linux","password":true,"vac":true,"version":"7757534","steam_id":85568392924469985,"keywords":["nocrits","nodmgspread","payload","uncletopia"],"game_id":440,"stv_port":27026,"stv_name":"Uncletopia | Chicago | 2 | All Maps | STV","players":[{"user_id":589,"name":"‡∂ûsus","steam_id":76561198027779564,"connected_time":13948000000000,"state":"active","ping":60},{"user_id":758,"name":"Dumpy","steam_id":76561198067167895,"connected_time":105000000000,"state":"active","ping":71},{"user_id":737,"name":"Frank","steam_id":76561198034858550,"connected_time":2729000000000,"state":"active","ping":59},{"user_id":644,"name":"Bearegard","steam_id":76561198061926542,"connected_time":8626000000000,"state":"active","ping":58},{"user_id":761,"name":"Oh No! It's Twister!","steam_id":76561198016791916,"connected_time":56000000000,"state":"active","ping":83},{"user_id":738,"name":"gwotelover420","steam_id":76561198414250681,"connected_time":1839000000000,"state":"active","ping":75},{"user_id":748,"name":"Lore","steam_id":76561198098407538,"connected_time":690000000000,"state":"active","ping":45},{"user_id":581,"name":"daemon","steam_id":76561198001541433,"connected_time":14265000000000,"state":"active","ping":60},{"user_id":719,"name":"name420","steam_id":76561198129374525,"connected_time":3394000000000,"state":"active","ping":89},{"user_id":757,"name":"stockhack","steam_id":76561198050220225,"connected_time":119000000000,"state":"active","ping":68},{"user_id":731,"name":"Jekroy","steam_id":76561198090943916,"connected_time":2860000000000,"state":"active","ping":60},{"user_id":732,"name":"Gamer Obama","steam_id":76561198229189936,"connected_time":2853000000000,"state":"active","ping":53},{"user_id":733,"name":"Blargian Snagglebeast","steam_id":76561198115831507,"connected_time":2811000000000,"state":"active","ping":56},{"user_id":746,"name":"linus","steam_id":76561198106196691,"connected_time":910000000000,"state":"active","ping":70},{"user_id":754,"name":"Dunkle","steam_id":76561198041903573,"connected_time":218000000000,"state":"active","ping":90},{"user_id":724,"name":"Chillin Turt","steam_id":76561198025796849,"connected_time":3287000000000,"state":"active","ping":75},{"user_id":725,"name":"Pitch Stick","steam_id":76561198800287853,"connected_time":3284000000000,"state":"active","ping":122},{"user_id":726,"name":"Octobella Enthusiast","steam_id":76561198199266047,"connected_time":3280000000000,"state":"active","ping":46},{"user_id":727,"name":"Bart Harley Jarvis","steam_id":76561199215811448,"connected_time":3223000000000,"state":"active","ping":104},{"user_id":760,"name":"Yeshie the Dragon Layer","steam_id":76561198080214214,"connected_time":89000000000,"state":"active","ping":40},{"user_id":629,"name":"Vladikr1","steam_id":76561198401495362,"connected_time":10703000000000,"state":"active","ping":65},{"user_id":753,"name":"--_Cook_--","steam_id":76561198080855748,"connected_time":228000000000,"state":"active","ping":45},{"user_id":740,"name":"[Deep]GooeyGapedGrannys","steam_id":76561198089731303,"connected_time":1510000000000,"state":"active","ping":71},{"user_id":747,"name":"lost in the sauce","steam_id":76561199043827112,"connected_time":757000000000,"state":"active","ping":60}]},{"server_id":402,"name":"Uncletopia | Chicago | 3 | All Maps","name_short":"chi-3","host":"chi-1.us.uncletopia.com","port":27035,"enabled":true,"region":"us-central","cc":"us","latitude":41.881832,"longitude":-87.62318,"reserved":0,"last_update":"0001-01-01T00:00:00Z","name_a2s":"Uncletopia | Chicago | 3 | All Maps","protocol":17,"map":"pl_swiftwater_final1","folder":"tf","game":"Team Fortress","app_id":440,"player_count":24,"max_players":24,"Bots":0,"server_type":"Dedicated","server_os":"Linux","password":true,"vac":true,"version":"7757534","steam_id":85568392924515191,"keywords":["nocrits","nodmgspread","payload","uncletopia"],"game_id":440,"stv_port":27036,"stv_name":"Uncletopia | Chicago | 3 | All Maps | STV","players":[{"user_id":489,"name":"Truffles","steam_id":76561198095868800,"connected_time":6616000000000,"state":"active","ping":81},{"user_id":476,"name":"debin","steam_id":76561198070711217,"connected_time":7439000000000,"state":"active","ping":56},{"user_id":513,"name":"Kelpy G","steam_id":76561198105330587,"connected_time":4079000000000,"state":"active","ping":86},{"user_id":530,"name":"DarthRevan","steam_id":76561198164492361,"connected_time":621000000000,"state":"active","ping":64},{"user_id":529,"name":"jbggs","steam_id":76561198011204750,"connected_time":791000000000,"state":"active","ping":80},{"user_id":526,"name":"Big Al","steam_id":76561199468060032,"connected_time":1037000000000,"state":"active","ping":70},{"user_id":487,"name":"Grand","steam_id":76561198290143399,"connected_time":6646000000000,"state":"active","ping":65},{"user_id":520,"name":"Vevo","steam_id":76561198316753540,"connected_time":2378000000000,"state":"active","ping":59},{"user_id":521,"name":"itsgearfear","steam_id":76561198801849281,"connected_time":2324000000000,"state":"active","ping":75},{"user_id":498,"name":"Soup0fTheDay","steam_id":76561199039857744,"connected_time":6331000000000,"state":"active","ping":52},{"user_id":496,"name":"üéÑAndreaJinglingüéÑ","steam_id":76561198198658783,"connected_time":6509000000000,"state":"active","ping":113},{"user_id":522,"name":"Bambi","steam_id":76561198059424894,"connected_time":2006000000000,"state":"active","ping":65},{"user_id":535,"name":"Batman Grant Williams","steam_id":76561198115458307,"connected_time":210000000000,"state":"active","ping":106},{"user_id":524,"name":"kezia","steam_id":76561198059815894,"connected_time":1366000000000,"state":"active","ping":44},{"user_id":478,"name":"Banana King","steam_id":76561198077784214,"connected_time":7401000000000,"state":"active","ping":89},{"user_id":494,"name":"flora","steam_id":76561197994492154,"connected_time":6541000000000,"state":"active","ping":175},{"user_id":514,"name":"NOLSEY","steam_id":76561198108959504,"connected_time":3780000000000,"state":"active","ping":52},{"user_id":523,"name":"sweaterfan","steam_id":76561199389567214,"connected_time":1827000000000,"state":"active","ping":72},{"user_id":532,"name":"Iron","steam_id":76561198247918478,"connected_time":566000000000,"state":"active","ping":65},{"user_id":517,"name":"Tots","steam_id":76561198027485007,"connected_time":2864000000000,"state":"active","ping":47},{"user_id":483,"name":"BloodAngelMutant","steam_id":76561199006378093,"connected_time":7096000000000,"state":"active","ping":94},{"user_id":490,"name":"Ye ( I Love Caulk ) West","steam_id":76561198068830312,"connected_time":6616000000000,"state":"active","ping":45},{"user_id":516,"name":"kermitcreeper(ZAZA)","steam_id":76561199222829972,"connected_time":3177000000000,"state":"active","ping":58},{"user_id":534,"name":"huh","steam_id":76561198272057200,"connected_time":545000000000,"state":"active","ping":105}]},{"server_id":403,"name":"Uncletopia | Chicago | 4 | All Maps","name_short":"chi-4","host":"chi-1.us.uncletopia.com","port":27045,"enabled":true,"region":"us-central","cc":"us","latitude":41.881832,"longitude":-87.62318,"reserved":0,"last_update":"0001-01-01T00:00:00Z","name_a2s":"Uncletopia | Chicago | 4 | All Maps","protocol":17,"map":"ctf_2fort","folder":"tf","game":"Team Fortress","app_id":440,"player_count":8,"max_players":24,"Bots":0,"server_type":"Dedicated","server_os":"Linux","password":true,"vac":true,"version":"7757534","steam_id":85568392924515193,"keywords":["ctf","nocrits","nodmgspread","uncletopia"],"game_id":440,"stv_port":27046,"stv_name":"Uncletopia | Chicago | 4 | All Maps | STV","players":[{"user_id":323,"name":"Amogous Supreme","steam_id":76561198025476774,"connected_time":2138000000000,"state":"active","ping":101},{"user_id":331,"name":"Sharmat","steam_id":76561198103492042,"connected_time":1508000000000,"state":"active","ping":64},{"user_id":347,"name":"Pottsfield","steam_id":76561199379572998,"connected_time":119000000000,"state":"active","ping":71},{"user_id":309,"name":"MinusSoup918","steam_id":76561198060902773,"connected_time":2871000000000,"state":"active","ping":111},{"user_id":346,"name":"Androsynth","steam_id":76561198046846304,"connected_time":137000000000,"state":"active","ping":44},{"user_id":330,"name":"The Axeman","steam_id":76561199061316781,"connected_time":1639000000000,"state":"active","ping":81},{"user_id":288,"name":"Wug","steam_id":76561198084112264,"connected_time":4640000000000,"state":"active","ping":74},{"user_id":339,"name":"Bodacious Meat","steam_id":76561198058742270,"connected_time":1303000000000,"state":"active","ping":59}]},{"server_id":36,"name":"Uncletopia | Chicago | 5 | All Maps","name_short":"chi-5","host":"chi-2.us.uncletopia.com","port":27015,"enabled":true,"region":"us-central","cc":"us","latitude":41.881832,"longitude":-87.62318,"reserved":0,"last_update":"0001-01-01T00:00:00Z","name_a2s":"Uncletopia | Chicago | 5 | All Maps","protocol":17,"map":"pl_pier","folder":"tf","game":"Team Fortress","app_id":440,"player_count":0,"max_players":24,"Bots":0,"server_type":"Dedicated","server_os":"Linux","password":true,"vac":true,"version":"7757534","steam_id":85568392924866362,"keywords":["nocrits","nodmgspread","payload","uncletopia"],"game_id":440,"stv_port":27016,"stv_name":"Uncletopia | Chicago | 5 | All Maps | STV","players":null},{"server_id":37,"name":"Uncletopia | Chicago | 6 | All Maps","name_short":"chi-6","host":"chi-2.us.uncletopia.com","port":27025,"enabled":true,"region":"us-central","cc":"us","latitude":41.881832,"longitude":-87.62318,"reserved":0,"last_update":"0001-01-01T00:00:00Z","name_a2s":"Uncletopia | Chicago | 6 | All Maps","protocol":17,"map":"cp_dustbowl","folder":"tf","game":"Team Fortress","app_id":440,"player_count":0,"max_players":24,"Bots":0,"server_type":"Dedicated","server_os":"Linux","password":true,"vac":true,"version":"7757534","steam_id":85568392924866363,"keywords":["cp","nocrits","nodmgspread","uncletopia"],"game_id":440,"stv_port":27026,"stv_name":"Uncletopia | Chicago | 6 | All Maps | STV","players":null},{"server_id":38,"name":"Uncletopia | Chicago | 7 | Stopwatch Beta","name_short":"chi-7","host":"chi-2.us.uncletopia.com","port":27035,"enabled":true,"region":"us-central","cc":"us","latitude":41.881832,"longitude":-87.62318,"reserved":0,"last_update":"0001-01-01T00:00:00Z","name_a2s":"Uncletopia | Chicago | 7 | Stopwatch Beta","protocol":17,"map":"workshop/pl_summercoast_rc8e.ugc1761528829","folder":"tf","game":"Team Fortress","app_id":440,"player_count":0,"max_players":24,"Bots":0,"server_type":"Dedicated","server_os":"Linux","password":true,"vac":true,"version":"7757534","steam_id":85568392924866364,"keywords":["nocrits","nodmgspread","payload","uncletopia"],"game_id":440,"stv_port":27036,"stv_name":"Uncletopia | Chicago | 7 | Stopwatch Beta | STV","players":null},{"server_id":39,"name":"Uncletopia | Chicago | 8 | Community","name_short":"chi-8","host":"chi-2.us.uncletopia.com","port":27045,"enabled":true,"region":"us-central","cc":"us","latitude":41.881832,"longitude":-87.62318,"reserved":0,"last_update":"0001-01-01T00:00:00Z","name_a2s":"Uncletopia | Chicago | 8 | Community","protocol":17,"map":"workshop/koth_slaughter_rc1.ugc1712845210","folder":"tf","game":"Team Fortress","app_id":440,"player_count":0,"max_players":24,"Bots":0,"server_type":"Dedicated","server_os":"Linux","password":true,"vac":true,"version":"7757534","steam_id":85568392924866365,"keywords":["cp","nocrits","nodmgspread","uncletopia"],"game_id":440,"stv_port":27046,"stv_name":"Uncletopia | Chicago | 8 | Community | STV","players":null},{"server_id":8,"name":"Uncletopia | Dallas | 1 | All Maps","name_short":"dal-1","host":"dal-1.us.uncletopia.com","port":27015,"enabled":true,"region":"us-central","cc":"us","latitude":32.779167,"longitude":-96.80889,"reserved":0,"last_update":"0001-01-01T00:00:00Z","name_a2s":"Uncletopia | Dallas | 1 | All Maps","protocol":17,"map":"pl_badwater","folder":"tf","game":"Team Fortress","app_id":440,"player_count":24,"max_players":24,"Bots":0,"server_type":"Dedicated","server_os":"Linux","password":true,"vac":true,"version":"7757534","steam_id":85568392924469986,"keywords":["nocrits","nodmgspread","payload","uncletopia"],"game_id":440,"stv_port":27016,"stv_name":"Uncletopia | Dallas | 1 | All Maps | STV","players":[{"user_id":775,"name":"wicc","steam_id":76561198893915644,"connected_time":553000000000,"state":"active","ping":193},{"user_id":776,"name":":\u003c RUN AWAY","steam_id":76561199245670274,"connected_time":511000000000,"state":"active","ping":82},{"user_id":777,"name":"-{A‚òÖT}- KnightofWind","steam_id":76561198103233971,"connected_time":460000000000,"state":"active","ping":87},{"user_id":745,"name":"Casluksopson","steam_id":76561198799615204,"connected_time":3039000000000,"state":"active","ping":60},{"user_id":779,"name":"TWICE THE PIMPY THRICE THE BAPE","steam_id":76561198074678273,"connected_time":371000000000,"state":"active","ping":76},{"user_id":780,"name":"DeeDee","steam_id":76561197996880360,"connected_time":364000000000,"state":"active","ping":101},{"user_id":781,"name":"Jack from Jack in The Box","steam_id":76561199083594971,"connected_time":347000000000,"state":"active","ping":69},{"user_id":698,"name":"Nnyllazxz","steam_id":76561198247797436,"connected_time":6451000000000,"state":"active","ping":100},{"user_id":782,"name":"dwippy_","steam_id":76561198010602479,"connected_time":338000000000,"state":"active","ping":89},{"user_id":783,"name":"hot twinks","steam_id":76561198004541426,"connected_time":323000000000,"state":"active","ping":90},{"user_id":758,"name":"Lordchief365","steam_id":76561198180537263,"connected_time":1998000000000,"state":"active","ping":64},{"user_id":784,"name":"Lord GabeN","steam_id":76561198140862723,"connected_time":304000000000,"state":"active","ping":85},{"user_id":739,"name":"Toxic Medic Main","steam_id":76561198009314845,"connected_time":3496000000000,"state":"active","ping":71},{"user_id":767,"name":"scratching post enjoyer","steam_id":76561198204169516,"connected_time":1612000000000,"state":"active","ping":109},{"user_id":774,"name":"snongBurd","steam_id":76561198071254380,"connected_time":648000000000,"state":"active","ping":111},{"user_id":751,"name":"Jello","steam_id":76561198890633732,"connected_time":2626000000000,"state":"active","ping":72},{"user_id":785,"name":"Daki_Drizzle","steam_id":76561198440260212,"connected_time":303000000000,"state":"active","ping":63},{"user_id":752,"name":"borzier","steam_id":76561198069190432,"connected_time":2590000000000,"state":"active","ping":74},{"user_id":786,"name":"dingus","steam_id":76561198966767200,"connected_time":285000000000,"state":"active","ping":80},{"user_id":787,"name":"Arrythmia","steam_id":76561198093748123,"connected_time":261000000000,"state":"active","ping":105},{"user_id":768,"name":"Samsiel","steam_id":76561198094134951,"connected_time":1542000000000,"state":"active","ping":102},{"user_id":694,"name":"Nani?","steam_id":76561198130982692,"connected_time":7356000000000,"state":"active","ping":81},{"user_id":736,"name":"JaredTheCrow","steam_id":76561198918117347,"connected_time":4025000000000,"state":"active","ping":134},{"user_id":788,"name":"lag","steam_id":76561197963872739,"connected_time":185000000000,"state":"active","ping":76}]},{"server_id":108,"name":"Uncletopia | Dallas | 2 | All Maps","name_short":"dal-2","host":"dal-1.us.uncletopia.com","port":27025,"enabled":true,"region":"us-central","cc":"us","latitude":32.779167,"longitude":-96.80889,"reserved":0,"last_update":"0001-01-01T00:00:00Z","name_a2s":"Uncletopia | Dallas | 2 | All Maps","protocol":17,"map":"pl_coal_event","folder":"tf","game":"Team Fortress","app_id":440,"player_count":24,"max_players":24,"Bots":0,"server_type":"Dedicated","server_os":"Linux","password":true,"vac":true,"version":"7757534","steam_id":85568392924469988,"keywords":["nocrits","nodmgspread","payload","uncletopia"],"game_id":440,"stv_port":27026,"stv_name":"Uncletopia | Dallas | 2 | All Maps | STV","players":[{"user_id":647,"name":"+","steam_id":76561198262422184,"connected_time":1140000000000,"state":"active","ping":47},{"user_id":605,"name":"Oh Lifeguard!","steam_id":76561198041731826,"connected_time":4231000000000,"state":"active","ping":79},{"user_id":607,"name":"fictitious fish","steam_id":76561198246181902,"connected_time":4187000000000,"state":"active","ping":62},{"user_id":608,"name":"dog","steam_id":76561198148349235,"connected_time":4172000000000,"state":"active","ping":65},{"user_id":609,"name":"Gummy","steam_id":76561198085120599,"connected_time":4165000000000,"state":"active","ping":105},{"user_id":610,"name":"Not Your Sagittarius","steam_id":76561198048562129,"connected_time":4087000000000,"state":"active","ping":89},{"user_id":651,"name":"TinyTiger","steam_id":76561198145530257,"connected_time":1122000000000,"state":"active","ping":47},{"user_id":612,"name":"Arizona","steam_id":76561198113748347,"connected_time":3965000000000,"state":"active","ping":65},{"user_id":659,"name":"Kuudere","steam_id":76561198075028016,"connected_time":664000000000,"state":"active","ping":107},{"user_id":615,"name":"Etomb","steam_id":76561198210017208,"connected_time":3618000000000,"state":"active","ping":108},{"user_id":661,"name":"walidov","steam_id":76561198079965605,"connected_time":575000000000,"state":"active","ping":71},{"user_id":668,"name":"Karma's Camera","steam_id":76561198059385185,"connected_time":404000000000,"state":"active","ping":93},{"user_id":663,"name":"Young Thug","steam_id":76561198060389529,"connected_time":528000000000,"state":"active","ping":53},{"user_id":657,"name":"‚ùÑBrrr-azorn‚ùÑ","steam_id":76561198096327396,"connected_time":894000000000,"state":"active","ping":103},{"user_id":664,"name":"ku74n32","steam_id":76561199238578809,"connected_time":515000000000,"state":"active","ping":84},{"user_id":669,"name":"Firestar","steam_id":76561198039256276,"connected_time":271000000000,"state":"active","ping":96},{"user_id":673,"name":"„ÄåSpud Wrench„Äç","steam_id":76561198089615706,"connected_time":96000000000,"state":"active","ping":47},{"user_id":671,"name":"Yu Plush","steam_id":76561198800891125,"connected_time":213000000000,"state":"active","ping":104},{"user_id":630,"name":"Sugercrash","steam_id":76561199187685119,"connected_time":2897000000000,"state":"active","ping":79},{"user_id":667,"name":"Zoot Suit Tom","steam_id":76561198170834958,"connected_time":444000000000,"state":"active","ping":69},{"user_id":649,"name":"McAspie","steam_id":76561198079700167,"connected_time":1131000000000,"state":"active","ping":46},{"user_id":641,"name":"Astro","steam_id":76561198035676106,"connected_time":2560000000000,"state":"active","ping":60},{"user_id":644,"name":"Dot.","steam_id":76561198149463984,"connected_time":2302000000000,"state":"active","ping":62},{"user_id":645,"name":"biofio","steam_id":76561198019094571,"connected_time":2105000000000,"state":"active","ping":103}]},{"server_id":5,"name":"Uncletopia | Frankfurt | 1 | All Maps","name_short":"frk-1","host":"frk-1.de.uncletopia.com","port":27015,"enabled":true,"region":"eu","cc":"de","latitude":50.110924,"longitude":8.682127,"reserved":0,"last_update":"0001-01-01T00:00:00Z","name_a2s":"Uncletopia | Frankfurt | 1 | All Maps","protocol":17,"map":"pl_pier","folder":"tf","game":"Team Fortress","app_id":440,"player_count":0,"max_players":24,"Bots":0,"server_type":"Dedicated","server_os":"Linux","password":true,"vac":true,"version":"7757534","steam_id":85568392924469989,"keywords":["nocrits","nodmgspread","payload","uncletopia"],"game_id":440,"stv_port":27016,"stv_name":"Uncletopia | Frankfurt | 1 | All Maps | STV","players":null},{"server_id":110,"name":"Uncletopia | Frankfurt | 2 | All Maps","name_short":"frk-2","host":"frk-1.de.uncletopia.com","port":27025,"enabled":true,"region":"eu","cc":"de","latitude":50.110924,"longitude":8.682127,"reserved":0,"last_update":"0001-01-01T00:00:00Z","name_a2s":"Uncletopia | Frankfurt | 2 | All Maps","protocol":17,"map":"cp_altitude","folder":"tf","game":"Team Fortress","app_id":440,"player_count":0,"max_players":24,"Bots":0,"server_type":"Dedicated","server_os":"Linux","password":true,"vac":true,"version":"7757534","steam_id":85568392924469990,"keywords":["cp","nocrits","nodmgspread","uncletopia"],"game_id":440,"stv_port":27026,"stv_name":"Uncletopia | Frankfurt | 2 | All Maps | STV","players":null},{"server_id":308,"name":"Uncletopia | Frankfurt | 3 | All Maps","name_short":"frk-3","host":"frk-1.de.uncletopia.com","port":27035,"enabled":true,"region":"eu","cc":"de","latitude":50.110924,"longitude":8.682127,"reserved":0,"last_update":"0001-01-01T00:00:00Z","name_a2s":"Uncletopia | Frankfurt | 3 | All Maps","protocol":17,"map":"pl_barnblitz","folder":"tf","game":"Team Fortress","app_id":440,"player_count":0,"max_players":24,"Bots":0,"server_type":"Dedicated","server_os":"Linux","password":true,"vac":true,"version":"7757534","steam_id":85568392924504274,"keywords":["nocrits","nodmgspread","payload","uncletopia"],"game_id":440,"stv_port":27036,"stv_name":"Uncletopia | Frankfurt | 3 | All Maps | STV","players":null},{"server_id":309,"name":"Uncletopia | Frankfurt | 4 | All Maps","name_short":"frk-4","host":"frk-1.de.uncletopia.com","port":27045,"enabled":true,"region":"eu","cc":"de","latitude":50.110924,"longitude":8.682127,"reserved":0,"last_update":"0001-01-01T00:00:00Z","name_a2s":"Uncletopia | Frankfurt | 4 | All Maps","protocol":17,"map":"pl_snowycoast","folder":"tf","game":"Team Fortress","app_id":440,"player_count":0,"max_players":24,"Bots":0,"server_type":"Dedicated","server_os":"Linux","password":true,"vac":true,"version":"7757534","steam_id":85568392924504275,"keywords":["nocrits","nodmgspread","payload","uncletopia"],"game_id":440,"stv_port":27046,"stv_name":"Uncletopia | Frankfurt | 4 | All Maps | STV","players":null},{"server_id":310,"name":"Uncletopia | Frankfurt | 5 | All Maps","name_short":"frk-5","host":"frk-1.de.uncletopia.com","port":27055,"enabled":true,"region":"eu","cc":"de","latitude":50.110924,"longitude":8.682127,"reserved":0,"last_update":"0001-01-01T00:00:00Z","name_a2s":"Uncletopia | Frankfurt | 5 | All Maps","protocol":17,"map":"cp_altitude","folder":"tf","game":"Team Fortress","app_id":440,"player_count":0,"max_players":24,"Bots":0,"server_type":"Dedicated","server_os":"Linux","password":true,"vac":true,"version":"7757534","steam_id":85568392924504277,"keywords":["cp","nocrits","nodmgspread","uncletopia"],"game_id":440,"stv_port":27056,"stv_name":"Uncletopia | Frankfurt | 5 | All Maps | STV","players":null},{"server_id":311,"name":"Uncletopia | Frankfurt | 6 | All Maps","name_short":"frk-6","host":"frk-1.de.uncletopia.com","port":27065,"enabled":true,"region":"eu","cc":"de","latitude":50.110924,"longitude":8.682127,"reserved":0,"last_update":"0001-01-01T00:00:00Z","name_a2s":"Uncletopia | Frankfurt | 6 | All Maps","protocol":17,"map":"koth_highpass","folder":"tf","game":"Team Fortress","app_id":440,"player_count":0,"max_players":24,"Bots":0,"server_type":"Dedicated","server_os":"Linux","password":true,"vac":true,"version":"7757534","steam_id":85568392924504278,"keywords":["cp","nocrits","nodmgspread","uncletopia"],"game_id":440,"stv_port":27066,"stv_name":"Uncletopia | Frankfurt | 6 | All Maps | STV","players":null},{"server_id":23,"name":"Uncletopia | Frankfurt | 7 | Stopwatch Beta","name_short":"frk-7","host":"frk-1.de.uncletopia.com","port":27075,"enabled":true,"region":"eu","cc":"de","latitude":50.110924,"longitude":8.682127,"reserved":0,"last_update":"0001-01-01T00:00:00Z","name_a2s":"Uncletopia | Frankfurt | 7 | Stopwatch Beta","protocol":17,"map":"pl_borneo","folder":"tf","game":"Team Fortress","app_id":440,"player_count":0,"max_players":24,"Bots":0,"server_type":"Dedicated","server_os":"Linux","password":true,"vac":true,"version":"7757534","steam_id":85568392924742827,"keywords":["nocrits","nodmgspread","payload","uncletopia"],"game_id":440,"stv_port":27076,"stv_name":"Uncletopia | Frankfurt | 7 | Stopwatch Beta | STV","players":null},{"server_id":24,"name":"Uncletopia | Frankfurt | 8 | Community","name_short":"frk-8","host":"frk-1.de.uncletopia.com","port":27085,"enabled":true,"region":"eu","cc":"de","latitude":50.110924,"longitude":8.682127,"reserved":0,"last_update":"0001-01-01T00:00:00Z","name_a2s":"Uncletopia | Frankfurt | 8 | Community","protocol":17,"map":"koth_cascade","folder":"tf","game":"Team Fortress","app_id":440,"player_count":0,"max_players":24,"Bots":0,"server_type":"Dedicated","server_os":"Linux","password":true,"vac":true,"version":"7757534","steam_id":85568392924742828,"keywords":["cp","nocrits","nodmgspread","uncletopia"],"game_id":440,"stv_port":27086,"stv_name":"Uncletopia | Frankfurt | 8 | Community | STV","players":null},{"server_id":202,"name":"Uncletopia | Hong Kong | 1 | All Maps","name_short":"hgk-1","host":"hgk-1.hk.uncletopia.com","port":27015,"enabled":true,"region":"asia","cc":"hk","latitude":22.302711,"longitude":114.177216,"reserved":0,"last_update":"0001-01-01T00:00:00Z","name_a2s":"Uncletopia | Hong Kong | 1 | All Maps","protocol":17,"map":"pl_swiftwater_final1","folder":"tf","game":"Team Fortress","app_id":440,"player_count":0,"max_players":24,"Bots":0,"server_type":"Dedicated","server_os":"Linux","password":true,"vac":true,"version":"7757534","steam_id":85568392924494504,"keywords":["nocrits","nodmgspread","payload","uncletopia"],"game_id":440,"stv_port":27016,"stv_name":"Uncletopia | Hong Kong | 1 | All Maps | STV","players":null},{"server_id":1,"name":"Uncletopia | Los Angeles | 1 | All Maps","name_short":"lax-1","host":"lax-1.us.uncletopia.com","port":27015,"enabled":true,"region":"us-west","cc":"us","latitude":33.94279,"longitude":-118.41004,"reserved":0,"last_update":"0001-01-01T00:00:00Z","name_a2s":"Uncletopia | Los Angeles | 1 | All Maps","protocol":17,"map":"pl_frontier_final","folder":"tf","game":"Team Fortress","app_id":440,"player_count":24,"max_players":24,"Bots":0,"server_type":"Dedicated","server_os":"Linux","password":true,"vac":true,"version":"7757534","steam_id":85568392924469991,"keywords":["nocrits","nodmgspread","payload","uncletopia"],"game_id":440,"stv_port":27016,"stv_name":"Uncletopia | Los Angeles | 1 | All Maps | STV","players":[{"user_id":589,"name":"Obersteuermann","steam_id":76561198044468707,"connected_time":867000000000,"state":"active","ping":75},{"user_id":564,"name":"NoSympathy","steam_id":76561198035289430,"connected_time":2059000000000,"state":"active","ping":59},{"user_id":565,"name":"Zuk","steam_id":76561198047120142,"connected_time":1984000000000,"state":"active","ping":103},{"user_id":531,"name":"Spazzls","steam_id":76561198075224361,"connected_time":5609000000000,"state":"active","ping":116},{"user_id":579,"name":"Hobbes","steam_id":76561198087956236,"connected_time":1456000000000,"state":"active","ping":48},{"user_id":590,"name":"Compress Dong","steam_id":76561198018950826,"connected_time":855000000000,"state":"active","ping":59},{"user_id":595,"name":"York","steam_id":76561198139501696,"connected_time":474000000000,"state":"active","ping":72},{"user_id":591,"name":"weed bear","steam_id":76561198975768444,"connected_time":830000000000,"state":"active","ping":117},{"user_id":552,"name":"[DEEP] offrow","steam_id":76561198123596791,"connected_time":3148000000000,"state":"active","ping":49},{"user_id":541,"name":"Wiggly Willy","steam_id":76561198073635970,"connected_time":4000000000000,"state":"active","ping":121},{"user_id":511,"name":"sun sugar","steam_id":76561198385085005,"connected_time":6604000000000,"state":"active","ping":70},{"user_id":584,"name":"Wenlost","steam_id":76561198292026612,"connected_time":1046000000000,"state":"active","ping":52},{"user_id":562,"name":"Mr. Yoshida","steam_id":76561198263829831,"connected_time":2272000000000,"state":"active","ping":76},{"user_id":592,"name":"Susan","steam_id":76561198045705049,"connected_time":830000000000,"state":"active","ping":57},{"user_id":573,"name":"E√§rendil","steam_id":76561198067934529,"connected_time":1654000000000,"state":"active","ping":63},{"user_id":593,"name":"Gimmick","steam_id":76561198065873462,"connected_time":744000000000,"state":"active","ping":46},{"user_id":575,"name":"Sylvain","steam_id":76561198313990225,"connected_time":1627000000000,"state":"active","ping":47},{"user_id":588,"name":"Tideflat","steam_id":76561198179850851,"connected_time":939000000000,"state":"active","ping":86},{"user_id":550,"name":"PEACH","steam_id":76561198014422577,"connected_time":3479000000000,"state":"active","ping":175},{"user_id":580,"name":"Bringer of Gibbs","steam_id":76561198035700041,"connected_time":1400000000000,"state":"active","ping":153},{"user_id":558,"name":"Baked_tomato","steam_id":76561199104132783,"connected_time":2846000000000,"state":"active","ping":66},{"user_id":594,"name":"An Idiot Sandwich","steam_id":76561198360313039,"connected_time":726000000000,"state":"active","ping":63},{"user_id":581,"name":"MediScout","steam_id":76561198353371841,"connected_time":1336000000000,"state":"active","ping":99},{"user_id":587,"name":"Dehorser","steam_id":76561198048205959,"connected_time":1010000000000,"state":"active","ping":59}]},{"server_id":112,"name":"Uncletopia | Los Angeles | 2 | All Maps","name_short":"lax-2","host":"lax-1.us.uncletopia.com","port":27025,"enabled":true,"region":"us-west","cc":"us","latitude":33.94279,"longitude":-118.41004,"reserved":0,"last_update":"0001-01-01T00:00:00Z","name_a2s":"Uncletopia | Los Angeles | 2 | All Maps","protocol":17,"map":"koth_cascade","folder":"tf","game":"Team Fortress","app_id":440,"player_count":0,"max_players":24,"Bots":0,"server_type":"Dedicated","server_os":"Linux","password":true,"vac":true,"version":"7757534","steam_id":85568392924469992,"keywords":["cp","nocrits","nodmgspread","uncletopia"],"game_id":440,"stv_port":27026,"stv_name":"Uncletopia | Los Angeles | 2 | All Maps | STV","players":null},{"server_id":324,"name":"Uncletopia | Los Angeles | 3 | All Maps","name_short":"lax-3","host":"lax-1.us.uncletopia.com","port":27035,"enabled":true,"region":"us-west","cc":"us","latitude":33.94279,"longitude":-118.41004,"reserved":0,"last_update":"0001-01-01T00:00:00Z","name_a2s":"Uncletopia | Los Angeles | 3 | All Maps","protocol":17,"map":"koth_highpass","folder":"tf","game":"Team Fortress","app_id":440,"player_count":0,"max_players":24,"Bots":0,"server_type":"Dedicated","server_os":"Linux","password":true,"vac":true,"version":"7757534","steam_id":85568392924510198,"keywords":["cp","nocrits","nodmgspread","uncletopia"],"game_id":440,"stv_port":27036,"stv_name":"Uncletopia | Los Angeles | 3 | All Maps | STV","players":null},{"server_id":25,"name":"Uncletopia | Los Angeles | 4 | Stopwatch Beta","name_short":"lax-4","host":"lax-1.us.uncletopia.com","port":27045,"enabled":true,"region":"us-west","cc":"us","latitude":33.94279,"longitude":-118.41004,"reserved":0,"last_update":"0001-01-01T00:00:00Z","name_a2s":"Uncletopia | Los Angeles | 4 | Stopwatch Beta","protocol":17,"map":"koth_viaduct","folder":"tf","game":"Team Fortress","app_id":440,"player_count":0,"max_players":24,"Bots":0,"server_type":"Dedicated","server_os":"Linux","password":true,"vac":true,"version":"7757534","steam_id":85568392924510199,"keywords":["cp","nocrits","nodmgspread","uncletopia"],"game_id":440,"stv_port":27046,"stv_name":"Uncletopia | Los Angeles | 4 | Stopwatch Beta | STV","players":null},{"server_id":11,"name":"Uncletopia | London | 1 | All Maps","name_short":"lon-1","host":"lon-1.uk.uncletopia.com","port":27015,"enabled":true,"region":"eu","cc":"gb","latitude":51.509865,"longitude":-0.118092,"reserved":0,"last_update":"0001-01-01T00:00:00Z","name_a2s":"Uncletopia | London | 1 | All Maps","protocol":17,"map":"pl_pier","folder":"tf","game":"Team Fortress","app_id":440,"player_count":0,"max_players":24,"Bots":0,"server_type":"Dedicated","server_os":"Linux","password":true,"vac":true,"version":"7757534","steam_id":85568392924367362,"keywords":["nocrits","nodmgspread","payload","uncletopia"],"game_id":440,"stv_port":27016,"stv_name":"Uncletopia | London | 1 | All Maps | STV","players":null},{"server_id":114,"name":"Uncletopia | London | 2 | All Maps","name_short":"lon-2","host":"lon-1.uk.uncletopia.com","port":27025,"enabled":true,"region":"eu","cc":"gb","latitude":51.509865,"longitude":-0.118092,"reserved":0,"last_update":"0001-01-01T00:00:00Z","name_a2s":"Uncletopia | London | 2 | All Maps","protocol":17,"map":"pl_frontier_final","folder":"tf","game":"Team Fortress","app_id":440,"player_count":24,"max_players":24,"Bots":0,"server_type":"Dedicated","server_os":"Linux","password":true,"vac":true,"version":"7757534","steam_id":85568392924470941,"keywords":["nocrits","nodmgspread","payload","uncletopia"],"game_id":440,"stv_port":27026,"stv_name":"Uncletopia | London | 2 | All Maps | STV","players":[{"user_id":59,"name":"Dragon","steam_id":76561198163255365,"connected_time":799000000000,"state":"active","ping":109},{"user_id":51,"name":"excommunicado","steam_id":76561198964424257,"connected_time":1021000000000,"state":"active","ping":98},{"user_id":56,"name":"burning flames femboy","steam_id":76561198271772640,"connected_time":933000000000,"state":"active","ping":40},{"user_id":6,"name":"PROFILE NAME","steam_id":76561198180056982,"connected_time":2567000000000,"state":"active","ping":54},{"user_id":7,"name":"Jerma985","steam_id":76561198065009070,"connected_time":2563000000000,"state":"active","ping":69},{"user_id":8,"name":"Lewylow","steam_id":76561198005425686,"connected_time":2561000000000,"state":"active","ping":57},{"user_id":63,"name":"fitotutus","steam_id":76561197974993253,"connected_time":717000000000,"state":"active","ping":163},{"user_id":68,"name":"Green Banana","steam_id":76561198055480280,"connected_time":304000000000,"state":"active","ping":90},{"user_id":11,"name":"Za_Warudo_69_420","steam_id":76561199172415952,"connected_time":2549000000000,"state":"active","ping":54},{"user_id":66,"name":"depressed cows","steam_id":76561198358722215,"connected_time":578000000000,"state":"active","ping":45},{"user_id":13,"name":"Popbob (notorious griefer)","steam_id":76561198100730234,"connected_time":2546000000000,"state":"active","ping":72},{"user_id":52,"name":"skyler from skee al","steam_id":76561199467969775,"connected_time":1019000000000,"state":"active","ping":146},{"user_id":45,"name":"Catface","steam_id":76561198963378933,"connected_time":1164000000000,"state":"active","ping":45},{"user_id":55,"name":"Void ‚ú¶","steam_id":76561198242060218,"connected_time":982000000000,"state":"active","ping":78},{"user_id":17,"name":"RIFT","steam_id":76561198991622379,"connected_time":2515000000000,"state":"active","ping":44},{"user_id":65,"name":"Perpetual Pub Push","steam_id":76561198256714846,"connected_time":670000000000,"state":"active","ping":45},{"user_id":64,"name":"rez777ka","steam_id":76561198107605938,"connected_time":709000000000,"state":"active","ping":103},{"user_id":36,"name":"Per una sose","steam_id":76561198048378956,"connected_time":1643000000000,"state":"active","ping":86},{"user_id":49,"name":"marsel","steam_id":76561198116168271,"connected_time":1057000000000,"state":"active","ping":80},{"user_id":41,"name":"Alin","steam_id":76561198059679991,"connected_time":1340000000000,"state":"active","ping":97},{"user_id":67,"name":"wickEd_","steam_id":76561198048068999,"connected_time":488000000000,"state":"active","ping":163},{"user_id":26,"name":"Fellas","steam_id":76561198845162162,"connected_time":2316000000000,"state":"active","ping":77},{"user_id":69,"name":"baj","steam_id":76561197988287054,"connected_time":13000000000,"state":"spawning","ping":75},{"user_id":38,"name":"peruna","steam_id":76561198000721196,"connected_time":1486000000000,"state":"active","ping":75}]},{"server_id":320,"name":"Uncletopia | London | 3 | All Maps","name_short":"lon-3","host":"lon-1.uk.uncletopia.com","port":27035,"enabled":true,"region":"eu","cc":"gb","latitude":51.509865,"longitude":-0.118092,"reserved":0,"last_update":"0001-01-01T00:00:00Z","name_a2s":"Uncletopia | London | 3 | All Maps","protocol":17,"map":"pl_badwater","folder":"tf","game":"Team Fortress","app_id":440,"player_count":0,"max_players":24,"Bots":0,"server_type":"Dedicated","server_os":"Linux","password":true,"vac":true,"version":"7757534","steam_id":85568392924510192,"keywords":["nocrits","nodmgspread","payload","uncletopia"],"game_id":440,"stv_port":27036,"stv_name":"Uncletopia | London | 3 | All Maps | STV","players":null},{"server_id":321,"name":"Uncletopia | London | 4 | All Maps","name_short":"lon-4","host":"lon-1.uk.uncletopia.com","port":27045,"enabled":true,"region":"eu","cc":"gb","latitude":51.509865,"longitude":-0.118092,"reserved":0,"last_update":"0001-01-01T00:00:00Z","name_a2s":"Uncletopia | London | 4 | All Maps","protocol":17,"map":"cp_snakewater_final1","folder":"tf","game":"Team Fortress","app_id":440,"player_count":0,"max_players":24,"Bots":0,"server_type":"Dedicated","server_os":"Linux","password":true,"vac":true,"version":"7757534","steam_id":85568392924510193,"keywords":["cp","nocrits","nodmgspread","uncletopia"],"game_id":440,"stv_port":27046,"stv_name":"Uncletopia | London | 4 | All Maps | STV","players":null},{"server_id":21,"name":"Uncletopia | London | 5 | All Maps","name_short":"lon-5","host":"lon-1.uk.uncletopia.com","port":27055,"enabled":true,"region":"eu","cc":"gb","latitude":51.509865,"longitude":-0.118092,"reserved":0,"last_update":"0001-01-01T00:00:00Z","name_a2s":"Uncletopia | London | 5 | All Maps","protocol":17,"map":"pl_snowycoast","folder":"tf","game":"Team Fortress","app_id":440,"player_count":0,"max_players":24,"Bots":0,"server_type":"Dedicated","server_os":"Linux","password":true,"vac":true,"version":"7757534","steam_id":85568392924742829,"keywords":["nocrits","nodmgspread","payload","uncletopia"],"game_id":440,"stv_port":27056,"stv_name":"Uncletopia | London | 5 | All Maps | STV","players":null},{"server_id":22,"name":"Uncletopia | London | 6 | All Maps","name_short":"lon-6","host":"lon-1.uk.uncletopia.com","port":27065,"enabled":true,"region":"eu","cc":"gb","latitude":51.509865,"longitude":-0.118092,"reserved":0,"last_update":"0001-01-01T00:00:00Z","name_a2s":"Uncletopia | London | 6 | All Maps","protocol":17,"map":"pl_snowycoast","folder":"tf","game":"Team Fortress","app_id":440,"player_count":0,"max_players":24,"Bots":0,"server_type":"Dedicated","server_os":"Linux","password":true,"vac":true,"version":"7757534","steam_id":85568392924742830,"keywords":["nocrits","nodmgspread","payload","uncletopia"],"game_id":440,"stv_port":27066,"stv_name":"Uncletopia | London | 6 | All Maps | STV","players":null},{"server_id":40,"name":"Uncletopia | London | 7 | No Payload","name_short":"lon-7","host":"lon-1.uk.uncletopia.com","port":27075,"enabled":true,"region":"eu","cc":"gb","latitude":51.509865,"longitude":-0.118092,"reserved":0,"last_update":"0001-01-01T00:00:00Z","name_a2s":"Uncletopia | London | 7 | No Payload","protocol":17,"map":"pl_upward","folder":"tf","game":"Team Fortress","app_id":440,"player_count":0,"max_players":24,"Bots":0,"server_type":"Dedicated","server_os":"Linux","password":true,"vac":true,"version":"7757534","steam_id":85568392924964314,"keywords":["nocrits","nodmgspread","payload","uncletopia"],"game_id":440,"stv_port":27076,"stv_name":"Uncletopia | London | 7 | No Payload | STV","players":null},{"server_id":41,"name":"Uncletopia | London | 8 | Community","name_short":"lon-8","host":"lon-1.uk.uncletopia.com","port":27085,"enabled":true,"region":"eu","cc":"gb","latitude":51.509865,"longitude":-0.118092,"reserved":0,"last_update":"0001-01-01T00:00:00Z","name_a2s":"Uncletopia | London | 8 | Community","protocol":17,"map":"cp_snakewater_final1","folder":"tf","game":"Team Fortress","app_id":440,"player_count":0,"max_players":24,"Bots":0,"server_type":"Dedicated","server_os":"Linux","password":true,"vac":true,"version":"7757534","steam_id":85568392924964315,"keywords":["cp","nocrits","nodmgspread","uncletopia"],"game_id":440,"stv_port":27086,"stv_name":"Uncletopia | London | 8 | Community | STV","players":null},{"server_id":300,"name":"Uncletopia | Montr√©al | 1 | All Maps","name_short":"mtl-1","host":"mtl-1.ca.uncletopia.com","port":27015,"enabled":true,"region":"us-east","cc":"ca","latitude":45.50889,"longitude":-73.56167,"reserved":0,"last_update":"0001-01-01T00:00:00Z","name_a2s":"Uncletopia | Montr√©al | 1 | All Maps","protocol":17,"map":"koth_viaduct","folder":"tf","game":"Team Fortress","app_id":440,"player_count":0,"max_players":24,"Bots":0,"server_type":"Dedicated","server_os":"Linux","password":true,"vac":true,"version":"7757534","steam_id":85568392924500087,"keywords":["cp","nocrits","nodmgspread","uncletopia"],"game_id":440,"stv_port":27016,"stv_name":"Uncletopia | Montr√©al | 1 | All Maps | STV","players":null},{"server_id":301,"name":"Uncletopia | Montr√©al | 2 | All Maps","name_short":"mtl-2","host":"mtl-1.ca.uncletopia.com","port":27025,"enabled":true,"region":"us-east","cc":"ca","latitude":45.50889,"longitude":-73.56167,"reserved":0,"last_update":"0001-01-01T00:00:00Z","name_a2s":"Uncletopia | Montr√©al | 2 | All Maps","protocol":17,"map":"koth_highpass","folder":"tf","game":"Team Fortress","app_id":440,"player_count":0,"max_players":24,"Bots":0,"server_type":"Dedicated","server_os":"Linux","password":true,"vac":true,"version":"7757534","steam_id":85568392924500088,"keywords":["cp","nocrits","nodmgspread","uncletopia"],"game_id":440,"stv_port":27026,"stv_name":"Uncletopia | Montr√©al | 2 | All Maps | STV","players":null},{"server_id":302,"name":"Uncletopia | Montr√©al | 3 | All Maps","name_short":"mtl-3","host":"mtl-1.ca.uncletopia.com","port":27035,"enabled":true,"region":"us-east","cc":"ca","latitude":45.50889,"longitude":-73.56167,"reserved":0,"last_update":"0001-01-01T00:00:00Z","name_a2s":"Uncletopia | Montr√©al | 3 | All Maps","protocol":17,"map":"cp_dustbowl","folder":"tf","game":"Team Fortress","app_id":440,"player_count":0,"max_players":24,"Bots":0,"server_type":"Dedicated","server_os":"Linux","password":true,"vac":true,"version":"7757534","steam_id":85568392924500089,"keywords":["cp","nocrits","nodmgspread","uncletopia"],"game_id":440,"stv_port":27036,"stv_name":"Uncletopia | Montr√©al | 3 | All Maps | STV","players":null},{"server_id":303,"name":"Uncletopia | Montr√©al | 4 | No Payload","name_short":"mtl-4","host":"mtl-1.ca.uncletopia.com","port":27045,"enabled":true,"region":"us-east","cc":"ca","latitude":45.50889,"longitude":-73.56167,"reserved":0,"last_update":"0001-01-01T00:00:00Z","name_a2s":"Uncletopia | Montr√©al | 4 | No Payload","protocol":17,"map":"koth_lakeside_final","folder":"tf","game":"Team Fortress","app_id":440,"player_count":0,"max_players":24,"Bots":0,"server_type":"Dedicated","server_os":"Linux","password":true,"vac":true,"version":"7757534","steam_id":85568392924500090,"keywords":["cp","nocrits","nodmgspread","uncletopia"],"game_id":440,"stv_port":27046,"stv_name":"Uncletopia | Montr√©al | 4 | No Payload | STV","players":null},{"server_id":13,"name":"Uncletopia | New York City | 1 | All Maps","name_short":"nyc-1","host":"nyc-1.us.uncletopia.com","port":27015,"enabled":true,"region":"us-east","cc":"us","latitude":40.73061,"longitude":-73.93524,"reserved":0,"last_update":"0001-01-01T00:00:00Z","name_a2s":"Uncletopia | New York City | 1 | All Maps","protocol":17,"map":"cp_sunshine","folder":"tf","game":"Team Fortress","app_id":440,"player_count":0,"max_players":24,"Bots":0,"server_type":"Dedicated","server_os":"Linux","password":true,"vac":true,"version":"7757534","steam_id":85568392924469993,"keywords":["cp","nocrits","nodmgspread","uncletopia"],"game_id":440,"stv_port":27016,"stv_name":"Uncletopia | New York City | 1 | All Maps | STV","players":null},{"server_id":14,"name":"Uncletopia | New York City | 2 | All Maps","name_short":"nyc-2","host":"nyc-1.us.uncletopia.com","port":27025,"enabled":true,"region":"us-east","cc":"us","latitude":40.73061,"longitude":-73.93524,"reserved":0,"last_update":"0001-01-01T00:00:00Z","name_a2s":"Uncletopia | New York City | 2 | All Maps","protocol":17,"map":"cp_steel","folder":"tf","game":"Team Fortress","app_id":440,"player_count":18,"max_players":24,"Bots":0,"server_type":"Dedicated","server_os":"Linux","password":true,"vac":true,"version":"7757534","steam_id":85568392924469994,"keywords":["cp","nocrits","nodmgspread","uncletopia"],"game_id":440,"stv_port":27026,"stv_name":"Uncletopia | New York City | 2 | All Maps | STV","players":[{"user_id":949,"name":"OrangeFrost","steam_id":76561198015214501,"connected_time":1362000000000,"state":"active","ping":102},{"user_id":914,"name":"Mahiru Koizumi","steam_id":76561198164782653,"connected_time":3950000000000,"state":"active","ping":47},{"user_id":974,"name":"autistic luigi","steam_id":76561199218285040,"connected_time":31000000000,"state":"active","ping":141},{"user_id":945,"name":"brian eats you","steam_id":76561198109901138,"connected_time":1508000000000,"state":"active","ping":54},{"user_id":942,"name":"Scout","steam_id":76561198149172070,"connected_time":1778000000000,"state":"active","ping":75},{"user_id":964,"name":"Titar Industries","steam_id":76561198143078476,"connected_time":446000000000,"state":"active","ping":69},{"user_id":951,"name":"Stevie Wonder","steam_id":76561198013241277,"connected_time":1307000000000,"state":"active","ping":81},{"user_id":958,"name":"kametro4","steam_id":76561198835430429,"connected_time":761000000000,"state":"active","ping":74},{"user_id":928,"name":"faxxy","steam_id":76561198079621240,"connected_time":2612000000000,"state":"active","ping":76},{"user_id":970,"name":"Rudy","steam_id":76561198013456828,"connected_time":159000000000,"state":"active","ping":45},{"user_id":968,"name":"xyzKevin","steam_id":76561199042234301,"connected_time":290000000000,"state":"active","ping":54},{"user_id":971,"name":"Evil little man","steam_id":76561198311053471,"connected_time":152000000000,"state":"active","ping":79},{"user_id":910,"name":"gerg","steam_id":76561197997127387,"connected_time":4290000000000,"state":"active","ping":108},{"user_id":930,"name":"timestew","steam_id":76561198367583372,"connected_time":2334000000000,"state":"active","ping":82},{"user_id":955,"name":"Bootstrap","steam_id":76561199110353614,"connected_time":1153000000000,"state":"active","ping":105},{"user_id":915,"name":"social distance warrior","steam_id":76561198128992994,"connected_time":3935000000000,"state":"active","ping":99},{"user_id":956,"name":"Kamala Harris","steam_id":76561197998316334,"connected_time":953000000000,"state":"active","ping":118},{"user_id":905,"name":"Shipmunk","steam_id":76561198063062670,"connected_time":4794000000000,"state":"active","ping":47}]},{"server_id":15,"name":"Uncletopia | New York City | 3 | Stopwatch Beta","name_short":"nyc-3","host":"nyc-1.us.uncletopia.com","port":27035,"enabled":true,"region":"us-east","cc":"us","latitude":40.73061,"longitude":-73.93524,"reserved":0,"last_update":"0001-01-01T00:00:00Z","name_a2s":"Uncletopia | New York City | 3 | Stopwatch Beta","protocol":17,"map":"workshop/pl_barnblitz_pro7.ugc582280235","folder":"tf","game":"Team Fortress","app_id":440,"player_count":0,"max_players":24,"Bots":0,"server_type":"Dedicated","server_os":"Linux","password":true,"vac":true,"version":"7757534","steam_id":85568392924742820,"keywords":["nocrits","nodmgspread","payload","uncletopia"],"game_id":440,"stv_port":27036,"stv_name":"Uncletopia | New York City | 3 | Stopwatch Beta | STV","players":null},{"server_id":16,"name":"Uncletopia | New York City | 4 | Community","name_short":"nyc-4","host":"nyc-1.us.uncletopia.com","port":27045,"enabled":true,"region":"us-east","cc":"us","latitude":40.73061,"longitude":-73.93524,"reserved":0,"last_update":"0001-01-01T00:00:00Z","name_a2s":"Uncletopia | New York City | 4 | Community","protocol":17,"map":"workshop/koth_slaughter_rc1.ugc1712845210","folder":"tf","game":"Team Fortress","app_id":440,"player_count":0,"max_players":24,"Bots":0,"server_type":"Dedicated","server_os":"Linux","password":true,"vac":true,"version":"7757534","steam_id":85568392924742821,"keywords":["cp","nocrits","nodmgspread","uncletopia"],"game_id":440,"stv_port":27046,"stv_name":"Uncletopia | New York City | 4 | Community | STV","players":null},{"server_id":142,"name":"Uncletopia | S√£o Paulo | 1 | All Maps","name_short":"sao-1","host":"sao-1.br.uncletopia.com","port":27015,"enabled":true,"region":"sa","cc":"br","latitude":-23.533773,"longitude":-46.62529,"reserved":0,"last_update":"0001-01-01T00:00:00Z","name_a2s":"Uncletopia | S√£o Paulo | 1 | All Maps","protocol":17,"map":"koth_lakeside_final","folder":"tf","game":"Team Fortress","app_id":440,"player_count":0,"max_players":24,"Bots":0,"server_type":"Dedicated","server_os":"Linux","password":true,"vac":true,"version":"7757534","steam_id":85568392924469996,"keywords":["cp","nocrits","nodmgspread","uncletopia"],"game_id":440,"stv_port":27016,"stv_name":"Uncletopia | S√£o Paulo | 1 | All Maps | STV","players":null},{"server_id":143,"name":"Uncletopia | S√£o Paulo | 2 | All Maps","name_short":"sao-2","host":"sao-2.br.uncletopia.com","port":27015,"enabled":true,"region":"sa","cc":"br","latitude":-23.533773,"longitude":-46.62529,"reserved":0,"last_update":"0001-01-01T00:00:00Z","name_a2s":"Uncletopia | S√£o Paulo | 2 | All Maps","protocol":17,"map":"cp_dustbowl","folder":"tf","game":"Team Fortress","app_id":440,"player_count":0,"max_players":24,"Bots":0,"server_type":"Dedicated","server_os":"Linux","password":true,"vac":true,"version":"7757534","steam_id":85568392924485349,"keywords":["cp","nocrits","nodmgspread","uncletopia"],"game_id":440,"stv_port":27016,"stv_name":"Uncletopia | S√£o Paulo | 2 | All Maps | STV","players":null},{"server_id":7,"name":"Uncletopia | Seattle | 1 | All Maps","name_short":"sea-1","host":"sea-1.us.uncletopia.com","port":27015,"enabled":true,"region":"us-west","cc":"us","latitude":47.608013,"longitude":-122.33517,"reserved":0,"last_update":"0001-01-01T00:00:00Z","name_a2s":"Uncletopia | Seattle | 1 | All Maps","protocol":17,"map":"pl_frontier_final","folder":"tf","game":"Team Fortress","app_id":440,"player_count":24,"max_players":24,"Bots":0,"server_type":"Dedicated","server_os":"Linux","password":true,"vac":true,"version":"7757534","steam_id":85568392924469997,"keywords":["nocrits","nodmgspread","payload","uncletopia"],"game_id":440,"stv_port":27016,"stv_name":"Uncletopia | Seattle | 1 | All Maps | STV","players":[{"user_id":636,"name":"ed","steam_id":76561198080475712,"connected_time":7590000000000,"state":"active","ping":63},{"user_id":693,"name":"ChuChu","steam_id":76561199443647976,"connected_time":1073000000000,"state":"active","ping":99},{"user_id":657,"name":"gorlab","steam_id":76561198025089694,"connected_time":4425000000000,"state":"active","ping":59},{"user_id":678,"name":"Cheezbeargur","steam_id":76561198164702899,"connected_time":1908000000000,"state":"active","ping":66},{"user_id":680,"name":"Evanb","steam_id":76561198042057792,"connected_time":1571000000000,"state":"active","ping":41},{"user_id":661,"name":"The King of Piss World","steam_id":76561198082806956,"connected_time":4346000000000,"state":"active","ping":115},{"user_id":672,"name":"LIMBS","steam_id":76561198101220604,"connected_time":3133000000000,"state":"active","ping":69},{"user_id":681,"name":"JON","steam_id":76561198057971005,"connected_time":1571000000000,"state":"active","ping":40},{"user_id":695,"name":"Tom Skirrett","steam_id":76561198014600788,"connected_time":921000000000,"state":"active","ping":72},{"user_id":682,"name":"nolife","steam_id":76561198414300607,"connected_time":1504000000000,"state":"active","ping":90},{"user_id":692,"name":"An Old Lady","steam_id":76561198047480318,"connected_time":1103000000000,"state":"active","ping":67},{"user_id":599,"name":"Cassandra (She/her)","steam_id":76561198094123940,"connected_time":12122000000000,"state":"active","ping":122},{"user_id":696,"name":"derpina","steam_id":76561198025454291,"connected_time":214000000000,"state":"active","ping":41},{"user_id":666,"name":"DBurdyBwai","steam_id":76561197990462971,"connected_time":3463000000000,"state":"active","ping":64},{"user_id":662,"name":"SvicidalBug","steam_id":76561198221390504,"connected_time":3746000000000,"state":"active","ping":69},{"user_id":687,"name":"BEASTxGODx420","steam_id":76561198184814466,"connected_time":1194000000000,"state":"active","ping":40},{"user_id":684,"name":"bad spy player","steam_id":76561198873699671,"connected_time":1481000000000,"state":"active","ping":51},{"user_id":686,"name":"Ediot","steam_id":76561199349494096,"connected_time":1291000000000,"state":"active","ping":136},{"user_id":651,"name":"Elias","steam_id":76561198031295139,"connected_time":4660000000000,"state":"active","ping":53},{"user_id":694,"name":"Professor Sex","steam_id":76561198396414319,"connected_time":1067000000000,"state":"active","ping":78},{"user_id":660,"name":"terri joe","steam_id":76561198017030029,"connected_time":4421000000000,"state":"active","ping":101},{"user_id":553,"name":"JERMA BUT CRYING AND TRANS","steam_id":76561198210734407,"connected_time":16066000000000,"state":"active","ping":118},{"user_id":685,"name":"Buncake","steam_id":76561198072541212,"connected_time":1446000000000,"state":"active","ping":99},{"user_id":646,"name":"Klone","steam_id":76561198854485605,"connected_time":5782000000000,"state":"active","ping":75}]},{"server_id":119,"name":"Uncletopia | Seattle | 2 | All Maps","name_short":"sea-2","host":"sea-1.us.uncletopia.com","port":27025,"enabled":true,"region":"us-west","cc":"us","latitude":47.608013,"longitude":-122.33517,"reserved":0,"last_update":"0001-01-01T00:00:00Z","name_a2s":"Uncletopia | Seattle | 2 | All Maps","protocol":17,"map":"pl_wutville_event","folder":"tf","game":"Team Fortress","app_id":440,"player_count":7,"max_players":24,"Bots":0,"server_type":"Dedicated","server_os":"Linux","password":true,"vac":true,"version":"7757534","steam_id":85568392924469998,"keywords":["nocrits","nodmgspread","payload","uncletopia"],"game_id":440,"stv_port":27026,"stv_name":"Uncletopia | Seattle | 2 | All Maps | STV","players":[{"user_id":599,"name":"massive dumbass","steam_id":76561199447881058,"connected_time":474000000000,"state":"active","ping":73},{"user_id":399,"name":"Dank Hill","steam_id":76561198081194839,"connected_time":14908000000000,"state":"active","ping":57},{"user_id":584,"name":"Bubbamanme","steam_id":76561198119778504,"connected_time":1248000000000,"state":"active","ping":52},{"user_id":587,"name":"Naffers","steam_id":76561198195957335,"connected_time":1145000000000,"state":"active","ping":36},{"user_id":593,"name":"Clemont007","steam_id":76561198030935625,"connected_time":748000000000,"state":"active","ping":80},{"user_id":573,"name":"KlunkyMonkey","steam_id":76561198855264901,"connected_time":1884000000000,"state":"active","ping":41},{"user_id":535,"name":"Lonestar827","steam_id":76561198035533639,"connected_time":4818000000000,"state":"active","ping":48}]},{"server_id":406,"name":"Uncletopia | Seattle | 3 | Stopwatch Beta","name_short":"sea-3","host":"sea-1.us.uncletopia.com","port":27035,"enabled":true,"region":"us-west","cc":"us","latitude":47.608013,"longitude":-122.33517,"reserved":0,"last_update":"0001-01-01T00:00:00Z","name_a2s":"Uncletopia | Seattle | 3 | Stopwatch Beta","protocol":17,"map":"pl_swiftwater_final1","folder":"tf","game":"Team Fortress","app_id":440,"player_count":0,"max_players":24,"Bots":0,"server_type":"Dedicated","server_os":"Linux","password":true,"vac":true,"version":"7757534","steam_id":85568392924515217,"keywords":["nocrits","nodmgspread","payload","uncletopia"],"game_id":440,"stv_port":27036,"stv_name":"Uncletopia | Seattle | 3 | Stopwatch Beta | STV","players":null},{"server_id":17,"name":"Uncletopia | San Francisco | 1 | All Maps","name_short":"sfo-1","host":"sfo-1.us.uncletopia.com","port":27015,"enabled":true,"region":"us-west","cc":"us","latitude":37.77397,"longitude":-122.4313,"reserved":0,"last_update":"0001-01-01T00:00:00Z","name_a2s":"Uncletopia | San Francisco | 1 | All Maps","protocol":17,"map":"pl_hoodoo_final","folder":"tf","game":"Team Fortress","app_id":440,"player_count":22,"max_players":24,"Bots":0,"server_type":"Dedicated","server_os":"Linux","password":true,"vac":true,"version":"7757534","steam_id":85568392924469999,"keywords":["nocrits","nodmgspread","payload","uncletopia"],"game_id":440,"stv_port":27016,"stv_name":"Uncletopia | San Francisco | 1 | All Maps | STV","players":[{"user_id":304,"name":"me","steam_id":76561199468285784,"connected_time":3089000000000,"state":"active","ping":30},{"user_id":280,"name":"WeAreTheSpirits","steam_id":76561198191555728,"connected_time":4526000000000,"state":"active","ping":51},{"user_id":325,"name":"Squidna","steam_id":76561198032491706,"connected_time":1214000000000,"state":"active","ping":81},{"user_id":289,"name":"CC-4477","steam_id":76561198192632011,"connected_time":4167000000000,"state":"active","ping":57},{"user_id":342,"name":"Tomoko2001","steam_id":76561198047117990,"connected_time":242000000000,"state":"active","ping":96},{"user_id":350,"name":"Bob the Minion","steam_id":76561197972389354,"connected_time":20000000000,"state":"active","ping":53},{"user_id":300,"name":"Shit445","steam_id":76561198973155726,"connected_time":3391000000000,"state":"active","ping":73},{"user_id":327,"name":"world machine","steam_id":76561198020689909,"connected_time":1064000000000,"state":"active","ping":52},{"user_id":333,"name":"Brooklyn T. Guy","steam_id":76561198813586588,"connected_time":877000000000,"state":"active","ping":58},{"user_id":347,"name":"Ramenparty","steam_id":76561198105510790,"connected_time":137000000000,"state":"active","ping":62},{"user_id":316,"name":"fuzzorino","steam_id":76561198093146293,"connected_time":1941000000000,"state":"active","ping":48},{"user_id":302,"name":"MagikCactus","steam_id":76561198035678261,"connected_time":3204000000000,"state":"active","ping":175},{"user_id":344,"name":"Timon's high on crack cocaine!","steam_id":76561198180396430,"connected_time":234000000000,"state":"active","ping":58},{"user_id":331,"name":"loco503","steam_id":76561198827495121,"connected_time":1013000000000,"state":"active","ping":57},{"user_id":317,"name":"MochaTheGoat","steam_id":76561198295388936,"connected_time":1908000000000,"state":"active","ping":56},{"user_id":336,"name":"ungr8t","steam_id":76561198063521721,"connected_time":683000000000,"state":"active","ping":93},{"user_id":292,"name":"VintajeCheese","steam_id":76561198153688062,"connected_time":4130000000000,"state":"active","ping":61},{"user_id":348,"name":"me shoot floor","steam_id":76561198046526036,"connected_time":116000000000,"state":"active","ping":57},{"user_id":349,"name":"Gustavo Fring (Real)","steam_id":76561198048886059,"connected_time":100000000000,"state":"active","ping":59},{"user_id":337,"name":"Gum","steam_id":76561198129976826,"connected_time":682000000000,"state":"active","ping":105},{"user_id":319,"name":"Abobo","steam_id":76561198161817421,"connected_time":1894000000000,"state":"active","ping":57},{"user_id":341,"name":"Skabbety","steam_id":76561198168044257,"connected_time":272000000000,"state":"active","ping":60}]},{"server_id":18,"name":"Uncletopia | San Francisco | 2 | All Maps","name_short":"sfo-2","host":"sfo-1.us.uncletopia.com","port":27025,"enabled":true,"region":"us-west","cc":"us","latitude":37.77397,"longitude":-122.4313,"reserved":0,"last_update":"0001-01-01T00:00:00Z","name_a2s":"Uncletopia | San Francisco | 2 | All Maps","protocol":17,"map":"pl_pier","folder":"tf","game":"Team Fortress","app_id":440,"player_count":0,"max_players":24,"Bots":0,"server_type":"Dedicated","server_os":"Linux","password":true,"vac":true,"version":"7757534","steam_id":85568392924470000,"keywords":["nocrits","nodmgspread","payload","uncletopia"],"game_id":440,"stv_port":27026,"stv_name":"Uncletopia | San Francisco | 2 | All Maps | STV","players":null},{"server_id":19,"name":"Uncletopia | San Francisco | 3 | Stopwatch Beta","name_short":"sfo-3","host":"sfo-1.us.uncletopia.com","port":27035,"enabled":true,"region":"us-west","cc":"us","latitude":37.77397,"longitude":-122.4313,"reserved":0,"last_update":"0001-01-01T00:00:00Z","name_a2s":"Uncletopia | San Francisco | 3 | Stopwatch Beta","protocol":17,"map":"workshop/koth_clearcut_b15.ugc2107050255","folder":"tf","game":"Team Fortress","app_id":440,"player_count":0,"max_players":24,"Bots":0,"server_type":"Dedicated","server_os":"Linux","password":true,"vac":true,"version":"7757534","steam_id":85568392924742824,"keywords":["cp","nocrits","nodmgspread","uncletopia"],"game_id":440,"stv_port":27036,"stv_name":"Uncletopia | San Francisco | 3 | Stopwatch Beta | STV","players":null},{"server_id":20,"name":"Uncletopia | San Francisco | 4 | Community","name_short":"sfo-4","host":"sfo-1.us.uncletopia.com","port":27045,"enabled":true,"region":"us-west","cc":"us","latitude":37.77397,"longitude":-122.4313,"reserved":0,"last_update":"0001-01-01T00:00:00Z","name_a2s":"Uncletopia | San Francisco | 4 | Community","protocol":17,"map":"workshop/cp_reckoner_rc6.ugc674719999","folder":"tf","game":"Team Fortress","app_id":440,"player_count":24,"max_players":24,"Bots":0,"server_type":"Dedicated","server_os":"Linux","password":true,"vac":true,"version":"7757534","steam_id":85568392924742826,"keywords":["cp","nocrits","nodmgspread","uncletopia"],"game_id":440,"stv_port":27046,"stv_name":"Uncletopia | San Francisco | 4 | Community | STV","players":[{"user_id":79,"name":"Stoney Mimic","steam_id":76561198200706173,"connected_time":2496000000000,"state":"active","ping":68},{"user_id":98,"name":"Dunnie","steam_id":76561198345455114,"connected_time":663000000000,"state":"active","ping":70},{"user_id":95,"name":"bodie._.","steam_id":76561198079474904,"connected_time":830000000000,"state":"active","ping":75},{"user_id":93,"name":"Irate Gamer Official","steam_id":76561198162688146,"connected_time":885000000000,"state":"active","ping":57},{"user_id":87,"name":"Speve Bobs","steam_id":76561198349908268,"connected_time":1660000000000,"state":"active","ping":45},{"user_id":58,"name":"Doinnoid","steam_id":76561198262276139,"connected_time":4307000000000,"state":"active","ping":80},{"user_id":84,"name":"TheGibusGuy","steam_id":76561198437838940,"connected_time":2128000000000,"state":"active","ping":109},{"user_id":86,"name":"TheBucketBoy","steam_id":76561199260245925,"connected_time":1753000000000,"state":"active","ping":93},{"user_id":94,"name":"TheNixedOne","steam_id":76561198119167278,"connected_time":872000000000,"state":"active","ping":109},{"user_id":53,"name":"Scythe","steam_id":76561198375431704,"connected_time":4941000000000,"state":"active","ping":86},{"user_id":96,"name":"Deno! Í∞ÑÎ∂Ä","steam_id":76561198041113335,"connected_time":829000000000,"state":"active","ping":73},{"user_id":49,"name":"kdfchse","steam_id":76561198200890901,"connected_time":4985000000000,"state":"active","ping":61},{"user_id":91,"name":"Trips","steam_id":76561198054581597,"connected_time":1460000000000,"state":"active","ping":44},{"user_id":97,"name":"mushycow","steam_id":76561199276362541,"connected_time":789000000000,"state":"active","ping":110},{"user_id":55,"name":"Pyro","steam_id":76561198381128960,"connected_time":4896000000000,"state":"active","ping":99},{"user_id":99,"name":"Catscout","steam_id":76561198140893643,"connected_time":658000000000,"state":"active","ping":88},{"user_id":69,"name":"goldhed","steam_id":76561198051751133,"connected_time":3784000000000,"state":"active","ping":74},{"user_id":77,"name":"tN|SpiritofLight","steam_id":76561197967936643,"connected_time":2675000000000,"state":"active","ping":55},{"user_id":102,"name":"mrp","steam_id":76561198942843544,"connected_time":452000000000,"state":"active","ping":65},{"user_id":107,"name":"en.wikipedia.org/wiki/Nae_Nae","steam_id":76561198418288939,"connected_time":34000000000,"state":"active","ping":61},{"user_id":103,"name":"bugman atheist","steam_id":76561198096903352,"connected_time":356000000000,"state":"active","ping":90},{"user_id":104,"name":"Bowl of Soup","steam_id":76561198114255273,"connected_time":302000000000,"state":"active","ping":86},{"user_id":105,"name":"PunishedCrab","steam_id":76561198079650017,"connected_time":292000000000,"state":"active","ping":70},{"user_id":109,"name":"BlesseDbyNurGLe420","steam_id":76561197996109049,"connected_time":21000000000,"state":"spawning","ping":158}]},{"server_id":141,"name":"Uncletopia | Sydney | 1 | All Maps","name_short":"syd-1","host":"syd-1.au.uncletopia.com","port":27015,"enabled":true,"region":"au","cc":"au","latitude":-33.865143,"longitude":151.2099,"reserved":0,"last_update":"0001-01-01T00:00:00Z","name_a2s":"Uncletopia | Sydney | 1 | All Maps","protocol":17,"map":"pl_swiftwater_final1","folder":"tf","game":"Team Fortress","app_id":440,"player_count":24,"max_players":24,"Bots":0,"server_type":"Dedicated","server_os":"Linux","password":true,"vac":true,"version":"7757534","steam_id":85568392924470001,"keywords":["nocrits","nodmgspread","payload","uncletopia"],"game_id":440,"stv_port":27016,"stv_name":"Uncletopia | Sydney | 1 | All Maps | STV","players":[{"user_id":367,"name":"terrablade_master","steam_id":76561198997249192,"connected_time":447000000000,"state":"active","ping":109},{"user_id":369,"name":"Brobie","steam_id":76561198307832686,"connected_time":210000000000,"state":"active","ping":57},{"user_id":352,"name":"clout","steam_id":76561198073310502,"connected_time":1700000000000,"state":"active","ping":74},{"user_id":358,"name":"Vortex Morez","steam_id":76561198833527091,"connected_time":1148000000000,"state":"active","ping":152},{"user_id":341,"name":"las","steam_id":76561198039162155,"connected_time":2436000000000,"state":"active","ping":59},{"user_id":361,"name":"Easel (any/all)","steam_id":76561198049213583,"connected_time":1095000000000,"state":"active","ping":64},{"user_id":353,"name":"tyler.diep9","steam_id":76561199017957673,"connected_time":1653000000000,"state":"active","ping":62},{"user_id":351,"name":"EpicGuy4227","steam_id":76561198094132328,"connected_time":1781000000000,"state":"active","ping":51},{"user_id":256,"name":"KnowZero","steam_id":76561198095752015,"connected_time":8992000000000,"state":"active","ping":58},{"user_id":359,"name":"Chooka","steam_id":76561197992307814,"connected_time":1136000000000,"state":"active","ping":66},{"user_id":354,"name":"Worst Sniper","steam_id":76561198025733081,"connected_time":1651000000000,"state":"active","ping":75},{"user_id":370,"name":"blicky","steam_id":76561198029829077,"connected_time":49000000000,"state":"active","ping":91},{"user_id":356,"name":"penis muncher","steam_id":76561198288259746,"connected_time":1339000000000,"state":"active","ping":62},{"user_id":335,"name":"CheeseFlag126","steam_id":76561199262769917,"connected_time":2746000000000,"state":"active","ping":70},{"user_id":363,"name":"Huski","steam_id":76561198108956967,"connected_time":1011000000000,"state":"active","ping":67},{"user_id":302,"name":"Jambi","steam_id":76561198310550094,"connected_time":5378000000000,"state":"active","ping":55},{"user_id":364,"name":"thrax","steam_id":76561197992385270,"connected_time":915000000000,"state":"active","ping":55},{"user_id":303,"name":"DKC","steam_id":76561198313578155,"connected_time":5333000000000,"state":"active","ping":31},{"user_id":365,"name":"MrGamerPerson","steam_id":76561198805972890,"connected_time":820000000000,"state":"active","ping":55},{"user_id":349,"name":"Rizeo","steam_id":76561198147901488,"connected_time":1992000000000,"state":"active","ping":70},{"user_id":350,"name":"gun spy TF2","steam_id":76561199446773766,"connected_time":1984000000000,"state":"active","ping":144},{"user_id":321,"name":"Branko","steam_id":76561199262196710,"connected_time":3619000000000,"state":"active","ping":52},{"user_id":333,"name":"Straw Millionaire","steam_id":76561198140318336,"connected_time":2788000000000,"state":"active","ping":48},{"user_id":360,"name":"no teles 4 u","steam_id":76561198018478297,"connected_time":1107000000000,"state":"active","ping":72}]},{"server_id":123,"name":"Uncletopia | Sydney | 2 | All Maps","name_short":"syd-2","host":"syd-1.au.uncletopia.com","port":27025,"enabled":true,"region":"au","cc":"au","latitude":-33.865143,"longitude":151.2099,"reserved":0,"last_update":"0001-01-01T00:00:00Z","name_a2s":"Uncletopia | Sydney | 2 | All Maps","protocol":17,"map":"pl_barnblitz","folder":"tf","game":"Team Fortress","app_id":440,"player_count":5,"max_players":24,"Bots":0,"server_type":"Dedicated","server_os":"Linux","password":true,"vac":true,"version":"7757534","steam_id":85568392924470002,"keywords":["nocrits","nodmgspread","payload","uncletopia"],"game_id":440,"stv_port":27026,"stv_name":"Uncletopia | Sydney | 2 | All Maps | STV","players":[{"user_id":79,"name":"lolwhat","steam_id":76561199387628765,"connected_time":719000000000,"state":"active","ping":165},{"user_id":78,"name":"Gregory","steam_id":76561199028542666,"connected_time":783000000000,"state":"active","ping":38},{"user_id":80,"name":"fire14_legend2","steam_id":76561199367274853,"connected_time":593000000000,"state":"active","ping":289},{"user_id":84,"name":"Woolworths (REAL)","steam_id":76561199226422015,"connected_time":41000000000,"state":"active","ping":73},{"user_id":83,"name":"demoman","steam_id":76561199083914239,"connected_time":155000000000,"state":"active","ping":58}]},{"server_id":395,"name":"Uncletopia | Sydney | 3 | All Maps","name_short":"syd-3","host":"syd-1.au.uncletopia.com","port":27035,"enabled":true,"region":"au","cc":"au","latitude":-33.865143,"longitude":151.2099,"reserved":0,"last_update":"0001-01-01T00:00:00Z","name_a2s":"Uncletopia | Sydney | 3 | All Maps","protocol":17,"map":"pl_pier","folder":"tf","game":"Team Fortress","app_id":440,"player_count":0,"max_players":24,"Bots":0,"server_type":"Dedicated","server_os":"Linux","password":true,"vac":true,"version":"7757534","steam_id":85568392925194467,"keywords":["nocrits","nodmgspread","payload","uncletopia"],"game_id":440,"stv_port":27036,"stv_name":"Uncletopia | Sydney | 3 | All Maps | STV","players":null},{"server_id":396,"name":"Uncletopia | Sydney | 4 | All Maps","name_short":"syd-4","host":"syd-1.au.uncletopia.com","port":27045,"enabled":true,"region":"au","cc":"au","latitude":-33.865143,"longitude":151.2099,"reserved":0,"last_update":"0001-01-01T00:00:00Z","name_a2s":"Uncletopia | Sydney | 4 | All Maps","protocol":17,"map":"cp_snakewater_final1","folder":"tf","game":"Team Fortress","app_id":440,"player_count":0,"max_players":24,"Bots":0,"server_type":"Dedicated","server_os":"Linux","password":true,"vac":true,"version":"7757534","steam_id":85568392925397958,"keywords":["cp","nocrits","nodmgspread","uncletopia"],"game_id":440,"stv_port":27046,"stv_name":"Uncletopia | Sydney | 4 | All Maps | STV","players":null},{"server_id":58,"name":"Uncletopia | Sydney | 5 | Stopwatch Beta","name_short":"syd-5","host":"syd-1.au.uncletopia.com","port":27055,"enabled":true,"region":"au","cc":"au","latitude":-33.865143,"longitude":151.2099,"reserved":0,"last_update":"0001-01-01T00:00:00Z","name_a2s":"Uncletopia | Sydney | 5 | Stopwatch Beta","protocol":17,"map":"pl_barnblitz","folder":"tf","game":"Team Fortress","app_id":440,"player_count":0,"max_players":24,"Bots":0,"server_type":"Dedicated","server_os":"Linux","password":true,"vac":true,"version":"7757534","steam_id":85568392925397959,"keywords":["nocrits","nodmgspread","payload","uncletopia"],"game_id":440,"stv_port":27056,"stv_name":"Uncletopia | Sydney | 5 | Stopwatch Beta | STV","players":null},{"server_id":59,"name":"Uncletopia | Sydney | 6 | Community","name_short":"syd-6","host":"syd-1.au.uncletopia.com","port":27065,"enabled":true,"region":"au","cc":"au","latitude":-33.865143,"longitude":151.2099,"reserved":0,"last_update":"0001-01-01T00:00:00Z","name_a2s":"Uncletopia | Sydney | 6 | Community","protocol":17,"map":"workshop/koth_synthetic_rc6a.ugc1549817316","folder":"tf","game":"Team Fortress","app_id":440,"player_count":0,"max_players":24,"Bots":0,"server_type":"Dedicated","server_os":"Linux","password":true,"vac":true,"version":"7757534","steam_id":85568392925397960,"keywords":["cp","nocrits","nodmgspread","uncletopia"],"game_id":440,"stv_port":27066,"stv_name":"Uncletopia | Sydney | 6 | Community | STV","players":null},{"server_id":49,"name":"Uncletopia | Warsaw | 1 | All Maps","name_short":"waw-1","host":"waw-1.pl.uncletopia.com","port":27015,"enabled":true,"region":"eu","cc":"pl","latitude":52.2297,"longitude":21.017532,"reserved":0,"last_update":"0001-01-01T00:00:00Z","name_a2s":"","protocol":0,"map":"","folder":"","game":"","app_id":0,"player_count":0,"max_players":0,"Bots":0,"server_type":"","server_os":"","password":false,"vac":false,"version":"","steam_id":0,"keywords":null,"game_id":0,"stv_port":0,"stv_name":"","players":null},{"server_id":50,"name":"Uncletopia | Warsaw | 2 | All Maps","name_short":"waw-2","host":"waw-1.pl.uncletopia.com","port":27025,"enabled":true,"region":"eu","cc":"pl","latitude":52.2297,"longitude":21.017532,"reserved":0,"last_update":"0001-01-01T00:00:00Z","name_a2s":"Uncletopia | Warsaw | 2 | All Maps","protocol":17,"map":"cp_snakewater_final1","folder":"tf","game":"Team Fortress","app_id":440,"player_count":0,"max_players":24,"Bots":0,"server_type":"Dedicated","server_os":"Linux","password":true,"vac":true,"version":"7757534","steam_id":85568392925397851,"keywords":["cp","nocrits","nodmgspread","uncletopia"],"game_id":440,"stv_port":27026,"stv_name":"Uncletopia | Warsaw | 2 | All Maps | STV","players":null},{"server_id":51,"name":"Uncletopia | Warsaw | 3 | All Maps","name_short":"waw-3","host":"waw-1.pl.uncletopia.com","port":27035,"enabled":true,"region":"eu","cc":"pl","latitude":52.2297,"longitude":21.017532,"reserved":0,"last_update":"0001-01-01T00:00:00Z","name_a2s":"Uncletopia | Warsaw | 3 | All Maps","protocol":17,"map":"cp_sunshine","folder":"tf","game":"Team Fortress","app_id":440,"player_count":0,"max_players":24,"Bots":0,"server_type":"Dedicated","server_os":"Linux","password":true,"vac":true,"version":"7757534","steam_id":85568392925397852,"keywords":["cp","nocrits","nodmgspread","uncletopia"],"game_id":440,"stv_port":27036,"stv_name":"Uncletopia | Warsaw | 3 | All Maps | STV","players":null},{"server_id":52,"name":"Uncletopia | Warsaw | 4 | All Maps","name_short":"waw-4","host":"waw-1.pl.uncletopia.com","port":27045,"enabled":true,"region":"eu","cc":"pl","latitude":52.2297,"longitude":21.017532,"reserved":0,"last_update":"0001-01-01T00:00:00Z","name_a2s":"Uncletopia | Warsaw | 4 | All Maps","protocol":17,"map":"pl_borneo","folder":"tf","game":"Team Fortress","app_id":440,"player_count":0,"max_players":24,"Bots":0,"server_type":"Dedicated","server_os":"Linux","password":true,"vac":true,"version":"7757534","steam_id":85568392925397853,"keywords":["nocrits","nodmgspread","payload","uncletopia"],"game_id":440,"stv_port":27046,"stv_name":"Uncletopia | Warsaw | 4 | All Maps | STV","players":null},{"server_id":53,"name":"Uncletopia | Warsaw | 5 | Stopwatch Beta","name_short":"waw-5","host":"waw-1.pl.uncletopia.com","port":27055,"enabled":true,"region":"eu","cc":"pl","latitude":52.2297,"longitude":21.017532,"reserved":0,"last_update":"0001-01-01T00:00:00Z","name_a2s":"Uncletopia | Warsaw | 5 | Stopwatch Beta","protocol":17,"map":"pl_upward","folder":"tf","game":"Team Fortress","app_id":440,"player_count":0,"max_players":24,"Bots":0,"server_type":"Dedicated","server_os":"Linux","password":true,"vac":true,"version":"7757534","steam_id":85568392925397854,"keywords":["nocrits","nodmgspread","payload","uncletopia"],"game_id":440,"stv_port":27056,"stv_name":"Uncletopia | Warsaw | 5 | Stopwatch Beta | STV","players":null},{"server_id":54,"name":"Uncletopia | Warsaw | 6 | Community","name_short":"waw-6","host":"waw-1.pl.uncletopia.com","port":27065,"enabled":true,"region":"eu","cc":"pl","latitude":52.2297,"longitude":21.017532,"reserved":0,"last_update":"0001-01-01T00:00:00Z","name_a2s":"Uncletopia | Warsaw | 6 | Community","protocol":17,"map":"pl_barnblitz","folder":"tf","game":"Team Fortress","app_id":440,"player_count":0,"max_players":24,"Bots":0,"server_type":"Dedicated","server_os":"Linux","password":true,"vac":true,"version":"7757534","steam_id":85568392925397856,"keywords":["nocrits","nodmgspread","payload","uncletopia"],"game_id":440,"stv_port":27066,"stv_name":"Uncletopia | Warsaw | 6 | Community | STV","players":null}]}