{"status":true,"message":"","result":[{"server_id":9,"name":"Uncletopia | Atlanta | 1 | All Maps","name_short":"atl-1","host":"atl-1.us.uncletopia.com","port":27015,"enabled":true,"region":"us-east","cc":"us","latitude":33.753746,"longitude":-84.38633,"reserved":0,"last_update":"0001-01-01T00:00:00Z","name_a2s":"Uncletopia | Atlanta | 1 | All Maps","protocol":17,"map":"pl_snowycoast","folder":"tf","game":"Team Fortress","app_id":440,"player_count":1,"max_players":24,"Bots":0,"server_type":"Dedicated","server_os":"Linux","password":true,"vac":true,"version":"7961495","steam_id":85568392924469982,"keywords":["nocrits","nodmgspread","payload","uncletopia"],"game_id":440,"stv_port":27016,"stv_name":"Uncletopia | Atlanta | 1 | All Maps | STV","players":null},{"server_id":104,"name":"Uncletopia | Atlanta | 2 | All Maps","name_short":"atl-2","host":"atl-1.us.uncletopia.com","port":27025,"enabled":true,"region":"us-east","cc":"us","latitude":33.753746,"longitude":-84.38633,"reserved":0,"last_update":"0001-01-01T00:00:00Z","name_a2s":"Uncletopia | Atlanta | 2 | All Maps","protocol":17,"map":"pl_barnblitz","folder":"tf","game":"Team Fortress","app_id":440,"player_count":24,"max_players":24,"Bots":0,"server_type":"Dedicated","server_os":"Linux","password":true,"vac":true,"version":"7961495","steam_id":85568392924469983,"keywords":["nocrits","nodmgspread","payload","uncletopia"],"game_id":440,"stv_port":27026,"stv_name":"Uncletopia | Atlanta | 2 | All Maps | STV","players":null},{"server_id":400,"name":"Uncletopia | Atlanta | 3 | Stopwatch","name_short":"atl-3","host":"atl-1.us.uncletopia.com","port":27035,"enabled":true,"region":"us-east","cc":"us","latitude":33.753746,"longitude":-84.38633,"reserved":0,"last_update":"0001-01-01T00:00:00Z","name_a2s":"Uncletopia | Atlanta | 3 | Stopwatch","protocol":17,"map":"pl_swiftwater_final1","folder":"tf","game":"Team Fortress","app_id":440,"player_count":0,"max_players":24,"Bots":0,"server_type":"Dedicated","server_os":"Linux","password":true,"vac":true,"version":"7961495","steam_id":85568392924515187,"keywords":["nocrits","nodmgspread","payload","uncletopia"],"game_id":440,"stv_port":27036,"stv_name":"Uncletopia | Atlanta | 3 | Stopwatch | STV","players":null},{"server_id":401,"name":"Uncletopia | Atlanta | 4 | Community","name_short":"atl-4","host":"atl-1.us.uncletopia.com","port":27045,"enabled":true,"region":"us-east","cc":"us","latitude":33.753746,"longitude":-84.38633,"reserved":0,"last_update":"0001-01-01T00:00:00Z","name_a2s":"Uncletopia | Atlanta | 4 | Community","protocol":17,"map":"cp_villa_b19","folder":"tf","game":"Team Fortress","app_id":440,"player_count":0,"max_players":24,"Bots":0,"server_type":"Dedicated","server_os":"Linux","password":true,"vac":true,"version":"7961495","steam_id":85568392924515188,"keywords":["cp","nocrits","nodmgspread","uncletopia"],"game_id":440,"stv_port":27046,"stv_name":"Uncletopia | Atlanta | 4 | Community | STV","players":null},{"server_id":2,"name":"Uncletopia | Chicago | 1 | All Maps","name_short":"chi-1","host":"chi-1.us.uncletopia.com","port":27015,"enabled":true,"region":"us-central","cc":"us","latitude":41.881832,"longitude":-87.62318,"reserved":0,"last_update":"0001-01-01T00:00:00Z","name_a2s":"Uncletopia | Chicago | 1 | All Maps","protocol":17,"map":"pl_swiftwater_final1","folder":"tf","game":"Team Fortress","app_id":440,"player_count":24,"max_players":24,"Bots":0,"server_type":"Dedicated","server_os":"Linux","password":true,"vac":true,"version":"7961495","steam_id":85568392924469984,"keywords":["nocrits","nodmgspread","payload","uncletopia"],"game_id":440,"stv_port":27016,"stv_name":"Uncletopia | Chicago | 1 | All Maps | STV","players":[{"user_id":133,"name":"RectalExam","steam_id":76561197970502312,"connected_time":1895000000000,"state":"active","ping":89},{"user_id":150,"name":"Roz257","steam_id":76561198842844532,"connected_time":746000000000,"state":"active","ping":56},{"user_id":98,"name":"Fraglin","steam_id":76561198124964000,"connected_time":4691000000000,"state":"active","ping":85},{"user_id":135,"name":"garette™","steam_id":76561198330911140,"connected_time":1724000000000,"state":"active","ping":83},{"user_id":121,"name":"krueger","steam_id":76561198268654031,"connected_time":3293000000000,"state":"active","ping":48},{"user_id":36,"name":"Herb","steam_id":76561198330311949,"connected_time":9682000000000,"state":"active","ping":64},{"user_id":139,"name":"TrickyTriumph","steam_id":76561197995681057,"connected_time":1443000000000,"state":"active","ping":146},{"user_id":123,"name":"Spy Gaming","steam_id":76561198453295613,"connected_time":3148000000000,"state":"active","ping":115},{"user_id":141,"name":"lexi","steam_id":76561198176299759,"connected_time":1300000000000,"state":"active","ping":95},{"user_id":67,"name":"Toxapex","steam_id":76561198341537452,"connected_time":6765000000000,"state":"active","ping":70},{"user_id":155,"name":"PEE ASS","steam_id":76561198063022178,"connected_time":300000000000,"state":"active","ping":69},{"user_id":125,"name":"Marl1n","steam_id":76561198994492507,"connected_time":2704000000000,"state":"active","ping":69},{"user_id":129,"name":"jayzak24","steam_id":76561198354267509,"connected_time":2461000000000,"state":"active","ping":88},{"user_id":153,"name":"♥Bunny♥Slut♥","steam_id":76561198206376851,"connected_time":487000000000,"state":"active","ping":91},{"user_id":146,"name":"Andrew","steam_id":76561198070615190,"connected_time":1170000000000,"state":"active","ping":60},{"user_id":106,"name":"socializedCryptid","steam_id":76561198991665007,"connected_time":4335000000000,"state":"active","ping":58},{"user_id":99,"name":"Tyjutsu","steam_id":76561198079951159,"connected_time":4671000000000,"state":"active","ping":81},{"user_id":112,"name":"Mi cara","steam_id":76561198190771759,"connected_time":4176000000000,"state":"active","ping":96},{"user_id":144,"name":"Training Arc","steam_id":76561198038832034,"connected_time":1199000000000,"state":"active","ping":104},{"user_id":132,"name":"Carson","steam_id":76561198076771071,"connected_time":1961000000000,"state":"active","ping":49},{"user_id":130,"name":"The Notorious RBG","steam_id":76561198014275148,"connected_time":2370000000000,"state":"active","ping":86},{"user_id":145,"name":"skunch","steam_id":76561198069771288,"connected_time":1188000000000,"state":"active","ping":68},{"user_id":151,"name":"Sparse","steam_id":76561198865084441,"connected_time":670000000000,"state":"active","ping":73},{"user_id":149,"name":"Aerobro","steam_id":76561198033530996,"connected_time":1139000000000,"state":"active","ping":92}]},{"server_id":106,"name":"Uncletopia | Chicago | 2 | All Maps","name_short":"chi-2","host":"chi-1.us.uncletopia.com","port":27025,"enabled":true,"region":"us-central","cc":"us","latitude":41.881832,"longitude":-87.62318,"reserved":0,"last_update":"0001-01-01T00:00:00Z","name_a2s":"Uncletopia | Chicago | 2 | All Maps","protocol":17,"map":"pl_pier","folder":"tf","game":"Team Fortress","app_id":440,"player_count":22,"max_players":24,"Bots":0,"server_type":"Dedicated","server_os":"Linux","password":true,"vac":true,"version":"7961495","steam_id":85568392924469985,"keywords":["nocrits","nodmgspread","payload","uncletopia"],"game_id":440,"stv_port":27026,"stv_name":"Uncletopia | Chicago | 2 | All Maps | STV","players":[{"user_id":85,"name":"Fishe","steam_id":76561199077089218,"connected_time":1838000000000,"state":"active","ping":62},{"user_id":102,"name":"ImpartingBore19","steam_id":76561198833796861,"connected_time":504000000000,"state":"active","ping":95},{"user_id":8,"name":"Shaunt","steam_id":76561198171551057,"connected_time":8703000000000,"state":"active","ping":50},{"user_id":100,"name":"stungoperation","steam_id":76561199162409918,"connected_time":544000000000,"state":"active","ping":74},{"user_id":101,"name":"Rocky","steam_id":76561198048158539,"connected_time":534000000000,"state":"active","ping":62},{"user_id":84,"name":"ThePatheticMedic","steam_id":76561198873083105,"connected_time":1850000000000,"state":"active","ping":58},{"user_id":103,"name":"Stupid Monkey =3","steam_id":76561198024580166,"connected_time":504000000000,"state":"active","ping":98},{"user_id":39,"name":"gale","steam_id":76561198250068972,"connected_time":6974000000000,"state":"active","ping":92},{"user_id":91,"name":"Petrivus","steam_id":76561198202152453,"connected_time":1550000000000,"state":"active","ping":100},{"user_id":36,"name":"Luca!","steam_id":76561198137880777,"connected_time":7102000000000,"state":"active","ping":86},{"user_id":99,"name":"orbisg","steam_id":76561198004133638,"connected_time":583000000000,"state":"active","ping":102},{"user_id":104,"name":"grape","steam_id":76561197993980328,"connected_time":498000000000,"state":"active","ping":118},{"user_id":64,"name":"cozy","steam_id":76561199044037628,"connected_time":4311000000000,"state":"active","ping":88},{"user_id":86,"name":"Al Cabone","steam_id":76561198956823243,"connected_time":1812000000000,"state":"active","ping":60},{"user_id":105,"name":"Vanilla :3","steam_id":76561199106847859,"connected_time":474000000000,"state":"active","ping":65},{"user_id":96,"name":"crabapples","steam_id":76561198075818655,"connected_time":1093000000000,"state":"active","ping":60},{"user_id":107,"name":"Smokey Ian","steam_id":76561199128786637,"connected_time":467000000000,"state":"active","ping":96},{"user_id":45,"name":"Mr. Tickle","steam_id":76561198126684647,"connected_time":6615000000000,"state":"active","ping":59},{"user_id":97,"name":"ReDiculous22","steam_id":76561198038391383,"connected_time":1088000000000,"state":"active","ping":66},{"user_id":90,"name":"Confused Pigeon","steam_id":76561198004737616,"connected_time":1610000000000,"state":"active","ping":76},{"user_id":108,"name":"Daubee","steam_id":76561198004385130,"connected_time":409000000000,"state":"active","ping":65},{"user_id":62,"name":"Sahalanthro","steam_id":76561199073298722,"connected_time":4530000000000,"state":"active","ping":81}]},{"server_id":402,"name":"Uncletopia | Chicago | 3 | All Maps","name_short":"chi-3","host":"chi-1.us.uncletopia.com","port":27035,"enabled":true,"region":"us-central","cc":"us","latitude":41.881832,"longitude":-87.62318,"reserved":0,"last_update":"0001-01-01T00:00:00Z","name_a2s":"Uncletopia | Chicago | 3 | All Maps","protocol":17,"map":"pl_pier","folder":"tf","game":"Team Fortress","app_id":440,"player_count":24,"max_players":24,"Bots":0,"server_type":"Dedicated","server_os":"Linux","password":true,"vac":true,"version":"7961495","steam_id":85568392924515191,"keywords":["nocrits","nodmgspread","payload","uncletopia"],"game_id":440,"stv_port":27036,"stv_name":"Uncletopia | Chicago | 3 | All Maps | STV","players":[{"user_id":353,"name":"Heinrich","steam_id":76561198063897745,"connected_time":3201000000000,"state":"active","ping":165},{"user_id":219,"name":"Xynnan","steam_id":76561198122232186,"connected_time":9170000000000,"state":"active","ping":75},{"user_id":373,"name":"Mikael_01","steam_id":76561199080253129,"connected_time":409000000000,"state":"active","ping":184},{"user_id":7,"name":"CreateADebate","steam_id":76561198115760035,"connected_time":18239000000000,"state":"active","ping":62},{"user_id":343,"name":"Ballsack Shaver","steam_id":76561199011739378,"connected_time":4781000000000,"state":"active","ping":72},{"user_id":381,"name":"Malinok","steam_id":76561198025681131,"connected_time":271000000000,"state":"active","ping":88},{"user_id":355,"name":"Jasper™","steam_id":76561198260018463,"connected_time":2412000000000,"state":"active","ping":75},{"user_id":368,"name":"GangstaPuddin","steam_id":76561198045414782,"connected_time":1477000000000,"state":"active","ping":65},{"user_id":356,"name":"pea ttv/peabeanz","steam_id":76561198119551968,"connected_time":2383000000000,"state":"active","ping":76},{"user_id":382,"name":"Comfy!","steam_id":76561198008818346,"connected_time":237000000000,"state":"active","ping":60},{"user_id":352,"name":"igotmail","steam_id":76561198070631899,"connected_time":3416000000000,"state":"active","ping":67},{"user_id":344,"name":"***FoRgIvEn ***","steam_id":76561199216222247,"connected_time":4774000000000,"state":"active","ping":97},{"user_id":374,"name":"jan kili","steam_id":76561198289894834,"connected_time":408000000000,"state":"active","ping":69},{"user_id":370,"name":"canakblasteran","steam_id":76561199472518822,"connected_time":1373000000000,"state":"active","ping":104},{"user_id":363,"name":"captain red","steam_id":76561198191587983,"connected_time":1624000000000,"state":"active","ping":75},{"user_id":378,"name":"Kremit the Frog","steam_id":76561198075985995,"connected_time":362000000000,"state":"active","ping":73},{"user_id":332,"name":"irritable vowel syndrome","steam_id":76561198117033273,"connected_time":5701000000000,"state":"active","ping":149},{"user_id":383,"name":"Female Gamer","steam_id":76561199366482682,"connected_time":192000000000,"state":"active","ping":134},{"user_id":371,"name":"☆matt hardy☆","steam_id":76561198994032319,"connected_time":456000000000,"state":"active","ping":65},{"user_id":376,"name":"BurgerPizza","steam_id":76561198151256410,"connected_time":395000000000,"state":"active","ping":140},{"user_id":384,"name":"leaving lunar orbit","steam_id":76561199085974120,"connected_time":138000000000,"state":"active","ping":75},{"user_id":380,"name":"MarauderOP","steam_id":76561199087316861,"connected_time":297000000000,"state":"active","ping":66},{"user_id":379,"name":"Astrocards","steam_id":76561199184079830,"connected_time":362000000000,"state":"active","ping":69},{"user_id":342,"name":"ATL1 | to4st","steam_id":76561198981009008,"connected_time":5208000000000,"state":"active","ping":45}]},{"server_id":403,"name":"Uncletopia | Chicago | 4 | All Maps","name_short":"chi-4","host":"chi-1.us.uncletopia.com","port":27045,"enabled":true,"region":"us-central","cc":"us","latitude":41.881832,"longitude":-87.62318,"reserved":0,"last_update":"0001-01-01T00:00:00Z","name_a2s":"Uncletopia | Chicago | 4 | All Maps","protocol":17,"map":"cp_dustbowl","folder":"tf","game":"Team Fortress","app_id":440,"player_count":21,"max_players":24,"Bots":0,"server_type":"Dedicated","server_os":"Linux","password":true,"vac":true,"version":"7961495","steam_id":85568392924515193,"keywords":["cp","nocrits","nodmgspread","uncletopia"],"game_id":440,"stv_port":27046,"stv_name":"Uncletopia | Chicago | 4 | All Maps | STV","players":[{"user_id":154,"name":"WesyUWU (The mini crit pig)","steam_id":76561198069188177,"connected_time":10000000000,"state":"spawning","ping":67},{"user_id":132,"name":"mega knight","steam_id":76561199176211866,"connected_time":796000000000,"state":"active","ping":85},{"user_id":150,"name":"Mattkimmio","steam_id":76561198800010010,"connected_time":73000000000,"state":"active","ping":107},{"user_id":146,"name":"Peepster","steam_id":76561198297854733,"connected_time":171000000000,"state":"active","ping":70},{"user_id":126,"name":"Xizer 泽","steam_id":76561199074917742,"connected_time":1327000000000,"state":"active","ping":45},{"user_id":129,"name":"::INVEST IN SKYNET::","steam_id":76561198144436132,"connected_time":1119000000000,"state":"active","ping":73},{"user_id":122,"name":"onionman0106","steam_id":76561199067766868,"connected_time":1526000000000,"state":"active","ping":107},{"user_id":130,"name":"Natsuki the Scunt","steam_id":76561199175922684,"connected_time":1041000000000,"state":"active","ping":89},{"user_id":145,"name":"kejcao","steam_id":76561199480063869,"connected_time":175000000000,"state":"active","ping":80},{"user_id":151,"name":"clmatt6","steam_id":76561198027812938,"connected_time":38000000000,"state":"active","ping":73},{"user_id":139,"name":"abom","steam_id":76561198167974713,"connected_time":329000000000,"state":"active","ping":72},{"user_id":115,"name":"Brian Family","steam_id":76561199129969202,"connected_time":1713000000000,"state":"active","ping":83},{"user_id":143,"name":"BurnN8or101","steam_id":76561198132668224,"connected_time":207000000000,"state":"active","ping":52},{"user_id":147,"name":"Rustyorion","steam_id":76561198439186347,"connected_time":152000000000,"state":"active","ping":94},{"user_id":148,"name":"Thelonious Prime, King of Jazz","steam_id":76561198077785482,"connected_time":145000000000,"state":"active","ping":65},{"user_id":149,"name":"BurpBoy","steam_id":76561199447378848,"connected_time":139000000000,"state":"active","ping":63},{"user_id":135,"name":"ExplosiveGoose","steam_id":76561197971562966,"connected_time":781000000000,"state":"active","ping":87},{"user_id":152,"name":"Kyle","steam_id":76561198053855881,"connected_time":37000000000,"state":"spawning","ping":72},{"user_id":97,"name":"Bussy Bandit","steam_id":76561198034028769,"connected_time":3703000000000,"state":"active","ping":55},{"user_id":141,"name":"Rabid Ham","steam_id":76561198154931014,"connected_time":228000000000,"state":"active","ping":96},{"user_id":153,"name":"medi","steam_id":76561198202720770,"connected_time":30000000000,"state":"spawning","ping":68}]},{"server_id":36,"name":"Uncletopia | Chicago | 5 | All Maps","name_short":"chi-5","host":"chi-2.us.uncletopia.com","port":27015,"enabled":true,"region":"us-central","cc":"us","latitude":41.881832,"longitude":-87.62318,"reserved":0,"last_update":"0001-01-01T00:00:00Z","name_a2s":"Uncletopia | Chicago | 5 | All Maps","protocol":17,"map":"koth_viaduct","folder":"tf","game":"Team Fortress","app_id":440,"player_count":0,"max_players":24,"Bots":0,"server_type":"Dedicated","server_os":"Linux","password":true,"vac":true,"version":"7961495","steam_id":85568392924866362,"keywords":["cp","nocrits","nodmgspread","uncletopia"],"game_id":440,"stv_port":27016,"stv_name":"Uncletopia | Chicago | 5 | All Maps | STV","players":null},{"server_id":37,"name":"Uncletopia | Chicago | 6 | All Maps","name_short":"chi-6","host":"chi-2.us.uncletopia.com","port":27025,"enabled":true,"region":"us-central","cc":"us","latitude":41.881832,"longitude":-87.62318,"reserved":0,"last_update":"0001-01-01T00:00:00Z","name_a2s":"Uncletopia | Chicago | 6 | All Maps","protocol":17,"map":"pl_badwater","folder":"tf","game":"Team Fortress","app_id":440,"player_count":24,"max_players":24,"Bots":0,"server_type":"Dedicated","server_os":"Linux","password":true,"vac":true,"version":"7961495","steam_id":85568392924866363,"keywords":["nocrits","nodmgspread","payload","uncletopia"],"game_id":440,"stv_port":27026,"stv_name":"Uncletopia | Chicago | 6 | All Maps | STV","players":[{"user_id":238,"name":"xLeoparrd","steam_id":76561198940657194,"connected_time":1519000000000,"state":"spawning","ping":54},{"user_id":251,"name":"FiddyFoMike","steam_id":76561198057072581,"connected_time":601000000000,"state":"active","ping":165},{"user_id":241,"name":"teegs","steam_id":76561198067905221,"connected_time":1086000000000,"state":"active","ping":209},{"user_id":214,"name":"Soul Garg Plushy","steam_id":76561198044480181,"connected_time":2737000000000,"state":"active","ping":288},{"user_id":242,"name":"jose.gonzales.2003","steam_id":76561199217620385,"connected_time":1072000000000,"state":"spawning","ping":69},{"user_id":246,"name":"Orix15","steam_id":76561198214644492,"connected_time":863000000000,"state":"spawning","ping":82},{"user_id":196,"name":"Bagadi","steam_id":76561198150241624,"connected_time":3834000000000,"state":"spawning","ping":60},{"user_id":243,"name":"illness","steam_id":76561198881651324,"connected_time":1012000000000,"state":"spawning","ping":62},{"user_id":261,"name":"SmokyDank","steam_id":76561198045782886,"connected_time":71000000000,"state":"spawning","ping":299},{"user_id":252,"name":"JD93","steam_id":76561199200666584,"connected_time":565000000000,"state":"spawning","ping":185},{"user_id":244,"name":"Jray","steam_id":76561198831619367,"connected_time":930000000000,"state":"active","ping":260},{"user_id":253,"name":"tlm","steam_id":76561198178457461,"connected_time":429000000000,"state":"spawning","ping":85},{"user_id":247,"name":"Sunflower","steam_id":76561198081223793,"connected_time":836000000000,"state":"spawning","ping":47},{"user_id":248,"name":"dr peppah chug!","steam_id":76561198068835693,"connected_time":765000000000,"state":"active","ping":158},{"user_id":249,"name":"Bio_Optical","steam_id":76561199128084374,"connected_time":727000000000,"state":"spawning","ping":68},{"user_id":250,"name":"The Incredible Fem Boy","steam_id":76561198355754259,"connected_time":718000000000,"state":"spawning","ping":60},{"user_id":254,"name":"TheVikingTheRed","steam_id":76561199221731253,"connected_time":416000000000,"state":"spawning","ping":169},{"user_id":207,"name":"Domswish","steam_id":76561198331444240,"connected_time":3472000000000,"state":"active","ping":117},{"user_id":255,"name":"Duk","steam_id":76561198450692568,"connected_time":351000000000,"state":"active","ping":132},{"user_id":256,"name":"Copland OS","steam_id":76561198041800378,"connected_time":332000000000,"state":"active","ping":133},{"user_id":263,"name":"nat","steam_id":76561198865090309,"connected_time":13000000000,"state":"spawning","ping":55},{"user_id":258,"name":"Lv3 Kobold Shadow Sorcerer","steam_id":76561198042068995,"connected_time":308000000000,"state":"active","ping":81},{"user_id":262,"name":"woohooren","steam_id":76561198101840527,"connected_time":47000000000,"state":"spawning","ping":105},{"user_id":237,"name":"Kartyac","steam_id":76561197991069005,"connected_time":1576000000000,"state":"active","ping":217}]},{"server_id":38,"name":"Uncletopia | Chicago | 7 | Stopwatch","name_short":"chi-7","host":"chi-2.us.uncletopia.com","port":27035,"enabled":true,"region":"us-central","cc":"us","latitude":41.881832,"longitude":-87.62318,"reserved":0,"last_update":"0001-01-01T00:00:00Z","name_a2s":"Uncletopia | Chicago | 7 | Stopwatch","protocol":17,"map":"pl_badwater","folder":"tf","game":"Team Fortress","app_id":440,"player_count":0,"max_players":24,"Bots":0,"server_type":"Dedicated","server_os":"Linux","password":true,"vac":true,"version":"7961495","steam_id":85568392924866364,"keywords":["nocrits","nodmgspread","payload","uncletopia"],"game_id":440,"stv_port":27036,"stv_name":"Uncletopia | Chicago | 7 | Stopwatch | STV","players":null},{"server_id":39,"name":"Uncletopia | Chicago | 8 | Community","name_short":"chi-8","host":"chi-2.us.uncletopia.com","port":27045,"enabled":true,"region":"us-central","cc":"us","latitude":41.881832,"longitude":-87.62318,"reserved":0,"last_update":"0001-01-01T00:00:00Z","name_a2s":"Uncletopia | Chicago | 8 | Community","protocol":17,"map":"workshop/pl_barnblitz_pro7.ugc582280235","folder":"tf","game":"Team Fortress","app_id":440,"player_count":0,"max_players":24,"Bots":0,"server_type":"Dedicated","server_os":"Linux","password":true,"vac":true,"version":"7961495","steam_id":85568392924866365,"keywords":["nocrits","nodmgspread","payload","uncletopia"],"game_id":440,"stv_port":27046,"stv_name":"Uncletopia | Chicago | 8 | Community | STV","players":null},{"server_id":8,"name":"Uncletopia | Dallas | 1 | All Maps","name_short":"dal-1","host":"dal-1.us.uncletopia.com","port":27015,"enabled":true,"region":"us-central","cc":"us","latitude":32.779167,"longitude":-96.80889,"reserved":0,"last_update":"0001-01-01T00:00:00Z","name_a2s":"Uncletopia | Dallas | 1 | All Maps","protocol":17,"map":"cp_powerhouse","folder":"tf","game":"Team Fortress","app_id":440,"player_count":24,"max_players":24,"Bots":0,"server_type":"Dedicated","server_os":"Linux","password":true,"vac":true,"version":"7961495","steam_id":85568392924469986,"keywords":["cp","nocrits","nodmgspread","uncletopia"],"game_id":440,"stv_port":27016,"stv_name":"Uncletopia | Dallas | 1 | All Maps | STV","players":[{"user_id":237,"name":"Dum_Bass(Fish)","steam_id":76561197988105207,"connected_time":4554000000000,"state":"active","ping":85},{"user_id":272,"name":"DrMisteryous2","steam_id":76561198336307012,"connected_time":1129000000000,"state":"active","ping":182},{"user_id":279,"name":"KaosInfinite","steam_id":76561198009126350,"connected_time":716000000000,"state":"active","ping":76},{"user_id":256,"name":"Defragmented","steam_id":76561198854210081,"connected_time":2668000000000,"state":"active","ping":68},{"user_id":257,"name":"cinnamon","steam_id":76561198142109937,"connected_time":2668000000000,"state":"active","ping":65},{"user_id":215,"name":"PiolaCat","steam_id":76561199100535345,"connected_time":5363000000000,"state":"active","ping":103},{"user_id":262,"name":"Macro","steam_id":76561199442846226,"connected_time":2147000000000,"state":"active","ping":83},{"user_id":260,"name":"green bean","steam_id":76561198113099204,"connected_time":2197000000000,"state":"active","ping":71},{"user_id":242,"name":"Smug","steam_id":76561198448205229,"connected_time":3998000000000,"state":"active","ping":82},{"user_id":250,"name":"mentos14","steam_id":76561198097993629,"connected_time":3427000000000,"state":"active","ping":83},{"user_id":268,"name":"Big Floppa","steam_id":76561199152552589,"connected_time":1612000000000,"state":"active","ping":108},{"user_id":245,"name":"czarchasm","steam_id":76561198055712749,"connected_time":3973000000000,"state":"active","ping":52},{"user_id":277,"name":"pastry","steam_id":76561198038999341,"connected_time":758000000000,"state":"active","ping":77},{"user_id":278,"name":"Major Woody","steam_id":76561198835541533,"connected_time":747000000000,"state":"active","ping":85},{"user_id":280,"name":"lynt","steam_id":76561198988333976,"connected_time":216000000000,"state":"active","ping":63},{"user_id":264,"name":"Ryzema","steam_id":76561198165594229,"connected_time":1993000000000,"state":"active","ping":92},{"user_id":191,"name":"Phos","steam_id":76561198122339506,"connected_time":7388000000000,"state":"active","ping":70},{"user_id":269,"name":"albert jones","steam_id":76561198404271005,"connected_time":1584000000000,"state":"active","ping":71},{"user_id":216,"name":"just jazz","steam_id":76561198010637797,"connected_time":5318000000000,"state":"active","ping":71},{"user_id":271,"name":"Motreir","steam_id":76561198151717946,"connected_time":1332000000000,"state":"active","ping":85},{"user_id":267,"name":"eat salad","steam_id":76561198960183175,"connected_time":1680000000000,"state":"active","ping":75},{"user_id":261,"name":"evilOlive","steam_id":76561198106222025,"connected_time":2190000000000,"state":"active","ping":69},{"user_id":276,"name":"A Straw","steam_id":76561199367935846,"connected_time":792000000000,"state":"active","ping":78},{"user_id":241,"name":"Gelliterate","steam_id":76561198107233070,"connected_time":4013000000000,"state":"active","ping":59}]},{"server_id":108,"name":"Uncletopia | Dallas | 2 | All Maps","name_short":"dal-2","host":"dal-1.us.uncletopia.com","port":27025,"enabled":true,"region":"us-central","cc":"us","latitude":32.779167,"longitude":-96.80889,"reserved":0,"last_update":"0001-01-01T00:00:00Z","name_a2s":"Uncletopia | Dallas | 2 | All Maps","protocol":17,"map":"pl_swiftwater_final1","folder":"tf","game":"Team Fortress","app_id":440,"player_count":18,"max_players":24,"Bots":0,"server_type":"Dedicated","server_os":"Linux","password":true,"vac":true,"version":"7961495","steam_id":85568392924469988,"keywords":["nocrits","nodmgspread","payload","uncletopia"],"game_id":440,"stv_port":27026,"stv_name":"Uncletopia | Dallas | 2 | All Maps | STV","players":[{"user_id":16,"name":"Noobsy_08","steam_id":76561199487065564,"connected_time":2995000000000,"state":"active","ping":57},{"user_id":29,"name":"Captain Bong Rips","steam_id":76561198065946939,"connected_time":1430000000000,"state":"active","ping":100},{"user_id":40,"name":"Fish Mafia","steam_id":76561199021856624,"connected_time":276000000000,"state":"active","ping":71},{"user_id":32,"name":"Dr. W0lv","steam_id":76561198129237487,"connected_time":979000000000,"state":"active","ping":59},{"user_id":20,"name":"BlueWelder","steam_id":76561198102378081,"connected_time":2520000000000,"state":"active","ping":101},{"user_id":39,"name":"Bitter","steam_id":76561198146532457,"connected_time":352000000000,"state":"active","ping":98},{"user_id":36,"name":"BlueSpy","steam_id":76561198134707089,"connected_time":527000000000,"state":"active","ping":88},{"user_id":27,"name":"andyiscolorless","steam_id":76561199239870921,"connected_time":1670000000000,"state":"active","ping":135},{"user_id":37,"name":"vifi269","steam_id":76561198283749166,"connected_time":473000000000,"state":"active","ping":45},{"user_id":53,"name":"MAXIMUM SENSITIVITY SNIPER","steam_id":76561198013560671,"connected_time":34000000000,"state":"active","ping":87},{"user_id":41,"name":"Bombat","steam_id":76561198083096946,"connected_time":238000000000,"state":"active","ping":95},{"user_id":47,"name":"artichoke","steam_id":76561198980994364,"connected_time":150000000000,"state":"active","ping":131},{"user_id":43,"name":"Poor Drunk Scot","steam_id":76561199465805056,"connected_time":230000000000,"state":"active","ping":99},{"user_id":44,"name":"That one gamer boy","steam_id":76561199166485004,"connected_time":228000000000,"state":"active","ping":67},{"user_id":48,"name":"turkeysarefriendsz","steam_id":76561199074521322,"connected_time":148000000000,"state":"active","ping":95},{"user_id":46,"name":"head in the ceiling fan","steam_id":76561198420237035,"connected_time":178000000000,"state":"active","ping":92},{"user_id":52,"name":"Idk","steam_id":76561198971629959,"connected_time":85000000000,"state":"active","ping":128},{"user_id":50,"name":"TurboRaspberry","steam_id":76561199215360629,"connected_time":128000000000,"state":"active","ping":87}]},{"server_id":404,"name":"Uncletopia | Dallas | 3 | All Maps","name_short":"dal-3","host":"dal-1.us.uncletopia.com","port":27035,"enabled":true,"region":"us-central","cc":"us","latitude":32.779167,"longitude":-96.80889,"reserved":0,"last_update":"0001-01-01T00:00:00Z","name_a2s":"Uncletopia | Dallas | 3 | All Maps","protocol":17,"map":"pl_swiftwater_final1","folder":"tf","game":"Team Fortress","app_id":440,"player_count":0,"max_players":24,"Bots":0,"server_type":"Dedicated","server_os":"Linux","password":true,"vac":true,"version":"7961495","steam_id":85568392924515219,"keywords":["nocrits","nodmgspread","payload","uncletopia"],"game_id":440,"stv_port":27036,"stv_name":"Uncletopia | Dallas | 3 | All Maps | STV","players":null},{"server_id":405,"name":"Uncletopia | Dallas | 4 | Community","name_short":"dal-4","host":"dal-1.us.uncletopia.com","port":27045,"enabled":true,"region":"us-central","cc":"us","latitude":32.779167,"longitude":-96.80889,"reserved":0,"last_update":"0001-01-01T00:00:00Z","name_a2s":"Uncletopia | Dallas | 4 | Community","protocol":17,"map":"pl_pier","folder":"tf","game":"Team Fortress","app_id":440,"player_count":0,"max_players":24,"Bots":0,"server_type":"Dedicated","server_os":"Linux","password":true,"vac":true,"version":"7961495","steam_id":85568392924515220,"keywords":["nocrits","nodmgspread","payload","uncletopia"],"game_id":440,"stv_port":27046,"stv_name":"Uncletopia | Dallas | 4 | Community | STV","players":null},{"server_id":5,"name":"Uncletopia | Frankfurt | 1 | All Maps","name_short":"frk-1","host":"frk-1.de.uncletopia.com","port":27015,"enabled":true,"region":"eu","cc":"de","latitude":50.110924,"longitude":8.682127,"reserved":0,"last_update":"0001-01-01T00:00:00Z","name_a2s":"Uncletopia | Frankfurt | 1 | All Maps","protocol":17,"map":"pl_snowycoast","folder":"tf","game":"Team Fortress","app_id":440,"player_count":24,"max_players":24,"Bots":0,"server_type":"Dedicated","server_os":"Linux","password":true,"vac":true,"version":"7961495","steam_id":85568392924469989,"keywords":["nocrits","nodmgspread","payload","uncletopia"],"game_id":440,"stv_port":27016,"stv_name":"Uncletopia | Frankfurt | 1 | All Maps | STV","players":[{"user_id":229,"name":"ra","steam_id":76561198239927434,"connected_time":3651000000000,"state":"active","ping":92},{"user_id":269,"name":"Sirzen","steam_id":76561198170155434,"connected_time":377000000000,"state":"active","ping":57},{"user_id":183,"name":"Zu","steam_id":76561198054192354,"connected_time":6674000000000,"state":"active","ping":49},{"user_id":256,"name":"Epicdude51","steam_id":76561199496325985,"connected_time":1828000000000,"state":"active","ping":78},{"user_id":254,"name":"Dommy","steam_id":76561197990864747,"connected_time":2009000000000,"state":"active","ping":57},{"user_id":270,"name":"dex","steam_id":76561197972438196,"connected_time":369000000000,"state":"active","ping":59},{"user_id":265,"name":"triplePunk","steam_id":76561198119449463,"connected_time":965000000000,"state":"active","ping":75},{"user_id":283,"name":"ANGELFISH","steam_id":76561198027536466,"connected_time":38000000000,"state":"active","ping":89},{"user_id":233,"name":"corralled","steam_id":76561198028648627,"connected_time":3298000000000,"state":"active","ping":71},{"user_id":275,"name":"Rimx","steam_id":76561198053034840,"connected_time":284000000000,"state":"active","ping":90},{"user_id":278,"name":"Average meme enjoyer","steam_id":76561199087566663,"connected_time":197000000000,"state":"active","ping":89},{"user_id":252,"name":"Testicular torsion","steam_id":76561198119547399,"connected_time":2073000000000,"state":"active","ping":67},{"user_id":284,"name":"Mozzaza","steam_id":76561198156316111,"connected_time":20000000000,"state":"active","ping":124},{"user_id":260,"name":"Oceanic | tuesday maybe","steam_id":76561197979741827,"connected_time":1483000000000,"state":"active","ping":72},{"user_id":268,"name":"His Femboy","steam_id":76561198071111501,"connected_time":400000000000,"state":"active","ping":62},{"user_id":249,"name":"Naty","steam_id":76561198083488307,"connected_time":2233000000000,"state":"active","ping":76},{"user_id":251,"name":"Nozzo","steam_id":76561198012367783,"connected_time":2138000000000,"state":"active","ping":77},{"user_id":273,"name":"noob_gaming","steam_id":76561199217275620,"connected_time":348000000000,"state":"active","ping":147},{"user_id":257,"name":"Penis Contortionist","steam_id":76561198073663784,"connected_time":1741000000000,"state":"active","ping":64},{"user_id":255,"name":"Mini","steam_id":76561197968634073,"connected_time":1944000000000,"state":"active","ping":108},{"user_id":276,"name":"Nico","steam_id":76561198215956311,"connected_time":282000000000,"state":"active","ping":77},{"user_id":277,"name":"Toasty5050","steam_id":76561198073540881,"connected_time":278000000000,"state":"active","ping":48},{"user_id":285,"name":"WolfmanCZ","steam_id":76561199157141414,"connected_time":11000000000,"state":"spawning","ping":59},{"user_id":267,"name":"Splattted","steam_id":76561199327476294,"connected_time":493000000000,"state":"active","ping":80}]},{"server_id":110,"name":"Uncletopia | Frankfurt | 2 | All Maps","name_short":"frk-2","host":"frk-1.de.uncletopia.com","port":27025,"enabled":true,"region":"eu","cc":"de","latitude":50.110924,"longitude":8.682127,"reserved":0,"last_update":"0001-01-01T00:00:00Z","name_a2s":"Uncletopia | Frankfurt | 2 | All Maps","protocol":17,"map":"cp_altitude","folder":"tf","game":"Team Fortress","app_id":440,"player_count":0,"max_players":24,"Bots":0,"server_type":"Dedicated","server_os":"Linux","password":true,"vac":true,"version":"7961495","steam_id":85568392924469990,"keywords":["cp","nocrits","nodmgspread","uncletopia"],"game_id":440,"stv_port":27026,"stv_name":"Uncletopia | Frankfurt | 2 | All Maps | STV","players":null},{"server_id":308,"name":"Uncletopia | Frankfurt | 3 | All Maps","name_short":"frk-3","host":"frk-1.de.uncletopia.com","port":27035,"enabled":true,"region":"eu","cc":"de","latitude":50.110924,"longitude":8.682127,"reserved":0,"last_update":"0001-01-01T00:00:00Z","name_a2s":"Uncletopia | Frankfurt | 3 | All Maps","protocol":17,"map":"pl_swiftwater_final1","folder":"tf","game":"Team Fortress","app_id":440,"player_count":21,"max_players":24,"Bots":0,"server_type":"Dedicated","server_os":"Linux","password":true,"vac":true,"version":"7961495","steam_id":85568392924504274,"keywords":["nocrits","nodmgspread","payload","uncletopia"],"game_id":440,"stv_port":27036,"stv_name":"Uncletopia | Frankfurt | 3 | All Maps | STV","players":[{"user_id":284,"name":"Even Rüüd","steam_id":76561197981144291,"connected_time":3734000000000,"state":"spawning","ping":78},{"user_id":294,"name":"i die i do 1 push up:)","steam_id":76561199124072329,"connected_time":2971000000000,"state":"spawning","ping":60},{"user_id":297,"name":"anabol1c steroids","steam_id":76561199470147761,"connected_time":2899000000000,"state":"spawning","ping":116},{"user_id":282,"name":"Habimbi","steam_id":76561198047271252,"connected_time":3922000000000,"state":"spawning","ping":81},{"user_id":320,"name":"hipster_doofus","steam_id":76561197970902697,"connected_time":2389000000000,"state":"spawning","ping":60},{"user_id":339,"name":"Lukas","steam_id":76561198454286820,"connected_time":32000000000,"state":"spawning","ping":77},{"user_id":335,"name":"Homosapien","steam_id":76561197972035953,"connected_time":665000000000,"state":"spawning","ping":47},{"user_id":341,"name":"MR BUBBLES","steam_id":76561198019005259,"connected_time":16000000000,"state":"spawning","ping":83},{"user_id":306,"name":"Qwerty","steam_id":76561198023525894,"connected_time":2780000000000,"state":"spawning","ping":74},{"user_id":321,"name":"Genesis","steam_id":76561198999652040,"connected_time":2373000000000,"state":"spawning","ping":48},{"user_id":317,"name":"fortnite und cola","steam_id":76561198170609049,"connected_time":2480000000000,"state":"spawning","ping":49},{"user_id":300,"name":"ProZed_","steam_id":76561199099349636,"connected_time":2870000000000,"state":"spawning","ping":67},{"user_id":268,"name":"2008 Toyota Corolla","steam_id":76561198310160788,"connected_time":5518000000000,"state":"spawning","ping":95},{"user_id":299,"name":"Aye Aye","steam_id":76561199012566222,"connected_time":2897000000000,"state":"spawning","ping":59},{"user_id":332,"name":"Sch","steam_id":76561198071341689,"connected_time":1051000000000,"state":"spawning","ping":61},{"user_id":334,"name":"Lefty006","steam_id":76561198802663956,"connected_time":765000000000,"state":"spawning","ping":61},{"user_id":318,"name":"cactus_octoling","steam_id":76561198837919828,"connected_time":2476000000000,"state":"spawning","ping":98},{"user_id":340,"name":"AdeAAa","steam_id":76561198974207724,"connected_time":28000000000,"state":"connecting","ping":102},{"user_id":319,"name":"pizzashit (real)","steam_id":76561198097507847,"connected_time":2457000000000,"state":"spawning","ping":76},{"user_id":325,"name":"miguel","steam_id":76561198147584613,"connected_time":1832000000000,"state":"spawning","ping":112},{"user_id":331,"name":"Pls.do.it!","steam_id":76561198211638119,"connected_time":1072000000000,"state":"spawning","ping":76}]},{"server_id":309,"name":"Uncletopia | Frankfurt | 4 | All Maps","name_short":"frk-4","host":"frk-1.de.uncletopia.com","port":27045,"enabled":true,"region":"eu","cc":"de","latitude":50.110924,"longitude":8.682127,"reserved":0,"last_update":"0001-01-01T00:00:00Z","name_a2s":"Uncletopia | Frankfurt | 4 | All Maps","protocol":17,"map":"pl_badwater","folder":"tf","game":"Team Fortress","app_id":440,"player_count":24,"max_players":24,"Bots":0,"server_type":"Dedicated","server_os":"Linux","password":true,"vac":true,"version":"7961495","steam_id":85568392924504275,"keywords":["nocrits","nodmgspread","payload","uncletopia"],"game_id":440,"stv_port":27046,"stv_name":"Uncletopia | Frankfurt | 4 | All Maps | STV","players":[{"user_id":450,"name":"Mr.Teenie","steam_id":76561198207640319,"connected_time":1164000000000,"state":"active","ping":49},{"user_id":454,"name":"kallerannar","steam_id":76561199095701143,"connected_time":961000000000,"state":"active","ping":97},{"user_id":461,"name":"Przemomalin","steam_id":76561197987528170,"connected_time":480000000000,"state":"active","ping":91},{"user_id":345,"name":"Space","steam_id":76561198021572167,"connected_time":9426000000000,"state":"active","ping":60},{"user_id":456,"name":"Muiu","steam_id":76561198132723577,"connected_time":933000000000,"state":"active","ping":85},{"user_id":459,"name":"[T]aKer","steam_id":76561198001778013,"connected_time":540000000000,"state":"active","ping":53},{"user_id":445,"name":"Charged","steam_id":76561199127215130,"connected_time":1220000000000,"state":"active","ping":90},{"user_id":425,"name":"Pastoss","steam_id":76561198379098260,"connected_time":2314000000000,"state":"active","ping":56},{"user_id":444,"name":"loser`","steam_id":76561198052556555,"connected_time":1231000000000,"state":"active","ping":98},{"user_id":406,"name":"my dad has a herobrine addictio","steam_id":76561198960389377,"connected_time":4308000000000,"state":"active","ping":75},{"user_id":417,"name":"CRWND","steam_id":76561198329810027,"connected_time":3855000000000,"state":"active","ping":49},{"user_id":451,"name":"Ziomek","steam_id":76561199131735098,"connected_time":1138000000000,"state":"active","ping":74},{"user_id":395,"name":"็","steam_id":76561198071226013,"connected_time":4778000000000,"state":"active","ping":89},{"user_id":420,"name":"Lieutenant Lead","steam_id":76561198336867604,"connected_time":3604000000000,"state":"active","ping":49},{"user_id":439,"name":"Vytuzas","steam_id":76561198012868436,"connected_time":1733000000000,"state":"active","ping":78},{"user_id":455,"name":"Filtered Water","steam_id":76561199142022395,"connected_time":961000000000,"state":"active","ping":61},{"user_id":433,"name":"cupcakedealer69402","steam_id":76561199122061900,"connected_time":2039000000000,"state":"active","ping":149},{"user_id":408,"name":"Master Of Noob","steam_id":76561198217926783,"connected_time":4270000000000,"state":"active","ping":69},{"user_id":429,"name":"mixxxa_french","steam_id":76561198085098243,"connected_time":2252000000000,"state":"active","ping":111},{"user_id":452,"name":"TheEventGuy","steam_id":76561197972797744,"connected_time":1131000000000,"state":"active","ping":71},{"user_id":422,"name":"Fraps","steam_id":76561198309828714,"connected_time":2821000000000,"state":"active","ping":55},{"user_id":453,"name":"HUGO","steam_id":76561198317134996,"connected_time":1098000000000,"state":"active","ping":90},{"user_id":431,"name":"pierogi","steam_id":76561198718760200,"connected_time":2219000000000,"state":"active","ping":64},{"user_id":460,"name":"Moebius","steam_id":76561198045069988,"connected_time":512000000000,"state":"active","ping":65}]},{"server_id":310,"name":"Uncletopia | Frankfurt | 5 | All Maps","name_short":"frk-5","host":"frk-1.de.uncletopia.com","port":27055,"enabled":true,"region":"eu","cc":"de","latitude":50.110924,"longitude":8.682127,"reserved":0,"last_update":"0001-01-01T00:00:00Z","name_a2s":"Uncletopia | Frankfurt | 5 | All Maps","protocol":17,"map":"pl_badwater","folder":"tf","game":"Team Fortress","app_id":440,"player_count":23,"max_players":24,"Bots":0,"server_type":"Dedicated","server_os":"Linux","password":true,"vac":true,"version":"7961495","steam_id":85568392924504277,"keywords":["nocrits","nodmgspread","payload","uncletopia"],"game_id":440,"stv_port":27056,"stv_name":"Uncletopia | Frankfurt | 5 | All Maps | STV","players":[{"user_id":458,"name":"Ynss","steam_id":76561198021472798,"connected_time":291000000000,"state":"active","ping":60},{"user_id":381,"name":"jona3838","steam_id":76561199097658195,"connected_time":4971000000000,"state":"active","ping":102},{"user_id":464,"name":"Onion Drugs","steam_id":76561198441194331,"connected_time":70000000000,"state":"active","ping":90},{"user_id":447,"name":"eldaou2009","steam_id":76561198966358094,"connected_time":1323000000000,"state":"active","ping":63},{"user_id":454,"name":"le'pablo","steam_id":76561199009805208,"connected_time":748000000000,"state":"active","ping":101},{"user_id":459,"name":"Bill_nye_epic","steam_id":76561199216249214,"connected_time":244000000000,"state":"active","ping":151},{"user_id":412,"name":"failed poet","steam_id":76561198987041283,"connected_time":3366000000000,"state":"active","ping":79},{"user_id":455,"name":"zefeiio","steam_id":76561198386369051,"connected_time":596000000000,"state":"active","ping":84},{"user_id":441,"name":"zek","steam_id":76561198862763731,"connected_time":1559000000000,"state":"active","ping":58},{"user_id":385,"name":"Marabosha","steam_id":76561198137599173,"connected_time":4887000000000,"state":"active","ping":99},{"user_id":440,"name":"Sneaky","steam_id":76561198069417496,"connected_time":1580000000000,"state":"active","ping":94},{"user_id":453,"name":"chapiiiiis","steam_id":76561198033299138,"connected_time":939000000000,"state":"active","ping":56},{"user_id":448,"name":"ThatAlienBoi","steam_id":76561198357396428,"connected_time":1296000000000,"state":"active","ping":91},{"user_id":451,"name":"Seederat","steam_id":76561198083840835,"connected_time":1235000000000,"state":"active","ping":76},{"user_id":376,"name":"Rambi","steam_id":76561199058078505,"connected_time":5280000000000,"state":"active","ping":174},{"user_id":410,"name":"[オタク] HelFeaR","steam_id":76561198252281266,"connected_time":3425000000000,"state":"active","ping":86},{"user_id":456,"name":"crack cloud$","steam_id":76561198111134021,"connected_time":594000000000,"state":"active","ping":119},{"user_id":460,"name":"The One (and only)","steam_id":76561198827193499,"connected_time":218000000000,"state":"active","ping":69},{"user_id":424,"name":"John Noob","steam_id":76561197999170026,"connected_time":2887000000000,"state":"active","ping":89},{"user_id":377,"name":"supercharger832","steam_id":76561198871408515,"connected_time":5275000000000,"state":"active","ping":59},{"user_id":461,"name":"Çodar","steam_id":76561198235518444,"connected_time":196000000000,"state":"active","ping":47},{"user_id":431,"name":"Ama_r0","steam_id":76561198348377332,"connected_time":2313000000000,"state":"active","ping":99},{"user_id":435,"name":"Sexycube","steam_id":76561198796371690,"connected_time":2184000000000,"state":"active","ping":81}]},{"server_id":311,"name":"Uncletopia | Frankfurt | 6 | All Maps","name_short":"frk-6","host":"frk-1.de.uncletopia.com","port":27065,"enabled":true,"region":"eu","cc":"de","latitude":50.110924,"longitude":8.682127,"reserved":0,"last_update":"0001-01-01T00:00:00Z","name_a2s":"Uncletopia | Frankfurt | 6 | All Maps","protocol":17,"map":"cp_metalworks","folder":"tf","game":"Team Fortress","app_id":440,"player_count":24,"max_players":24,"Bots":0,"server_type":"Dedicated","server_os":"Linux","password":true,"vac":true,"version":"7961495","steam_id":85568392924504278,"keywords":["cp","nocrits","nodmgspread","uncletopia"],"game_id":440,"stv_port":27066,"stv_name":"Uncletopia | Frankfurt | 6 | All Maps | STV","players":[{"user_id":332,"name":"Superiumentarius","steam_id":76561198081642249,"connected_time":6615000000000,"state":"active","ping":45},{"user_id":385,"name":"silicon based life form","steam_id":76561199127121346,"connected_time":1505000000000,"state":"active","ping":61},{"user_id":373,"name":"Umbro","steam_id":76561198087930438,"connected_time":2810000000000,"state":"active","ping":67},{"user_id":331,"name":"XPullaHiiri","steam_id":76561198031652375,"connected_time":6648000000000,"state":"active","ping":86},{"user_id":394,"name":"☞LaZe☜","steam_id":76561198202191400,"connected_time":121000000000,"state":"active","ping":60},{"user_id":340,"name":"mark","steam_id":76561198309246388,"connected_time":6176000000000,"state":"active","ping":55},{"user_id":377,"name":"♂ Animan ♂ Studios ♂","steam_id":76561198308302932,"connected_time":2559000000000,"state":"active","ping":90},{"user_id":350,"name":"froglids","steam_id":76561198045466919,"connected_time":5773000000000,"state":"active","ping":61},{"user_id":353,"name":"cotroD","steam_id":76561198130063938,"connected_time":5276000000000,"state":"active","ping":151},{"user_id":378,"name":"Deckard","steam_id":76561198004704647,"connected_time":2546000000000,"state":"active","ping":78},{"user_id":328,"name":"Nittugai","steam_id":76561198067366462,"connected_time":6838000000000,"state":"active","ping":60},{"user_id":354,"name":"dank pank","steam_id":76561198995052713,"connected_time":4723000000000,"state":"active","ping":57},{"user_id":391,"name":"zeen","steam_id":76561198141020179,"connected_time":779000000000,"state":"active","ping":60},{"user_id":386,"name":"Z-MEDIC78","steam_id":76561198364913231,"connected_time":1450000000000,"state":"active","ping":58},{"user_id":352,"name":"Udinese Dion","steam_id":76561198067931573,"connected_time":5561000000000,"state":"active","ping":50},{"user_id":395,"name":"berahne khosh hal","steam_id":76561198327135462,"connected_time":3000000000,"state":"spawning","ping":144},{"user_id":372,"name":"Raymus","steam_id":76561198021330407,"connected_time":3017000000000,"state":"active","ping":48},{"user_id":383,"name":"Egor Pomidor","steam_id":76561199175688390,"connected_time":1561000000000,"state":"active","ping":76},{"user_id":320,"name":"TheHacker-","steam_id":76561198091867843,"connected_time":7778000000000,"state":"active","ping":140},{"user_id":346,"name":"Hamedius","steam_id":76561199152512027,"connected_time":6060000000000,"state":"active","ping":67},{"user_id":381,"name":"SPONGE","steam_id":76561198040933472,"connected_time":1893000000000,"state":"active","ping":88},{"user_id":335,"name":"Fat Pigeon","steam_id":76561198817940142,"connected_time":6504000000000,"state":"active","ping":59},{"user_id":393,"name":"miiiiiiiiiiiiiiiiiiiiiiiii","steam_id":76561198404172173,"connected_time":316000000000,"state":"active","ping":164},{"user_id":366,"name":"REN","steam_id":76561198000596385,"connected_time":4227000000000,"state":"active","ping":68}]},{"server_id":23,"name":"Uncletopia | Frankfurt | 7 | Stopwatch","name_short":"frk-7","host":"frk-1.de.uncletopia.com","port":27075,"enabled":true,"region":"eu","cc":"de","latitude":50.110924,"longitude":8.682127,"reserved":0,"last_update":"0001-01-01T00:00:00Z","name_a2s":"Uncletopia | Frankfurt | 7 | Stopwatch","protocol":17,"map":"koth_highpass","folder":"tf","game":"Team Fortress","app_id":440,"player_count":0,"max_players":24,"Bots":0,"server_type":"Dedicated","server_os":"Linux","password":true,"vac":true,"version":"7961495","steam_id":85568392924742827,"keywords":["cp","nocrits","nodmgspread","uncletopia"],"game_id":440,"stv_port":27076,"stv_name":"Uncletopia | Frankfurt | 7 | Stopwatch | STV","players":null},{"server_id":24,"name":"Uncletopia | Frankfurt | 8 | Community","name_short":"frk-8","host":"frk-1.de.uncletopia.com","port":27085,"enabled":true,"region":"eu","cc":"de","latitude":50.110924,"longitude":8.682127,"reserved":0,"last_update":"0001-01-01T00:00:00Z","name_a2s":"Uncletopia | Frankfurt | 8 | Community","protocol":17,"map":"workshop/pl_emerge_rc2.ugc888027758","folder":"tf","game":"Team Fortress","app_id":440,"player_count":0,"max_players":24,"Bots":0,"server_type":"Dedicated","server_os":"Linux","password":true,"vac":true,"version":"7961495","steam_id":85568392924742828,"keywords":["nocrits","nodmgspread","payload","uncletopia"],"game_id":440,"stv_port":27086,"stv_name":"Uncletopia | Frankfurt | 8 | Community | STV","players":null},{"server_id":202,"name":"Uncletopia | Hong Kong | 1 | All Maps","name_short":"hgk-1","host":"hgk-1.hk.uncletopia.com","port":27015,"enabled":true,"region":"asia","cc":"hk","latitude":22.302711,"longitude":114.177216,"reserved":0,"last_update":"0001-01-01T00:00:00Z","name_a2s":"Uncletopia | Hong Kong | 1 | All Maps","protocol":17,"map":"pl_pier","folder":"tf","game":"Team Fortress","app_id":440,"player_count":1,"max_players":24,"Bots":0,"server_type":"Dedicated","server_os":"Linux","password":true,"vac":true,"version":"7961495","steam_id":85568392924494504,"keywords":["nocrits","nodmgspread","payload","uncletopia"],"game_id":440,"stv_port":27016,"stv_name":"Uncletopia | Hong Kong | 1 | All Maps | STV","players":[{"user_id":775,"name":"KingsmanXD","steam_id":76561199203082164,"connected_time":51000000000,"state":"active","ping":218}]},{"server_id":1,"name":"Uncletopia | Los Angeles | 1 | All Maps","name_short":"lax-1","host":"lax-1.us.uncletopia.com","port":27015,"enabled":true,"region":"us-west","cc":"us","latitude":33.94279,"longitude":-118.41004,"reserved":0,"last_update":"0001-01-01T00:00:00Z","name_a2s":"Uncletopia | Los Angeles | 1 | All Maps","protocol":17,"map":"pl_snowycoast","folder":"tf","game":"Team Fortress","app_id":440,"player_count":0,"max_players":24,"Bots":0,"server_type":"Dedicated","server_os":"Linux","password":true,"vac":true,"version":"7961495","steam_id":85568392924469991,"keywords":["nocrits","nodmgspread","payload","uncletopia"],"game_id":440,"stv_port":27016,"stv_name":"Uncletopia | Los Angeles | 1 | All Maps | STV","players":null},{"server_id":112,"name":"Uncletopia | Los Angeles | 2 | All Maps","name_short":"lax-2","host":"lax-1.us.uncletopia.com","port":27025,"enabled":true,"region":"us-west","cc":"us","latitude":33.94279,"longitude":-118.41004,"reserved":0,"last_update":"0001-01-01T00:00:00Z","name_a2s":"Uncletopia | Los Angeles | 2 | All Maps","protocol":17,"map":"ctf_well","folder":"tf","game":"Team Fortress","app_id":440,"player_count":24,"max_players":24,"Bots":0,"server_type":"Dedicated","server_os":"Linux","password":true,"vac":true,"version":"7961495","steam_id":85568392924469992,"keywords":["ctf","nocrits","nodmgspread","uncletopia"],"game_id":440,"stv_port":27026,"stv_name":"Uncletopia | Los Angeles | 2 | All Maps | STV","players":[{"user_id":224,"name":"THE POPCAT","steam_id":76561199068219002,"connected_time":1759000000000,"state":"active","ping":60},{"user_id":241,"name":"alex","steam_id":76561198334059206,"connected_time":217000000000,"state":"active","ping":60},{"user_id":222,"name":"Buswolley","steam_id":76561197995205571,"connected_time":1849000000000,"state":"active","ping":55},{"user_id":214,"name":"zinnk","steam_id":76561198092081825,"connected_time":2513000000000,"state":"active","ping":54},{"user_id":226,"name":"alejandro","steam_id":76561198095113674,"connected_time":1711000000000,"state":"active","ping":60},{"user_id":243,"name":"Phoysh","steam_id":76561198137111021,"connected_time":41000000000,"state":"active","ping":78},{"user_id":237,"name":"MantisToboggan","steam_id":76561197969447887,"connected_time":617000000000,"state":"active","ping":116},{"user_id":230,"name":"Arenovas","steam_id":76561198042341811,"connected_time":1545000000000,"state":"active","ping":45},{"user_id":242,"name":"nøbu","steam_id":76561198100614981,"connected_time":151000000000,"state":"active","ping":90},{"user_id":240,"name":"Soap","steam_id":76561197994893383,"connected_time":334000000000,"state":"active","ping":67},{"user_id":144,"name":"Joseph Stalin","steam_id":76561198382398935,"connected_time":6451000000000,"state":"active","ping":85},{"user_id":211,"name":"Drive-By-Fish-Guy","steam_id":76561198105513652,"connected_time":2670000000000,"state":"active","ping":62},{"user_id":206,"name":"FrostyLawns","steam_id":76561198251576516,"connected_time":2936000000000,"state":"active","ping":118},{"user_id":183,"name":"krazydav","steam_id":76561198170440371,"connected_time":3999000000000,"state":"active","ping":115},{"user_id":212,"name":"[56709]TacticalDoggo","steam_id":76561198041645382,"connected_time":2655000000000,"state":"active","ping":119},{"user_id":231,"name":"Borgor Boi","steam_id":76561199061388107,"connected_time":1483000000000,"state":"active","ping":71},{"user_id":227,"name":"I Punch Babies","steam_id":76561198097463407,"connected_time":1693000000000,"state":"active","ping":55},{"user_id":205,"name":"Oktayey","steam_id":76561198143213426,"connected_time":2949000000000,"state":"active","ping":54},{"user_id":216,"name":"K2f","steam_id":76561198049600563,"connected_time":2361000000000,"state":"active","ping":36},{"user_id":213,"name":"Holy fucking shit I love purple","steam_id":76561198121969195,"connected_time":2556000000000,"state":"active","ping":130},{"user_id":201,"name":"Retesaurus","steam_id":76561198045189319,"connected_time":3306000000000,"state":"active","ping":117},{"user_id":233,"name":"overload_screeb","steam_id":76561198078633225,"connected_time":1254000000000,"state":"active","ping":46},{"user_id":184,"name":"gamer_cruncher","steam_id":76561198973306314,"connected_time":3970000000000,"state":"active","ping":50},{"user_id":236,"name":"MNIJ","steam_id":76561199209509468,"connected_time":686000000000,"state":"active","ping":62}]},{"server_id":324,"name":"Uncletopia | Los Angeles | 3 | All Maps","name_short":"lax-3","host":"lax-1.us.uncletopia.com","port":27035,"enabled":true,"region":"us-west","cc":"us","latitude":33.94279,"longitude":-118.41004,"reserved":0,"last_update":"0001-01-01T00:00:00Z","name_a2s":"Uncletopia | Los Angeles | 3 | All Maps","protocol":17,"map":"pl_snowycoast","folder":"tf","game":"Team Fortress","app_id":440,"player_count":0,"max_players":24,"Bots":0,"server_type":"Dedicated","server_os":"Linux","password":true,"vac":true,"version":"7961495","steam_id":85568392924510198,"keywords":["nocrits","nodmgspread","payload","uncletopia"],"game_id":440,"stv_port":27036,"stv_name":"Uncletopia | Los Angeles | 3 | All Maps | STV","players":null},{"server_id":25,"name":"Uncletopia | Los Angeles | 4 | Stopwatch","name_short":"lax-4","host":"lax-1.us.uncletopia.com","port":27045,"enabled":true,"region":"us-west","cc":"us","latitude":33.94279,"longitude":-118.41004,"reserved":0,"last_update":"0001-01-01T00:00:00Z","name_a2s":"Uncletopia | Los Angeles | 4 | Stopwatch","protocol":17,"map":"pl_barnblitz","folder":"tf","game":"Team Fortress","app_id":440,"player_count":0,"max_players":24,"Bots":0,"server_type":"Dedicated","server_os":"Linux","password":true,"vac":true,"version":"7961495","steam_id":85568392924510199,"keywords":["nocrits","nodmgspread","payload","uncletopia"],"game_id":440,"stv_port":27046,"stv_name":"Uncletopia | Los Angeles | 4 | Stopwatch | STV","players":null},{"server_id":11,"name":"Uncletopia | London | 1 | All Maps","name_short":"lon-1","host":"lon-1.uk.uncletopia.com","port":27015,"enabled":true,"region":"eu","cc":"gb","latitude":51.509865,"longitude":-0.118092,"reserved":0,"last_update":"0001-01-01T00:00:00Z","name_a2s":"Uncletopia | London | 1 | All Maps","protocol":17,"map":"koth_viaduct","folder":"tf","game":"Team Fortress","app_id":440,"player_count":24,"max_players":24,"Bots":0,"server_type":"Dedicated","server_os":"Linux","password":true,"vac":true,"version":"7961495","steam_id":85568392924367362,"keywords":["cp","nocrits","nodmgspread","uncletopia"],"game_id":440,"stv_port":27016,"stv_name":"Uncletopia | London | 1 | All Maps | STV","players":[{"user_id":303,"name":"unconditional love","steam_id":76561199026097466,"connected_time":4612000000000,"state":"active","ping":72},{"user_id":329,"name":"janusz","steam_id":76561197992303107,"connected_time":1819000000000,"state":"active","ping":83},{"user_id":341,"name":"pepsik","steam_id":76561198123703769,"connected_time":1704000000000,"state":"active","ping":87},{"user_id":320,"name":"OceanCow","steam_id":76561198343428913,"connected_time":2523000000000,"state":"active","ping":57},{"user_id":360,"name":"bailey","steam_id":76561198327418768,"connected_time":100000000000,"state":"active","ping":46},{"user_id":347,"name":"exRage","steam_id":76561198449953655,"connected_time":1014000000000,"state":"active","ping":69},{"user_id":357,"name":"Dr. Funkenstein","steam_id":76561197977816210,"connected_time":446000000000,"state":"active","ping":62},{"user_id":319,"name":"Stenhård Kuk","steam_id":76561198163141957,"connected_time":2684000000000,"state":"active","ping":47},{"user_id":307,"name":"yup that extream78711","steam_id":76561198106049954,"connected_time":3704000000000,"state":"active","ping":155},{"user_id":326,"name":"shooer!","steam_id":76561198110531281,"connected_time":2141000000000,"state":"active","ping":82},{"user_id":284,"name":"Jamba Sparabo","steam_id":76561198131647600,"connected_time":5875000000000,"state":"active","ping":63},{"user_id":344,"name":"Asfreild","steam_id":76561198055901120,"connected_time":1586000000000,"state":"active","ping":72},{"user_id":352,"name":"map","steam_id":76561198370196400,"connected_time":502000000000,"state":"active","ping":88},{"user_id":362,"name":"Vel0city","steam_id":76561198049687798,"connected_time":41000000000,"state":"active","ping":55},{"user_id":309,"name":"Canpenbook64","steam_id":76561199195471984,"connected_time":3620000000000,"state":"active","ping":58},{"user_id":335,"name":"caramelldancin'","steam_id":76561198193357946,"connected_time":1776000000000,"state":"active","ping":109},{"user_id":321,"name":"Sakari","steam_id":76561197997811299,"connected_time":2515000000000,"state":"active","ping":74},{"user_id":282,"name":"face beautiful lies","steam_id":76561198079277466,"connected_time":6171000000000,"state":"active","ping":70},{"user_id":336,"name":"GMsU | Rebikas","steam_id":76561198077053764,"connected_time":1776000000000,"state":"active","ping":56},{"user_id":327,"name":"thatCerv","steam_id":76561198037798308,"connected_time":2104000000000,"state":"active","ping":57},{"user_id":322,"name":"Lyra","steam_id":76561198043601838,"connected_time":2502000000000,"state":"active","ping":73},{"user_id":349,"name":"Michael","steam_id":76561198003146906,"connected_time":861000000000,"state":"active","ping":44},{"user_id":363,"name":"kreeekz","steam_id":76561198014431602,"connected_time":31000000000,"state":"active","ping":73},{"user_id":359,"name":"Alexandre","steam_id":76561198121784446,"connected_time":403000000000,"state":"active","ping":36}]},{"server_id":114,"name":"Uncletopia | London | 2 | All Maps","name_short":"lon-2","host":"lon-1.uk.uncletopia.com","port":27025,"enabled":true,"region":"eu","cc":"gb","latitude":51.509865,"longitude":-0.118092,"reserved":0,"last_update":"0001-01-01T00:00:00Z","name_a2s":"Uncletopia | London | 2 | All Maps","protocol":17,"map":"pl_upward","folder":"tf","game":"Team Fortress","app_id":440,"player_count":24,"max_players":24,"Bots":0,"server_type":"Dedicated","server_os":"Linux","password":true,"vac":true,"version":"7961495","steam_id":85568392924470941,"keywords":["nocrits","nodmgspread","payload","uncletopia"],"game_id":440,"stv_port":27026,"stv_name":"Uncletopia | London | 2 | All Maps | STV","players":[{"user_id":257,"name":"Emerald","steam_id":76561199141384216,"connected_time":877000000000,"state":"active","ping":46},{"user_id":258,"name":"❤︎WarMole❤","steam_id":76561198104248760,"connected_time":740000000000,"state":"active","ping":69},{"user_id":197,"name":"Para Bellum","steam_id":76561198375413446,"connected_time":5569000000000,"state":"active","ping":61},{"user_id":248,"name":"rwota","steam_id":76561198385769722,"connected_time":1519000000000,"state":"active","ping":109},{"user_id":239,"name":"Fizz","steam_id":76561197994814990,"connected_time":2311000000000,"state":"active","ping":72},{"user_id":249,"name":"Monsteh","steam_id":76561198325898181,"connected_time":1513000000000,"state":"active","ping":65},{"user_id":190,"name":"Peanut","steam_id":76561198064585972,"connected_time":5859000000000,"state":"active","ping":75},{"user_id":260,"name":"Ganasti","steam_id":76561198382925185,"connected_time":360000000000,"state":"active","ping":88},{"user_id":261,"name":"W","steam_id":76561198273623211,"connected_time":355000000000,"state":"active","ping":100},{"user_id":220,"name":"Erior","steam_id":76561198039462080,"connected_time":3503000000000,"state":"active","ping":73},{"user_id":227,"name":"Fu Manchu","steam_id":76561197995224539,"connected_time":3027000000000,"state":"active","ping":66},{"user_id":253,"name":"kipod616","steam_id":76561198431183777,"connected_time":1117000000000,"state":"active","ping":90},{"user_id":256,"name":"Gears","steam_id":76561198872485939,"connected_time":971000000000,"state":"active","ping":157},{"user_id":216,"name":"eMcP!","steam_id":76561198382509396,"connected_time":3728000000000,"state":"active","ping":54},{"user_id":263,"name":"GoblinGaming","steam_id":76561198360395476,"connected_time":145000000000,"state":"active","ping":50},{"user_id":241,"name":"bob","steam_id":76561198448135228,"connected_time":1957000000000,"state":"active","ping":85},{"user_id":236,"name":"RLCrazyCat3","steam_id":76561197983757878,"connected_time":2804000000000,"state":"active","ping":68},{"user_id":262,"name":"󠀡󠀡","steam_id":76561198059375315,"connected_time":334000000000,"state":"active","ping":70},{"user_id":232,"name":"Isohel [Kiba]","steam_id":76561198129032662,"connected_time":2891000000000,"state":"active","ping":45},{"user_id":218,"name":"Dzieciol","steam_id":76561198160237556,"connected_time":3665000000000,"state":"active","ping":74},{"user_id":259,"name":"wheel bread","steam_id":76561199062586342,"connected_time":452000000000,"state":"active","ping":76},{"user_id":194,"name":"Finem Belli","steam_id":76561198227177976,"connected_time":5849000000000,"state":"active","ping":46},{"user_id":243,"name":"real videogamer (real)","steam_id":76561198053929269,"connected_time":1864000000000,"state":"active","ping":91},{"user_id":244,"name":"herrero_m_TF2EASY.COM","steam_id":76561199111992814,"connected_time":1850000000000,"state":"active","ping":87}]},{"server_id":320,"name":"Uncletopia | London | 3 | All Maps","name_short":"lon-3","host":"lon-1.uk.uncletopia.com","port":27035,"enabled":true,"region":"eu","cc":"gb","latitude":51.509865,"longitude":-0.118092,"reserved":0,"last_update":"0001-01-01T00:00:00Z","name_a2s":"Uncletopia | London | 3 | All Maps","protocol":17,"map":"cp_sunshine","folder":"tf","game":"Team Fortress","app_id":440,"player_count":24,"max_players":24,"Bots":0,"server_type":"Dedicated","server_os":"Linux","password":true,"vac":true,"version":"7961495","steam_id":85568392924510192,"keywords":["cp","nocrits","nodmgspread","uncletopia"],"game_id":440,"stv_port":27036,"stv_name":"Uncletopia | London | 3 | All Maps | STV","players":[{"user_id":192,"name":"Garoiop","steam_id":76561198082326459,"connected_time":655000000000,"state":"active","ping":38},{"user_id":176,"name":"tzlil","steam_id":76561198399916290,"connected_time":2379000000000,"state":"active","ping":107},{"user_id":194,"name":"THE STINK","steam_id":76561199226110975,"connected_time":641000000000,"state":"active","ping":161},{"user_id":186,"name":"lore","steam_id":76561198120984188,"connected_time":1728000000000,"state":"active","ping":63},{"user_id":191,"name":"Bobbeldibob","steam_id":76561198256796473,"connected_time":737000000000,"state":"active","ping":75},{"user_id":174,"name":"Hans","steam_id":76561198030061999,"connected_time":2454000000000,"state":"active","ping":76},{"user_id":145,"name":"Optimist 50","steam_id":76561198039631442,"connected_time":4789000000000,"state":"active","ping":84},{"user_id":187,"name":"Rad","steam_id":76561199001560866,"connected_time":1570000000000,"state":"active","ping":77},{"user_id":203,"name":"john swag, the inventor of swag","steam_id":76561199070072488,"connected_time":375000000000,"state":"active","ping":56},{"user_id":128,"name":"MaypulSoyrup","steam_id":76561199213966821,"connected_time":5783000000000,"state":"active","ping":73},{"user_id":189,"name":"I.AM.THE.BOOP.WHICH.IS.APROACHI","steam_id":76561198049342507,"connected_time":1484000000000,"state":"active","ping":90},{"user_id":193,"name":"Šumnik","steam_id":76561198014888042,"connected_time":654000000000,"state":"active","ping":73},{"user_id":166,"name":"vurtun","steam_id":76561198857395274,"connected_time":3090000000000,"state":"active","ping":60},{"user_id":111,"name":"Toxic_Cicity","steam_id":76561198165753440,"connected_time":6776000000000,"state":"active","ping":113},{"user_id":155,"name":"After8","steam_id":76561198090750865,"connected_time":4306000000000,"state":"active","ping":72},{"user_id":205,"name":"peruna","steam_id":76561198000721196,"connected_time":314000000000,"state":"active","ping":97},{"user_id":198,"name":"Solymr ibn Wali Barad","steam_id":76561198044008976,"connected_time":565000000000,"state":"active","ping":65},{"user_id":90,"name":"Itai","steam_id":76561198804555329,"connected_time":7990000000000,"state":"active","ping":113},{"user_id":144,"name":" Sir-Ignyr ","steam_id":76561198043828572,"connected_time":4874000000000,"state":"active","ping":43},{"user_id":164,"name":"Keho","steam_id":76561198087962709,"connected_time":3452000000000,"state":"active","ping":71},{"user_id":202,"name":"Dr.Sees [F2P]","steam_id":76561199219233587,"connected_time":413000000000,"state":"active","ping":80},{"user_id":199,"name":"Sverhrazym","steam_id":76561198868708664,"connected_time":545000000000,"state":"active","ping":100},{"user_id":161,"name":"LivEssense","steam_id":76561198052476979,"connected_time":3536000000000,"state":"active","ping":115},{"user_id":200,"name":"schmick h_stt 0","steam_id":76561198039537958,"connected_time":523000000000,"state":"active","ping":44}]},{"server_id":321,"name":"Uncletopia | London | 4 | All Maps","name_short":"lon-4","host":"lon-1.uk.uncletopia.com","port":27045,"enabled":true,"region":"eu","cc":"gb","latitude":51.509865,"longitude":-0.118092,"reserved":0,"last_update":"0001-01-01T00:00:00Z","name_a2s":"Uncletopia | London | 4 | All Maps","protocol":17,"map":"pl_snowycoast","folder":"tf","game":"Team Fortress","app_id":440,"player_count":23,"max_players":24,"Bots":0,"server_type":"Dedicated","server_os":"Linux","password":true,"vac":true,"version":"7961495","steam_id":85568392924510193,"keywords":["nocrits","nodmgspread","payload","uncletopia"],"game_id":440,"stv_port":27046,"stv_name":"Uncletopia | London | 4 | All Maps | STV","players":[{"user_id":11,"name":"gronk","steam_id":76561199031539961,"connected_time":2866000000000,"state":"active","ping":56},{"user_id":50,"name":"◢◤ Joker ◢◤","steam_id":76561198038325384,"connected_time":521000000000,"state":"active","ping":46},{"user_id":21,"name":"DeterminedXD[HUN]","steam_id":76561199469006453,"connected_time":1683000000000,"state":"active","ping":91},{"user_id":57,"name":"nikita buyanov","steam_id":76561198250731852,"connected_time":281000000000,"state":"active","ping":70},{"user_id":32,"name":"[dopijus]","steam_id":76561198943009513,"connected_time":1383000000000,"state":"active","ping":96},{"user_id":51,"name":"Aver555","steam_id":76561198280370727,"connected_time":457000000000,"state":"active","ping":62},{"user_id":17,"name":"Neutrino","steam_id":76561198315116213,"connected_time":2138000000000,"state":"active","ping":65},{"user_id":23,"name":"Drake theduck","steam_id":76561199182279601,"connected_time":1646000000000,"state":"active","ping":115},{"user_id":24,"name":"Maoma112","steam_id":76561199012536447,"connected_time":1631000000000,"state":"active","ping":82},{"user_id":25,"name":"leonardini.w","steam_id":76561199097963071,"connected_time":1630000000000,"state":"active","ping":91},{"user_id":26,"name":"The Manager of Sex (Real)","steam_id":76561198385989487,"connected_time":1627000000000,"state":"active","ping":100},{"user_id":28,"name":"AftiksPL","steam_id":76561198875182686,"connected_time":1565000000000,"state":"active","ping":108},{"user_id":61,"name":"perry the platypus","steam_id":76561199379159771,"connected_time":5000000000,"state":"spawning","ping":144},{"user_id":54,"name":"niandits","steam_id":76561198419798900,"connected_time":422000000000,"state":"active","ping":123},{"user_id":33,"name":"Master Baiter","steam_id":76561198427247304,"connected_time":1381000000000,"state":"active","ping":85},{"user_id":55,"name":"jovi_","steam_id":76561198449280552,"connected_time":380000000000,"state":"active","ping":52},{"user_id":36,"name":"padillacampos","steam_id":76561198161923970,"connected_time":1346000000000,"state":"active","ping":75},{"user_id":37,"name":"Oak","steam_id":76561198067315672,"connected_time":1320000000000,"state":"active","ping":45},{"user_id":38,"name":"Jahusi!*","steam_id":76561197992445165,"connected_time":1320000000000,"state":"active","ping":60},{"user_id":39,"name":"Ley #savetf2","steam_id":76561198989206104,"connected_time":1311000000000,"state":"active","ping":122},{"user_id":60,"name":"sethlington14","steam_id":76561199438357690,"connected_time":125000000000,"state":"active","ping":53},{"user_id":41,"name":"laser","steam_id":76561198036030697,"connected_time":1248000000000,"state":"active","ping":70},{"user_id":44,"name":"ducklord","steam_id":76561198062163894,"connected_time":1236000000000,"state":"active","ping":59}]},{"server_id":21,"name":"Uncletopia | London | 5 | All Maps","name_short":"lon-5","host":"lon-1.uk.uncletopia.com","port":27055,"enabled":true,"region":"eu","cc":"gb","latitude":51.509865,"longitude":-0.118092,"reserved":0,"last_update":"0001-01-01T00:00:00Z","name_a2s":"Uncletopia | London | 5 | All Maps","protocol":17,"map":"pl_snowycoast","folder":"tf","game":"Team Fortress","app_id":440,"player_count":24,"max_players":24,"Bots":0,"server_type":"Dedicated","server_os":"Linux","password":true,"vac":true,"version":"7961495","steam_id":85568392924742829,"keywords":["nocrits","nodmgspread","payload","uncletopia"],"game_id":440,"stv_port":27056,"stv_name":"Uncletopia | London | 5 | All Maps | STV","players":[{"user_id":602,"name":"Lukas","steam_id":76561198009118452,"connected_time":428000000000,"state":"active","ping":69},{"user_id":596,"name":"smell_my_cheese","steam_id":76561198008517427,"connected_time":820000000000,"state":"active","ping":57},{"user_id":603,"name":"a grilled cheese","steam_id":76561198277039351,"connected_time":417000000000,"state":"active","ping":46},{"user_id":585,"name":"sBLOCKER  85","steam_id":76561198939078994,"connected_time":1185000000000,"state":"active","ping":148},{"user_id":535,"name":"HaylingZar","steam_id":76561198053559897,"connected_time":4644000000000,"state":"active","ping":60},{"user_id":575,"name":"lulu","steam_id":76561199147764133,"connected_time":1987000000000,"state":"active","ping":75},{"user_id":601,"name":"ack","steam_id":76561198139796077,"connected_time":573000000000,"state":"active","ping":54},{"user_id":599,"name":"John Harro","steam_id":76561198143584195,"connected_time":678000000000,"state":"active","ping":41},{"user_id":587,"name":"Zerfesh","steam_id":76561198117534358,"connected_time":1168000000000,"state":"active","ping":96},{"user_id":604,"name":"Mold","steam_id":76561199002172406,"connected_time":295000000000,"state":"active","ping":67},{"user_id":589,"name":"MARKO","steam_id":76561198065127504,"connected_time":1154000000000,"state":"active","ping":69},{"user_id":569,"name":"Largo","steam_id":76561198844368927,"connected_time":2646000000000,"state":"active","ping":74},{"user_id":593,"name":"Nassu","steam_id":76561198147367577,"connected_time":1095000000000,"state":"active","ping":156},{"user_id":559,"name":"golbat","steam_id":76561198041601161,"connected_time":3009000000000,"state":"active","ping":158},{"user_id":591,"name":"Spich","steam_id":76561199017245962,"connected_time":1143000000000,"state":"active","ping":96},{"user_id":560,"name":"svantezch","steam_id":76561198373831657,"connected_time":2992000000000,"state":"active","ping":86},{"user_id":605,"name":"Sybille Sirky","steam_id":76561198082407725,"connected_time":267000000000,"state":"active","ping":53},{"user_id":578,"name":"mook","steam_id":76561198175543442,"connected_time":1933000000000,"state":"active","ping":75},{"user_id":607,"name":"TKN_Paps997","steam_id":76561198419868465,"connected_time":253000000000,"state":"active","ping":95},{"user_id":608,"name":"Redante","steam_id":76561198023772081,"connected_time":249000000000,"state":"active","ping":71},{"user_id":611,"name":"FantaApple","steam_id":76561198999435403,"connected_time":124000000000,"state":"active","ping":61},{"user_id":548,"name":"SovietZombie™","steam_id":76561198140093751,"connected_time":4001000000000,"state":"active","ping":48},{"user_id":568,"name":"Joe","steam_id":76561198061717026,"connected_time":2723000000000,"state":"active","ping":47},{"user_id":491,"name":"Geoff the Oracle","steam_id":76561198053759965,"connected_time":7372000000000,"state":"active","ping":56}]},{"server_id":22,"name":"Uncletopia | London | 6 | All Maps","name_short":"lon-6","host":"lon-1.uk.uncletopia.com","port":27065,"enabled":true,"region":"eu","cc":"gb","latitude":51.509865,"longitude":-0.118092,"reserved":0,"last_update":"0001-01-01T00:00:00Z","name_a2s":"Uncletopia | London | 6 | All Maps","protocol":17,"map":"pl_pier","folder":"tf","game":"Team Fortress","app_id":440,"player_count":19,"max_players":24,"Bots":0,"server_type":"Dedicated","server_os":"Linux","password":true,"vac":true,"version":"7961495","steam_id":85568392924742830,"keywords":["nocrits","nodmgspread","payload","uncletopia"],"game_id":440,"stv_port":27066,"stv_name":"Uncletopia | London | 6 | All Maps | STV","players":[{"user_id":341,"name":"killerdiam","steam_id":76561198806422317,"connected_time":3034000000000,"state":"active","ping":47},{"user_id":377,"name":"night.s","steam_id":76561198326287823,"connected_time":744000000000,"state":"active","ping":74},{"user_id":386,"name":"meow (they/them)","steam_id":76561198416657815,"connected_time":7000000000,"state":"spawning","ping":97},{"user_id":359,"name":"demoman","steam_id":76561198074825735,"connected_time":2121000000000,"state":"active","ping":43},{"user_id":315,"name":"Spetse","steam_id":76561197990649972,"connected_time":5055000000000,"state":"active","ping":71},{"user_id":383,"name":"BogdanBury","steam_id":76561199151820854,"connected_time":55000000000,"state":"active","ping":108},{"user_id":379,"name":"CiVillain","steam_id":76561198059617732,"connected_time":723000000000,"state":"active","ping":68},{"user_id":346,"name":"DooWooD","steam_id":76561198335810106,"connected_time":2771000000000,"state":"active","ping":79},{"user_id":381,"name":"The man from the window","steam_id":76561198055949151,"connected_time":584000000000,"state":"active","ping":43},{"user_id":384,"name":"Dagoth Ur","steam_id":76561198220232352,"connected_time":54000000000,"state":"active","ping":51},{"user_id":373,"name":"Someone","steam_id":76561199030195879,"connected_time":1507000000000,"state":"active","ping":44},{"user_id":350,"name":"glorpis","steam_id":76561199225333422,"connected_time":2686000000000,"state":"active","ping":52},{"user_id":378,"name":"highest noon","steam_id":76561199103959197,"connected_time":742000000000,"state":"active","ping":102},{"user_id":376,"name":"Zer0Rest","steam_id":76561198995935312,"connected_time":1019000000000,"state":"active","ping":47},{"user_id":367,"name":"Kitoglav Kito","steam_id":76561198359912140,"connected_time":1914000000000,"state":"spawning","ping":117},{"user_id":309,"name":"[FP] Shiken","steam_id":76561198257905663,"connected_time":5334000000000,"state":"active","ping":58},{"user_id":370,"name":"thekoolest88","steam_id":76561199022415672,"connected_time":1803000000000,"state":"active","ping":134},{"user_id":382,"name":"odanerT","steam_id":76561197981100897,"connected_time":445000000000,"state":"active","ping":71},{"user_id":352,"name":"f4f_cricket","steam_id":76561197985879993,"connected_time":2340000000000,"state":"active","ping":56}]},{"server_id":40,"name":"Uncletopia | London | 7 | Stopwatch","name_short":"lon-7","host":"lon-1.uk.uncletopia.com","port":27075,"enabled":true,"region":"eu","cc":"gb","latitude":51.509865,"longitude":-0.118092,"reserved":0,"last_update":"0001-01-01T00:00:00Z","name_a2s":"Uncletopia | London | 7 | Stopwatch","protocol":17,"map":"cp_sunshine","folder":"tf","game":"Team Fortress","app_id":440,"player_count":19,"max_players":24,"Bots":0,"server_type":"Dedicated","server_os":"Linux","password":true,"vac":true,"version":"7961495","steam_id":85568392924964314,"keywords":["cp","nocrits","nodmgspread","uncletopia"],"game_id":440,"stv_port":27076,"stv_name":"Uncletopia | London | 7 | Stopwatch | STV","players":[{"user_id":183,"name":"lets play","steam_id":76561199474114742,"connected_time":76000000000,"state":"active","ping":331},{"user_id":184,"name":"copybookpuppet #savetf2","steam_id":76561199490923462,"connected_time":73000000000,"state":"active","ping":67},{"user_id":186,"name":"[V.G.T.41] Seva the Gnome","steam_id":76561198951268072,"connected_time":28000000000,"state":"spawning","ping":101},{"user_id":127,"name":"Birch","steam_id":76561198869201474,"connected_time":2655000000000,"state":"active","ping":44},{"user_id":161,"name":"hyvakii705","steam_id":76561198086630552,"connected_time":1216000000000,"state":"active","ping":91},{"user_id":71,"name":"joachym","steam_id":76561198428579761,"connected_time":5734000000000,"state":"active","ping":73},{"user_id":182,"name":"63756d","steam_id":76561198808699024,"connected_time":84000000000,"state":"active","ping":72},{"user_id":185,"name":"The_Jaystone","steam_id":76561198126280691,"connected_time":66000000000,"state":"active","ping":30},{"user_id":160,"name":"Eggcracker","steam_id":76561199274850641,"connected_time":1304000000000,"state":"active","ping":88},{"user_id":172,"name":"CuJIA_TPAHCJIuTA","steam_id":76561198149654361,"connected_time":605000000000,"state":"active","ping":75},{"user_id":173,"name":"Gunvald","steam_id":76561198020195322,"connected_time":557000000000,"state":"active","ping":79},{"user_id":187,"name":"install gentoo","steam_id":76561198185257982,"connected_time":4000000000,"state":"spawning","ping":68},{"user_id":102,"name":"___","steam_id":76561198304096958,"connected_time":3814000000000,"state":"active","ping":77},{"user_id":98,"name":"Ash","steam_id":76561198148738525,"connected_time":4187000000000,"state":"active","ping":103},{"user_id":174,"name":"getawhale","steam_id":76561198145465595,"connected_time":535000000000,"state":"active","ping":38},{"user_id":175,"name":"Plep","steam_id":76561198840259819,"connected_time":524000000000,"state":"active","ping":55},{"user_id":168,"name":"HADID_sex_god","steam_id":76561198302623594,"connected_time":862000000000,"state":"active","ping":96},{"user_id":165,"name":"meriones","steam_id":76561198034234373,"connected_time":998000000000,"state":"active","ping":40},{"user_id":148,"name":"Heavy TF2 in irl?!","steam_id":76561198082502910,"connected_time":2165000000000,"state":"active","ping":60}]},{"server_id":41,"name":"Uncletopia | London | 8 | Community","name_short":"lon-8","host":"lon-1.uk.uncletopia.com","port":27085,"enabled":true,"region":"eu","cc":"gb","latitude":51.509865,"longitude":-0.118092,"reserved":0,"last_update":"0001-01-01T00:00:00Z","name_a2s":"Uncletopia | London | 8 | Community","protocol":17,"map":"workshop/koth_synthetic_rc6a.ugc1549817316","folder":"tf","game":"Team Fortress","app_id":440,"player_count":0,"max_players":24,"Bots":0,"server_type":"Dedicated","server_os":"Linux","password":true,"vac":true,"version":"7961495","steam_id":85568392924964315,"keywords":["cp","nocrits","nodmgspread","uncletopia"],"game_id":440,"stv_port":27086,"stv_name":"Uncletopia | London | 8 | Community | STV","players":null},{"server_id":300,"name":"Uncletopia | Montréal | 1 | All Maps","name_short":"mtl-1","host":"mtl-1.ca.uncletopia.com","port":27015,"enabled":true,"region":"us-east","cc":"ca","latitude":45.50889,"longitude":-73.56167,"reserved":0,"last_update":"0001-01-01T00:00:00Z","name_a2s":"","protocol":0,"map":"","folder":"","game":"","app_id":0,"player_count":0,"max_players":0,"Bots":0,"server_type":"","server_os":"","password":false,"vac":false,"version":"","steam_id":0,"keywords":null,"game_id":0,"stv_port":0,"stv_name":"","players":null},{"server_id":301,"name":"Uncletopia | Montréal | 2 | ???","name_short":"mtl-2","host":"mtl-1.ca.uncletopia.com","port":27025,"enabled":true,"region":"us-east","cc":"ca","latitude":45.50889,"longitude":-73.56167,"reserved":0,"last_update":"0001-01-01T00:00:00Z","name_a2s":"","protocol":0,"map":"","folder":"","game":"","app_id":0,"player_count":0,"max_players":0,"Bots":0,"server_type":"","server_os":"","password":false,"vac":false,"version":"","steam_id":0,"keywords":null,"game_id":0,"stv_port":0,"stv_name":"","players":null},{"server_id":13,"name":"Uncletopia | New York City | 1 | All Maps","name_short":"nyc-1","host":"nyc-1.us.uncletopia.com","port":27015,"enabled":true,"region":"us-east","cc":"us","latitude":40.73061,"longitude":-73.93524,"reserved":0,"last_update":"0001-01-01T00:00:00Z","name_a2s":"Uncletopia | New York City | 1 | All Maps","protocol":17,"map":"ctf_sawmill","folder":"tf","game":"Team Fortress","app_id":440,"player_count":22,"max_players":24,"Bots":0,"server_type":"Dedicated","server_os":"Linux","password":true,"vac":true,"version":"7961495","steam_id":85568392924469993,"keywords":["ctf","nocrits","nodmgspread","uncletopia"],"game_id":440,"stv_port":27016,"stv_name":"Uncletopia | New York City | 1 | All Maps | STV","players":[{"user_id":12,"name":"GummybearKillr","steam_id":76561198031235750,"connected_time":6330000000000,"state":"active","ping":54},{"user_id":59,"name":"fake gamer","steam_id":76561198285987979,"connected_time":2309000000000,"state":"active","ping":35},{"user_id":108,"name":"riverrunstatelyplump","steam_id":76561199365979716,"connected_time":21000000000,"state":"spawning","ping":140},{"user_id":81,"name":"Spork","steam_id":76561199072431848,"connected_time":864000000000,"state":"active","ping":56},{"user_id":73,"name":"minly","steam_id":76561199078991134,"connected_time":1590000000000,"state":"active","ping":85},{"user_id":64,"name":"Hawk (NV-6155)","steam_id":76561198085696816,"connected_time":1879000000000,"state":"active","ping":66},{"user_id":82,"name":"pipebombrater","steam_id":76561199029030831,"connected_time":847000000000,"state":"active","ping":67},{"user_id":105,"name":"President Donald Trumpootis","steam_id":76561198272285032,"connected_time":84000000000,"state":"active","ping":71},{"user_id":103,"name":"chimpin","steam_id":76561198858089300,"connected_time":107000000000,"state":"active","ping":58},{"user_id":106,"name":"INeedAfter8Paint","steam_id":76561199183492031,"connected_time":72000000000,"state":"active","ping":91},{"user_id":93,"name":"Feces","steam_id":76561198380219187,"connected_time":456000000000,"state":"active","ping":68},{"user_id":85,"name":"Beefboss_plays","steam_id":76561199454237265,"connected_time":796000000000,"state":"active","ping":96},{"user_id":97,"name":"Ian","steam_id":76561199078852180,"connected_time":207000000000,"state":"active","ping":71},{"user_id":68,"name":"vinny6","steam_id":76561198386735728,"connected_time":1781000000000,"state":"active","ping":48},{"user_id":62,"name":"Sergio_1Bit","steam_id":76561198798596945,"connected_time":1933000000000,"state":"active","ping":124},{"user_id":101,"name":"Antikythera","steam_id":76561198045923020,"connected_time":150000000000,"state":"active","ping":95},{"user_id":102,"name":"Gremlin","steam_id":76561198435061144,"connected_time":117000000000,"state":"active","ping":44},{"user_id":95,"name":"bdlance","steam_id":76561198218846360,"connected_time":376000000000,"state":"active","ping":44},{"user_id":99,"name":"Slip","steam_id":76561199057232579,"connected_time":198000000000,"state":"active","ping":69},{"user_id":47,"name":"Franz","steam_id":76561198041929745,"connected_time":3337000000000,"state":"active","ping":112},{"user_id":56,"name":"Jamie","steam_id":76561198058840477,"connected_time":2761000000000,"state":"active","ping":106},{"user_id":100,"name":"Kaluka","steam_id":76561198036861445,"connected_time":188000000000,"state":"active","ping":59}]},{"server_id":14,"name":"Uncletopia | New York City | 2 | All Maps","name_short":"nyc-2","host":"nyc-1.us.uncletopia.com","port":27025,"enabled":true,"region":"us-east","cc":"us","latitude":40.73061,"longitude":-73.93524,"reserved":0,"last_update":"0001-01-01T00:00:00Z","name_a2s":"Uncletopia | New York City | 2 | All Maps","protocol":17,"map":"cp_altitude","folder":"tf","game":"Team Fortress","app_id":440,"player_count":1,"max_players":24,"Bots":0,"server_type":"Dedicated","server_os":"Linux","password":true,"vac":true,"version":"7961495","steam_id":85568392924469994,"keywords":["cp","nocrits","nodmgspread","uncletopia"],"game_id":440,"stv_port":27026,"stv_name":"Uncletopia | New York City | 2 | All Maps | STV","players":[{"user_id":6,"name":"Rognoch","steam_id":76561199073488006,"connected_time":91000000000,"state":"active","ping":150}]},{"server_id":15,"name":"Uncletopia | New York City | 3 | Stopwatch","name_short":"nyc-3","host":"nyc-1.us.uncletopia.com","port":27035,"enabled":true,"region":"us-east","cc":"us","latitude":40.73061,"longitude":-73.93524,"reserved":0,"last_update":"0001-01-01T00:00:00Z","name_a2s":"Uncletopia | New York City | 3 | Stopwatch","protocol":17,"map":"koth_highpass","folder":"tf","game":"Team Fortress","app_id":440,"player_count":19,"max_players":24,"Bots":0,"server_type":"Dedicated","server_os":"Linux","password":true,"vac":true,"version":"7961495","steam_id":85568392924742820,"keywords":["cp","nocrits","nodmgspread","uncletopia"],"game_id":440,"stv_port":27036,"stv_name":"Uncletopia | New York City | 3 | Stopwatch | STV","players":[{"user_id":57,"name":"Oniari","steam_id":76561198013847094,"connected_time":931000000000,"state":"active","ping":61},{"user_id":29,"name":"Stupid G00SE","steam_id":76561198347933433,"connected_time":2244000000000,"state":"active","ping":161},{"user_id":62,"name":"Sergeant Joker #savetf2","steam_id":76561198854616604,"connected_time":701000000000,"state":"active","ping":58},{"user_id":18,"name":"MrMonsterMeat","steam_id":76561199107105768,"connected_time":2805000000000,"state":"active","ping":64},{"user_id":54,"name":"certified mug moment","steam_id":76561198868083705,"connected_time":1033000000000,"state":"active","ping":58},{"user_id":55,"name":"mr.idiostey","steam_id":76561199127546793,"connected_time":1017000000000,"state":"active","ping":83},{"user_id":65,"name":"Finnbergg","steam_id":76561198324731269,"connected_time":505000000000,"state":"active","ping":160},{"user_id":15,"name":"LordOfTheNoobs","steam_id":76561197962697523,"connected_time":2943000000000,"state":"active","ping":63},{"user_id":20,"name":"gerge","steam_id":76561198092238353,"connected_time":2767000000000,"state":"active","ping":90},{"user_id":31,"name":"Fresh Lychee","steam_id":76561198045399559,"connected_time":2090000000000,"state":"active","ping":69},{"user_id":59,"name":"Nic0","steam_id":76561198305690218,"connected_time":779000000000,"state":"active","ping":53},{"user_id":32,"name":"The World's Softest Sandwich","steam_id":76561198015577707,"connected_time":2082000000000,"state":"active","ping":95},{"user_id":60,"name":"Sableye","steam_id":76561198061247147,"connected_time":755000000000,"state":"active","ping":75},{"user_id":61,"name":"Grify","steam_id":76561198012292317,"connected_time":751000000000,"state":"active","ping":84},{"user_id":64,"name":"MacAndCheese69","steam_id":76561199013464592,"connected_time":596000000000,"state":"active","ping":56},{"user_id":66,"name":"mooncxke","steam_id":76561199084940746,"connected_time":490000000000,"state":"active","ping":80},{"user_id":67,"name":"Guil","steam_id":76561197993289176,"connected_time":450000000000,"state":"active","ping":56},{"user_id":49,"name":"reatardhole","steam_id":76561198141217941,"connected_time":1485000000000,"state":"active","ping":57},{"user_id":50,"name":"theloneflute","steam_id":76561198109316816,"connected_time":1478000000000,"state":"active","ping":64}]},{"server_id":16,"name":"Uncletopia | New York City | 4 | Community","name_short":"nyc-4","host":"nyc-1.us.uncletopia.com","port":27045,"enabled":true,"region":"us-east","cc":"us","latitude":40.73061,"longitude":-73.93524,"reserved":0,"last_update":"0001-01-01T00:00:00Z","name_a2s":"Uncletopia | New York City | 4 | Community","protocol":17,"map":"cp_altitude","folder":"tf","game":"Team Fortress","app_id":440,"player_count":1,"max_players":24,"Bots":0,"server_type":"Dedicated","server_os":"Linux","password":true,"vac":true,"version":"7961495","steam_id":85568392924742821,"keywords":["cp","nocrits","nodmgspread","uncletopia"],"game_id":440,"stv_port":27046,"stv_name":"Uncletopia | New York City | 4 | Community | STV","players":[{"user_id":4,"name":"scout_tf2","steam_id":76561199206668538,"connected_time":167000000000,"state":"active","ping":44}]},{"server_id":142,"name":"Uncletopia | São Paulo | 1 | All Maps","name_short":"sao-1","host":"sao-1.br.uncletopia.com","port":27015,"enabled":true,"region":"sa","cc":"br","latitude":-23.533773,"longitude":-46.62529,"reserved":0,"last_update":"0001-01-01T00:00:00Z","name_a2s":"Uncletopia | São Paulo | 1 | All Maps","protocol":17,"map":"pl_pier","folder":"tf","game":"Team Fortress","app_id":440,"player_count":0,"max_players":24,"Bots":0,"server_type":"Dedicated","server_os":"Linux","password":true,"vac":true,"version":"7961495","steam_id":85568392924469996,"keywords":["nocrits","nodmgspread","payload","uncletopia"],"game_id":440,"stv_port":27016,"stv_name":"Uncletopia | São Paulo | 1 | All Maps | STV","players":null},{"server_id":143,"name":"Uncletopia | São Paulo | 2 | Community","name_short":"sao-2","host":"sao-2.br.uncletopia.com","port":27015,"enabled":true,"region":"sa","cc":"br","latitude":-23.533773,"longitude":-46.62529,"reserved":0,"last_update":"0001-01-01T00:00:00Z","name_a2s":"Uncletopia | São Paulo | 2 | Community","protocol":17,"map":"workshop/koth_synthetic_rc6a.ugc1549817316","folder":"tf","game":"Team Fortress","app_id":440,"player_count":0,"max_players":24,"Bots":0,"server_type":"Dedicated","server_os":"Linux","password":true,"vac":true,"version":"7961495","steam_id":85568392924485349,"keywords":["cp","nocrits","nodmgspread","uncletopia"],"game_id":440,"stv_port":27016,"stv_name":"Uncletopia | São Paulo | 2 | Community | STV","players":null},{"server_id":7,"name":"Uncletopia | Seattle | 1 | All Maps","name_short":"sea-1","host":"sea-1.us.uncletopia.com","port":27015,"enabled":true,"region":"us-west","cc":"us","latitude":47.608013,"longitude":-122.33517,"reserved":0,"last_update":"0001-01-01T00:00:00Z","name_a2s":"Uncletopia | Seattle | 1 | All Maps","protocol":17,"map":"koth_viaduct","folder":"tf","game":"Team Fortress","app_id":440,"player_count":0,"max_players":24,"Bots":0,"server_type":"Dedicated","server_os":"Linux","password":true,"vac":true,"version":"7961495","steam_id":85568392924469997,"keywords":["cp","nocrits","nodmgspread","uncletopia"],"game_id":440,"stv_port":27016,"stv_name":"Uncletopia | Seattle | 1 | All Maps | STV","players":null},{"server_id":119,"name":"Uncletopia | Seattle | 2 | All Maps","name_short":"sea-2","host":"sea-1.us.uncletopia.com","port":27025,"enabled":true,"region":"us-west","cc":"us","latitude":47.608013,"longitude":-122.33517,"reserved":0,"last_update":"0001-01-01T00:00:00Z","name_a2s":"Uncletopia | Seattle | 2 | All Maps","protocol":17,"map":"koth_lakeside_final","folder":"tf","game":"Team Fortress","app_id":440,"player_count":0,"max_players":24,"Bots":0,"server_type":"Dedicated","server_os":"Linux","password":true,"vac":true,"version":"7961495","steam_id":85568392924469998,"keywords":["cp","nocrits","nodmgspread","uncletopia"],"game_id":440,"stv_port":27026,"stv_name":"Uncletopia | Seattle | 2 | All Maps | STV","players":null},{"server_id":406,"name":"Uncletopia | Seattle | 3 | Stopwatch","name_short":"sea-3","host":"sea-1.us.uncletopia.com","port":27035,"enabled":true,"region":"us-west","cc":"us","latitude":47.608013,"longitude":-122.33517,"reserved":0,"last_update":"0001-01-01T00:00:00Z","name_a2s":"Uncletopia | Seattle | 3 | Stopwatch","protocol":17,"map":"koth_lakeside_final","folder":"tf","game":"Team Fortress","app_id":440,"player_count":0,"max_players":24,"Bots":0,"server_type":"Dedicated","server_os":"Linux","password":true,"vac":true,"version":"7961495","steam_id":85568392924515217,"keywords":["cp","nocrits","nodmgspread","uncletopia"],"game_id":440,"stv_port":27036,"stv_name":"Uncletopia | Seattle | 3 | Stopwatch | STV","players":null},{"server_id":17,"name":"Uncletopia | San Francisco | 1 | All Maps","name_short":"sfo-1","host":"sfo-1.us.uncletopia.com","port":27015,"enabled":true,"region":"us-west","cc":"us","latitude":37.77397,"longitude":-122.4313,"reserved":0,"last_update":"0001-01-01T00:00:00Z","name_a2s":"Uncletopia | San Francisco | 1 | All Maps","protocol":17,"map":"koth_cascade","folder":"tf","game":"Team Fortress","app_id":440,"player_count":0,"max_players":24,"Bots":0,"server_type":"Dedicated","server_os":"Linux","password":true,"vac":true,"version":"7961495","steam_id":85568392924469999,"keywords":["cp","nocrits","nodmgspread","uncletopia"],"game_id":440,"stv_port":27016,"stv_name":"Uncletopia | San Francisco | 1 | All Maps | STV","players":null},{"server_id":18,"name":"Uncletopia | San Francisco | 2 | All Maps","name_short":"sfo-2","host":"sfo-1.us.uncletopia.com","port":27025,"enabled":true,"region":"us-west","cc":"us","latitude":37.77397,"longitude":-122.4313,"reserved":0,"last_update":"0001-01-01T00:00:00Z","name_a2s":"Uncletopia | San Francisco | 2 | All Maps","protocol":17,"map":"pl_frontier_final","folder":"tf","game":"Team Fortress","app_id":440,"player_count":0,"max_players":24,"Bots":0,"server_type":"Dedicated","server_os":"Linux","password":true,"vac":true,"version":"7961495","steam_id":85568392924470000,"keywords":["nocrits","nodmgspread","payload","uncletopia"],"game_id":440,"stv_port":27026,"stv_name":"Uncletopia | San Francisco | 2 | All Maps | STV","players":null},{"server_id":19,"name":"Uncletopia | San Francisco | 3 | Stopwatch","name_short":"sfo-3","host":"sfo-1.us.uncletopia.com","port":27035,"enabled":true,"region":"us-west","cc":"us","latitude":37.77397,"longitude":-122.4313,"reserved":0,"last_update":"0001-01-01T00:00:00Z","name_a2s":"Uncletopia | San Francisco | 3 | Stopwatch","protocol":17,"map":"pl_pier","folder":"tf","game":"Team Fortress","app_id":440,"player_count":0,"max_players":24,"Bots":0,"server_type":"Dedicated","server_os":"Linux","password":true,"vac":true,"version":"7961495","steam_id":85568392924742824,"keywords":["nocrits","nodmgspread","payload","uncletopia"],"game_id":440,"stv_port":27036,"stv_name":"Uncletopia | San Francisco | 3 | Stopwatch | STV","players":null},{"server_id":20,"name":"Uncletopia | San Francisco | 4 | Community","name_short":"sfo-4","host":"sfo-1.us.uncletopia.com","port":27045,"enabled":true,"region":"us-west","cc":"us","latitude":37.77397,"longitude":-122.4313,"reserved":0,"last_update":"0001-01-01T00:00:00Z","name_a2s":"Uncletopia | San Francisco | 4 | Community","protocol":17,"map":"pl_pier","folder":"tf","game":"Team Fortress","app_id":440,"player_count":1,"max_players":24,"Bots":0,"server_type":"Dedicated","server_os":"Linux","password":true,"vac":true,"version":"7961495","steam_id":85568392924742826,"keywords":["nocrits","nodmgspread","payload","uncletopia"],"game_id":440,"stv_port":27046,"stv_name":"Uncletopia | San Francisco | 4 | Community | STV","players":[{"user_id":3,"name":"Meepster","steam_id":76561198146305159,"connected_time":370000000000,"state":"active","ping":41}]},{"server_id":141,"name":"Uncletopia | Sydney | 1 | All Maps","name_short":"syd-1","host":"syd-1.au.uncletopia.com","port":27015,"enabled":true,"region":"au","cc":"au","latitude":-33.865143,"longitude":151.2099,"reserved":0,"last_update":"0001-01-01T00:00:00Z","name_a2s":"Uncletopia | Sydney | 1 | All Maps","protocol":17,"map":"pl_upward","folder":"tf","game":"Team Fortress","app_id":440,"player_count":0,"max_players":24,"Bots":0,"server_type":"Dedicated","server_os":"Linux","password":true,"vac":true,"version":"7961495","steam_id":85568392924470001,"keywords":["nocrits","nodmgspread","payload","uncletopia"],"game_id":440,"stv_port":27016,"stv_name":"Uncletopia | Sydney | 1 | All Maps | STV","players":null},{"server_id":123,"name":"Uncletopia | Sydney | 2 | All Maps","name_short":"syd-2","host":"syd-1.au.uncletopia.com","port":27025,"enabled":true,"region":"au","cc":"au","latitude":-33.865143,"longitude":151.2099,"reserved":0,"last_update":"0001-01-01T00:00:00Z","name_a2s":"Uncletopia | Sydney | 2 | All Maps","protocol":17,"map":"pl_upward","folder":"tf","game":"Team Fortress","app_id":440,"player_count":0,"max_players":24,"Bots":0,"server_type":"Dedicated","server_os":"Linux","password":true,"vac":true,"version":"7961495","steam_id":85568392924470002,"keywords":["nocrits","nodmgspread","payload","uncletopia"],"game_id":440,"stv_port":27026,"stv_name":"Uncletopia | Sydney | 2 | All Maps | STV","players":null},{"server_id":395,"name":"Uncletopia | Sydney | 3 | All Maps","name_short":"syd-3","host":"syd-1.au.uncletopia.com","port":27035,"enabled":true,"region":"au","cc":"au","latitude":-33.865143,"longitude":151.2099,"reserved":0,"last_update":"0001-01-01T00:00:00Z","name_a2s":"Uncletopia | Sydney | 3 | All Maps","protocol":17,"map":"pl_barnblitz","folder":"tf","game":"Team Fortress","app_id":440,"player_count":0,"max_players":24,"Bots":0,"server_type":"Dedicated","server_os":"Linux","password":true,"vac":true,"version":"7961495","steam_id":85568392925194467,"keywords":["nocrits","nodmgspread","payload","uncletopia"],"game_id":440,"stv_port":27036,"stv_name":"Uncletopia | Sydney | 3 | All Maps | STV","players":null},{"server_id":396,"name":"Uncletopia | Sydney | 4 | All Maps","name_short":"syd-4","host":"syd-1.au.uncletopia.com","port":27045,"enabled":true,"region":"au","cc":"au","latitude":-33.865143,"longitude":151.2099,"reserved":0,"last_update":"0001-01-01T00:00:00Z","name_a2s":"Uncletopia | Sydney | 4 | All Maps","protocol":17,"map":"koth_highpass","folder":"tf","game":"Team Fortress","app_id":440,"player_count":0,"max_players":24,"Bots":0,"server_type":"Dedicated","server_os":"Linux","password":true,"vac":true,"version":"7961495","steam_id":85568392925397958,"keywords":["cp","nocrits","nodmgspread","uncletopia"],"game_id":440,"stv_port":27046,"stv_name":"Uncletopia | Sydney | 4 | All Maps | STV","players":null},{"server_id":58,"name":"Uncletopia | Sydney | 5 | Stopwatch","name_short":"syd-5","host":"syd-1.au.uncletopia.com","port":27055,"enabled":true,"region":"au","cc":"au","latitude":-33.865143,"longitude":151.2099,"reserved":0,"last_update":"0001-01-01T00:00:00Z","name_a2s":"Uncletopia | Sydney | 5 | Stopwatch","protocol":17,"map":"cp_sunshine","folder":"tf","game":"Team Fortress","app_id":440,"player_count":0,"max_players":24,"Bots":0,"server_type":"Dedicated","server_os":"Linux","password":true,"vac":true,"version":"7961495","steam_id":85568392925397959,"keywords":["cp","nocrits","nodmgspread","uncletopia"],"game_id":440,"stv_port":27056,"stv_name":"Uncletopia | Sydney | 5 | Stopwatch | STV","players":null},{"server_id":59,"name":"Uncletopia | Sydney | 6 | Community","name_short":"syd-6","host":"syd-1.au.uncletopia.com","port":27065,"enabled":true,"region":"au","cc":"au","latitude":-33.865143,"longitude":151.2099,"reserved":0,"last_update":"0001-01-01T00:00:00Z","name_a2s":"Uncletopia | Sydney | 6 | Community","protocol":17,"map":"workshop/koth_trenchfoot_b1a.ugc731436616","folder":"tf","game":"Team Fortress","app_id":440,"player_count":0,"max_players":24,"Bots":0,"server_type":"Dedicated","server_os":"Linux","password":true,"vac":true,"version":"7961495","steam_id":85568392925397960,"keywords":["cp","nocrits","nodmgspread","uncletopia"],"game_id":440,"stv_port":27066,"stv_name":"Uncletopia | Sydney | 6 | Community | STV","players":null},{"server_id":49,"name":"Uncletopia | Warsaw | 1 | All Maps","name_short":"waw-1","host":"waw-1.pl.uncletopia.com","port":27015,"enabled":true,"region":"eu","cc":"pl","latitude":52.2297,"longitude":21.017532,"reserved":0,"last_update":"0001-01-01T00:00:00Z","name_a2s":"Uncletopia | Warsaw | 1 | All Maps","protocol":17,"map":"koth_lakeside_final","folder":"tf","game":"Team Fortress","app_id":440,"player_count":0,"max_players":24,"Bots":0,"server_type":"Dedicated","server_os":"Linux","password":true,"vac":true,"version":"7961495","steam_id":85568392925397850,"keywords":["cp","nocrits","nodmgspread","uncletopia"],"game_id":440,"stv_port":27016,"stv_name":"Uncletopia | Warsaw | 1 | All Maps | STV","players":null},{"server_id":50,"name":"Uncletopia | Warsaw | 2 | All Maps","name_short":"waw-2","host":"waw-1.pl.uncletopia.com","port":27025,"enabled":true,"region":"eu","cc":"pl","latitude":52.2297,"longitude":21.017532,"reserved":0,"last_update":"0001-01-01T00:00:00Z","name_a2s":"Uncletopia | Warsaw | 2 | All Maps","protocol":17,"map":"pl_frontier_final","folder":"tf","game":"Team Fortress","app_id":440,"player_count":0,"max_players":24,"Bots":0,"server_type":"Dedicated","server_os":"Linux","password":true,"vac":true,"version":"7961495","steam_id":85568392925397851,"keywords":["nocrits","nodmgspread","payload","uncletopia"],"game_id":440,"stv_port":27026,"stv_name":"Uncletopia | Warsaw | 2 | All Maps | STV","players":null},{"server_id":51,"name":"Uncletopia | Warsaw | 3 | All Maps","name_short":"waw-3","host":"waw-1.pl.uncletopia.com","port":27035,"enabled":true,"region":"eu","cc":"pl","latitude":52.2297,"longitude":21.017532,"reserved":0,"last_update":"0001-01-01T00:00:00Z","name_a2s":"Uncletopia | Warsaw | 3 | All Maps","protocol":17,"map":"koth_lakeside_final","folder":"tf","game":"Team Fortress","app_id":440,"player_count":0,"max_players":24,"Bots":0,"server_type":"Dedicated","server_os":"Linux","password":true,"vac":true,"version":"7961495","steam_id":85568392925397852,"keywords":["cp","nocrits","nodmgspread","uncletopia"],"game_id":440,"stv_port":27036,"stv_name":"Uncletopia | Warsaw | 3 | All Maps | STV","players":null},{"server_id":52,"name":"Uncletopia | Warsaw | 4 | All Maps","name_short":"waw-4","host":"waw-1.pl.uncletopia.com","port":27045,"enabled":true,"region":"eu","cc":"pl","latitude":52.2297,"longitude":21.017532,"reserved":0,"last_update":"0001-01-01T00:00:00Z","name_a2s":"Uncletopia | Warsaw | 4 | All Maps","protocol":17,"map":"plr_hightower","folder":"tf","game":"Team Fortress","app_id":440,"player_count":4,"max_players":24,"Bots":0,"server_type":"Dedicated","server_os":"Linux","password":true,"vac":true,"version":"7961495","steam_id":85568392925397853,"keywords":["nocrits","nodmgspread","payload","uncletopia"],"game_id":440,"stv_port":27046,"stv_name":"Uncletopia | Warsaw | 4 | All Maps | STV","players":[{"user_id":23,"name":"Dry bones from newsupermariobro","steam_id":76561199220801849,"connected_time":641000000000,"state":"active","ping":104},{"user_id":24,"name":"stefanbejenari","steam_id":76561199466718294,"connected_time":431000000000,"state":"active","ping":86},{"user_id":22,"name":"Джекет","steam_id":76561198327897125,"connected_time":1749000000000,"state":"active","ping":106},{"user_id":25,"name":"Flying skyhigh","steam_id":76561198372971096,"connected_time":74000000000,"state":"active","ping":87}]},{"server_id":53,"name":"Uncletopia | Warsaw | 5 | Stopwatch","name_short":"waw-5","host":"waw-1.pl.uncletopia.com","port":27055,"enabled":true,"region":"eu","cc":"pl","latitude":52.2297,"longitude":21.017532,"reserved":0,"last_update":"0001-01-01T00:00:00Z","name_a2s":"Uncletopia | Warsaw | 5 | Stopwatch","protocol":17,"map":"workshop/koth_ramjam_rc1.ugc459778887","folder":"tf","game":"Team Fortress","app_id":440,"player_count":0,"max_players":24,"Bots":0,"server_type":"Dedicated","server_os":"Linux","password":true,"vac":true,"version":"7961495","steam_id":85568392925397854,"keywords":["cp","nocrits","nodmgspread","uncletopia"],"game_id":440,"stv_port":27056,"stv_name":"Uncletopia | Warsaw | 5 | Stopwatch | STV","players":null},{"server_id":54,"name":"Uncletopia | Warsaw | 6 | Community","name_short":"waw-6","host":"waw-1.pl.uncletopia.com","port":27065,"enabled":true,"region":"eu","cc":"pl","latitude":52.2297,"longitude":21.017532,"reserved":0,"last_update":"0001-01-01T00:00:00Z","name_a2s":"Uncletopia | Warsaw | 6 | Community","protocol":17,"map":"workshop/koth_kemptown_rc1.ugc767410655","folder":"tf","game":"Team Fortress","app_id":440,"player_count":0,"max_players":24,"Bots":0,"server_type":"Dedicated","server_os":"Linux","password":true,"vac":true,"version":"7961495","steam_id":85568392925397856,"keywords":["cp","nocrits","nodmgspread","uncletopia"],"game_id":440,"stv_port":27066,"stv_name":"Uncletopia | Warsaw | 6 | Community | STV","players":null}]}